$GPGGA,000929.000,3353.7432,N,09832.0261,W,1,09,0.9,309.8,M,-23.7,M,,0000*64
$GPGSA,A,3,06,07,03,23,19,13,16,20,30,,,,1.8,0.9,1.5*39
$GPRMC,000929.000,A,3353.7432,N,09832.0261,W,0.13,341.24,310312,,,A*7F
$GPGGA,000930.000,3353.7432,N,09832.0260,W,1,09,0.9,309.8,M,-23.7,M,,0000*6D
$GPGSA,A,3,06,07,03,23,19,13,16,20,30,,,,1.8,0.9,1.5*39
$GPRMC,000930.000,A,3353.7432,N,09832.0260,W,0.35,62.48,310312,,,A*4A
$GPGGA,000931.000,3353.7431,N,09832.0260,W,1,09,0.9,309.8,M,-23.7,M,,0000*6F
$GPGSA,A,3,06,07,03,23,19,13,16,20,30,,,,1.8,0.9,1.5*39
$GPGSV,3,1,12,23,82,157,29,13,62,321,25,03,48,103,37,16,42,040,31*74
$GPGSV,3,2,12,06,40,083,24,07,34,299,23,19,30,147,34,10,21,297,*77
$GPGSV,3,3,12,20,16,201,19,30,16,047,29,32,06,179,33,08,05,278,*70
$GPRMC,000931.000,A,3353.7431,N,09832.0260,W,0.12,139.84,310312,,,A*72
$GPGGA,000932.000,3353.7431,N,09832.0261,W,1,09,0.9,309.9,M,-23.7,M,,0000*6C
$GPGSA,A,3,06,07,03,23,19,13,16,20,30,,,,1.8,0.9,1.5*39
$GPRMC,000932.000,A,3353.7431,N,09832.0261,W,0.04,137.48,310312,,,A*79
$GPGGA,000933.000,3353.7430,N,09832.0261,W,1,09,0.9,310.0,M,-23.7,M,,0000*6D
$GPGSA,A,3,06,07,03,23,19,13,16,20,30,,,,1.8,0.9,1.5*39
$GPRMC,000933.000,A,3353.7430,N,09832.0261,W,0.14,225.62,310312,,,A*70
$GPGGA,000934.000,3353.7430,N,09832.0260,W,1,09,0.9,310.2,M,-23.7,M,,0000*69
$GPGSA,A,3,06,07,03,23,19,13,16,20,30,,,,1.8,0.9,1.5*39
$GPRMC,000934.000,A,3353.7430,N,09832.0260,W,0.23,115.45,310312,,,A*77
$GPGGA,000935.000,3353.7429,N,09832.0258,W,1,09,0.9,310.4,M,-23.7,M,,0000*6D
$GPGSA,A,3,06,07,03,23,19,13,16,20,30,,,,1.8,0.9,1.5*39
$GPRMC,000935.000,A,3353.7429,N,09832.0258,W,0.32,121.66,310312,,,A*73
$GPGGA,000936.000,3353.7429,N,09832.0258,W,1,09,0.9,310.6,M,-23.7,M,,0000*6C
$GPGSA,A,3,06,07,03,23,19,13,16,20,30,,,,1.8,0.9,1.5*39
$GPGSV,3,1,12,23,82,157,29,13,62,321,24,03,48,103,37,16,42,040,32*76
$GPGSV,3,2,12,06,40,083,23,07,34,299,24,19,30,147,34,10,21,297,*77
$GPGSV,3,3,12,20,16,201,20,30,16,047,29,32,06,179,33,08,05,278,*7A
$GPRMC,000936.000,A,3353.7429,N,09832.0258,W,0.03,342.50,310312,,,A*70
$GPGGA,000937.000,3353.7429,N,09832.0258,W,1,09,0.9,310.7,M,-23.7,M,,0000*6C
$GPGSA,A,3,06,07,03,23,19,13,16,20,30,,,,1.8,0.9,1.5*39
$GPRMC,000937.000,A,3353.7429,N,09832.0258,W,0.10,275.53,310312,,,A*75
$GPGGA,000938.000,3353.7428,N,09832.0257,W,1,09,0.9,310.7,M,-23.7,M,,0000*6D
$GPGSA,A,3,06,07,03,23,19,13,16,20,30,,,,1.8,0.9,1.5*39
$GPRMC,000938.000,A,3353.7428,N,09832.0257,W,0.23,138.07,310312,,,A*7F
$GPGGA,000939.000,3353.7427,N,09832.0255,W,1,09,0.9,310.8,M,-23.7,M,,0000*6E
$GPGSA,A,3,06,07,03,23,19,13,16,20,30,,,,1.8,0.9,1.5*39
$GPRMC,000939.000,A,3353.7427,N,09832.0255,W,0.23,147.61,310312,,,A*7B
$GPGGA,000940.000,3353.7427,N,09832.0254,W,1,09,0.9,310.8,M,-23.7,M,,0000*61
$GPGSA,A,3,06,07,03,23,19,13,16,20,30,,,,1.8,0.9,1.5*39
$GPRMC,000940.000,A,3353.7427,N,09832.0254,W,0.09,111.77,310312,,,A*78
$GPGGA,000941.000,3353.7426,N,09832.0253,W,1,09,0.9,310.8,M,-23.7,M,,0000*66
$GPGSA,A,3,06,07,03,23,19,13,16,20,30,,,,1.8,0.9,1.5*39
$GPGSV,3,1,12,23,82,157,29,13,62,321,26,03,48,103,37,16,42,040,32*74
$GPGSV,3,2,12,06,40,083,22,07,34,299,24,19,30,147,33,10,21,297,*71
$GPGSV,3,3,12,20,16,201,21,30,16,047,29,32,06,179,33,08,05,278,*7B
$GPRMC,000941.000,A,3353.7426,N,09832.0253,W,0.16,112.95,310312,,,A*7E
$GPGGA,000942.000,3353.7426,N,09832.0252,W,1,09,0.9,310.8,M,-23.7,M,,0000*64
$GPGSA,A,3,06,07,03,23,19,13,16,20,30,,,,1.8,0.9,1.5*39
$GPRMC,000942.000,A,3353.7426,N,09832.0252,W,0.28,62.35,310312,,,A*4D
$GPGGA,000943.000,3353.7426,N,09832.0251,W,1,09,0.9,310.9,M,-23.7,M,,0000*67
$GPGSA,A,3,06,07,03,23,19,13,16,20,30,,,,1.8,0.9,1.5*39
$GPRMC,000943.000,A,3353.7426,N,09832.0251,W,0.17,7.01,310312,,,A*77
$GPGGA,000944.000,3353.7426,N,09832.0250,W,1,09,0.9,310.9,M,-23.7,M,,0000*61
$GPGSA,A,3,06,07,03,23,19,13,16,20,30,,,,1.8,0.9,1.5*39
$GPRMC,000944.000,A,3353.7426,N,09832.0250,W,0.01,12.31,310312,,,A*41
$GPGGA,000945.000,3353.7426,N,09832.0249,W,1,09,0.9,310.9,M,-23.7,M,,0000*68
$GPGSA,A,3,06,07,03,23,19,13,16,20,30,,,,1.8,0.9,1.5*39
$GPRMC,000945.000,A,3353.7426,N,09832.0249,W,0.09,159.16,310312,,,A*7B
$GPGGA,000946.000,3353.7426,N,09832.0248,W,1,09,0.9,310.9,M,-23.7,M,,0000*6A
$GPGSA,A,3,06,07,03,23,19,13,16,20,30,,,,1.8,0.9,1.5*39
$GPGSV,3,1,12,23,82,157,29,13,62,321,26,03,48,103,37,16,42,040,33*75
$GPGSV,3,2,12,06,40,083,22,07,34,299,23,19,30,147,28,10,21,297,*7C
$GPGSV,3,3,12,20,16,201,22,30,16,047,29,32,06,179,33,08,05,278,*78
$GPRMC,000946.000,A,3353.7426,N,09832.0248,W,0.15,76.20,310312,,,A*4D
$GPGGA,000947.000,3353.7425,N,09832.0247,W,1,09,0.9,310.7,M,-23.7,M,,0000*69
$GPGSA,A,3,06,07,03,23,19,13,16,20,30,,,,1.8,0.9,1.5*39
$GPRMC,000947.000,A,3353.7425,N,09832.0247,W,0.24,150.05,310312,,,A*70
$GPGGA,000948.000,3353.7423,N,09832.0246,W,1,09,0.9,310.5,M,-23.7,M,,0000*63
$GPGSA,A,3,06,07,03,23,19,13,16,20,30,,,,1.8,0.9,1.5*39
$GPRMC,000948.000,A,3353.7423,N,09832.0246,W,0.39,147.83,310312,,,A*7C
$GPGGA,000949.000,3353.7422,N,09832.0245,W,1,09,0.9,310.2,M,-23.7,M,,0000*67
$GPGSA,A,3,06,07,03,23,19,13,16,20,30,,,,1.8,0.9,1.5*39
$GPRMC,000949.000,A,3353.7422,N,09832.0245,W,0.31,129.45,310312,,,A*75
$GPGGA,000950.000,3353.7420,N,09832.0244,W,1,09,0.9,309.8,M,-23.7,M,,0000*6E
$GPGSA,A,3,06,07,03,23,19,13,16,20,30,,,,1.8,0.9,1.5*39
$GPRMC,000950.000,A,3353.7420,N,09832.0244,W,0.29,149.06,310312,,,A*76
$GPGGA,000951.000,3353.7419,N,09832.0243,W,1,09,0.9,309.3,M,-23.7,M,,0000*69
$GPGSA,A,3,06,07,03,23,19,13,16,20,30,,,,1.8,0.9,1.5*39
$GPGSV,3,1,12,23,82,157,29,13,62,321,27,03,48,103,38,16,42,040,33*7B
$GPGSV,3,2,12,06,40,083,22,07,34,299,16,19,30,147,27,10,21,297,*75
$GPGSV,3,3,12,20,16,201,22,30,16,047,28,32,06,179,33,08,05,278,*79
$GPRMC,000951.000,A,3353.7419,N,09832.0243,W,0.41,109.74,310312,,,A*75
$GPGGA,000952.000,3353.7417,N,09832.0241,W,1,09,0.9,308.8,M,-23.7,M,,0000*6C
$GPGSA,A,3,06,07,03,23,19,13,16,20,30,,,,1.8,0.9,1.5*39
$GPRMC,000952.000,A,3353.7417,N,09832.0241,W,0.42,111.39,310312,,,A*79
$GPGGA,000953.000,3353.7416,N,09832.0240,W,1,09,0.9,308.3,M,-23.7,M,,0000*66
$GPGSA,A,3,06,07,03,23,19,13,16,20,30,,,,1.8,0.9,1.5*39
$GPRMC,000953.000,A,3353.7416,N,09832.0240,W,0.26,110.04,310312,,,A*75
$GPGGA,000954.000,3353.7415,N,09832.0239,W,1,09,0.9,307.8,M,-23.7,M,,0000*68
$GPGSA,A,3,06,07,03,23,19,13,16,20,30,,,,1.8,0.9,1.5*39
$GPRMC,000954.000,A,3353.7415,N,09832.0239,W,0.43,97.87,310312,,,A*49
$GPGGA,000955.000,3353.7414,N,09832.0238,W,1,09,0.9,307.3,M,-23.7,M,,0000*62
$GPGSA,A,3,06,07,03,23,19,13,16,20,30,,,,1.8,0.9,1.5*39
$GPRMC,000955.000,A,3353.7414,N,09832.0238,W,0.52,100.46,310312,,,A*7A
$GPGGA,000956.000,3353.7412,N,09832.0236,W,1,09,0.9,306.8,M,-23.7,M,,0000*63
$GPGSA,A,3,06,07,03,23,19,13,16,20,30,,,,1.8,0.9,1.5*39
$GPGSV,3,1,12,23,82,157,28,13,62,321,27,03,48,103,38,16,42,040,33*7A
$GPGSV,3,2,12,06,40,083,23,07,34,299,13,19,30,147,27,10,21,297,*71
$GPGSV,3,3,12,20,16,201,22,30,16,047,27,32,06,179,33,08,05,278,*76
$GPRMC,000956.000,A,3353.7412,N,09832.0236,W,0.53,104.98,310312,,,A*77
$GPGGA,000957.000,3353.7411,N,09832.0235,W,1,09,0.9,306.3,M,-23.7,M,,0000*69
$GPGSA,A,3,06,07,03,23,19,13,16,20,30,,,,1.8,0.9,1.5*39
$GPRMC,000957.000,A,3353.7411,N,09832.0235,W,0.57,88.41,310312,,,A*43
$GPGGA,000958.000,3353.7410,N,09832.0234,W,1,09,0.9,305.7,M,-23.7,M,,0000*61
$GPGSA,A,3,06,07,03,23,19,13,16,20,30,,,,1.8,0.9,1.5*39
$GPRMC,000958.000,A,3353.7410,N,09832.0234,W,0.58,101.71,310312,,,A*70
$GPGGA,000959.000,3353.7409,N,09832.0234,W,1,09,0.9,305.1,M,-23.7,M,,0000*6E
$GPGSA,A,3,06,07,03,23,19,13,16,20,30,,,,1.8,0.9,1.5*39
$GPRMC,000959.000,A,3353.7409,N,09832.0234,W,0.04,282.60,310312,,,A*78
$GPGGA,001000.000,3353.7408,N,09832.0237,W,1,09,0.9,304.5,M,-23.7,M,,0000*6D
$GPGSA,A,3,06,07,03,23,19,13,16,20,30,,,,1.8,0.9,1.5*39
$GPRMC,001000.000,A,3353.7408,N,09832.0237,W,0.55,258.12,310312,,,A*78
$GPGGA,001001.000,3353.7407,N,09832.0240,W,1,07,2.1,303.9,M,-23.7,M,,0000*6C
$GPGSA,A,3,06,07,03,23,13,16,30,,,,,,3.5,2.1,2.8*38
$GPGSV,3,1,12,23,82,157,27,13,62,321,28,03,48,103,38,16,42,040,33*7A
$GPGSV,3,2,12,06,40,083,23,07,34,299,18,19,30,147,,10,21,297,*7F
$GPGSV,3,3,12,20,16,201,11,30,16,047,27,32,06,179,33,08,05,278,*76
$GPRMC,001001.000,A,3353.7407,N,09832.0240,W,0.68,261.16,310312,,,A*76
$GPGGA,001002.000,3353.7407,N,09832.0243,W,1,08,1.2,303.3,M,-23.7,M,,0000*69
$GPGSA,A,3,06,07,03,23,19,13,16,30,,,,,2.2,1.2,1.9*34
$GPRMC,001002.000,A,3353.7407,N,09832.0243,W,0.59,289.24,310312,,,A*73
$GPGGA,001003.000,3353.7408,N,09832.0246,W,1,08,1.2,302.8,M,-23.7,M,,0000*68
$GPGSA,A,3,06,07,03,23,19,13,16,30,,,,,2.2,1.2,1.9*34
$GPRMC,001003.000,A,3353.7408,N,09832.0246,W,0.62,282.46,310312,,,A*7F
$GPGGA,001004.000,3353.7408,N,09832.0249,W,1,08,1.2,302.3,M,-23.7,M,,0000*6B
$GPGSA,A,3,06,07,03,23,19,13,16,30,,,,,2.2,1.2,1.9*34
$GPRMC,001004.000,A,3353.7408,N,09832.0249,W,0.69,281.18,310312,,,A*74
$GPGGA,001005.000,3353.7409,N,09832.0251,W,1,08,1.2,301.9,M,-23.7,M,,0000*6B
$GPGSA,A,3,06,07,03,23,19,13,16,30,,,,,2.2,1.2,1.9*34
$GPRMC,001005.000,A,3353.7409,N,09832.0251,W,0.53,289.46,310312,,,A*77
$GPGGA,001006.000,3353.7410,N,09832.0254,W,1,08,1.2,301.5,M,-23.7,M,,0000*69
$GPGSA,A,3,06,07,03,23,19,13,16,30,,,,,2.2,1.2,1.9*34
$GPGSV,3,1,12,23,82,157,27,13,62,321,29,03,48,103,38,16,42,040,32*7A
$GPGSV,3,2,12,06,40,083,23,07,34,299,16,19,30,147,33,10,21,297,*71
$GPGSV,3,3,12,20,16,201,,30,16,047,26,32,06,179,33,08,05,278,*77
$GPRMC,001006.000,A,3353.7410,N,09832.0254,W,0.48,290.71,310312,,,A*7F
$GPGGA,001007.000,3353.7411,N,09832.0256,W,1,08,1.2,301.3,M,-23.7,M,,0000*6D
$GPGSA,A,3,06,07,03,23,19,13,16,30,,,,,2.2,1.2,1.9*34
$GPRMC,001007.000,A,3353.7411,N,09832.0256,W,0.46,296.48,310312,,,A*7F
$GPGGA,001008.000,3353.7412,N,09832.0257,W,1,08,1.2,301.2,M,-23.7,M,,0000*61
$GPGSA,A,3,06,07,03,23,19,13,16,30,,,,,2.2,1.2,1.9*34
$GPRMC,001008.000,A,3353.7412,N,09832.0257,W,0.16,351.78,310312,,,A*7E
$GPGGA,001009.000,3353.7413,N,09832.0257,W,1,08,1.2,301.2,M,-23.7,M,,0000*61
$GPGSA,A,3,06,07,03,23,19,13,16,30,,,,,2.2,1.2,1.9*34
$GPRMC,001009.000,A,3353.7413,N,09832.0257,W,0.10,66.36,310312,,,A*45
$GPGGA,001010.000,3353.7414,N,09832.0257,W,1,08,1.2,301.1,M,-23.7,M,,0000*6D
$GPGSA,A,3,06,07,03,23,19,13,16,30,,,,,2.2,1.2,1.9*34
$GPRMC,001010.000,A,3353.7414,N,09832.0257,W,0.19,81.03,310312,,,A*4C
$GPGGA,001011.000,3353.7416,N,09832.0256,W,1,08,1.2,301.2,M,-23.7,M,,0000*6C
$GPGSA,A,3,06,07,03,23,19,13,16,30,,,,,2.2,1.2,1.9*34
$GPGSV,3,1,12,23,82,157,26,13,62,321,29,03,48,103,38,16,42,040,32*7B
$GPGSV,3,2,12,06,40,083,24,07,34,299,14,19,30,147,33,10,21,297,*74
$GPGSV,3,3,12,20,16,201,,30,16,047,25,32,06,179,34,08,05,278,*73
$GPRMC,001011.000,A,3353.7416,N,09832.0256,W,0.40,75.84,310312,,,A*46
$GPGGA,001012.000,3353.7417,N,09832.0255,W,1,08,1.2,301.4,M,-23.7,M,,0000*6B
$GPGSA,A,3,06,07,03,23,19,13,16,30,,,,,2.2,1.2,1.9*34
$GPRMC,001012.000,A,3353.7417,N,09832.0255,W,0.51,84.81,310312,,,A*4C
$GPGGA,001013.000,3353.7418,N,09832.0253,W,1,08,1.2,301.5,M,-23.7,M,,0000*62
$GPGSA,A,3,06,07,03,23,19,13,16,30,,,,,2.2,1.2,1.9*34
$GPRMC,001013.000,A,3353.7418,N,09832.0253,W,0.60,81.19,310312,,,A*42
$GPGGA,001014.000,3353.7419,N,09832.0252,W,1,08,1.2,301.7,M,-23.7,M,,0000*67
$GPGSA,A,3,06,07,03,23,19,13,16,30,,,,,2.2,1.2,1.9*34
$GPRMC,001014.000,A,3353.7419,N,09832.0252,W,0.52,87.06,310312,,,A*4C
$GPGGA,001015.000,3353.7420,N,09832.0251,W,1,08,1.2,301.9,M,-23.7,M,,0000*61
$GPGSA,A,3,06,07,03,23,19,13,16,30,,,,,2.2,1.2,1.9*34
$GPRMC,001015.000,A,3353.7420,N,09832.0251,W,0.51,87.78,310312,,,A*4E
$GPGGA,001016.000,3353.7420,N,09832.0250,W,1,08,1.2,302.1,M,-23.7,M,,0000*68
$GPGSA,A,3,06,07,03,23,19,13,16,30,,,,,2.2,1.2,1.9*34
$GPGSV,3,1,12,23,82,157,26,13,62,321,30,03,48,103,37,16,42,040,32*7C
$GPGSV,3,2,12,06,40,083,24,07,34,299,14,19,30,147,32,10,21,297,*75
$GPGSV,3,3,12,20,16,201,,30,16,047,26,32,06,179,34,08,05,278,*70
$GPRMC,001016.000,A,3353.7420,N,09832.0250,W,0.47,88.55,310312,,,A*4B
$GPGGA,001017.000,3353.7421,N,09832.0248,W,1,08,1.2,302.3,M,-23.7,M,,0000*63
$GPGSA,A,3,06,07,03,23,19,13,16,30,,,,,2.2,1.2,1.9*34
$GPRMC,001017.000,A,3353.7421,N,09832.0248,W,0.57,85.68,310312,,,A*40
$GPGGA,001018.000,3353.7422,N,09832.0247,W,1,08,1.2,302.5,M,-23.7,M,,0000*66
$GPGSA,A,3,06,07,03,23,19,13,16,30,,,,,2.2,1.2,1.9*34
$GPRMC,001018.000,A,3353.7422,N,09832.0247,W,0.54,86.99,310312,,,A*4D
$GPGGA,001019.000,3353.7422,N,09832.0246,W,1,08,1.2,302.7,M,-23.7,M,,0000*64
$GPGSA,A,3,06,07,03,23,19,13,16,30,,,,,2.2,1.2,1.9*34
$GPRMC,001019.000,A,3353.7422,N,09832.0246,W,0.53,86.63,310312,,,A*4F
$GPGGA,001020.000,3353.7423,N,09832.0245,W,1,08,1.2,302.8,M,-23.7,M,,0000*63
$GPGSA,A,3,06,07,03,23,19,13,16,30,,,,,2.2,1.2,1.9*34
$GPRMC,001020.000,A,3353.7423,N,09832.0245,W,0.58,88.08,310312,,,A*4F
$GPGGA,001021.000,3353.7423,N,09832.0244,W,1,08,1.2,303.0,M,-23.7,M,,0000*6A
$GPGSA,A,3,06,07,03,23,19,13,16,30,,,,,2.2,1.2,1.9*34
$GPGSV,3,1,12,23,82,157,27,13,62,321,29,03,48,103,37,16,42,040,32*75
$GPGSV,3,2,12,06,40,083,25,07,34,299,14,19,30,147,30,10,21,297,17*70
$GPGSV,3,3,12,20,16,201,,30,16,047,26,32,06,179,34,08,05,278,*70
$GPRMC,001021.000,A,3353.7423,N,09832.0244,W,0.58,88.14,310312,,,A*42
$GPGGA,001022.000,3353.7424,N,09832.0243,W,1,08,1.2,303.2,M,-23.7,M,,0000*6B
$GPGSA,A,3,06,07,03,23,19,13,16,30,,,,,2.2,1.2,1.9*34
$GPRMC,001022.000,A,3353.7424,N,09832.0243,W,0.56,87.37,310312,,,A*41
$GPGGA,001023.000,3353.7424,N,09832.0242,W,1,08,1.2,303.3,M,-23.7,M,,0000*6A
$GPGSA,A,3,06,07,03,23,19,13,16,30,,,,,2.2,1.2,1.9*34
$GPRMC,001023.000,A,3353.7424,N,09832.0242,W,0.55,86.81,310312,,,A*4E
$GPGGA,001024.000,3353.7424,N,09832.0241,W,1,08,1.2,303.4,M,-23.7,M,,0000*69
$GPGSA,A,3,06,07,03,23,19,13,16,30,,,,,2.2,1.2,1.9*34
$GPRMC,001024.000,A,3353.7424,N,09832.0241,W,0.46,88.10,310312,,,A*4E
$GPGGA,001025.000,3353.7425,N,09832.0241,W,1,08,1.2,303.6,M,-23.7,M,,0000*6B
$GPGSA,A,3,06,07,03,23,19,13,16,30,,,,,2.2,1.2,1.9*34
$GPRMC,001025.000,A,3353.7425,N,09832.0241,W,0.38,86.84,310312,,,A*44
$GPGGA,001026.000,3353.7425,N,09832.0242,W,1,08,1.2,303.8,M,-23.7,M,,0000*65
$GPGSA,A,3,06,07,03,23,19,13,16,30,,,,,2.2,1.2,1.9*34
$GPGSV,3,1,12,23,82,157,32,13,62,321,30,03,48,103,37,16,42,040,32*79
$GPGSV,3,2,12,06,40,083,25,07,34,299,16,19,30,147,30,10,21,297,16*73
$GPGSV,3,3,12,20,16,201,,30,16,047,27,32,06,179,34,08,05,278,*71
$GPRMC,001026.000,A,3353.7425,N,09832.0242,W,0.16,44.46,310312,,,A*48
$GPGGA,001027.000,3353.7425,N,09832.0243,W,1,08,1.2,304.0,M,-23.7,M,,0000*6A
$GPGSA,A,3,06,07,03,23,19,13,16,30,,,,,2.2,1.2,1.9*34
$GPRMC,001027.000,A,3353.7425,N,09832.0243,W,0.08,333.69,310312,,,A*79
$GPGGA,001028.000,3353.7425,N,09832.0244,W,1,08,1.2,304.2,M,-23.7,M,,0000*60
$GPGSA,A,3,06,07,03,23,19,13,16,30,,,,,2.2,1.2,1.9*34
$GPRMC,001028.000,A,3353.7425,N,09832.0244,W,0.18,304.60,310312,,,A*7D
$GPGGA,001029.000,3353.7425,N,09832.0246,W,1,08,1.2,304.4,M,-23.7,M,,0000*65
$GPGSA,A,3,06,07,03,23,19,13,16,30,,,,,2.2,1.2,1.9*34
$GPRMC,001029.000,A,3353.7425,N,09832.0246,W,0.19,298.95,310312,,,A*71
$GPGGA,001030.000,3353.7425,N,09832.0247,W,1,08,1.2,304.5,M,-23.7,M,,0000*6D
$GPGSA,A,3,06,07,03,23,19,13,16,30,,,,,2.2,1.2,1.9*34
$GPRMC,001030.000,A,3353.7425,N,09832.0247,W,0.05,350.33,310312,,,A*7C
$GPGGA,001031.000,3353.7424,N,09832.0248,W,1,08,1.2,304.7,M,-23.7,M,,0000*60
$GPGSA,A,3,06,07,03,23,19,13,16,30,,,,,2.2,1.2,1.9*34
$GPGSV,3,1,12,23,82,157,32,13,62,321,30,03,48,103,37,16,42,040,31*7A
$GPGSV,3,2,12,06,40,083,25,07,34,299,18,19,30,147,30,10,21,297,16*7D
$GPGSV,3,3,12,20,16,201,,30,16,047,27,32,06,179,34,08,05,278,*71
$GPRMC,001031.000,A,3353.7424,N,09832.0248,W,0.29,88.43,310312,,,A*4C
$GPGGA,001032.000,3353.7424,N,09832.0248,W,1,08,1.2,304.8,M,-23.7,M,,0000*6C
$GPGSA,A,3,06,07,03,23,19,13,16,30,,,,,2.2,1.2,1.9*34
$GPRMC,001032.000,A,3353.7424,N,09832.0248,W,0.38,90.28,310312,,,A*4B
$GPGGA,001033.000,3353.7424,N,09832.0248,W,1,08,1.2,305.0,M,-23.7,M,,0000*64
$GPGSA,A,3,06,07,03,23,19,13,16,30,,,,,2.2,1.2,1.9*34
$GPRMC,001033.000,A,3353.7424,N,09832.0248,W,0.15,78.43,310312,,,A*4E
$GPGGA,001034.000,3353.7423,N,09832.0249,W,1,08,1.2,305.2,M,-23.7,M,,0000*67
$GPGSA,A,3,06,07,03,23,19,13,16,30,,,,,2.2,1.2,1.9*34
$GPRMC,001034.000,A,3353.7423,N,09832.0249,W,0.26,86.61,310312,,,A*4E
$GPGGA,001035.000,3353.7423,N,09832.0250,W,1,08,1.2,305.3,M,-23.7,M,,0000*6F
$GPGSA,A,3,06,07,03,23,19,13,16,30,,,,,2.2,1.2,1.9*34
$GPRMC,001035.000,A,3353.7423,N,09832.0250,W,0.09,8.25,310312,,,A*7C
$GPGGA,001036.000,3353.7423,N,09832.0251,W,1,08,1.2,305.4,M,-23.7,M,,0000*6A
$GPGSA,A,3,06,07,03,23,19,13,16,30,,,,,2.2,1.2,1.9*34
$GPGSV,3,1,12,23,82,157,32,13,62,321,30,03,48,103,37,16,42,040,31*7A
$GPGSV,3,2,12,06,40,083,25,07,34,299,25,19,30,147,30,10,21,297,15*70
$GPGSV,3,3,12,20,16,201,,30,16,047,28,32,06,179,34,08,05,278,*7E
$GPRMC,001036.000,A,3353.7423,N,09832.0251,W,0.13,58.68,310312,,,A*49
$GPGGA,001037.000,3353.7423,N,09832.0252,W,1,08,1.2,305.5,M,-23.7,M,,0000*69
$GPGSA,A,3,06,07,03,23,19,13,16,30,,,,,2.2,1.2,1.9*34
$GPRMC,001037.000,A,3353.7423,N,09832.0252,W,0.11,57.50,310312,,,A*4D
$GPGGA,001038.000,3353.7422,N,09832.0252,W,1,08,1.2,305.5,M,-23.7,M,,0000*67
$GPGSA,A,3,06,07,03,23,19,13,16,30,,,,,2.2,1.2,1.9*34
$GPRMC,001038.000,A,3353.7422,N,09832.0252,W,0.12,60.49,310312,,,A*4C
$GPGGA,001039.000,3353.7422,N,09832.0253,W,1,08,1.2,305.6,M,-23.7,M,,0000*64
$GPGSA,A,3,06,07,03,23,19,13,16,30,,,,,2.2,1.2,1.9*34
$GPRMC,001039.000,A,3353.7422,N,09832.0253,W,0.12,61.69,310312,,,A*4F
$GPGGA,001040.000,3353.7422,N,09832.0254,W,1,08,1.2,305.7,M,-23.7,M,,0000*6C
$GPGSA,A,3,06,07,03,23,19,13,16,30,,,,,2.2,1.2,1.9*34
$GPRMC,001040.000,A,3353.7422,N,09832.0254,W,0.25,78.12,310312,,,A*46
$GPGGA,001041.000,3353.7422,N,09832.0254,W,1,08,1.2,305.7,M,-23.7,M,,0000*6D
$GPGSA,A,3,06,07,03,23,19,13,16,30,,,,,2.2,1.2,1.9*34
$GPGSV,3,1,12,23,82,157,32,13,62,321,30,03,48,103,38,16,42,040,30*74
$GPGSV,3,2,12,06,40,083,24,07,34,299,24,19,30,147,30,10,21,297,13*76
$GPGSV,3,3,12,20,16,201,,30,16,047,28,32,06,179,34,08,05,278,*7E
$GPRMC,001041.000,A,3353.7422,N,09832.0254,W,0.27,77.64,310312,,,A*4B
$GPGGA,001042.000,3353.7422,N,09832.0255,W,1,08,1.2,305.8,M,-23.7,M,,0000*60
$GPGSA,A,3,06,07,03,23,19,13,16,30,,,,,2.2,1.2,1.9*34
$GPRMC,001042.000,A,3353.7422,N,09832.0255,W,0.09,356.79,310312,,,A*79
$GPGGA,001043.000,3353.7421,N,09832.0256,W,1,08,1.2,305.8,M,-23.7,M,,0000*61
$GPGSA,A,3,06,07,03,23,19,13,16,30,,,,,2.2,1.2,1.9*34
$GPRMC,001043.000,A,3353.7421,N,09832.0256,W,0.07,56.86,310312,,,A*45
$GPGGA,001044.000,3353.7421,N,09832.0257,W,1,08,1.2,305.9,M,-23.7,M,,0000*66
$GPGSA,A,3,06,07,03,23,19,13,16,30,,,,,2.2,1.2,1.9*34
$GPRMC,001044.000,A,3353.7421,N,09832.0257,W,0.16,61.86,310312,,,A*47
$GPGGA,001045.000,3353.7421,N,09832.0257,W,1,08,1.2,305.9,M,-23.7,M,,0000*67
$GPGSA,A,3,06,07,03,23,19,13,16,30,,,,,2.2,1.2,1.9*34
$GPRMC,001045.000,A,3353.7421,N,09832.0257,W,0.20,70.07,310312,,,A*4A
$GPGGA,001046.000,3353.7421,N,09832.0258,W,1,08,1.2,305.9,M,-23.7,M,,0000*6B
$GPGSA,A,3,06,07,03,23,19,13,16,30,,,,,2.2,1.2,1.9*34
$GPGSV,3,1,12,23,82,157,33,13,62,321,31,03,48,103,37,16,42,040,30*7B
$GPGSV,3,2,12,06,40,083,14,07,34,299,24,19,30,147,30,10,21,297,*77
$GPGSV,3,3,12,20,16,201,,30,16,047,28,32,06,179,34,08,05,278,*7E
$GPRMC,001046.000,A,3353.7421,N,09832.0258,W,0.20,63.84,310312,,,A*4F
$GPGGA,001047.000,3353.7421,N,09832.0258,W,1,08,1.2,305.9,M,-23.7,M,,0000*6A
$GPGSA,A,3,06,07,03,23,19,13,16,30,,,,,2.2,1.2,1.9*34
$GPRMC,001047.000,A,3353.7421,N,09832.0258,W,0.19,67.47,310312,,,A*4F
$GPGGA,001048.000,3353.7421,N,09832.0259,W,1,08,1.2,305.9,M,-23.7,M,,0000*64
$GPGSA,A,3,06,07,03,23,19,13,16,30,,,,,2.2,1.2,1.9*34
$GPRMC,001048.000,A,3353.7421,N,09832.0259,W,0.17,62.87,310312,,,A*46
$GPGGA,001049.000,3353.7421,N,09832.0259,W,1,08,1.2,305.8,M,-23.7,M,,0000*64
$GPGSA,A,3,06,07,03,23,19,13,16,30,,,,,2.2,1.2,1.9*34
$GPRMC,001049.000,A,3353.7421,N,09832.0259,W,0.17,63.61,310312,,,A*4E
$GPGGA,001050.000,3353.7421,N,09832.0260,W,1,08,1.2,305.8,M,-23.7,M,,0000*66
$GPGSA,A,3,06,07,03,23,19,13,16,30,,,,,2.2,1.2,1.9*34
$GPRMC,001050.000,A,3353.7421,N,09832.0260,W,0.17,66.75,310312,,,A*4C
$GPGGA,001051.000,3353.7421,N,09832.0260,W,1,08,1.2,305.8,M,-23.7,M,,0000*67
$GPGSA,A,3,06,07,03,23,19,13,16,30,,,,,2.2,1.2,1.9*34
$GPGSV,3,1,12,23,82,157,33,13,62,321,31,03,48,103,37,16,42,040,29*73
$GPGSV,3,2,12,06,40,083,14,07,34,299,25,19,30,147,30,10,21,297,*76
$GPGSV,3,3,12,20,16,201,,30,16,047,29,32,06,179,34,08,05,278,*7F
$GPRMC,001051.000,A,3353.7421,N,09832.0260,W,0.19,62.41,310312,,,A*40
$GPGGA,001052.000,3353.7421,N,09832.0260,W,1,08,1.2,305.7,M,-23.7,M,,0000*6B
$GPGSA,A,3,06,07,03,23,19,13,16,30,,,,,2.2,1.2,1.9*34
$GPRMC,001052.000,A,3353.7421,N,09832.0260,W,0.21,70.87,310312,,,A*41
$GPGGA,001053.000,3353.7421,N,09832.0261,W,1,08,1.2,305.8,M,-23.7,M,,0000*64
$GPGSA,A,3,06,07,03,23,19,13,16,30,,,,,2.2,1.2,1.9*34
$GPRMC,001053.000,A,3353.7421,N,09832.0261,W,0.17,76.69,310312,,,A*42
$GPGGA,001054.000,3353.7421,N,09832.0261,W,1,08,1.2,305.8,M,-23.7,M,,0000*63
$GPGSA,A,3,06,07,03,23,19,13,16,30,,,,,2.2,1.2,1.9*34
$GPRMC,001054.000,A,3353.7421,N,09832.0261,W,0.21,70.22,310312,,,A*49
$GPGGA,001055.000,3353.7421,N,09832.0262,W,1,08,1.2,305.9,M,-23.7,M,,0000*60
$GPGSA,A,3,06,07,03,23,19,13,16,30,,,,,2.2,1.2,1.9*34
$GPRMC,001055.000,A,3353.7421,N,09832.0262,W,0.18,70.95,310312,,,A*4D
$GPGGA,001056.000,3353.7420,N,09832.0263,W,1,08,1.2,306.1,M,-23.7,M,,0000*68
$GPGSA,A,3,06,07,03,23,19,13,16,30,,,,,2.2,1.2,1.9*34
$GPGSV,3,1,12,23,82,157,33,13,62,321,31,03,48,103,37,16,42,040,28*72
$GPGSV,3,2,12,06,40,083,14,07,34,299,25,19,30,147,30,10,21,297,*76
$GPGSV,3,3,12,20,16,201,,30,16,047,29,32,06,179,33,08,05,278,*78
$GPRMC,001056.000,A,3353.7420,N,09832.0263,W,0.07,64.35,310312,,,A*4F
$GPGGA,001057.000,3353.7420,N,09832.0264,W,1,08,1.2,306.2,M,-23.7,M,,0000*6D
$GPGSA,A,3,06,07,03,23,19,13,16,30,,,,,2.2,1.2,1.9*34
$GPRMC,001057.000,A,3353.7420,N,09832.0264,W,0.02,284.66,310312,,,A*76
$GPGGA,001058.000,3353.7419,N,09832.0265,W,1,08,1.2,306.3,M,-23.7,M,,0000*68
$GPGSA,A,3,06,07,03,23,19,13,16,30,,,,,2.2,1.2,1.9*34
$GPRMC,001058.000,A,3353.7419,N,09832.0265,W,0.01,321.01,310312,,,A*7E
$GPGGA,001059.000,3353.7419,N,09832.0267,W,1,08,1.2,306.4,M,-23.7,M,,0000*6C
$GPGSA,A,3,06,07,03,23,19,13,16,30,,,,,2.2,1.2,1.9*34
$GPRMC,001059.000,A,3353.7419,N,09832.0267,W,0.21,280.07,310312,,,A*73
$GPGGA,001100.000,3353.7418,N,09832.0268,W,1,08,1.2,306.6,M,-23.7,M,,0000*6D
$GPGSA,A,3,06,07,03,23,19,13,16,30,,,,,2.2,1.2,1.9*34
$GPRMC,001100.000,A,3353.7418,N,09832.0268,W,0.07,273.41,310312,,,A*7A
$GPGGA,001101.000,3353.7417,N,09832.0269,W,1,08,1.2,306.7,M,-23.7,M,,0000*63
$GPGSA,A,3,06,07,03,23,19,13,16,30,,,,,2.2,1.2,1.9*34
$GPGSV,3,1,12,23,82,157,34,13,62,321,31,03,48,103,37,16,42,040,27*7A
$GPGSV,3,2,12,06,40,083,14,07,34,299,24,19,30,147,31,10,21,297,*76
$GPGSV,3,3,12,20,16,201,,30,16,047,29,32,06,179,33,08,05,278,*78
$GPRMC,001101.000,A,3353.7417,N,09832.0269,W,0.02,37.07,310312,,,A*40
$GPGGA,001102.000,3353.7417,N,09832.0270,W,1,08,1.2,306.8,M,-23.7,M,,0000*67
$GPGSA,A,3,06,07,03,23,19,13,16,30,,,,,2.2,1.2,1.9*34
$GPRMC,001102.000,A,3353.7417,N,09832.0270,W,0.15,70.08,310312,,,A*41
$GPGGA,001103.000,3353.7416,N,09832.0270,W,1,08,1.2,307.0,M,-23.7,M,,0000*6E
$GPGSA,A,3,06,07,03,23,19,13,16,30,,,,,2.2,1.2,1.9*34
$GPRMC,001103.000,A,3353.7416,N,09832.0270,W,0.20,68.69,310312,,,A*49
$GPGGA,001104.000,3353.7415,N,09832.0271,W,1,08,1.2,307.1,M,-23.7,M,,0000*6A
$GPGSA,A,3,06,07,03,23,19,13,16,30,,,,,2.2,1.2,1.9*34
$GPRMC,001104.000,A,3353.7415,N,09832.0271,W,0.21,72.43,310312,,,A*4E
$GPGGA,001105.000,3353.7415,N,09832.0271,W,1,08,1.2,307.3,M,-23.7,M,,0000*69
$GPGSA,A,3,06,07,03,23,19,13,16,30,,,,,2.2,1.2,1.9*34
$GPRMC,001105.000,A,3353.7415,N,09832.0271,W,0.25,66.72,310312,,,A*4C
$GPGGA,001106.000,3353.7414,N,09832.0272,W,1,08,1.2,307.4,M,-23.7,M,,0000*6F
$GPGSA,A,3,06,07,03,23,19,13,16,30,,,,,2.2,1.2,1.9*34
$GPGSV,3,1,12,23,82,157,34,13,62,321,32,03,48,103,37,16,42,040,27*79
$GPGSV,3,2,12,06,40,083,18,07,34,299,24,19,30,147,32,10,21,297,*79
$GPGSV,3,3,12,20,16,201,,30,16,047,28,32,06,179,33,08,05,278,*79
$GPRMC,001106.000,A,3353.7414,N,09832.0272,W,0.16,65.89,310312,,,A*4A
$GPGGA,001107.000,3353.7414,N,09832.0272,W,1,08,1.2,307.6,M,-23.7,M,,0000*6C
$GPGSA,A,3,06,07,03,23,19,13,16,30,,,,,2.2,1.2,1.9*34
$GPRMC,001107.000,A,3353.7414,N,09832.0272,W,0.16,57.86,310312,,,A*45
$GPGGA,001108.000,3353.7413,N,09832.0273,W,1,08,1.2,307.7,M,-23.7,M,,0000*64
$GPGSA,A,3,06,07,03,23,19,13,16,30,,,,,2.2,1.2,1.9*34
$GPRMC,001108.000,A,3353.7413,N,09832.0273,W,0.20,65.02,310312,,,A*44
$GPGGA,001109.000,3353.7412,N,09832.0274,W,1,08,1.2,307.9,M,-23.7,M,,0000*6D
$GPGSA,A,3,06,07,03,23,19,13,16,30,,,,,2.2,1.2,1.9*34
$GPRMC,001109.000,A,3353.7412,N,09832.0274,W,0.06,60.81,310312,,,A*49
$GPGGA,001110.000,3353.7412,N,09832.0275,W,1,08,1.2,308.0,M,-23.7,M,,0000*62
$GPGSA,A,3,06,07,03,23,19,13,16,30,,,,,2.2,1.2,1.9*34
$GPRMC,001110.000,A,3353.7412,N,09832.0275,W,0.06,39.91,310312,,,A*4D
$GPGGA,001111.000,3353.7411,N,09832.0275,W,1,08,1.2,308.1,M,-23.7,M,,0000*61
$GPGSA,A,3,06,07,03,23,19,13,16,30,,,,,2.2,1.2,1.9*34
$GPGSV,3,1,12,23,82,157,34,13,62,321,32,03,48,103,37,16,42,040,27*79
$GPGSV,3,2,12,06,40,083,24,07,34,299,24,19,30,147,32,10,21,297,*76
$GPGSV,3,3,12,20,16,201,,30,16,047,28,32,06,179,33,08,05,278,*79
$GPRMC,001111.000,A,3353.7411,N,09832.0275,W,0.10,69.68,310312,,,A*4B
$GPGGA,001112.000,3353.7410,N,09832.0276,W,1,08,1.2,308.3,M,-23.7,M,,0000*62
$GPGSA,A,3,06,07,03,23,19,13,16,30,,,,,2.2,1.2,1.9*34
$GPRMC,001112.000,A,3353.7410,N,09832.0276,W,0.05,33.49,310312,,,A*42
$GPGGA,001113.000,3353.7410,N,09832.0277,W,1,08,1.2,308.4,M,-23.7,M,,0000*65
$GPGSA,A,3,06,07,03,23,19,13,16,30,,,,,2.2,1.2,1.9*34
$GPRMC,001113.000,A,3353.7410,N,09832.0277,W,0.11,59.03,310312,,,A*45
$GPGGA,001114.000,3353.7409,N,09832.0278,W,1,08,1.2,308.5,M,-23.7,M,,0000*64
$GPGSA,A,3,06,07,03,23,19,13,16,30,,,,,2.2,1.2,1.9*34
$GPRMC,001114.000,A,3353.7409,N,09832.0278,W,0.09,43.68,310312,,,A*4A
$GPGGA,001115.000,3353.7409,N,09832.0278,W,1,08,1.2,308.6,M,-23.7,M,,0000*66
$GPGSA,A,3,06,07,03,23,19,13,16,30,,,,,2.2,1.2,1.9*34
$GPRMC,001115.000,A,3353.7409,N,09832.0278,W,0.11,57.06,310312,,,A*4F
$GPGGA,001116.000,3353.7409,N,09832.0279,W,1,08,1.2,308.7,M,-23.7,M,,0000*65
$GPGSA,A,3,06,07,03,23,19,13,16,30,,,,,2.2,1.2,1.9*34
$GPGSV,3,1,12,23,82,157,34,13,62,321,32,03,48,103,37,16,42,040,28*76
$GPGSV,3,2,12,06,40,083,25,07,34,299,24,19,30,147,33,10,21,297,*76
$GPGSV,3,3,12,20,16,201,,30,16,047,28,32,06,179,33,08,05,278,*79
$GPRMC,001116.000,A,3353.7409,N,09832.0279,W,0.19,52.14,310312,,,A*43
$GPGGA,001117.000,3353.7409,N,09832.0279,W,1,08,1.2,308.8,M,-23.7,M,,0000*6B
$GPGSA,A,3,06,07,03,23,19,13,16,30,,,,,2.2,1.2,1.9*34
$GPRMC,001117.000,A,3353.7409,N,09832.0279,W,0.16,43.24,310312,,,A*4E
$GPGGA,001118.000,3353.7409,N,09832.0279,W,1,08,1.2,308.9,M,-23.7,M,,0000*65
$GPGSA,A,3,06,07,03,23,19,13,16,30,,,,,2.2,1.2,1.9*34
$GPRMC,001118.000,A,3353.7409,N,09832.0279,W,0.14,353.08,310312,,,A*7F
$GPGGA,001119.000,3353.7410,N,09832.0279,W,1,08,1.2,309.0,M,-23.7,M,,0000*64
$GPGSA,A,3,06,07,03,23,19,13,16,30,,,,,2.2,1.2,1.9*34
$GPRMC,001119.000,A,3353.7410,N,09832.0279,W,0.13,13.21,310312,,,A*4D
$GPGGA,001120.000,3353.7410,N,09832.0279,W,1,08,1.2,309.0,M,-23.7,M,,0000*6E
$GPGSA,A,3,06,07,03,23,19,13,16,30,,,,,2.2,1.2,1.9*34
$GPRMC,001120.000,A,3353.7410,N,09832.0279,W,0.11,29.18,310312,,,A*46
$GPGGA,001121.000,3353.7411,N,09832.0279,W,1,08,1.2,309.0,M,-23.7,M,,0000*6E
$GPGSA,A,3,06,07,03,23,19,13,16,30,,,,,2.2,1.2,1.9*34
$GPGSV,3,1,12,23,82,157,35,13,62,321,32,03,48,103,36,16,42,040,29*77
$GPGSV,3,2,12,06,40,083,26,07,34,299,24,19,30,147,33,10,21,297,*75
$GPGSV,3,3,12,20,16,201,,30,16,047,28,32,06,179,33,08,05,278,*79
$GPRMC,001121.000,A,3353.7411,N,09832.0279,W,0.13,338.64,310312,,,A*7C
$GPGGA,001122.000,3353.7412,N,09832.0279,W,1,08,1.2,309.0,M,-23.7,M,,0000*6E
$GPGSA,A,3,06,07,03,23,19,13,16,30,,,,,2.2,1.2,1.9*34
$GPRMC,001122.000,A,3353.7412,N,09832.0279,W,0.27,77.93,310312,,,A*4B
$GPGGA,001123.000,3353.7413,N,09832.0278,W,1,08,1.2,308.9,M,-23.7,M,,0000*67
$GPGSA,A,3,06,07,03,23,19,13,16,30,,,,,2.2,1.2,1.9*34
$GPRMC,001123.000,A,3353.7413,N,09832.0278,W,0.15,47.20,310312,,,A*40
$GPGGA,001124.000,3353.7414,N,09832.0278,W,1,08,1.2,308.9,M,-23.7,M,,0000*67
$GPGSA,A,3,06,07,03,23,19,13,16,30,,,,,2.2,1.2,1.9*34
$GPRMC,001124.000,A,3353.7414,N,09832.0278,W,0.12,343.92,310312,,,A*79
$GPGGA,001125.000,3353.7415,N,09832.0279,W,1,08,1.2,308.8,M,-23.7,M,,0000*67
$GPGSA,A,3,06,07,03,23,19,13,16,30,,,,,2.2,1.2,1.9*34
$GPRMC,001125.000,A,3353.7415,N,09832.0279,W,0.19,308.88,310312,,,A*77
$GPGGA,001126.000,3353.7416,N,09832.0279,W,1,08,1.2,308.7,M,-23.7,M,,0000*68
$GPGSA,A,3,06,07,03,23,19,13,16,30,,,,,2.2,1.2,1.9*34
$GPGSV,3,1,12,23,81,158,35,13,63,320,33,03,49,101,36,16,41,040,30*72
$GPGSV,3,2,12,06,40,081,27,07,35,300,23,19,31,146,34,10,21,295,*74
$GPGSV,3,3,12,20,15,200,,30,15,047,28,08,06,279,,32,05,179,33*79
$GPRMC,001126.000,A,3353.7416,N,09832.0279,W,0.31,294.63,310312,,,A*7C
$GPGGA,001127.000,3353.7417,N,09832.0279,W,1,08,1.2,308.5,M,-23.7,M,,0000*6A
$GPGSA,A,3,06,07,03,23,19,13,16,30,,,,,2.2,1.2,1.9*34
$GPRMC,001127.000,A,3353.7417,N,09832.0279,W,0.12,69.24,310312,,,A*4E
$GPGGA,001128.000,3353.7417,N,09832.0277,W,1,08,1.2,308.5,M,-23.7,M,,0000*6B
$GPGSA,A,3,06,07,03,23,19,13,16,30,,,,,2.2,1.2,1.9*34
$GPRMC,001128.000,A,3353.7417,N,09832.0277,W,0.32,87.26,310312,,,A*4F
$GPGGA,001129.000,3353.7418,N,09832.0277,W,1,08,1.2,308.4,M,-23.7,M,,0000*64
$GPGSA,A,3,06,07,03,23,19,13,16,30,,,,,2.2,1.2,1.9*34
$GPRMC,001129.000,A,3353.7418,N,09832.0277,W,0.11,50.87,310312,,,A*41
$GPGGA,001130.000,3353.7419,N,09832.0277,W,1,08,1.2,308.2,M,-23.7,M,,0000*6B
$GPGSA,A,3,06,07,03,23,19,13,16,30,,,,,2.2,1.2,1.9*34
$GPRMC,001130.000,A,3353.7419,N,09832.0277,W,0.16,316.47,310312,,,A*72
$GPGGA,001131.000,3353.7421,N,09832.0277,W,1,08,1.2,308.1,M,-23.7,M,,0000*62
$GPGSA,A,3,06,07,03,23,19,13,16,30,,,,,2.2,1.2,1.9*34
$GPGSV,3,1,12,23,81,158,35,13,63,320,33,03,49,101,36,16,41,040,30*72
$GPGSV,3,2,12,06,40,081,27,07,35,300,22,19,31,146,34,10,21,295,22*75
$GPGSV,3,3,12,20,15,200,,30,15,047,28,08,06,279,,32,05,179,33*79
$GPRMC,001131.000,A,3353.7421,N,09832.0277,W,0.13,310.52,310312,,,A*7F
$GPGGA,001132.000,3353.7421,N,09832.0276,W,1,08,1.2,308.0,M,-23.7,M,,0000*61
$GPGSA,A,3,06,07,03,23,19,13,16,30,,,,,2.2,1.2,1.9*34
$GPRMC,001132.000,A,3353.7421,N,09832.0276,W,0.18,84.25,310312,,,A*48
$GPGGA,001133.000,3353.7422,N,09832.0276,W,1,08,1.2,307.9,M,-23.7,M,,0000*65
$GPGSA,A,3,06,07,03,23,19,13,16,30,,,,,2.2,1.2,1.9*34
$GPRMC,001133.000,A,3353.7422,N,09832.0276,W,0.08,19.75,310312,,,A*4A
$GPGGA,001134.000,3353.7423,N,09832.0276,W,1,08,1.2,307.8,M,-23.7,M,,0000*62
$GPGSA,A,3,06,07,03,23,19,13,16,30,,,,,2.2,1.2,1.9*34
$GPRMC,001134.000,A,3353.7423,N,09832.0276,W,0.17,310.70,310312,,,A*7D
$GPGGA,001135.000,3353.7424,N,09832.0275,W,1,08,1.2,307.6,M,-23.7,M,,0000*69
$GPGSA,A,3,06,07,03,23,19,13,16,30,,,,,2.2,1.2,1.9*34
$GPRMC,001135.000,A,3353.7424,N,09832.0275,W,0.05,8.58,310312,,,A*7B
$GPGGA,001136.000,3353.7425,N,09832.0274,W,1,08,1.2,307.5,M,-23.7,M,,0000*69
$GPGSA,A,3,06,07,03,23,19,13,16,30,,,,,2.2,1.2,1.9*34
$GPGSV,3,1,12,23,81,158,36,13,63,320,33,03,49,101,36,16,41,040,30*71
$GPGSV,3,2,12,06,40,081,28,07,35,300,23,19,31,146,35,10,21,295,22*7A
$GPGSV,3,3,12,20,15,200,,30,15,047,28,08,06,279,15,32,05,179,33*7D
$GPRMC,001136.000,A,3353.7425,N,09832.0274,W,0.21,82.67,310312,,,A*40
$GPGGA,001137.000,3353.7426,N,09832.0274,W,1,08,1.2,307.4,M,-23.7,M,,0000*6A
$GPGSA,A,3,06,07,03,23,19,13,16,30,,,,,2.2,1.2,1.9*34
$GPRMC,001137.000,A,3353.7426,N,09832.0274,W,0.10,44.84,310312,,,A*47
$GPGGA,001138.000,3353.7427,N,09832.0273,W,1,08,1.2,307.4,M,-23.7,M,,0000*63
$GPGSA,A,3,06,07,03,23,19,13,16,30,,,,,2.2,1.2,1.9*34
$GPRMC,001138.000,A,3353.7427,N,09832.0273,W,0.21,79.36,310312,,,A*4B
$GPGGA,001139.000,3353.7428,N,09832.0271,W,1,08,1.2,307.4,M,-23.7,M,,0000*6F
$GPGSA,A,3,06,07,03,23,19,13,16,30,,,,,2.2,1.2,1.9*34
$GPRMC,001139.000,A,3353.7428,N,09832.0271,W,0.28,87.90,310312,,,A*43
$GPGGA,001140.000,3353.7429,N,09832.0270,W,1,08,1.2,307.3,M,-23.7,M,,0000*66
$GPGSA,A,3,06,07,03,23,19,13,16,30,,,,,2.2,1.2,1.9*34
$GPRMC,001140.000,A,3353.7429,N,09832.0270,W,0.22,78.25,310312,,,A*49
$GPGGA,001141.000,3353.7430,N,09832.0270,W,1,08,1.2,307.3,M,-23.7,M,,0000*6F
$GPGSA,A,3,06,07,03,23,19,13,16,30,,,,,2.2,1.2,1.9*34
$GPGSV,3,1,12,23,81,158,35,13,63,320,33,03,49,101,35,16,41,040,31*70
$GPGSV,3,2,12,06,40,081,29,07,35,300,23,19,31,146,35,10,21,295,22*7B
$GPGSV,3,3,12,20,15,200,,30,15,047,28,08,06,279,14,32,05,179,33*7C
$GPRMC,001141.000,A,3353.7430,N,09832.0270,W,0.12,33.75,310312,,,A*49
$GPGGA,001142.000,3353.7430,N,09832.0269,W,1,08,1.2,307.3,M,-23.7,M,,0000*64
$GPGSA,A,3,06,07,03,23,19,13,16,30,,,,,2.2,1.2,1.9*34
$GPRMC,001142.000,A,3353.7430,N,09832.0269,W,0.20,77.02,310312,,,A*43
$GPGGA,001143.000,3353.7431,N,09832.0268,W,1,08,1.2,307.3,M,-23.7,M,,0000*65
$GPGSA,A,3,06,07,03,23,19,13,16,30,,,,,2.2,1.2,1.9*34
$GPRMC,001143.000,A,3353.7431,N,09832.0268,W,0.22,77.39,310312,,,A*48
$GPGGA,001144.000,3353.7432,N,09832.0267,W,1,08,1.2,307.3,M,-23.7,M,,0000*6E
$GPGSA,A,3,06,07,03,23,19,13,16,30,,,,,2.2,1.2,1.9*34
$GPRMC,001144.000,A,3353.7432,N,09832.0267,W,0.20,72.97,310312,,,A*40
$GPGGA,001145.000,3353.7433,N,09832.0266,W,1,08,1.2,307.3,M,-23.7,M,,0000*6F
$GPGSA,A,3,06,07,03,23,19,13,16,30,,,,,2.2,1.2,1.9*34
$GPRMC,001145.000,A,3353.7433,N,09832.0266,W,0.15,61.85,310312,,,A*46
$GPGGA,001146.000,3353.7434,N,09832.0266,W,1,08,1.2,307.3,M,-23.7,M,,0000*6B
$GPGSA,A,3,06,07,03,23,19,13,16,30,,,,,2.2,1.2,1.9*34
$GPGSV,3,1,12,23,81,158,35,13,63,320,32,03,49,101,35,16,41,040,32*72
$GPGSV,3,2,12,06,40,081,29,07,35,300,23,19,31,146,34,10,21,295,21*79
$GPGSV,3,3,12,20,15,200,,30,15,047,27,08,06,279,15,32,05,179,32*73
$GPRMC,001146.000,A,3353.7434,N,09832.0266,W,0.12,343.54,310312,,,A*7A
$GPGGA,001147.000,3353.7435,N,09832.0266,W,1,08,1.2,307.3,M,-23.7,M,,0000*6B
$GPGSA,A,3,06,07,03,23,19,13,16,30,,,,,2.2,1.2,1.9*34
$GPRMC,001147.000,A,3353.7435,N,09832.0266,W,0.18,312.53,310312,,,A*73
$GPGGA,001148.000,3353.7435,N,09832.0266,W,1,08,1.2,307.2,M,-23.7,M,,0000*65
$GPGSA,A,3,06,07,03,23,19,13,16,30,,,,,2.2,1.2,1.9*34
$GPRMC,001148.000,A,3353.7435,N,09832.0266,W,0.18,77.26,310312,,,A*4E
$GPGGA,001149.000,3353.7436,N,09832.0264,W,1,08,1.2,307.3,M,-23.7,M,,0000*64
$GPGSA,A,3,06,07,03,23,19,13,16,30,,,,,2.2,1.2,1.9*34
$GPRMC,001149.000,A,3353.7436,N,09832.0264,W,0.30,84.75,310312,,,A*4E
$GPGGA,001150.000,3353.7437,N,09832.0263,W,1,08,1.2,307.3,M,-23.7,M,,0000*6A
$GPGSA,A,3,06,07,03,23,19,13,16,30,,,,,2.2,1.2,1.9*34
$GPRMC,001150.000,A,3353.7437,N,09832.0263,W,0.31,84.21,310312,,,A*40
$GPGGA,001151.000,3353.7437,N,09832.0262,W,1,08,1.2,307.3,M,-23.7,M,,0000*6A
$GPGSA,A,3,06,07,03,23,19,13,16,30,,,,,2.2,1.2,1.9*34
$GPGSV,3,1,12,23,81,158,35,13,63,320,32,03,49,101,35,16,41,040,33*73
$GPGSV,3,2,12,06,40,081,29,07,35,300,21,19,31,146,34,10,21,295,20*7A
$GPGSV,3,3,12,20,15,200,,30,15,047,27,08,06,279,14,32,05,179,32*72
$GPRMC,001151.000,A,3353.7437,N,09832.0262,W,0.25,77.85,310312,,,A*47
$GPGGA,001152.000,3353.7438,N,09832.0262,W,1,08,1.2,307.3,M,-23.7,M,,0000*66
$GPGSA,A,3,06,07,03,23,19,13,16,30,,,,,2.2,1.2,1.9*34
$GPRMC,001152.000,A,3353.7438,N,09832.0262,W,0.12,0.99,310312,,,A*72
$GPGGA,001153.000,3353.7439,N,09832.0262,W,1,08,1.2,307.3,M,-23.7,M,,0000*66
$GPGSA,A,3,06,07,03,23,19,13,16,30,,,,,2.2,1.2,1.9*34
$GPRMC,001153.000,A,3353.7439,N,09832.0262,W,0.18,309.74,310312,,,A*71
$GPGGA,001154.000,3353.7439,N,09832.0262,W,1,08,1.2,307.3,M,-23.7,M,,0000*61
$GPGSA,A,3,06,07,03,23,19,13,16,30,,,,,2.2,1.2,1.9*34
$GPRMC,001154.000,A,3353.7439,N,09832.0262,W,0.17,74.52,310312,,,A*44
$GPGGA,001155.000,3353.7440,N,09832.0261,W,1,08,1.2,307.4,M,-23.7,M,,0000*6A
$GPGSA,A,3,06,07,03,23,19,13,16,30,,,,,2.2,1.2,1.9*34
$GPRMC,001155.000,A,3353.7440,N,09832.0261,W,0.32,88.32,310312,,,A*4A
$GPGGA,001156.000,3353.7440,N,09832.0259,W,1,08,1.2,307.4,M,-23.7,M,,0000*62
$GPGSA,A,3,06,07,03,23,19,13,16,30,,,,,2.2,1.2,1.9*34
$GPGSV,3,1,12,23,81,158,35,13,63,320,32,03,49,101,35,16,41,040,33*73
$GPGSV,3,2,12,06,40,081,29,07,35,300,18,19,31,146,34,10,21,295,19*7A
$GPGSV,3,3,12,20,15,200,,30,15,047,26,08,06,279,13,32,05,179,32*74
$GPRMC,001156.000,A,3353.7440,N,09832.0259,W,0.42,86.56,310312,,,A*49
$GPGGA,001157.000,3353.7440,N,09832.0258,W,1,08,1.2,307.5,M,-23.7,M,,0000*63
$GPGSA,A,3,06,07,03,23,19,13,16,30,,,,,2.2,1.2,1.9*34
$GPRMC,001157.000,A,3353.7440,N,09832.0258,W,0.46,88.36,310312,,,A*45
$GPGGA,001158.000,3353.7441,N,09832.0256,W,1,08,1.2,307.6,M,-23.7,M,,0000*60
$GPGSA,A,3,06,07,03,23,19,13,16,30,,,,,2.2,1.2,1.9*34
$GPRMC,001158.000,A,3353.7441,N,09832.0256,W,0.43,83.22,310312,,,A*4E
$GPGGA,001159.000,3353.7441,N,09832.0255,W,1,08,1.2,307.8,M,-23.7,M,,0000*6C
$GPGSA,A,3,06,07,03,23,19,13,16,30,,,,,2.2,1.2,1.9*34
$GPRMC,001159.000,A,3353.7441,N,09832.0255,W,0.46,86.00,310312,,,A*4C
$GPGGA,001200.000,3353.7442,N,09832.0253,W,1,08,1.2,308.0,M,-23.7,M,,0000*61
$GPGSA,A,3,06,07,03,23,19,13,16,30,,,,,2.2,1.2,1.9*34
$GPRMC,001200.000,A,3353.7442,N,09832.0253,W,0.54,86.26,310312,,,A*41
$GPGGA,001201.000,3353.7442,N,09832.0252,W,1,08,1.2,308.2,M,-23.7,M,,0000*63
$GPGSA,A,3,06,07,03,23,19,13,16,30,,,,,2.2,1.2,1.9*34
$GPGSV,3,1,12,23,81,158,35,13,63,320,32,03,49,101,36,16,41,040,34*77
$GPGSV,3,2,12,06,40,081,29,07,35,300,17,19,31,146,35,10,21,295,19*74
$GPGSV,3,3,12,20,15,200,,30,15,047,26,08,06,279,,32,05,179,32*76
$GPRMC,001201.000,A,3353.7442,N,09832.0252,W,0.45,85.49,310312,,,A*4B
$GPGGA,001202.000,3353.7443,N,09832.0251,W,1,08,1.2,308.4,M,-23.7,M,,0000*64
$GPGSA,A,3,06,07,03,23,19,13,16,30,,,,,2.2,1.2,1.9*34
$GPRMC,001202.000,A,3353.7443,N,09832.0251,W,0.36,76.30,310312,,,A*4C
$GPGGA,001203.000,3353.7443,N,09832.0249,W,1,08,1.2,308.6,M,-23.7,M,,0000*6E
$GPGSA,A,3,06,07,03,23,19,13,16,30,,,,,2.2,1.2,1.9*34
$GPRMC,001203.000,A,3353.7443,N,09832.0249,W,0.42,84.12,310312,,,A*4A
$GPGGA,001204.000,3353.7443,N,09832.0249,W,1,08,1.2,308.8,M,-23.7,M,,0000*67
$GPGSA,A,3,06,07,03,23,19,13,16,30,,,,,2.2,1.2,1.9*34
$GPRMC,001204.000,A,3353.7443,N,09832.0249,W,0.33,80.34,310312,,,A*4B
$GPGGA,001205.000,3353.7444,N,09832.0248,W,1,08,1.2,309.0,M,-23.7,M,,0000*69
$GPGSA,A,3,06,07,03,23,19,13,16,30,,,,,2.2,1.2,1.9*34
$GPRMC,001205.000,A,3353.7444,N,09832.0248,W,0.15,36.22,310312,,,A*42
$GPGGA,001206.000,3353.7445,N,09832.0249,W,1,08,1.2,309.2,M,-23.7,M,,0000*68
$GPGSA,A,3,06,07,03,23,19,13,16,30,,,,,2.2,1.2,1.9*34
$GPGSV,3,1,12,23,81,158,35,13,63,320,31,03,49,101,36,16,41,040,34*74
$GPGSV,3,2,12,06,40,081,28,07,35,300,17,19,31,146,35,10,21,295,19*75
$GPGSV,3,3,12,20,15,200,,30,15,047,25,08,06,279,,32,05,179,32*75
$GPRMC,001206.000,A,3353.7445,N,09832.0249,W,0.14,344.85,310312,,,A*7B
$GPGGA,001207.000,3353.7445,N,09832.0249,W,1,08,1.2,309.3,M,-23.7,M,,0000*68
$GPGSA,A,3,06,07,03,23,19,13,16,30,,,,,2.2,1.2,1.9*34
$GPRMC,001207.000,A,3353.7445,N,09832.0249,W,0.12,310.34,310312,,,A*77
$GPGGA,001208.000,3353.7446,N,09832.0250,W,1,08,1.2,309.3,M,-23.7,M,,0000*6C
$GPGSA,A,3,06,07,03,23,19,13,16,30,,,,,2.2,1.2,1.9*34
$GPRMC,001208.000,A,3353.7446,N,09832.0250,W,0.18,343.03,310312,,,A*7B
$GPGGA,001209.000,3353.7446,N,09832.0251,W,1,08,1.2,309.3,M,-23.7,M,,0000*6C
$GPGSA,A,3,06,07,03,23,19,13,16,30,,,,,2.2,1.2,1.9*34
$GPRMC,001209.000,A,3353.7446,N,09832.0251,W,0.20,336.30,310312,,,A*72
$GPGGA,001210.000,3353.7447,N,09832.0251,W,1,08,1.2,309.3,M,-23.7,M,,0000*65
$GPGSA,A,3,06,07,03,23,19,13,16,30,,,,,2.2,1.2,1.9*34
$GPRMC,001210.000,A,3353.7447,N,09832.0251,W,0.12,348.20,310312,,,A*72
$GPGGA,001211.000,3353.7447,N,09832.0252,W,1,08,1.2,309.2,M,-23.7,M,,0000*66
$GPGSA,A,3,06,07,03,23,19,13,16,30,,,,,2.2,1.2,1.9*34
$GPGSV,3,1,12,23,81,158,35,13,63,320,31,03,49,101,36,16,41,040,34*74
$GPGSV,3,2,12,06,40,081,28,07,35,300,18,19,31,146,35,10,21,295,19*7A
$GPGSV,3,3,12,20,15,200,,30,15,047,25,08,06,279,,32,05,179,32*75
$GPRMC,001211.000,A,3353.7447,N,09832.0252,W,0.17,323.04,310312,,,A*7E
$GPGGA,001212.000,3353.7448,N,09832.0253,W,1,08,1.2,309.1,M,-23.7,M,,0000*68
$GPGSA,A,3,06,07,03,23,19,13,16,30,,,,,2.2,1.2,1.9*34
$GPRMC,001212.000,A,3353.7448,N,09832.0253,W,0.25,303.04,310312,,,A*70
$GPGGA,001213.000,3353.7448,N,09832.0254,W,1,08,1.2,309.0,M,-23.7,M,,0000*6F
$GPGSA,A,3,06,07,03,23,19,13,16,30,,,,,2.2,1.2,1.9*34
$GPRMC,001213.000,A,3353.7448,N,09832.0254,W,0.30,295.26,310312,,,A*7C
$GPGGA,001214.000,3353.7448,N,09832.0256,W,1,08,1.2,308.9,M,-23.7,M,,0000*62
$GPGSA,A,3,06,07,03,23,19,13,16,30,,,,,2.2,1.2,1.9*34
$GPRMC,001214.000,A,3353.7448,N,09832.0256,W,0.29,293.04,310312,,,A*77
$GPGGA,001215.000,3353.7449,N,09832.0256,W,1,08,1.2,308.8,M,-23.7,M,,0000*63
$GPGSA,A,3,06,07,03,23,19,13,16,30,,,,,2.2,1.2,1.9*34
$GPRMC,001215.000,A,3353.7449,N,09832.0256,W,0.09,61.22,310312,,,A*4E
$GPGGA,001216.000,3353.7449,N,09832.0255,W,1,08,1.2,308.8,M,-23.7,M,,0000*63
$GPGSA,A,3,06,07,03,23,19,13,16,30,,,,,2.2,1.2,1.9*34
$GPGSV,3,1,12,23,81,158,35,13,63,320,30,03,49,101,36,16,41,040,34*75
$GPGSV,3,2,12,06,40,081,28,07,35,300,19,19,31,146,35,10,21,295,19*7B
$GPGSV,3,3,12,20,15,200,,30,15,047,25,08,06,279,,32,05,179,32*75
$GPRMC,001216.000,A,3353.7449,N,09832.0255,W,0.26,91.52,310312,,,A*4B
$GPGGA,001217.000,3353.7449,N,09832.0255,W,1,08,1.2,308.8,M,-23.7,M,,0000*62
$GPGSA,A,3,06,07,03,23,19,13,16,30,,,,,2.2,1.2,1.9*34
$GPRMC,001217.000,A,3353.7449,N,09832.0255,W,0.35,90.54,310312,,,A*4F
$GPGGA,001218.000,3353.7449,N,09832.0255,W,1,08,1.2,308.8,M,-23.7,M,,0000*6D
$GPGSA,A,3,06,07,03,23,19,13,16,30,,,,,2.2,1.2,1.9*34
$GPRMC,001218.000,A,3353.7449,N,09832.0255,W,0.08,23.54,310312,,,A*46
$GPGGA,001219.000,3353.7449,N,09832.0255,W,1,08,1.2,308.8,M,-23.7,M,,0000*6C
$GPGSA,A,3,06,07,03,23,19,13,16,30,,,,,2.2,1.2,1.9*34
$GPRMC,001219.000,A,3353.7449,N,09832.0255,W,0.04,332.46,310312,,,A*7B
$GPGGA,001220.000,3353.7449,N,09832.0256,W,1,09,0.9,308.8,M,-23.7,M,,0000*6E
$GPGSA,A,3,06,07,03,23,19,13,16,30,20,,,,1.7,0.9,1.5*36
$GPRMC,001220.000,A,3353.7449,N,09832.0256,W,0.03,159.53,310312,,,A*7E
$GPGGA,001221.000,3353.7449,N,09832.0256,W,1,09,0.9,308.8,M,-23.7,M,,0000*6F
$GPGSA,A,3,06,07,03,23,19,13,16,30,20,,,,1.7,0.9,1.5*36
$GPGSV,3,1,12,23,81,158,36,13,63,320,30,03,49,101,35,16,41,040,34*75
$GPGSV,3,2,12,06,40,081,28,07,35,300,20,19,31,146,35,10,21,295,19*71
$GPGSV,3,3,12,20,15,200,19,30,15,047,26,08,06,279,,32,05,179,32*7E
$GPRMC,001221.000,A,3353.7449,N,09832.0256,W,0.18,153.39,310312,,,A*73
$GPGGA,001222.000,3353.7449,N,09832.0256,W,1,09,0.9,308.8,M,-23.7,M,,0000*6C
$GPGSA,A,3,06,07,03,23,19,13,16,30,20,,,,1.7,0.9,1.5*36
$GPRMC,001222.000,A,3353.7449,N,09832.0256,W,0.09,156.04,310312,,,A*7B
$GPGGA,001223.000,3353.7449,N,09832.0257,W,1,09,0.9,308.8,M,-23.7,M,,0000*6C
$GPGSA,A,3,06,07,03,23,19,13,16,30,20,,,,1.7,0.9,1.5*36
$GPRMC,001223.000,A,3353.7449,N,09832.0257,W,0.16,319.46,310312,,,A*7A
$GPGGA,001224.000,3353.7449,N,09832.0257,W,1,09,0.9,308.7,M,-23.7,M,,0000*64
$GPGSA,A,3,06,07,03,23,19,13,16,30,20,,,,1.7,0.9,1.5*36
$GPRMC,001224.000,A,3353.7449,N,09832.0257,W,0.15,284.82,310312,,,A*73
$GPGGA,001225.000,3353.7449,N,09832.0258,W,1,09,0.9,308.7,M,-23.7,M,,0000*6A
$GPGSA,A,3,06,07,03,23,19,13,16,30,20,,,,1.7,0.9,1.5*36
$GPRMC,001225.000,A,3353.7449,N,09832.0258,W,0.16,216.28,310312,,,A*75
$GPGGA,001226.000,3353.7449,N,09832.0258,W,1,09,0.9,308.7,M,-23.7,M,,0000*69
$GPGSA,A,3,06,07,03,23,19,13,16,30,20,,,,1.7,0.9,1.5*36
$GPGSV,3,1,12,23,81,158,36,13,63,320,30,03,49,101,36,16,41,040,35*77
$GPGSV,3,2,12,06,40,081,28,07,35,300,20,19,31,146,35,10,21,295,20*7B
$GPGSV,3,3,12,20,15,200,20,30,15,047,26,08,06,279,,32,05,179,32*74
$GPRMC,001226.000,A,3353.7449,N,09832.0258,W,0.26,82.19,310312,,,A*48
$GPGGA,001227.000,3353.7449,N,09832.0257,W,1,09,0.9,308.7,M,-23.7,M,,0000*67
$GPGSA,A,3,06,07,03,23,19,13,16,30,20,,,,1.7,0.9,1.5*36
$GPRMC,001227.000,A,3353.7449,N,09832.0257,W,0.37,84.60,310312,,,A*4E
$GPGGA,001228.000,3353.7449,N,09832.0256,W,1,09,0.9,308.7,M,-23.7,M,,0000*69
$GPGSA,A,3,06,07,03,23,19,13,16,30,20,,,,1.7,0.9,1.5*36
$GPRMC,001228.000,A,3353.7449,N,09832.0256,W,0.19,117.60,310312,,,A*77
$GPGGA,001229.000,3353.7449,N,09832.0256,W,1,09,0.9,308.8,M,-23.7,M,,0000*67
$GPGSA,A,3,06,07,03,23,19,13,16,30,20,,,,1.7,0.9,1.5*36
$GPRMC,001229.000,A,3353.7449,N,09832.0256,W,0.28,97.28,310312,,,A*41
$GPGGA,001230.000,3353.7449,N,09832.0255,W,1,09,0.9,308.9,M,-23.7,M,,0000*6D
$GPGSA,A,3,06,07,03,23,19,13,16,30,20,,,,1.7,0.9,1.5*36
$GPRMC,001230.000,A,3353.7449,N,09832.0255,W,0.29,100.65,310312,,,A*7D
$GPGGA,001231.000,3353.7449,N,09832.0255,W,1,09,0.9,309.0,M,-23.7,M,,0000*64
$GPGSA,A,3,06,07,03,23,19,13,16,30,20,,,,1.7,0.9,1.5*36
$GPGSV,3,1,12,23,81,158,36,13,63,320,30,03,49,101,36,16,41,040,35*77
$GPGSV,3,2,12,06,40,081,28,07,35,300,19,19,31,146,35,10,21,295,20*71
$GPGSV,3,3,12,20,15,200,21,30,15,047,25,08,06,279,,32,05,179,31*75
$GPRMC,001231.000,A,3353.7449,N,09832.0255,W,0.02,334.75,310312,,,A*71
$GPGGA,001232.000,3353.7449,N,09832.0256,W,1,09,0.9,309.0,M,-23.7,M,,0000*64
$GPGSA,A,3,06,07,03,23,19,13,16,30,20,,,,1.7,0.9,1.5*36
$GPRMC,001232.000,A,3353.7449,N,09832.0256,W,0.15,319.61,310312,,,A*7D
$GPGGA,001233.000,3353.7449,N,09832.0256,W,1,09,0.9,309.1,M,-23.7,M,,0000*64
$GPGSA,A,3,06,07,03,23,19,13,16,30,20,,,,1.7,0.9,1.5*36
$GPRMC,001233.000,A,3353.7449,N,09832.0256,W,0.17,87.41,310312,,,A*48
$GPGGA,001234.000,3353.7449,N,09832.0255,W,1,09,0.9,309.2,M,-23.7,M,,0000*63
$GPGSA,A,3,06,07,03,23,19,13,16,30,20,,,,1.7,0.9,1.5*36
$GPRMC,001234.000,A,3353.7449,N,09832.0255,W,0.32,79.67,310312,,,A*4E
$GPGGA,001235.000,3353.7450,N,09832.0255,W,1,09,0.9,309.3,M,-23.7,M,,0000*6B
$GPGSA,A,3,06,07,03,23,19,13,16,30,20,,,,1.7,0.9,1.5*36
$GPRMC,001235.000,A,3353.7450,N,09832.0255,W,0.02,303.91,310312,,,A*73
$GPGGA,001236.000,3353.7450,N,09832.0257,W,1,09,0.9,309.3,M,-23.7,M,,0000*6A
$GPGSA,A,3,06,07,03,23,19,13,16,30,20,,,,1.7,0.9,1.5*36
$GPGSV,3,1,12,23,81,158,36,13,63,320,29,03,49,101,36,16,41,040,36*7C
$GPGSV,3,2,12,06,40,081,29,07,35,300,19,19,31,146,35,10,21,295,20*70
$GPGSV,3,3,12,20,15,200,23,30,15,047,25,08,06,279,,32,05,179,31*77
$GPRMC,001236.000,A,3353.7450,N,09832.0257,W,0.27,270.73,310312,,,A*7C
$GPGGA,001237.000,3353.7450,N,09832.0256,W,1,09,0.9,309.3,M,-23.7,M,,0000*6A
$GPGSA,A,3,06,07,03,23,19,13,16,30,20,,,,1.7,0.9,1.5*36
$GPRMC,001237.000,A,3353.7450,N,09832.0256,W,0.17,67.45,310312,,,A*4E
$GPGGA,001238.000,3353.7450,N,09832.0256,W,1,09,0.9,309.4,M,-23.7,M,,0000*62
$GPGSA,A,3,06,07,03,23,19,13,16,30,20,,,,1.7,0.9,1.5*36
$GPRMC,001238.000,A,3353.7450,N,09832.0256,W,0.25,101.71,310312,,,A*76
$GPGGA,001239.000,3353.7450,N,09832.0256,W,1,09,0.9,309.5,M,-23.7,M,,0000*62
$GPGSA,A,3,06,07,03,23,19,13,16,30,20,,,,1.7,0.9,1.5*36
$GPRMC,001239.000,A,3353.7450,N,09832.0256,W,0.13,81.88,310312,,,A*4D
$GPGGA,001240.000,3353.7450,N,09832.0256,W,1,09,0.9,309.5,M,-23.7,M,,0000*6C
$GPGSA,A,3,06,07,03,23,19,13,16,30,20,,,,1.7,0.9,1.5*36
$GPRMC,001240.000,A,3353.7450,N,09832.0256,W,0.15,114.56,310312,,,A*7B
$GPGGA,001241.000,3353.7450,N,09832.0256,W,1,09,0.9,309.6,M,-23.7,M,,0000*6E
$GPGSA,A,3,06,07,03,23,19,13,16,30,20,,,,1.7,0.9,1.5*36
$GPGSV,3,1,12,23,81,158,36,13,63,320,30,03,49,101,36,16,41,040,36*74
$GPGSV,3,2,12,06,40,081,29,07,35,300,20,19,31,146,35,10,21,295,19*70
$GPGSV,3,3,12,20,15,200,24,30,15,047,24,08,06,279,,32,05,179,30*70
$GPRMC,001241.000,A,3353.7450,N,09832.0256,W,0.06,264.21,310312,,,A*7C
$GPGGA,001242.000,3353.7450,N,09832.0256,W,1,09,0.9,309.6,M,-23.7,M,,0000*6D
$GPGSA,A,3,06,07,03,23,19,13,16,30,20,,,,1.7,0.9,1.5*36
$GPRMC,001242.000,A,3353.7450,N,09832.0256,W,0.03,156.86,310312,,,A*75
$GPGGA,001243.000,3353.7450,N,09832.0256,W,1,09,0.9,309.6,M,-23.7,M,,0000*6C
$GPGSA,A,3,06,07,03,23,19,13,16,30,20,,,,1.7,0.9,1.5*36
$GPRMC,001243.000,A,3353.7450,N,09832.0256,W,0.08,33.91,310312,,,A*4B
$GPGGA,001244.000,3353.7450,N,09832.0256,W,1,09,0.9,309.6,M,-23.7,M,,0000*6B
$GPGSA,A,3,06,07,03,23,19,13,16,30,20,,,,1.7,0.9,1.5*36
$GPRMC,001244.000,A,3353.7450,N,09832.0256,W,0.12,59.55,310312,,,A*43
$GPGGA,001245.000,3353.7451,N,09832.0256,W,1,09,0.9,309.7,M,-23.7,M,,0000*6A
$GPGSA,A,3,06,07,03,23,19,13,16,30,20,,,,1.7,0.9,1.5*36
$GPRMC,001245.000,A,3353.7451,N,09832.0256,W,0.22,8.94,310312,,,A*79
$GPGGA,001246.000,3353.7451,N,09832.0257,W,1,09,0.9,309.7,M,-23.7,M,,0000*68
$GPGSA,A,3,06,07,03,23,19,13,16,30,20,,,,1.7,0.9,1.5*36
$GPGSV,3,1,12,23,81,158,37,13,63,320,29,03,49,101,36,16,41,040,37*7C
$GPGSV,3,2,12,06,40,081,28,07,35,300,19,19,31,146,35,10,21,295,19*7B
$GPGSV,3,3,12,20,15,200,23,30,15,047,24,08,06,279,,32,05,179,30*77
$GPRMC,001246.000,A,3353.7451,N,09832.0257,W,0.18,345.84,310312,,,A*79
$GPGGA,001247.000,3353.7451,N,09832.0258,W,1,09,0.9,309.8,M,-23.7,M,,0000*69
$GPGSA,A,3,06,07,03,23,19,13,16,30,20,,,,1.7,0.9,1.5*36
$GPRMC,001247.000,A,3353.7451,N,09832.0258,W,0.19,298.72,310312,,,A*7E
$GPGGA,001248.000,3353.7452,N,09832.0257,W,1,09,0.9,309.8,M,-23.7,M,,0000*6A
$GPGSA,A,3,06,07,03,23,19,13,16,30,20,,,,1.7,0.9,1.5*36
$GPRMC,001248.000,A,3353.7452,N,09832.0257,W,0.13,61.20,310312,,,A*44
$GPGGA,001249.000,3353.7452,N,09832.0257,W,1,09,0.9,309.9,M,-23.7,M,,0000*6A
$GPGSA,A,3,06,07,03,23,19,13,16,30,20,,,,1.7,0.9,1.5*36
$GPRMC,001249.000,A,3353.7452,N,09832.0257,W,0.30,87.46,310312,,,A*4C
$GPGGA,001250.000,3353.7451,N,09832.0256,W,1,09,0.9,310.0,M,-23.7,M,,0000*61
$GPGSA,A,3,06,07,03,23,19,13,16,30,20,,,,1.7,0.9,1.5*36
$GPRMC,001250.000,A,3353.7451,N,09832.0256,W,0.32,107.01,310312,,,A*7E
$GPGGA,001251.000,3353.7451,N,09832.0255,W,1,09,0.9,310.1,M,-23.7,M,,0000*62
$GPGSA,A,3,06,07,03,23,19,13,16,30,20,,,,1.7,0.9,1.5*36
$GPGSV,3,1,12,23,81,158,37,13,63,320,29,03,49,101,36,16,41,040,37*7C
$GPGSV,3,2,12,06,40,081,28,07,35,300,19,19,31,146,35,10,21,295,20*71
$GPGSV,3,3,12,20,15,200,18,30,15,047,25,08,06,279,,32,05,179,30*7E
$GPRMC,001251.000,A,3353.7451,N,09832.0255,W,0.28,115.69,310312,,,A*7A
$GPGGA,001252.000,3353.7451,N,09832.0254,W,1,09,0.9,310.3,M,-23.7,M,,0000*62
$GPGSA,A,3,06,07,03,23,19,13,16,30,20,,,,1.7,0.9,1.5*36
$GPRMC,001252.000,A,3353.7451,N,09832.0254,W,0.25,97.71,310312,,,A*47
$GPGGA,001253.000,3353.7451,N,09832.0254,W,1,09,0.9,310.4,M,-23.7,M,,0000*64
$GPGSA,A,3,06,07,03,23,19,13,16,30,20,,,,1.7,0.9,1.4*37
$GPRMC,001253.000,A,3353.7451,N,09832.0254,W,0.15,118.73,310312,,,A*71
$GPGGA,001254.000,3353.7451,N,09832.0254,W,1,08,1.2,310.5,M,-23.7,M,,0000*69
$GPGSA,A,3,06,03,23,19,13,16,30,20,,,,,1.9,1.2,1.5*35
$GPRMC,001254.000,A,3353.7451,N,09832.0254,W,0.11,71.08,310312,,,A*40
$GPGGA,001255.000,3353.7451,N,09832.0254,W,1,08,1.2,310.6,M,-23.7,M,,0000*6B
$GPGSA,A,3,06,03,23,19,13,16,30,20,,,,,1.9,1.2,1.5*35
$GPRMC,001255.000,A,3353.7451,N,09832.0254,W,0.19,63.29,310312,,,A*49
$GPGGA,001256.000,3353.7451,N,09832.0253,W,1,08,1.2,310.8,M,-23.7,M,,0000*61
$GPGSA,A,3,06,03,23,19,13,16,30,20,,,,,1.9,1.2,1.5*35
$GPGSV,3,1,12,23,81,158,37,13,63,320,29,03,49,101,35,16,41,040,37*7F
$GPGSV,3,2,12,06,40,081,27,07,35,300,,19,31,146,36,10,21,295,21*74
$GPGSV,3,3,12,20,15,200,18,30,15,047,26,08,06,279,,32,05,179,29*75
$GPRMC,001256.000,A,3353.7451,N,09832.0253,W,0.27,61.15,310312,,,A*4D
$GPGGA,001257.000,3353.7451,N,09832.0253,W,1,08,1.2,310.9,M,-23.7,M,,0000*61
$GPGSA,A,3,06,03,23,19,13,16,30,20,,,,,1.9,1.2,1.5*35
$GPRMC,001257.000,A,3353.7451,N,09832.0253,W,0.03,86.72,310312,,,A*42
$GPGGA,001258.000,3353.7451,N,09832.0253,W,1,08,1.2,311.0,M,-23.7,M,,0000*66
$GPGSA,A,3,06,03,23,19,13,16,30,20,,,,,1.9,1.2,1.5*35
$GPRMC,001258.000,A,3353.7451,N,09832.0253,W,0.20,64.87,310312,,,A*4A
$GPGGA,001259.000,3353.7452,N,09832.0252,W,1,08,1.2,311.2,M,-23.7,M,,0000*67
$GPGSA,A,3,06,03,23,19,13,16,30,20,,,,,1.9,1.2,1.5*35
$GPRMC,001259.000,A,3353.7452,N,09832.0252,W,0.35,62.33,310312,,,A*44
$GPGGA,001300.000,3353.7452,N,09832.0252,W,1,08,1.2,311.4,M,-23.7,M,,0000*6C
$GPGSA,A,3,06,03,23,19,13,16,30,20,,,,,1.9,1.2,1.5*35
$GPRMC,001300.000,A,3353.7452,N,09832.0252,W,0.16,71.24,310312,,,A*4C
$GPGGA,001301.000,3353.7452,N,09832.0252,W,1,08,1.2,311.5,M,-23.7,M,,0000*6C
$GPGSA,A,3,06,03,23,19,13,16,30,20,,,,,1.9,1.2,1.5*35
$GPGSV,3,1,12,23,81,158,37,13,63,320,28,03,49,101,35,16,41,040,37*7E
$GPGSV,3,2,12,06,40,081,27,07,35,300,,19,31,146,36,10,21,295,20*75
$GPGSV,3,3,12,20,15,200,19,30,15,047,27,08,06,279,,32,05,179,29*75
$GPRMC,001301.000,A,3353.7452,N,09832.0252,W,0.02,149.07,310312,,,A*73
$GPGGA,001302.000,3353.7452,N,09832.0251,W,1,08,1.2,311.7,M,-23.7,M,,0000*6E
$GPGSA,A,3,06,03,23,19,13,16,30,20,,,,,1.9,1.2,1.5*35
$GPRMC,001302.000,A,3353.7452,N,09832.0251,W,0.29,60.82,310312,,,A*4D
$GPGGA,001303.000,3353.7452,N,09832.0251,W,1,08,1.2,311.8,M,-23.7,M,,0000*60
$GPGSA,A,3,06,03,23,19,13,16,30,20,,,,,1.9,1.2,1.5*35
$GPRMC,001303.000,A,3353.7452,N,09832.0251,W,0.15,71.16,310312,,,A*4E
$GPGGA,001304.000,3353.7452,N,09832.0251,W,1,08,1.2,312.0,M,-23.7,M,,0000*6C
$GPGSA,A,3,06,03,23,19,13,16,30,20,,,,,1.9,1.2,1.5*35
$GPRMC,001304.000,A,3353.7452,N,09832.0251,W,0.02,218.71,310312,,,A*73
$GPGGA,001305.000,3353.7452,N,09832.0251,W,1,08,1.2,312.0,M,-23.7,M,,0000*6D
$GPGSA,A,3,06,03,23,19,13,16,30,20,,,,,1.9,1.2,1.5*35
$GPRMC,001305.000,A,3353.7452,N,09832.0251,W,0.07,240.84,310312,,,A*70
$GPGGA,001306.000,3353.7452,N,09832.0251,W,1,08,1.2,312.2,M,-23.7,M,,0000*6C
$GPGSA,A,3,06,03,23,19,13,16,30,20,,,,,1.9,1.2,1.5*35
$GPGSV,3,1,12,23,81,158,37,13,63,320,28,03,49,101,35,16,41,040,37*7E
$GPGSV,3,2,12,06,40,081,27,07,35,300,,19,31,146,37,10,21,295,20*74
$GPGSV,3,3,12,20,15,200,20,30,15,047,28,08,06,279,,32,05,179,28*71
$GPRMC,001306.000,A,3353.7452,N,09832.0251,W,0.20,52.86,310312,,,A*45
$GPGGA,001307.000,3353.7452,N,09832.0251,W,1,08,1.2,312.3,M,-23.7,M,,0000*6C
$GPGSA,A,3,06,03,23,19,13,16,30,20,,,,,1.9,1.2,1.5*35
$GPRMC,001307.000,A,3353.7452,N,09832.0251,W,0.09,64.94,310312,,,A*49
$GPGGA,001308.000,3353.7452,N,09832.0251,W,1,08,1.2,312.3,M,-23.7,M,,0000*63
$GPGSA,A,3,06,03,23,19,13,16,30,20,,,,,1.9,1.2,1.5*35
$GPRMC,001308.000,A,3353.7452,N,09832.0251,W,0.08,241.65,310312,,,A*7C
$GPGGA,001309.000,3353.7452,N,09832.0251,W,1,08,1.2,312.4,M,-23.7,M,,0000*65
$GPGSA,A,3,06,03,23,19,13,16,30,20,,,,,1.9,1.2,1.5*35
$GPRMC,001309.000,A,3353.7452,N,09832.0251,W,0.06,49.44,310312,,,A*4A
$GPGGA,001310.000,3353.7452,N,09832.0251,W,1,09,0.9,312.4,M,-23.7,M,,0000*66
$GPGSA,A,3,06,07,03,23,19,13,16,30,20,,,,1.7,0.9,1.4*37
$GPRMC,001310.000,A,3353.7452,N,09832.0251,W,0.14,129.80,310312,,,A*7E
$GPGGA,001311.000,3353.7451,N,09832.0251,W,1,09,0.9,312.5,M,-23.7,M,,0000*65
$GPGSA,A,3,06,07,03,23,19,13,16,30,20,,,,1.7,0.9,1.4*37
$GPGSV,3,1,12,23,81,158,37,13,63,320,28,03,49,101,35,16,41,040,37*7E
$GPGSV,3,2,12,06,40,081,27,07,35,300,14,19,31,146,37,10,21,295,19*7B
$GPGSV,3,3,12,20,15,200,21,30,15,047,28,08,06,279,,32,05,179,28*70
$GPRMC,001311.000,A,3353.7451,N,09832.0251,W,0.19,131.94,310312,,,A*7D
$GPGGA,001312.000,3353.7451,N,09832.0251,W,1,09,0.9,312.5,M,-23.7,M,,0000*66
$GPGSA,A,3,06,07,03,23,19,13,16,30,20,,,,1.7,0.9,1.4*37
$GPRMC,001312.000,A,3353.7451,N,09832.0251,W,0.16,127.55,310312,,,A*7B
$GPGGA,001313.000,3353.7451,N,09832.0251,W,1,09,0.9,312.6,M,-23.7,M,,0000*64
$GPGSA,A,3,06,07,03,23,19,13,16,30,20,,,,1.7,0.9,1.4*37
$GPRMC,001313.000,A,3353.7451,N,09832.0251,W,0.13,121.73,310312,,,A*7D
$GPGGA,001314.000,3353.7451,N,09832.0250,W,1,09,0.9,312.6,M,-23.7,M,,0000*62
$GPGSA,A,3,06,07,03,23,19,13,16,30,20,,,,1.7,0.9,1.4*37
$GPRMC,001314.000,A,3353.7451,N,09832.0250,W,0.19,99.86,310312,,,A*49
$GPGGA,001315.000,3353.7450,N,09832.0250,W,1,09,0.9,312.7,M,-23.7,M,,0000*63
$GPGSA,A,3,06,07,03,23,19,13,16,30,20,,,,1.7,0.9,1.4*37
$GPRMC,001315.000,A,3353.7450,N,09832.0250,W,0.17,128.45,310312,,,A*73
$GPGGA,001316.000,3353.7450,N,09832.0249,W,1,09,0.9,312.7,M,-23.7,M,,0000*68
$GPGSA,A,3,06,07,03,23,19,13,16,30,20,,,,1.7,0.9,1.4*37
$GPGSV,3,1,12,23,81,158,37,13,63,320,29,03,49,101,35,16,41,040,38*70
$GPGSV,3,2,12,06,40,081,26,07,35,300,16,19,31,146,37,10,21,295,18*79
$GPGSV,3,3,12,20,15,200,21,30,15,047,28,08,06,279,,32,05,179,28*70
$GPRMC,001316.000,A,3353.7450,N,09832.0249,W,0.19,125.24,310312,,,A*7C
$GPGGA,001317.000,3353.7450,N,09832.0250,W,1,09,0.9,312.8,M,-23.7,M,,0000*6E
$GPGSA,A,3,06,07,03,23,19,13,16,30,20,,,,1.7,0.9,1.4*37
$GPRMC,001317.000,A,3353.7450,N,09832.0250,W,0.10,267.63,310312,,,A*7A
$GPGGA,001318.000,3353.7450,N,09832.0250,W,1,09,0.9,312.8,M,-23.7,M,,0000*61
$GPGSA,A,3,06,07,03,23,19,13,16,30,20,,,,1.7,0.9,1.4*37
$GPRMC,001318.000,A,3353.7450,N,09832.0250,W,0.13,351.71,310312,,,A*71
$GPGGA,001319.000,3353.7450,N,09832.0250,W,1,09,0.9,312.9,M,-23.7,M,,0000*61
$GPGSA,A,3,06,07,03,23,19,13,16,30,20,,,,1.7,0.9,1.4*37
$GPRMC,001319.000,A,3353.7450,N,09832.0250,W,0.12,282.11,310312,,,A*78
$GPGGA,001320.000,3353.7450,N,09832.0250,W,1,09,0.9,312.9,M,-23.7,M,,0000*6B
$GPGSA,A,3,06,07,03,23,19,13,16,30,20,,,,1.7,0.9,1.4*37
$GPRMC,001320.000,A,3353.7450,N,09832.0250,W,0.09,155.78,310312,,,A*7E
$GPGGA,001321.000,3353.7450,N,09832.0249,W,1,09,0.9,312.9,M,-23.7,M,,0000*62
$GPGSA,A,3,06,07,03,23,19,13,16,30,20,,,,1.7,0.9,1.4*37
$GPGSV,3,1,12,23,81,158,37,13,63,320,29,03,49,101,35,16,41,040,38*70
$GPGSV,3,2,12,06,40,081,27,07,35,300,17,19,31,146,37,10,21,295,18*79
$GPGSV,3,3,12,20,15,200,20,30,15,047,29,08,06,279,,32,05,179,28*70
$GPRMC,001321.000,A,3353.7450,N,09832.0249,W,0.27,89.02,310312,,,A*46
$GPGGA,001322.000,3353.7450,N,09832.0249,W,1,09,0.9,313.0,M,-23.7,M,,0000*69
$GPGSA,A,3,06,07,03,23,19,13,16,30,20,,,,1.7,0.9,1.4*37
$GPRMC,001322.000,A,3353.7450,N,09832.0249,W,0.10,113.01,310312,,,A*70
$GPGGA,001323.000,3353.7450,N,09832.0248,W,1,09,0.9,313.1,M,-23.7,M,,0000*68
$GPGSA,A,3,06,07,03,23,19,13,16,30,20,,,,1.7,0.9,1.4*37
$GPRMC,001323.000,A,3353.7450,N,09832.0248,W,0.26,69.71,310312,,,A*4E
$GPGGA,001324.000,3353.7450,N,09832.0248,W,1,09,0.9,313.3,M,-23.7,M,,0000*6D
$GPGSA,A,3,06,07,03,23,19,13,16,30,20,,,,1.7,0.9,1.4*37
$GPRMC,001324.000,A,3353.7450,N,09832.0248,W,0.26,56.79,310312,,,A*4D
$GPGGA,001325.000,3353.7451,N,09832.0247,W,1,09,0.9,313.5,M,-23.7,M,,0000*64
$GPGSA,A,3,06,07,03,23,19,13,16,30,20,,,,1.7,0.9,1.4*37
$GPRMC,001325.000,A,3353.7451,N,09832.0247,W,0.38,70.24,310312,,,A*41
$GPGGA,001326.000,3353.7451,N,09832.0246,W,1,09,0.9,313.7,M,-23.7,M,,0000*64
$GPGSA,A,3,06,07,03,23,19,13,16,30,20,,,,1.7,0.9,1.4*37
$GPGSV,3,1,12,23,81,158,37,13,63,320,29,03,49,101,35,16,41,040,39*71
$GPGSV,3,2,12,06,40,081,26,07,35,300,18,19,31,146,37,10,21,295,20*7C
$GPGSV,3,3,12,20,15,200,16,30,15,047,28,08,06,279,,32,05,179,28*74
$GPRMC,001326.000,A,3353.7451,N,09832.0246,W,0.30,54.72,310312,,,A*4E
$GPGGA,001327.000,3353.7451,N,09832.0244,W,1,09,0.9,314.0,M,-23.7,M,,0000*67
$GPGSA,A,3,06,07,03,23,19,13,16,30,20,,,,1.7,0.9,1.4*37
$GPRMC,001327.000,A,3353.7451,N,09832.0244,W,0.50,75.99,310312,,,A*4D
$GPGGA,001328.000,3353.7452,N,09832.0243,W,1,09,0.9,314.3,M,-23.7,M,,0000*6F
$GPGSA,A,3,06,07,03,23,19,13,16,30,20,,,,1.7,0.9,1.4*37
$GPRMC,001328.000,A,3353.7452,N,09832.0243,W,0.35,66.51,310312,,,A*43
$GPGGA,001329.000,3353.7452,N,09832.0243,W,1,09,0.9,314.5,M,-23.7,M,,0000*68
$GPGSA,A,3,06,07,03,23,19,13,16,30,20,,,,1.7,0.9,1.4*37
$GPRMC,001329.000,A,3353.7452,N,09832.0243,W,0.13,73.36,310312,,,A*43
$GPGGA,001330.000,3353.7452,N,09832.0242,W,1,09,0.9,314.8,M,-23.7,M,,0000*6C
$GPGSA,A,3,06,07,03,23,19,13,16,30,20,,,,1.7,0.9,1.4*37
$GPRMC,001330.000,A,3353.7452,N,09832.0242,W,0.19,83.39,310312,,,A*40
$GPGGA,001331.000,3353.7452,N,09832.0242,W,1,09,0.9,315.0,M,-23.7,M,,0000*64
$GPGSA,A,3,06,07,03,23,19,13,16,30,20,,,,1.7,0.9,1.4*37
$GPGSV,3,1,12,23,81,158,37,13,63,320,28,03,49,101,35,16,41,040,39*70
$GPGSV,3,2,12,06,40,081,26,07,35,300,19,19,31,146,37,10,21,295,21*7C
$GPGSV,3,3,12,20,15,200,14,30,15,047,29,08,06,279,,32,05,179,28*77
$GPRMC,001331.000,A,3353.7452,N,09832.0242,W,0.07,313.16,310312,,,A*79
