$GPGGA,225637.000,3353.7560,N,09832.0217,W,2,08,1.1,325.6,M,-23.7,M,2.8,0000*49
$GPGSA,A,3,30,32,06,23,16,13,20,03,,,,,2.8,1.1,2.6*3D
$GPRMC,225637.000,A,3353.7560,N,09832.0217,W,0.46,65.64,020412,,,D*4E
$GPGGA,225638.000,3353.7558,N,09832.0221,W,2,08,1.1,325.3,M,-23.7,M,3.8,0000*4C
$GPGSA,A,3,30,32,06,23,16,13,20,03,,,,,2.8,1.1,2.6*3D
$GPRMC,225638.000,A,3353.7558,N,09832.0221,W,0.65,57.33,020412,,,D*4D
$GPGGA,225639.000,3353.7557,N,09832.0219,W,2,08,1.1,326.3,M,-23.7,M,0.8,0000*49
$GPGSA,A,3,30,32,06,23,16,13,20,03,,,,,2.8,1.1,2.6*3D
$GPRMC,225639.000,A,3353.7557,N,09832.0219,W,0.39,61.37,020412,,,D*40
$GPGGA,225640.000,3353.7555,N,09832.0224,W,2,08,1.1,326.1,M,-23.7,M,0.8,0000*49
$GPGSA,A,3,30,32,06,23,16,13,20,03,,,,,2.8,1.1,2.6*3D
$GPGSV,3,1,12,16,68,056,31,23,67,331,39,30,40,044,31,20,39,218,24*7B
$GPGSV,3,2,12,13,35,318,24,03,32,136,30,06,31,117,37,32,30,188,19*7A
$GPGSV,3,3,12,07,18,275,,10,10,319,,31,09,071,33,19,07,163,*79
$GPRMC,225640.000,A,3353.7555,N,09832.0224,W,0.33,199.72,020412,,,D*7F
$GPGGA,225641.000,3353.7554,N,09832.0227,W,2,08,1.1,326.1,M,-23.7,M,0.8,0000*4A
$GPGSA,A,3,30,32,06,23,16,13,20,03,,,,,2.8,1.1,2.6*3D
$GPRMC,225641.000,A,3353.7554,N,09832.0227,W,0.24,146.33,020412,,,D*7D
$GPGGA,225642.000,3353.7553,N,09832.0229,W,2,09,1.0,326.0,M,-23.7,M,0.8,0000*41
$GPGSA,A,3,30,32,06,23,16,13,20,07,03,,,,2.3,1.0,2.0*36
$GPRMC,225642.000,A,3353.7553,N,09832.0229,W,0.28,93.31,020412,,,D*40
$GPGGA,225643.000,3353.7552,N,09832.0233,W,2,09,1.0,325.5,M,-23.7,M,1.8,0000*4D
$GPGSA,A,3,30,32,06,23,16,13,20,07,03,,,,2.3,1.0,2.0*36
$GPRMC,225643.000,A,3353.7552,N,09832.0233,W,0.07,288.07,020412,,,D*7B
$GPGGA,225644.000,3353.7550,N,09832.0239,W,2,09,1.0,324.9,M,-23.7,M,0.8,0000*4E
$GPGSA,A,3,30,32,06,23,16,13,20,07,03,,,,2.3,1.0,2.0*36
$GPRMC,225644.000,A,3353.7550,N,09832.0239,W,0.27,213.32,020412,,,D*72
$GPGGA,225645.000,3353.7546,N,09832.0247,W,2,09,1.0,324.5,M,-23.7,M,0.8,0000*4D
$GPGSA,A,3,30,32,06,23,16,13,20,07,03,,,,2.3,1.0,2.0*36
$GPGSV,3,1,12,16,68,056,31,23,67,331,40,30,40,044,31,20,39,218,23*72
$GPGSV,3,2,12,13,35,318,23,03,32,136,31,06,31,117,37,32,30,188,18*7D
$GPGSV,3,3,12,07,18,275,20,10,10,319,,31,09,071,33,19,07,163,*7B
$GPRMC,225645.000,A,3353.7546,N,09832.0247,W,0.42,172.70,020412,,,D*7C
$GPGGA,225646.000,3353.7547,N,09832.0246,W,2,09,1.0,324.2,M,-23.7,M,0.8,0000*49
$GPGSA,A,3,30,32,06,23,16,13,20,07,03,,,,2.3,1.0,2.0*36
$GPRMC,225646.000,A,3353.7547,N,09832.0246,W,0.12,97.24,020412,,,D*41
$GPGGA,225647.000,3353.7550,N,09832.0244,W,2,09,1.0,323.9,M,-23.7,M,0.8,0000*40
$GPGSA,A,3,30,32,06,23,16,13,20,07,03,,,,2.3,1.0,2.0*36
$GPRMC,225647.000,A,3353.7550,N,09832.0244,W,0.49,39.86,020412,,,D*46
$GPGGA,225648.000,3353.7553,N,09832.0242,W,2,09,1.0,323.8,M,-23.7,M,1.8,0000*4A
$GPGSA,A,3,30,32,06,23,16,13,20,07,03,,,,2.3,1.0,2.0*36
$GPRMC,225648.000,A,3353.7553,N,09832.0242,W,0.37,48.69,020412,,,D*42
$GPGGA,225649.000,3353.7554,N,09832.0242,W,2,09,1.0,323.7,M,-23.7,M,2.8,0000*40
$GPGSA,A,3,30,32,06,23,16,13,20,07,03,,,,2.3,1.0,2.0*36
$GPRMC,225649.000,A,3353.7554,N,09832.0242,W,0.53,51.32,020412,,,D*40
$GPGGA,225650.000,3353.7556,N,09832.0240,W,2,09,1.0,323.4,M,-23.7,M,3.8,0000*4A
$GPGSA,A,3,30,32,06,23,16,13,20,07,03,,,,2.3,1.0,2.0*36
$GPGSV,3,1,12,16,68,056,30,23,67,331,40,30,40,044,32,20,39,218,23*70
$GPGSV,3,2,12,13,35,318,22,03,32,136,31,06,31,117,37,32,30,188,17*73
$GPGSV,3,3,12,07,18,275,20,10,10,319,,31,09,071,33,19,07,163,*7B
$GPRMC,225650.000,A,3353.7556,N,09832.0240,W,0.20,44.69,020412,,,D*46
$GPGGA,225651.000,3353.7556,N,09832.0242,W,2,08,1.1,323.1,M,-23.7,M,0.8,0000*4F
$GPGSA,A,3,30,32,06,23,16,13,20,03,,,,,2.8,1.1,2.6*3D
$GPRMC,225651.000,A,3353.7556,N,09832.0242,W,0.24,21.92,020412,,,D*46
$GPGGA,225652.000,3353.7561,N,09832.0239,W,2,08,1.1,323.4,M,-23.7,M,0.8,0000*41
$GPGSA,A,3,30,32,06,23,16,13,20,03,,,,,2.8,1.1,2.6*3D
$GPRMC,225652.000,A,3353.7561,N,09832.0239,W,0.22,347.64,020412,,,D*71
$GPGGA,225653.000,3353.7564,N,09832.0236,W,2,08,1.1,323.6,M,-23.7,M,0.8,0000*48
$GPGSA,A,3,30,32,06,23,16,13,20,03,,,,,2.8,1.1,2.6*3D
$GPRMC,225653.000,A,3353.7564,N,09832.0236,W,0.43,21.79,020412,,,D*42
$GPGGA,225654.000,3353.7565,N,09832.0236,W,2,09,1.0,323.5,M,-23.7,M,1.8,0000*4C
$GPGSA,A,3,30,32,06,23,16,13,20,07,03,,,,2.3,1.0,2.0*36
$GPRMC,225654.000,A,3353.7565,N,09832.0236,W,0.24,7.32,020412,,,D*7E
$GPGGA,225655.000,3353.7564,N,09832.0237,W,2,09,1.0,323.4,M,-23.7,M,2.8,0000*4F
$GPGSA,A,3,30,32,06,23,16,13,20,07,03,,,,2.3,1.0,2.0*36
$GPGSV,3,1,12,16,68,056,30,23,67,331,40,30,40,044,32,20,39,218,23*70
$GPGSV,3,2,12,13,35,318,21,03,32,136,31,06,31,117,37,32,30,188,24*70
$GPGSV,3,3,12,07,18,275,14,10,10,319,,31,09,071,33,19,07,163,*7C
$GPRMC,225655.000,A,3353.7564,N,09832.0237,W,0.01,175.72,020412,,,D*78
$GPGGA,225656.000,3353.7564,N,09832.0239,W,2,09,1.0,323.0,M,-23.7,M,3.8,0000*47
$GPGSA,A,3,30,32,06,23,16,13,20,07,03,,,,2.3,1.0,2.0*36
$GPRMC,225656.000,A,3353.7564,N,09832.0239,W,0.51,232.82,020412,,,D*7F
$GPGGA,225657.000,3353.7563,N,09832.0239,W,2,09,1.0,323.1,M,-23.7,M,0.8,0000*43
$GPGSA,A,3,30,32,06,23,16,13,20,07,03,,,,2.3,1.0,2.1*37
$GPRMC,225657.000,A,3353.7563,N,09832.0239,W,0.18,95.10,020412,,,D*40
$GPGGA,225658.000,3353.7566,N,09832.0235,W,2,09,1.0,323.4,M,-23.7,M,0.8,0000*40
$GPGSA,A,3,30,32,06,23,16,13,20,07,03,,,,2.3,1.0,2.1*37
$GPRMC,225658.000,A,3353.7566,N,09832.0235,W,0.29,58.56,020412,,,D*47
$GPGGA,225659.000,3353.7569,N,09832.0229,W,2,08,1.1,324.2,M,-23.7,M,0.8,0000*42
$GPGSA,A,3,30,32,06,23,16,13,07,03,,,,,2.5,1.1,2.2*31
$GPRMC,225659.000,A,3353.7569,N,09832.0229,W,0.72,54.65,020412,,,D*46
$GPGGA,225700.000,3353.7570,N,09832.0226,W,2,08,1.1,324.4,M,-23.7,M,0.8,0000*4E
$GPGSA,A,3,30,32,06,23,16,13,07,03,,,,,2.5,1.1,2.2*31
$GPGSV,3,1,12,16,68,056,30,23,67,331,40,30,40,044,31,20,39,218,*72
$GPGSV,3,2,12,13,35,318,21,03,32,136,30,06,31,117,37,32,30,188,25*70
$GPGSV,3,3,12,07,18,275,15,10,10,319,,31,09,071,32,19,07,163,*7C
$GPRMC,225700.000,A,3353.7570,N,09832.0226,W,0.23,54.26,020412,,,D*4F
$GPGGA,225701.000,3353.7571,N,09832.0223,W,2,08,1.1,324.8,M,-23.7,M,0.8,0000*47
$GPGSA,A,3,30,32,06,23,16,13,07,03,,,,,2.5,1.1,2.2*31
$GPRMC,225701.000,A,3353.7571,N,09832.0223,W,0.36,76.75,020412,,,D*48
$GPGGA,225702.000,3353.7573,N,09832.0220,W,2,08,1.1,325.0,M,-23.7,M,1.8,0000*4D
$GPGSA,A,3,30,32,06,23,16,13,07,03,,,,,2.5,1.1,2.2*31
$GPRMC,225702.000,A,3353.7573,N,09832.0220,W,0.15,34.11,020412,,,D*4F
$GPGGA,225703.000,3353.7574,N,09832.0219,W,2,08,1.1,325.3,M,-23.7,M,0.8,0000*43
$GPGSA,A,3,30,32,06,23,16,13,07,03,,,,,2.5,1.1,2.2*31
$GPRMC,225703.000,A,3353.7574,N,09832.0219,W,0.17,35.50,020412,,,D*45
$GPGGA,225704.000,3353.7575,N,09832.0216,W,2,09,1.0,325.7,M,-23.7,M,0.8,0000*4E
$GPGSA,A,3,30,32,06,23,16,13,20,07,03,,,,2.3,1.0,2.1*37
$GPRMC,225704.000,A,3353.7575,N,09832.0216,W,0.11,94.48,020412,,,D*48
$GPGGA,225705.000,3353.7576,N,09832.0214,W,2,09,1.0,326.0,M,-23.7,M,0.8,0000*4A
$GPGSA,A,3,30,32,06,23,16,13,20,07,03,,,,2.3,1.0,2.1*37
$GPGSV,3,1,12,16,68,056,31,23,67,331,40,30,40,044,32,20,39,218,23*71
$GPGSV,3,2,12,13,35,318,22,03,32,136,29,06,31,117,37,32,30,188,25*7B
$GPGSV,3,3,12,07,18,275,17,10,10,319,,31,09,071,32,19,07,163,*7E
$GPRMC,225705.000,A,3353.7576,N,09832.0214,W,0.02,174.17,020412,,,D*7F
$GPGGA,225706.000,3353.7576,N,09832.0211,W,2,09,1.0,326.4,M,-23.7,M,1.8,0000*49
$GPGSA,A,3,30,32,06,23,16,13,20,07,03,,,,2.3,1.0,2.1*37
$GPRMC,225706.000,A,3353.7576,N,09832.0211,W,0.10,173.83,020412,,,D*70
$GPGGA,225707.000,3353.7577,N,09832.0209,W,2,09,1.0,326.7,M,-23.7,M,0.8,0000*42
$GPGSA,A,3,30,32,06,23,16,13,20,07,03,,,,2.3,1.0,2.1*37
$GPRMC,225707.000,A,3353.7577,N,09832.0209,W,0.15,55.26,020412,,,D*46
$GPGGA,225708.000,3353.7578,N,09832.0206,W,2,09,1.0,327.2,M,-23.7,M,1.8,0000*48
$GPGSA,A,3,30,32,06,23,16,13,20,07,03,,,,2.3,1.0,2.1*37
$GPRMC,225708.000,A,3353.7578,N,09832.0206,W,0.12,107.68,020412,,,D*72
$GPGGA,225709.000,3353.7579,N,09832.0203,W,2,09,1.0,327.4,M,-23.7,M,0.8,0000*4A
$GPGSA,A,3,30,32,06,23,16,13,20,07,03,,,,2.3,1.0,2.1*37
$GPRMC,225709.000,A,3353.7579,N,09832.0203,W,0.18,231.63,020412,,,D*70
$GPGGA,225710.000,3353.7575,N,09832.0208,W,2,09,1.0,327.1,M,-23.7,M,0.8,0000*40
$GPGSA,A,3,30,32,06,23,16,13,20,07,03,,,,2.3,1.0,2.1*37
$GPGSV,3,1,12,16,68,056,31,23,67,331,40,30,40,044,32,20,39,218,23*71
$GPGSV,3,2,12,13,35,318,22,03,32,136,29,06,31,117,37,32,30,188,25*7B
$GPGSV,3,3,12,07,18,275,19,10,10,319,,31,09,071,32,19,07,163,*70
$GPRMC,225710.000,A,3353.7575,N,09832.0208,W,0.56,230.28,020412,,,D*7B
$GPGGA,225711.000,3353.7576,N,09832.0205,W,2,09,1.0,327.4,M,-23.7,M,0.8,0000*4A
$GPGSA,A,3,30,32,06,23,16,13,20,07,03,,,,2.3,1.0,2.1*37
$GPRMC,225711.000,A,3353.7576,N,09832.0205,W,0.32,206.08,020412,,,D*71
$GPGGA,225712.000,3353.7577,N,09832.0203,W,2,09,1.0,327.7,M,-23.7,M,1.8,0000*4C
$GPGSA,A,3,30,32,06,23,16,13,20,07,03,,,,2.3,1.0,2.1*37
$GPRMC,225712.000,A,3353.7577,N,09832.0203,W,0.10,206.98,020412,,,D*7C
$GPGGA,225713.000,3353.7576,N,09832.0202,W,2,09,1.0,327.9,M,-23.7,M,0.8,0000*42
$GPGSA,A,3,30,32,06,23,16,13,20,07,03,,,,2.3,1.0,2.1*37
$GPRMC,225713.000,A,3353.7576,N,09832.0202,W,0.14,81.95,020412,,,D*49
$GPGGA,225714.000,3353.7578,N,09832.0200,W,2,09,1.0,328.0,M,-23.7,M,0.8,0000*4F
$GPGSA,A,3,30,32,06,23,16,13,20,07,03,,,,2.3,1.0,2.1*37
$GPRMC,225714.000,A,3353.7578,N,09832.0200,W,0.13,311.49,020412,,,D*7E
$GPGGA,225715.000,3353.7579,N,09832.0197,W,2,09,1.0,328.6,M,-23.7,M,0.8,0000*44
$GPGSA,A,3,30,32,06,23,16,13,20,07,03,,,,2.3,1.0,2.1*37
$GPGSV,3,1,12,16,68,056,31,23,67,331,40,30,40,044,32,20,39,218,23*71
$GPGSV,3,2,12,13,35,318,22,03,32,136,29,06,31,117,37,32,30,188,25*7B
$GPGSV,3,3,12,07,18,275,20,10,10,319,,31,09,071,31,19,07,163,*79
$GPRMC,225715.000,A,3353.7579,N,09832.0197,W,0.15,62.28,020412,,,D*45
$GPGGA,225716.000,3353.7580,N,09832.0194,W,2,09,1.0,328.9,M,-23.7,M,0.8,0000*4D
$GPGSA,A,3,30,32,06,23,16,13,20,07,03,,,,2.3,1.0,2.1*37
$GPRMC,225716.000,A,3353.7580,N,09832.0194,W,0.25,7.57,020412,,,D*7B
$GPGGA,225717.000,3353.7577,N,09832.0198,W,2,09,1.0,328.8,M,-23.7,M,0.8,0000*49
$GPGSA,A,3,30,32,06,23,16,13,20,07,03,,,,2.3,1.0,2.1*37
$GPRMC,225717.000,A,3353.7577,N,09832.0198,W,0.43,230.06,020412,,,D*7C
$GPGGA,225718.000,3353.7576,N,09832.0197,W,2,09,1.0,329.2,M,-23.7,M,1.8,0000*42
$GPGSA,A,3,30,32,06,23,16,13,20,07,03,,,,2.3,1.0,2.1*37
$GPRMC,225718.000,A,3353.7576,N,09832.0197,W,0.21,216.52,020412,,,D*7C
$GPGGA,225719.000,3353.7576,N,09832.0195,W,2,09,1.0,329.5,M,-23.7,M,2.8,0000*45
$GPGSA,A,3,30,32,06,23,16,13,20,07,03,,,,2.3,1.0,2.1*37
$GPRMC,225719.000,A,3353.7576,N,09832.0195,W,0.21,11.80,020412,,,D*45
$GPGGA,225720.000,3353.7574,N,09832.0198,W,2,09,1.0,329.5,M,-23.7,M,3.8,0000*41
$GPGSA,A,3,30,32,06,23,16,13,20,07,03,,,,2.3,1.0,2.1*37
$GPGSV,3,1,12,16,68,056,31,23,67,331,40,30,40,044,31,20,39,218,23*72
$GPGSV,3,2,12,13,35,318,21,03,32,136,29,06,31,117,37,32,30,188,24*79
$GPGSV,3,3,12,07,18,275,21,10,10,319,,31,09,071,32,19,07,163,*7B
$GPRMC,225720.000,A,3353.7574,N,09832.0198,W,0.26,43.59,020412,,,D*44
$GPGGA,225721.000,3353.7572,N,09832.0198,W,2,09,1.0,329.5,M,-23.7,M,0.8,0000*45
$GPGSA,A,3,30,32,06,23,16,13,20,07,03,,,,2.3,1.0,2.1*37
$GPRMC,225721.000,A,3353.7572,N,09832.0198,W,0.08,126.92,020412,,,D*7A
$GPGGA,225722.000,3353.7571,N,09832.0198,W,2,09,1.0,329.5,M,-23.7,M,0.8,0000*45
$GPGSA,A,3,30,32,06,23,16,13,20,07,03,,,,2.3,1.0,2.1*37
$GPRMC,225722.000,A,3353.7571,N,09832.0198,W,0.25,204.12,020412,,,D*7E
$GPGGA,225723.000,3353.7569,N,09832.0200,W,2,09,1.0,329.2,M,-23.7,M,0.8,0000*48
$GPGSA,A,3,30,32,06,23,16,13,20,07,03,,,,2.3,1.0,2.1*37
$GPRMC,225723.000,A,3353.7569,N,09832.0200,W,0.17,230.67,020412,,,D*70
$GPGGA,225724.000,3353.7569,N,09832.0200,W,2,09,1.0,329.0,M,-23.7,M,1.8,0000*4C
$GPGSA,A,3,30,32,06,23,16,13,20,07,03,,,,2.3,1.0,2.1*37
$GPRMC,225724.000,A,3353.7569,N,09832.0200,W,0.12,303.23,020412,,,D*73
$GPGGA,225725.000,3353.7567,N,09832.0203,W,2,09,1.0,328.7,M,-23.7,M,2.8,0000*45
$GPGSA,A,3,30,32,06,23,16,13,20,07,03,,,,2.3,1.0,2.1*37
$GPGSV,3,1,12,16,68,056,31,23,67,331,40,30,40,044,30,20,39,218,22*72
$GPGSV,3,2,12,13,35,318,21,03,32,136,29,06,31,117,37,32,30,188,24*79
$GPGSV,3,3,12,07,18,275,22,10,10,319,,31,09,071,32,19,07,163,*78
$GPRMC,225725.000,A,3353.7567,N,09832.0203,W,0.19,20.62,020412,,,D*43
$GPGGA,225726.000,3353.7563,N,09832.0208,W,2,09,1.0,328.1,M,-23.7,M,3.8,0000*4E
$GPGSA,A,3,30,32,06,23,16,13,20,07,03,,,,2.3,1.0,2.1*37
$GPRMC,225726.000,A,3353.7563,N,09832.0208,W,0.40,242.06,020412,,,D*77
$GPGGA,225727.000,3353.7560,N,09832.0214,W,2,08,1.1,327.4,M,-23.7,M,0.8,0000*48
$GPGSA,A,3,30,32,06,23,16,13,20,03,,,,,2.8,1.1,2.6*3D
$GPRMC,225727.000,A,3353.7560,N,09832.0214,W,0.41,240.13,020412,,,D*7F
$GPGGA,225728.000,3353.7557,N,09832.0217,W,2,09,1.0,327.3,M,-23.7,M,0.8,0000*47
$GPGSA,A,3,30,32,06,23,16,13,20,07,03,,,,2.3,1.0,2.1*37
$GPRMC,225728.000,A,3353.7557,N,09832.0217,W,0.16,38.11,020412,,,D*4A
$GPGGA,225729.000,3353.7554,N,09832.0223,W,2,09,1.0,327.0,M,-23.7,M,0.8,0000*41
$GPGSA,A,3,30,32,06,23,16,13,20,07,03,,,,2.3,1.0,2.1*37
$GPRMC,225729.000,A,3353.7554,N,09832.0223,W,0.24,85.27,020412,,,D*4D
$GPGGA,225730.000,3353.7554,N,09832.0224,W,2,09,1.0,326.7,M,-23.7,M,0.8,0000*48
$GPGSA,A,3,30,32,06,23,16,13,20,07,03,,,,2.3,1.0,2.1*37
$GPGSV,3,1,12,16,68,056,30,23,67,331,40,30,40,044,31,20,39,218,21*71
$GPGSV,3,2,12,13,35,318,20,03,32,136,29,06,31,117,37,32,30,188,23*7F
$GPGSV,3,3,12,07,18,275,14,10,10,319,,31,09,071,32,19,07,163,*7D
$GPRMC,225730.000,A,3353.7554,N,09832.0224,W,0.09,39.98,020412,,,D*4E
$GPGGA,225731.000,3353.7551,N,09832.0228,W,2,09,1.0,326.2,M,-23.7,M,0.8,0000*45
$GPGSA,A,3,30,32,06,23,16,13,20,07,03,,,,2.3,1.0,2.1*37
$GPRMC,225731.000,A,3353.7551,N,09832.0228,W,0.47,222.06,020412,,,D*73
$GPGGA,225732.000,3353.7549,N,09832.0231,W,2,09,1.0,325.8,M,-23.7,M,1.8,0000*4F
$GPGSA,A,3,30,32,06,23,16,13,20,07,03,,,,2.3,1.0,2.1*37
$GPRMC,225732.000,A,3353.7549,N,09832.0231,W,0.50,236.60,020412,,,D*72
$GPGGA,225733.000,3353.7547,N,09832.0234,W,2,09,1.0,325.2,M,-23.7,M,0.8,0000*4E
$GPGSA,A,3,30,32,06,23,16,13,20,07,03,,,,2.3,1.0,2.1*37
$GPRMC,225733.000,A,3353.7547,N,09832.0234,W,0.17,29.06,020412,,,D*47
$GPGGA,225734.000,3353.7548,N,09832.0233,W,2,09,1.0,324.8,M,-23.7,M,0.8,0000*4A
$GPGSA,A,3,30,32,06,23,16,13,20,07,03,,,,2.3,1.0,2.1*37
$GPRMC,225734.000,A,3353.7548,N,09832.0233,W,0.14,280.56,020412,,,D*7F
$GPGGA,225735.000,3353.7546,N,09832.0237,W,2,09,1.0,324.1,M,-23.7,M,0.8,0000*48
$GPGSA,A,3,30,32,06,23,16,13,20,07,03,,,,2.3,1.0,2.1*37
$GPGSV,3,1,12,16,68,056,30,23,67,331,40,30,40,044,31,20,39,218,21*71
$GPGSV,3,2,12,13,35,318,20,03,32,136,24,06,31,117,37,32,30,188,22*73
$GPGSV,3,3,12,07,18,275,15,10,10,319,,31,09,071,32,19,07,163,*7C
$GPRMC,225735.000,A,3353.7546,N,09832.0237,W,0.26,236.51,020412,,,D*7F
$GPGGA,225736.000,3353.7547,N,09832.0238,W,2,09,1.0,323.8,M,-23.7,M,1.8,0000*4A
$GPGSA,A,3,30,32,06,23,16,13,20,07,03,,,,2.3,1.0,2.1*37
$GPRMC,225736.000,A,3353.7547,N,09832.0238,W,0.29,252.71,020412,,,D*7D
$GPGGA,225737.000,3353.7545,N,09832.0241,W,2,09,1.0,323.1,M,-23.7,M,2.8,0000*4D
$GPGSA,A,3,30,32,06,23,16,13,20,07,03,,,,2.3,1.0,2.1*37
$GPRMC,225737.000,A,3353.7545,N,09832.0241,W,0.33,275.73,020412,,,D*7C
$GPGGA,225738.000,3353.7544,N,09832.0244,W,2,09,1.0,322.7,M,-23.7,M,3.8,0000*40
$GPGSA,A,3,30,32,06,23,16,13,20,07,03,,,,2.3,1.0,2.1*37
$GPRMC,225738.000,A,3353.7544,N,09832.0244,W,0.09,164.94,020412,,,D*74
$GPGGA,225739.000,3353.7540,N,09832.0248,W,2,09,1.0,322.3,M,-23.7,M,0.8,0000*4E
$GPGSA,A,3,30,32,06,23,16,13,20,07,03,,,,2.3,1.0,2.1*37
$GPRMC,225739.000,A,3353.7540,N,09832.0248,W,0.14,31.10,020412,,,D*4C
$GPGGA,225740.000,3353.7540,N,09832.0249,W,2,09,1.0,322.2,M,-23.7,M,0.8,0000*40
$GPGSA,A,3,30,32,06,23,16,13,20,07,03,,,,2.3,1.0,2.1*37
$GPGSV,3,1,12,16,68,056,30,23,67,331,39,30,40,044,31,20,39,218,21*7F
$GPGSV,3,2,12,13,35,318,21,03,32,136,24,06,31,117,37,32,30,188,23*73
$GPGSV,3,3,12,07,18,275,15,10,10,319,,31,09,071,32,19,07,163,*7C
$GPRMC,225740.000,A,3353.7540,N,09832.0249,W,0.27,66.70,020412,,,D*47
$GPGGA,225741.000,3353.7540,N,09832.0251,W,2,09,1.0,321.9,M,-23.7,M,0.8,0000*40
$GPGSA,A,3,30,32,06,23,16,13,20,07,03,,,,2.3,1.0,2.1*37
$GPRMC,225741.000,A,3353.7540,N,09832.0251,W,0.46,232.13,020412,,,D*7E
$GPGGA,225742.000,3353.7540,N,09832.0253,W,2,09,1.0,321.4,M,-23.7,M,1.8,0000*4D
$GPGSA,A,3,30,32,06,23,16,13,20,07,03,,,,2.3,1.0,2.1*37
$GPRMC,225742.000,A,3353.7540,N,09832.0253,W,0.17,287.11,020412,,,D*77
$GPGGA,225743.000,3353.7539,N,09832.0254,W,2,09,1.0,321.4,M,-23.7,M,2.8,0000*46
$GPGSA,A,3,30,32,06,23,16,13,20,07,03,,,,2.3,1.0,2.1*37
$GPRMC,225743.000,A,3353.7539,N,09832.0254,W,0.25,64.69,020412,,,D*4E
$GPGGA,225744.000,3353.7540,N,09832.0253,W,2,09,1.0,321.5,M,-23.7,M,3.8,0000*48
$GPGSA,A,3,30,32,06,23,16,13,20,07,03,,,,2.3,1.0,2.1*37
$GPRMC,225744.000,A,3353.7540,N,09832.0253,W,0.45,56.57,020412,,,D*4A
$GPGGA,225745.000,3353.7540,N,09832.0250,W,2,09,1.0,321.7,M,-23.7,M,0.8,0000*4B
$GPGSA,A,3,30,32,06,23,16,13,20,07,03,,,,2.3,1.0,2.1*37
$GPGSV,3,1,12,16,68,056,30,23,67,331,39,30,40,044,31,20,39,218,21*7F
$GPGSV,3,2,12,13,35,318,20,03,32,136,25,06,31,117,37,32,30,188,24*74
$GPGSV,3,3,12,07,18,275,15,10,10,319,,31,09,071,32,19,07,163,*7C
$GPRMC,225745.000,A,3353.7540,N,09832.0250,W,0.49,58.71,020412,,,D*4E
$GPGGA,225746.000,3353.7540,N,09832.0250,W,2,09,1.0,321.6,M,-23.7,M,0.8,0000*49
$GPGSA,A,3,30,32,06,23,16,13,20,07,03,,,,2.3,1.0,2.1*37
$GPRMC,225746.000,A,3353.7540,N,09832.0250,W,0.36,85.70,020412,,,D*44
$GPGGA,225747.000,3353.7539,N,09832.0247,W,2,09,1.0,322.2,M,-23.7,M,0.8,0000*47
$GPGSA,A,3,30,32,06,23,16,13,20,07,03,,,,2.3,1.0,2.1*37
$GPRMC,225747.000,A,3353.7539,N,09832.0247,W,0.40,110.49,020412,,,D*7B
$GPGGA,225748.000,3353.7537,N,09832.0244,W,2,09,1.0,322.7,M,-23.7,M,0.8,0000*40
$GPGSA,A,3,30,32,06,23,16,13,20,07,03,,,,2.3,1.0,2.1*37
$GPRMC,225748.000,A,3353.7537,N,09832.0244,W,0.39,113.46,020412,,,D*7B
$GPGGA,225749.000,3353.7537,N,09832.0241,W,2,09,1.0,323.2,M,-23.7,M,1.8,0000*41
$GPGSA,A,3,30,32,06,23,16,13,20,07,03,,,,2.3,1.0,2.1*37
$GPRMC,225749.000,A,3353.7537,N,09832.0241,W,0.55,77.42,020412,,,D*42
$GPGGA,225750.000,3353.7537,N,09832.0238,W,2,09,1.0,323.3,M,-23.7,M,2.8,0000*45
$GPGSA,A,3,30,32,06,23,16,13,20,07,03,,,,2.3,1.0,2.1*37
$GPGSV,3,1,12,16,68,056,30,23,67,331,39,30,40,044,31,20,39,218,21*7F
$GPGSV,3,2,12,13,35,318,21,03,32,136,26,06,31,117,37,32,30,188,25*77
$GPGSV,3,3,12,07,18,275,16,10,10,319,,31,09,071,32,19,07,163,*7F
$GPRMC,225750.000,A,3353.7537,N,09832.0238,W,0.33,58.96,020412,,,D*40
$GPGGA,225751.000,3353.7537,N,09832.0235,W,2,09,1.0,323.7,M,-23.7,M,0.8,0000*4F
$GPGSA,A,3,30,32,06,23,16,13,20,07,03,,,,2.3,1.0,2.1*37
$GPRMC,225751.000,A,3353.7537,N,09832.0235,W,0.36,61.30,020412,,,D*4F
$GPGGA,225752.000,3353.7538,N,09832.0231,W,2,09,1.0,324.3,M,-23.7,M,0.8,0000*44
$GPGSA,A,3,30,32,06,23,16,13,20,07,03,,,,2.3,1.0,2.1*37
$GPRMC,225752.000,A,3353.7538,N,09832.0231,W,0.52,52.11,020412,,,D*46
$GPGGA,225753.000,3353.7537,N,09832.0230,W,2,09,1.0,324.8,M,-23.7,M,0.8,0000*40
$GPGSA,A,3,30,32,06,23,16,13,20,07,03,,,,2.3,1.0,2.1*37
$GPRMC,225753.000,A,3353.7537,N,09832.0230,W,0.53,82.10,020412,,,D*44
$GPGGA,225754.000,3353.7536,N,09832.0228,W,2,09,1.0,325.4,M,-23.7,M,1.8,0000*43
$GPGSA,A,3,30,32,06,23,16,13,20,07,03,,,,2.3,1.0,2.1*37
$GPRMC,225754.000,A,3353.7536,N,09832.0228,W,0.45,93.85,020412,,,D*40
$GPGGA,225755.000,3353.7536,N,09832.0225,W,2,09,1.0,325.7,M,-23.7,M,0.8,0000*4D
$GPGSA,A,3,30,32,06,23,16,13,20,07,03,,,,2.3,1.0,2.1*37
$GPGSV,3,1,12,16,68,056,30,23,67,331,39,30,40,044,31,20,39,218,20*7E
$GPGSV,3,2,12,13,35,318,21,03,32,136,27,06,31,117,36,32,30,188,26*74
$GPGSV,3,3,12,07,18,275,15,10,10,319,,31,09,071,32,19,07,163,*7C
$GPRMC,225755.000,A,3353.7536,N,09832.0225,W,0.27,82.02,020412,,,D*47
$GPGGA,225756.000,3353.7536,N,09832.0224,W,2,09,1.0,326.1,M,-23.7,M,1.8,0000*4B
$GPGSA,A,3,30,32,06,23,16,13,20,07,03,,,,2.3,1.0,2.1*37
$GPRMC,225756.000,A,3353.7536,N,09832.0224,W,0.29,93.67,020412,,,D*48
$GPGGA,225757.000,3353.7535,N,09832.0222,W,2,09,1.0,326.2,M,-23.7,M,0.8,0000*4D
$GPGSA,A,3,30,32,06,23,16,13,20,07,03,,,,2.3,1.0,2.1*37
$GPRMC,225757.000,A,3353.7535,N,09832.0222,W,0.13,151.35,020412,,,D*7D
$GPGGA,225758.000,3353.7535,N,09832.0221,W,2,08,1.1,326.2,M,-23.7,M,0.8,0000*41
$GPGSA,A,3,30,32,06,23,16,13,07,03,,,,,2.5,1.1,2.2*31
$GPRMC,225758.000,A,3353.7535,N,09832.0221,W,0.13,223.28,020412,,,D*7B
$GPGGA,225759.000,3353.7535,N,09832.0220,W,2,08,1.1,326.5,M,-23.7,M,0.8,0000*46
$GPGSA,A,3,30,32,06,23,16,13,07,03,,,,,2.5,1.1,2.2*31
$GPRMC,225759.000,A,3353.7535,N,09832.0220,W,0.16,130.37,020412,,,D*71
$GPGGA,225800.000,3353.7535,N,09832.0218,W,2,08,1.1,326.8,M,-23.7,M,1.8,0000*42
$GPGSA,A,3,30,32,06,23,16,13,07,03,,,,,2.5,1.1,2.2*31
$GPGSV,3,1,12,16,68,056,31,23,67,331,39,30,40,044,32,20,39,218,*7E
$GPGSV,3,2,12,13,35,318,21,03,32,136,28,06,31,117,36,32,30,188,27*7A
$GPGSV,3,3,12,07,18,275,14,10,10,319,,31,09,071,32,19,07,163,*7D
$GPRMC,225800.000,A,3353.7535,N,09832.0218,W,0.17,136.31,020412,,,D*78
$GPGGA,225801.000,3353.7536,N,09832.0216,W,2,08,1.1,327.1,M,-23.7,M,0.8,0000*47
$GPGSA,A,3,30,32,06,23,16,13,07,03,,,,,2.5,1.1,2.2*31
$GPRMC,225801.000,A,3353.7536,N,09832.0216,W,0.13,148.84,020412,,,D*77
$GPGGA,225802.000,3353.7536,N,09832.0214,W,2,08,1.1,327.3,M,-23.7,M,0.8,0000*44
$GPGSA,A,3,30,32,06,23,16,13,07,03,,,,,2.5,1.1,2.2*31
$GPRMC,225802.000,A,3353.7536,N,09832.0214,W,0.13,181.30,020412,,,D*7C
$GPGGA,225803.000,3353.7537,N,09832.0214,W,2,08,1.1,327.3,M,-23.7,M,0.8,0000*44
$GPGSA,A,3,30,32,06,23,16,13,07,03,,,,,2.5,1.1,2.2*31
$GPRMC,225803.000,A,3353.7537,N,09832.0214,W,0.22,282.88,020412,,,D*7D
$GPGGA,225804.000,3353.7537,N,09832.0213,W,2,08,1.1,327.6,M,-23.7,M,0.8,0000*41
$GPGSA,A,3,30,32,06,23,16,13,07,03,,,,,2.5,1.1,2.2*31
$GPRMC,225804.000,A,3353.7537,N,09832.0213,W,0.10,249.14,020412,,,D*7E
$GPGGA,225805.000,3353.7537,N,09832.0211,W,2,08,1.1,327.9,M,-23.7,M,0.8,0000*4D
$GPGSA,A,3,30,32,06,23,16,13,07,03,,,,,2.5,1.1,2.2*31
$GPGSV,3,1,12,16,68,056,31,23,67,331,39,30,40,044,31,20,39,218,*7D
$GPGSV,3,2,12,13,35,318,20,03,32,136,29,06,31,117,36,32,30,188,27*7A
$GPGSV,3,3,12,07,18,275,13,10,10,319,,31,09,071,32,19,07,163,*7A
$GPRMC,225805.000,A,3353.7537,N,09832.0211,W,0.06,152.26,020412,,,D*72
$GPGGA,225806.000,3353.7537,N,09832.0209,W,2,08,1.1,328.6,M,-23.7,M,0.8,0000*47
$GPGSA,A,3,30,32,06,23,16,13,07,03,,,,,2.5,1.1,2.2*31
$GPRMC,225806.000,A,3353.7537,N,09832.0209,W,0.34,89.54,020412,,,D*4B
$GPGGA,225807.000,3353.7537,N,09832.0206,W,2,08,1.1,329.2,M,-23.7,M,1.8,0000*4D
$GPGSA,A,3,30,32,06,23,16,13,07,03,,,,,2.5,1.1,2.2*31
$GPRMC,225807.000,A,3353.7537,N,09832.0206,W,0.39,90.82,020412,,,D*4B
$GPGGA,225808.000,3353.7533,N,09832.0211,W,2,08,1.1,329.2,M,-23.7,M,2.8,0000*43
$GPGSA,A,3,30,32,06,23,16,13,07,03,,,,,2.5,1.1,2.2*31
$GPRMC,225808.000,A,3353.7533,N,09832.0211,W,0.32,132.79,020412,,,D*70
$GPGGA,225809.000,3353.7530,N,09832.0214,W,2,08,1.1,328.9,M,-23.7,M,0.8,0000*4C
$GPGSA,A,3,30,32,06,23,16,13,07,03,,,,,2.5,1.1,2.2*31
$GPRMC,225809.000,A,3353.7530,N,09832.0214,W,0.35,178.63,020412,,,D*75
$GPGGA,225810.000,3353.7527,N,09832.0218,W,2,08,1.1,328.6,M,-23.7,M,0.8,0000*41
$GPGSA,A,3,30,32,06,23,16,13,07,03,,,,,2.5,1.1,2.2*31
$GPGSV,3,1,12,16,68,056,31,23,67,331,39,30,40,044,30,20,39,218,*7C
$GPGSV,3,2,12,13,35,318,19,03,32,136,30,06,31,117,36,32,30,188,27*78
$GPGSV,3,3,12,07,18,275,15,10,10,319,,31,09,071,32,19,07,163,*7C
$GPRMC,225810.000,A,3353.7527,N,09832.0218,W,0.26,153.42,020412,,,D*7F
$GPGGA,225811.000,3353.7525,N,09832.0221,W,2,08,1.1,328.1,M,-23.7,M,0.8,0000*4F
$GPGSA,A,3,30,32,06,23,16,13,07,03,,,,,2.5,1.1,2.2*31
$GPRMC,225811.000,A,3353.7525,N,09832.0221,W,0.11,175.59,020412,,,D*7C
$GPGGA,225812.000,3353.7523,N,09832.0224,W,2,08,1.1,327.8,M,-23.7,M,1.8,0000*48
$GPGSA,A,3,30,32,06,23,16,13,07,03,,,,,2.5,1.1,2.2*31
$GPRMC,225812.000,A,3353.7523,N,09832.0224,W,0.22,126.93,020412,,,D*7C
$GPGGA,225813.000,3353.7521,N,09832.0228,W,2,08,1.1,327.3,M,-23.7,M,2.8,0000*4F
$GPGSA,A,3,30,32,06,23,16,13,07,03,,,,,2.5,1.1,2.2*31
$GPRMC,225813.000,A,3353.7521,N,09832.0228,W,0.18,160.80,020412,,,D*7A
$GPGGA,225814.000,3353.7519,N,09832.0232,W,2,08,1.1,326.9,M,-23.7,M,3.8,0000*42
$GPGSA,A,3,30,32,06,23,16,13,07,03,,,,,2.5,1.1,2.2*31
$GPRMC,225814.000,A,3353.7519,N,09832.0232,W,0.20,158.35,020412,,,D*73
$GPGGA,225815.000,3353.7517,N,09832.0236,W,2,08,1.1,326.4,M,-23.7,M,0.8,0000*47
$GPGSA,A,3,30,32,06,23,16,13,07,03,,,,,2.5,1.1,2.2*31
$GPGSV,3,1,12,16,68,056,32,23,67,331,39,30,40,044,31,20,39,218,*7E
$GPGSV,3,2,12,13,35,318,20,03,32,136,32,06,31,117,36,32,30,188,26*71
$GPGSV,3,3,12,07,18,275,23,10,10,319,,31,09,071,32,19,07,163,*79
$GPRMC,225815.000,A,3353.7517,N,09832.0236,W,0.22,160.99,020412,,,D*77
$GPGGA,225816.000,3353.7516,N,09832.0238,W,2,08,1.1,326.1,M,-23.7,M,0.8,0000*4E
$GPGSA,A,3,30,32,06,23,16,13,07,03,,,,,2.5,1.1,2.2*31
$GPRMC,225816.000,A,3353.7516,N,09832.0238,W,0.07,145.61,020412,,,D*7C
$GPGGA,225817.000,3353.7514,N,09832.0243,W,2,08,1.1,325.4,M,-23.7,M,0.8,0000*47
$GPGSA,A,3,30,32,06,23,16,13,07,03,,,,,2.5,1.1,2.2*31
$GPRMC,225817.000,A,3353.7514,N,09832.0243,W,0.34,212.15,020412,,,D*71
$GPGGA,225818.000,3353.7513,N,09832.0246,W,2,08,1.1,325.0,M,-23.7,M,1.8,0000*4F
$GPGSA,A,3,30,32,06,23,16,13,07,03,,,,,2.5,1.1,2.2*31
$GPRMC,225818.000,A,3353.7513,N,09832.0246,W,0.23,138.12,020412,,,D*76
$GPGGA,225819.000,3353.7512,N,09832.0249,W,2,08,1.1,324.4,M,-23.7,M,0.8,0000*44
$GPGSA,A,3,30,32,06,23,16,13,07,03,,,,,2.5,1.1,2.2*31
$GPRMC,225819.000,A,3353.7512,N,09832.0249,W,0.19,209.86,020412,,,D*7C
$GPGGA,225820.000,3353.7510,N,09832.0253,W,2,08,1.1,323.8,M,-23.7,M,0.8,0000*4C
$GPGSA,A,3,30,32,06,23,16,13,07,03,,,,,2.5,1.1,2.2*31
$GPGSV,3,1,12,16,68,056,33,23,67,331,39,30,40,044,32,20,39,218,*7C
$GPGSV,3,2,12,13,35,318,20,03,32,136,32,06,31,117,36,32,30,188,25*72
$GPGSV,3,3,12,07,18,275,22,10,10,319,,31,09,071,33,19,07,163,*79
$GPRMC,225820.000,A,3353.7510,N,09832.0253,W,0.27,199.96,020412,,,D*79
$GPGGA,225821.000,3353.7512,N,09832.0252,W,2,08,1.1,323.6,M,-23.7,M,0.8,0000*40
$GPGSA,A,3,30,32,06,23,16,13,07,03,,,,,2.5,1.1,2.2*31
$GPRMC,225821.000,A,3353.7512,N,09832.0252,W,0.17,54.28,020412,,,D*4D
$GPGGA,225822.000,3353.7513,N,09832.0253,W,2,08,1.1,323.3,M,-23.7,M,0.8,0000*46
$GPGSA,A,3,30,32,06,23,16,13,07,03,,,,,2.5,1.1,2.2*31
$GPRMC,225822.000,A,3353.7513,N,09832.0253,W,0.20,71.79,020412,,,D*49
$GPGGA,225823.000,3353.7512,N,09832.0252,W,2,08,1.1,323.9,M,-23.7,M,0.8,0000*4D
$GPGSA,A,3,30,32,06,23,16,13,07,03,,,,,2.5,1.1,2.2*31
$GPRMC,225823.000,A,3353.7512,N,09832.0252,W,0.19,83.66,020412,,,D*41
$GPGGA,225824.000,3353.7513,N,09832.0252,W,2,08,1.1,323.8,M,-23.7,M,1.8,0000*4B
$GPGSA,A,3,30,32,06,23,16,13,07,03,,,,,2.5,1.1,2.2*31
$GPRMC,225824.000,A,3353.7513,N,09832.0252,W,0.17,9.98,020412,,,D*7A
$GPGGA,225825.000,3353.7512,N,09832.0251,W,2,08,1.1,324.3,M,-23.7,M,2.8,0000*47
$GPGSA,A,3,30,32,06,23,16,13,07,03,,,,,2.5,1.1,2.2*31
$GPGSV,3,1,12,16,68,056,33,23,67,331,39,30,40,044,33,20,39,218,*7D
$GPGSV,3,2,12,13,35,318,21,03,32,136,33,06,31,117,36,32,30,188,20*77
$GPGSV,3,3,12,07,18,275,22,10,10,319,,31,09,071,33,19,07,163,*79
$GPRMC,225825.000,A,3353.7512,N,09832.0251,W,0.18,219.64,020412,,,D*76
$GPGGA,225826.000,3353.7512,N,09832.0252,W,2,07,1.2,324.4,M,-23.7,M,3.8,0000*4D
$GPGSA,A,3,30,32,06,23,16,13,03,,,,,,2.9,1.2,2.6*3D
$GPRMC,225826.000,A,3353.7512,N,09832.0252,W,0.31,203.86,020412,,,D*7A
$GPGGA,225827.000,3353.7511,N,09832.0256,W,2,07,1.2,323.5,M,-23.7,M,0.8,0000*4E
$GPGSA,A,3,30,32,06,23,16,13,03,,,,,,2.9,1.2,2.6*3D
$GPRMC,225827.000,A,3353.7511,N,09832.0256,W,0.22,243.87,020412,,,D*7B
$GPGGA,225828.000,3353.7511,N,09832.0257,W,2,07,1.2,323.6,M,-23.7,M,0.8,0000*43
$GPGSA,A,3,30,32,06,23,16,13,03,,,,,,2.9,1.2,2.6*3D
$GPRMC,225828.000,A,3353.7511,N,09832.0257,W,0.41,50.74,020412,,,D*4C
$GPGGA,225829.000,3353.7512,N,09832.0258,W,2,07,1.2,323.1,M,-23.7,M,0.8,0000*49
$GPGSA,A,3,30,32,06,23,16,13,03,,,,,,2.9,1.2,2.6*3D
$GPRMC,225829.000,A,3353.7512,N,09832.0258,W,0.53,44.64,020412,,,D*46
$GPGGA,225830.000,3353.7512,N,09832.0256,W,2,07,1.2,323.5,M,-23.7,M,1.8,0000*4A
$GPGSA,A,3,30,32,06,23,16,13,03,,,,,,2.9,1.2,2.6*3D
$GPGSV,3,1,12,16,68,056,33,23,67,331,39,30,40,044,33,20,39,218,*7D
$GPGSV,3,2,12,13,35,318,22,03,32,136,34,06,31,117,36,32,30,188,20*73
$GPGSV,3,3,12,07,18,275,11,10,10,319,,31,09,071,33,19,07,163,*79
$GPRMC,225830.000,A,3353.7512,N,09832.0256,W,0.56,60.67,020412,,,D*40
$GPGGA,225831.000,3353.7510,N,09832.0262,W,2,07,1.2,322.4,M,-23.7,M,2.8,0000*4D
$GPGSA,A,3,30,32,06,23,16,13,03,,,,,,2.9,1.2,2.6*3D
$GPRMC,225831.000,A,3353.7510,N,09832.0262,W,0.11,128.48,020412,,,D*77
$GPGGA,225832.000,3353.7506,N,09832.0257,W,2,07,1.2,324.4,M,-23.7,M,3.8,0000*48
$GPGSA,A,3,30,32,06,23,16,13,03,,,,,,2.9,1.2,2.6*3D
$GPRMC,225832.000,A,3353.7506,N,09832.0257,W,0.35,97.68,020412,,,D*44
$GPGGA,225833.000,3353.7505,N,09832.0255,W,2,07,1.2,325.0,M,-23.7,M,0.8,0000*4E
$GPGSA,A,3,30,32,06,23,16,13,03,,,,,,2.9,1.2,2.6*3D
$GPRMC,225833.000,A,3353.7505,N,09832.0255,W,0.32,158.42,020412,,,D*79
$GPGGA,225834.000,3353.7505,N,09832.0258,W,2,07,1.2,324.4,M,-23.7,M,0.8,0000*41
$GPGSA,A,3,30,32,06,23,16,13,03,,,,,,2.9,1.2,2.6*3D
$GPRMC,225834.000,A,3353.7505,N,09832.0258,W,0.32,205.29,020412,,,D*75
$GPGGA,225835.000,3353.7505,N,09832.0257,W,2,07,1.2,324.6,M,-23.7,M,0.8,0000*4D
$GPGSA,A,3,30,32,06,23,16,13,03,,,,,,2.9,1.2,2.6*3D
$GPGSV,3,1,12,16,68,056,33,23,67,331,39,30,40,044,33,20,39,218,*7D
$GPGSV,3,2,12,13,35,318,22,03,32,136,34,06,31,117,36,32,30,188,20*73
$GPGSV,3,3,12,07,18,275,11,10,10,319,,31,09,071,33,19,07,163,*79
$GPRMC,225835.000,A,3353.7505,N,09832.0257,W,0.17,164.59,020412,,,D*7F
$GPGGA,225836.000,3353.7502,N,09832.0266,W,2,07,1.2,323.1,M,-23.7,M,0.8,0000*4B
$GPGSA,A,3,30,32,06,23,16,13,03,,,,,,2.9,1.2,2.6*3D
$GPRMC,225836.000,A,3353.7502,N,09832.0266,W,0.46,218.33,020412,,,D*79
$GPGGA,225837.000,3353.7502,N,09832.0268,W,2,07,1.2,322.6,M,-23.7,M,0.8,0000*42
$GPGSA,A,3,30,32,06,23,16,13,03,,,,,,2.9,1.2,2.6*3D
$GPRMC,225837.000,A,3353.7502,N,09832.0268,W,0.56,239.39,020412,,,D*7E
$GPGGA,225838.000,3353.7502,N,09832.0271,W,2,07,1.2,321.8,M,-23.7,M,1.8,0000*49
$GPGSA,A,3,30,32,06,23,16,13,03,,,,,,2.9,1.2,2.6*3D
$GPRMC,225838.000,A,3353.7502,N,09832.0271,W,0.22,231.61,020412,,,D*7F
$GPGGA,225839.000,3353.7505,N,09832.0269,W,2,08,1.1,321.6,M,-23.7,M,0.8,0000*45
$GPGSA,A,3,30,32,06,23,16,13,20,03,,,,,2.8,1.1,2.6*3D
$GPRMC,225839.000,A,3353.7505,N,09832.0269,W,0.22,203.76,020412,,,D*77
$GPGGA,225840.000,3353.7503,N,09832.0265,W,2,09,1.0,323.2,M,-23.7,M,0.8,0000*47
$GPGSA,A,3,30,32,06,23,16,13,20,07,03,,,,2.3,1.0,2.1*37
$GPGSV,3,1,12,16,68,056,32,23,67,331,39,30,40,044,33,20,39,218,23*7D
$GPGSV,3,2,12,13,35,318,22,03,32,136,34,06,31,117,36,32,30,188,20*73
$GPGSV,3,3,12,07,18,275,12,10,10,319,,31,09,071,33,19,07,163,*7A
$GPRMC,225840.000,A,3353.7503,N,09832.0265,W,0.19,176.30,020412,,,D*78
$GPGGA,225841.000,3353.7505,N,09832.0263,W,2,09,1.0,322.9,M,-23.7,M,0.8,0000*4C
$GPGSA,A,3,30,32,06,23,16,13,20,07,03,,,,2.3,1.0,2.1*37
$GPRMC,225841.000,A,3353.7505,N,09832.0263,W,0.06,154.62,020412,,,D*70
$GPGGA,225842.000,3353.7506,N,09832.0263,W,2,09,1.0,322.9,M,-23.7,M,0.8,0000*4C
$GPGSA,A,3,30,32,06,23,16,13,20,07,03,,,,2.3,1.0,2.1*37
$GPRMC,225842.000,A,3353.7506,N,09832.0263,W,0.12,222.29,020412,,,D*78
$GPGGA,225843.000,3353.7508,N,09832.0263,W,2,09,1.0,322.3,M,-23.7,M,1.8,0000*48
$GPGSA,A,3,30,32,06,23,16,13,20,07,03,,,,2.3,1.0,2.1*37
$GPRMC,225843.000,A,3353.7508,N,09832.0263,W,0.37,238.71,020412,,,D*76
$GPGGA,225844.000,3353.7508,N,09832.0262,W,2,09,1.0,322.6,M,-23.7,M,2.8,0000*48
$GPGSA,A,3,30,32,06,23,16,13,20,07,03,,,,2.3,1.0,2.1*37
$GPRMC,225844.000,A,3353.7508,N,09832.0262,W,0.26,223.14,020412,,,D*79
$GPGGA,225845.000,3353.7511,N,09832.0258,W,2,09,1.0,322.7,M,-23.7,M,0.8,0000*4B
$GPGSA,A,3,30,32,06,23,16,13,20,07,03,,,,2.3,1.0,2.1*37
$GPGSV,3,1,12,16,68,056,31,23,67,331,40,30,40,044,33,20,39,218,23*70
$GPGSV,3,2,12,13,35,318,22,03,32,136,34,06,31,117,36,32,30,188,21*72
$GPGSV,3,3,12,07,18,275,13,10,10,319,,31,09,071,34,19,07,163,*7C
$GPRMC,225845.000,A,3353.7511,N,09832.0258,W,0.39,58.32,020412,,,D*4D
$GPGGA,225846.000,3353.7516,N,09832.0249,W,2,09,1.0,323.4,M,-23.7,M,0.8,0000*4D
$GPGSA,A,3,30,32,06,23,16,13,20,07,03,,,,2.3,1.0,2.1*37
$GPRMC,225846.000,A,3353.7516,N,09832.0249,W,0.61,54.73,020412,,,D*4D
$GPGGA,225847.000,3353.7518,N,09832.0248,W,2,09,1.0,323.1,M,-23.7,M,0.8,0000*46
$GPGSA,A,3,30,32,06,23,16,13,20,07,03,,,,2.3,1.0,2.1*37
$GPRMC,225847.000,A,3353.7518,N,09832.0248,W,0.17,344.12,020412,,,D*77
$GPGGA,225848.000,3353.7520,N,09832.0249,W,2,09,1.0,322.8,M,-23.7,M,1.8,0000*4A
$GPGSA,A,3,30,32,06,23,16,13,20,07,03,,,,2.3,1.0,2.1*37
$GPRMC,225848.000,A,3353.7520,N,09832.0249,W,0.14,15.33,020412,,,D*45
$GPGGA,225849.000,3353.7521,N,09832.0248,W,2,09,1.0,322.7,M,-23.7,M,0.8,0000*45
$GPGSA,A,3,30,32,06,23,16,13,20,07,03,,,,2.3,1.0,2.1*37
$GPRMC,225849.000,A,3353.7521,N,09832.0248,W,0.26,63.44,020412,,,D*44
$GPGGA,225850.000,3353.7523,N,09832.0249,W,2,09,1.0,322.4,M,-23.7,M,1.8,0000*4C
$GPGSA,A,3,30,32,06,23,16,13,20,07,03,,,,2.3,1.0,2.1*37
$GPGSV,3,1,12,16,68,056,31,23,67,331,40,30,40,044,34,20,39,218,23*77
$GPGSV,3,2,12,13,35,318,22,03,32,136,34,06,31,117,36,32,30,188,21*72
$GPGSV,3,3,12,07,18,275,16,10,10,319,,31,09,071,34,19,07,163,*79
$GPRMC,225850.000,A,3353.7523,N,09832.0249,W,0.41,32.89,020412,,,D*4B
$GPGGA,225851.000,3353.7525,N,09832.0249,W,2,09,1.0,321.9,M,-23.7,M,0.8,0000*44
$GPGSA,A,3,30,32,06,23,16,13,20,07,03,,,,2.3,1.0,2.1*37
$GPRMC,225851.000,A,3353.7525,N,09832.0249,W,0.19,290.36,020412,,,D*7F
$GPGGA,225852.000,3353.7525,N,09832.0250,W,2,09,1.0,321.7,M,-23.7,M,0.8,0000*41
$GPGSA,A,3,30,32,06,23,16,13,20,07,03,,,,2.3,1.0,2.1*37
$GPRMC,225852.000,A,3353.7525,N,09832.0250,W,0.06,263.51,020412,,,D*77
$GPGGA,225853.000,3353.7525,N,09832.0252,W,2,09,1.0,321.3,M,-23.7,M,0.8,0000*46
$GPGSA,A,3,30,32,06,23,16,13,20,07,03,,,,2.3,1.0,2.1*37
$GPRMC,225853.000,A,3353.7525,N,09832.0252,W,0.21,46.98,020412,,,D*41
$GPGGA,225854.000,3353.7527,N,09832.0249,W,2,09,1.0,321.4,M,-23.7,M,0.8,0000*4E
$GPGSA,A,3,30,32,06,23,16,13,20,07,03,,,,2.3,1.0,2.1*37
$GPRMC,225854.000,A,3353.7527,N,09832.0249,W,0.12,215.88,020412,,,D*7B
$GPGGA,225855.000,3353.7529,N,09832.0248,W,2,09,1.0,321.3,M,-23.7,M,1.8,0000*46
$GPGSA,A,3,30,32,06,23,16,13,20,07,03,,,,2.3,1.0,2.1*37
$GPGSV,3,1,12,16,68,056,30,23,67,331,40,30,40,044,33,20,39,218,23*71
$GPGSV,3,2,12,13,35,318,22,03,32,136,34,06,31,117,36,32,30,188,22*71
$GPGSV,3,3,12,07,18,275,18,10,10,319,,31,09,071,34,19,07,163,*77
$GPRMC,225855.000,A,3353.7529,N,09832.0248,W,0.36,226.99,020412,,,D*73
$GPGGA,225856.000,3353.7530,N,09832.0245,W,2,09,1.0,321.4,M,-23.7,M,2.8,0000*44
$GPGSA,A,3,30,32,06,23,16,13,20,07,03,,,,2.3,1.0,2.1*37
$GPRMC,225856.000,A,3353.7530,N,09832.0245,W,0.08,41.46,020412,,,D*49
$GPGGA,225857.000,3353.7529,N,09832.0248,W,2,09,1.0,320.9,M,-23.7,M,0.8,0000*4E
$GPGSA,A,3,30,32,06,23,16,13,20,07,03,,,,2.3,1.0,2.1*37
$GPRMC,225857.000,A,3353.7529,N,09832.0248,W,0.30,230.22,020412,,,D*70
$GPGGA,225858.000,3353.7531,N,09832.0247,W,2,09,1.0,320.7,M,-23.7,M,0.8,0000*49
$GPGSA,A,3,30,32,06,23,16,13,20,07,03,,,,2.3,1.0,2.1*37
$GPRMC,225858.000,A,3353.7531,N,09832.0247,W,0.39,6.04,020412,,,D*73
$GPGGA,225859.000,3353.7530,N,09832.0249,W,2,09,1.0,320.4,M,-23.7,M,0.8,0000*44
$GPGSA,A,3,30,32,06,23,16,13,20,07,03,,,,2.3,1.0,2.1*37
$GPRMC,225859.000,A,3353.7530,N,09832.0249,W,0.20,227.85,020412,,,D*7D
$GPGGA,225900.000,3353.7529,N,09832.0253,W,2,09,1.0,319.9,M,-23.7,M,1.8,0000*4C
$GPGSA,A,3,30,32,06,23,16,13,20,07,03,,,,2.3,1.0,2.1*37
$GPGSV,3,1,12,16,68,056,30,23,67,331,39,30,40,044,33,20,39,218,22*7E
$GPGSV,3,2,12,13,35,318,22,03,32,136,34,06,31,117,36,32,30,188,23*70
$GPGSV,3,3,12,07,18,275,18,10,10,319,,31,09,071,34,19,07,163,*77
$GPRMC,225900.000,A,3353.7529,N,09832.0253,W,0.30,236.93,020412,,,D*75
$GPGGA,225901.000,3353.7527,N,09832.0258,W,2,09,1.0,319.0,M,-23.7,M,2.8,0000*42
$GPGSA,A,3,30,32,06,23,16,13,20,07,03,,,,2.3,1.0,2.1*37
$GPRMC,225901.000,A,3353.7527,N,09832.0258,W,0.49,244.57,020412,,,D*72
$GPGGA,225902.000,3353.7526,N,09832.0258,W,2,09,1.0,319.4,M,-23.7,M,3.8,0000*45
$GPGSA,A,3,30,32,06,23,16,13,20,07,03,,,,2.3,1.0,2.1*37
$GPRMC,225902.000,A,3353.7526,N,09832.0258,W,0.13,246.36,020412,,,D*7A
$GPGGA,225903.000,3353.7526,N,09832.0261,W,2,08,1.1,319.0,M,-23.7,M,0.8,0000*49
$GPGSA,A,3,30,32,06,23,16,13,07,03,,,,,2.5,1.1,2.2*31
$GPRMC,225903.000,A,3353.7526,N,09832.0261,W,0.28,55.87,020412,,,D*43
$GPGGA,225904.000,3353.7525,N,09832.0261,W,2,08,1.1,319.2,M,-23.7,M,0.8,0000*4F
$GPGSA,A,3,30,32,06,23,16,13,07,03,,,,,2.5,1.1,2.2*31
$GPRMC,225904.000,A,3353.7525,N,09832.0261,W,0.35,248.09,020412,,,D*73
$GPGGA,225905.000,3353.7523,N,09832.0265,W,2,08,1.1,318.7,M,-23.7,M,0.8,0000*48
$GPGSA,A,3,30,32,06,23,16,13,07,03,,,,,2.5,1.1,2.2*31
$GPGSV,3,1,12,16,68,056,30,23,67,331,39,30,40,044,34,20,39,218,*79
$GPGSV,3,2,12,13,35,318,21,03,32,136,34,06,31,117,36,32,30,188,23*73
$GPGSV,3,3,12,07,18,275,18,10,10,319,,31,09,071,34,19,07,163,*77
$GPRMC,225905.000,A,3353.7523,N,09832.0265,W,0.23,183.43,020412,,,D*7D
$GPGGA,225906.000,3353.7522,N,09832.0266,W,2,08,1.1,318.7,M,-23.7,M,1.8,0000*48
$GPGSA,A,3,30,32,06,23,16,13,07,03,,,,,2.5,1.1,2.2*31
$GPRMC,225906.000,A,3353.7522,N,09832.0266,W,0.30,97.95,020412,,,D*41
$GPGGA,225907.000,3353.7522,N,09832.0268,W,2,08,1.1,318.3,M,-23.7,M,2.8,0000*40
$GPGSA,A,3,30,32,06,23,16,13,07,03,,,,,2.5,1.1,2.2*31
$GPRMC,225907.000,A,3353.7522,N,09832.0268,W,0.24,198.31,020412,,,D*7B
$GPGGA,225908.000,3353.7520,N,09832.0272,W,2,08,1.1,317.6,M,-23.7,M,3.8,0000*4D
$GPGSA,A,3,30,32,06,23,16,13,07,03,,,,,2.5,1.1,2.2*31
$GPRMC,225908.000,A,3353.7520,N,09832.0272,W,0.32,224.18,020412,,,D*75
$GPGGA,225909.000,3353.7519,N,09832.0278,W,2,08,1.1,316.5,M,-23.7,M,0.8,0000*4D
$GPGSA,A,3,30,32,06,23,16,13,07,03,,,,,2.5,1.1,2.2*31
$GPRMC,225909.000,A,3353.7519,N,09832.0278,W,0.31,258.63,020412,,,D*70
$GPGGA,225910.000,3353.7518,N,09832.0283,W,2,08,1.1,315.7,M,-23.7,M,0.8,0000*41
$GPGSA,A,3,30,32,06,23,16,13,07,03,,,,,2.5,1.1,2.2*31
$GPGSV,3,1,12,16,68,056,30,23,67,331,39,30,40,044,34,20,39,218,*79
$GPGSV,3,2,12,13,35,318,20,03,32,136,34,06,31,117,36,32,30,188,23*72
$GPGSV,3,3,12,07,18,275,17,10,10,319,,31,09,071,34,19,07,163,*78
$GPRMC,225910.000,A,3353.7518,N,09832.0283,W,0.11,358.18,020412,,,D*72
$GPGGA,225911.000,3353.7518,N,09832.0283,W,2,08,1.1,315.7,M,-23.7,M,0.8,0000*40
$GPGSA,A,3,30,32,06,23,16,13,07,03,,,,,2.5,1.1,2.2*31
$GPRMC,225911.000,A,3353.7518,N,09832.0283,W,0.12,204.31,020412,,,D*73
$GPGGA,225912.000,3353.7518,N,09832.0287,W,2,08,1.1,315.0,M,-23.7,M,1.8,0000*41
$GPGSA,A,3,30,32,06,23,16,13,07,03,,,,,2.5,1.1,2.2*31
$GPRMC,225912.000,A,3353.7518,N,09832.0287,W,0.33,251.24,020412,,,D*73
$GPGGA,225913.000,3353.7518,N,09832.0291,W,2,06,1.9,314.2,M,-23.7,M,2.8,0000*41
$GPGSA,A,3,30,32,06,23,16,03,,,,,,,4.5,1.9,4.0*3E
$GPRMC,225913.000,A,3353.7518,N,09832.0291,W,0.20,330.06,020412,,,D*71
$GPGGA,225914.000,3353.7518,N,09832.0294,W,2,08,1.1,313.5,M,-23.7,M,0.8,0000*47
$GPGSA,A,3,30,32,06,23,16,13,07,03,,,,,2.5,1.1,2.2*31
$GPRMC,225914.000,A,3353.7518,N,09832.0294,W,0.11,272.74,020412,,,D*73
$GPGGA,225915.000,3353.7517,N,09832.0299,W,2,08,1.1,312.4,M,-23.7,M,0.8,0000*44
$GPGSA,A,3,30,32,06,23,16,13,07,03,,,,,2.5,1.1,2.2*31
$GPGSV,3,1,12,16,68,056,31,23,67,331,39,30,40,044,35,20,39,218,*79
$GPGSV,3,2,12,13,35,318,19,03,32,136,34,06,31,117,36,32,30,188,23*78
$GPGSV,3,3,12,07,18,275,18,10,10,319,,31,09,071,34,19,07,163,*77
$GPRMC,225915.000,A,3353.7517,N,09832.0299,W,0.22,277.58,020412,,,D*7B
$GPGGA,225916.000,3353.7517,N,09832.0303,W,2,08,1.1,311.5,M,-23.7,M,0.8,0000*47
$GPGSA,A,3,30,32,06,23,16,13,07,03,,,,,2.5,1.1,2.2*31
$GPRMC,225916.000,A,3353.7517,N,09832.0303,W,0.30,276.30,020412,,,D*76
$GPGGA,225917.000,3353.7517,N,09832.0306,W,2,06,1.9,310.8,M,-23.7,M,0.8,0000*49
$GPGSA,A,3,30,32,06,23,16,03,,,,,,,4.5,1.9,4.0*3E
$GPRMC,225917.000,A,3353.7517,N,09832.0306,W,0.21,228.12,020412,,,D*79
$GPGGA,225918.000,3353.7517,N,09832.0308,W,2,08,1.1,310.2,M,-23.7,M,1.8,0000*45
$GPGSA,A,3,30,32,06,23,16,13,07,03,,,,,2.5,1.1,2.2*31
$GPRMC,225918.000,A,3353.7517,N,09832.0308,W,0.24,5.06,020412,,,D*75
$GPGGA,225919.000,3353.7517,N,09832.0310,W,2,08,1.1,309.6,M,-23.7,M,2.8,0000*42
$GPGSA,A,3,30,32,06,23,16,13,07,03,,,,,2.5,1.1,2.2*31
$GPRMC,225919.000,A,3353.7517,N,09832.0310,W,0.27,28.89,020412,,,D*46
$GPGGA,225920.000,3353.7517,N,09832.0312,W,2,08,1.1,309.1,M,-23.7,M,0.8,0000*4F
$GPGSA,A,3,30,32,06,23,16,13,07,03,,,,,2.5,1.1,2.2*31
$GPGSV,3,1,12,16,68,056,31,23,67,331,39,30,40,044,35,20,39,218,*79
$GPGSV,3,2,12,13,35,318,17,03,32,136,34,06,31,117,36,32,30,188,23*76
$GPGSV,3,3,12,07,18,275,19,10,10,319,,31,09,071,34,19,07,163,*76
$GPRMC,225920.000,A,3353.7517,N,09832.0312,W,0.04,71.96,020412,,,D*4D
$GPGGA,225921.000,3353.7518,N,09832.0315,W,2,08,1.1,308.3,M,-23.7,M,0.8,0000*45
$GPGSA,A,3,30,32,06,23,16,13,07,03,,,,,2.5,1.1,2.2*31
$GPRMC,225921.000,A,3353.7518,N,09832.0315,W,0.37,262.33,020412,,,D*7B
$GPGGA,225922.000,3353.7520,N,09832.0315,W,2,08,1.1,307.9,M,-23.7,M,0.8,0000*48
$GPGSA,A,3,30,32,06,23,16,13,07,03,,,,,2.5,1.1,2.2*31
$GPRMC,225922.000,A,3353.7520,N,09832.0315,W,0.30,266.03,020412,,,D*73
$GPGGA,225923.000,3353.7524,N,09832.0312,W,2,08,1.1,307.8,M,-23.7,M,0.8,0000*4B
$GPGSA,A,3,30,32,06,23,16,13,07,03,,,,,2.5,1.1,2.2*31
$GPRMC,225923.000,A,3353.7524,N,09832.0312,W,0.47,358.64,020412,,,D*7C
$GPGGA,225924.000,3353.7526,N,09832.0313,W,2,08,1.1,307.3,M,-23.7,M,0.8,0000*44
$GPGSA,A,3,30,32,06,23,16,13,07,03,,,,,2.5,1.1,2.2*31
$GPRMC,225924.000,A,3353.7526,N,09832.0313,W,0.49,352.24,020412,,,D*78
$GPGGA,225925.000,3353.7530,N,09832.0311,W,2,08,1.1,307.2,M,-23.7,M,1.8,0000*40
$GPGSA,A,3,30,32,06,23,16,13,07,03,,,,,2.5,1.1,2.2*31
$GPGSV,3,1,12,23,68,332,38,16,67,053,32,30,39,043,35,20,38,217,*7A
$GPGSV,3,2,12,13,36,318,16,03,33,135,35,06,32,115,36,32,29,187,23*71
$GPGSV,3,3,12,07,19,276,21,10,11,318,,19,08,162,,31,08,072,33*74
$GPRMC,225925.000,A,3353.7530,N,09832.0311,W,0.35,357.03,020412,,,D*77
$GPGGA,225926.000,3353.7530,N,09832.0313,W,2,08,1.1,306.8,M,-23.7,M,2.8,0000*49
$GPGSA,A,3,30,32,06,23,16,13,07,03,,,,,2.5,1.1,2.2*31
$GPRMC,225926.000,A,3353.7530,N,09832.0313,W,0.30,1.56,020412,,,D*73
$GPGGA,225927.000,3353.7530,N,09832.0315,W,2,08,1.1,306.1,M,-23.7,M,0.8,0000*45
$GPGSA,A,3,30,32,06,23,16,13,07,03,,,,,2.5,1.1,2.2*31
$GPRMC,225927.000,A,3353.7530,N,09832.0315,W,0.29,328.36,020412,,,D*72
$GPGGA,225928.000,3353.7529,N,09832.0319,W,2,07,1.2,305.6,M,-23.7,M,0.8,0000*46
$GPGSA,A,3,30,32,06,23,16,07,03,,,,,,2.6,1.2,2.3*32
$GPRMC,225928.000,A,3353.7529,N,09832.0319,W,0.16,282.58,020412,,,D*7C
$GPGGA,225929.000,3353.7528,N,09832.0323,W,2,07,1.2,304.7,M,-23.7,M,0.8,0000*4F
$GPGSA,A,3,30,32,06,23,16,07,03,,,,,,2.6,1.2,2.3*32
$GPRMC,225929.000,A,3353.7528,N,09832.0323,W,0.49,247.97,020412,,,D*75
$GPGGA,225930.000,3353.7528,N,09832.0324,W,2,07,1.2,304.5,M,-23.7,M,0.8,0000*42
$GPGSA,A,3,30,32,06,23,16,07,03,,,,,,2.6,1.2,2.3*32
$GPGSV,3,1,12,23,68,332,38,16,67,053,32,30,39,043,35,20,38,217,*7A
$GPGSV,3,2,12,13,36,318,,03,33,135,35,06,32,115,36,32,29,187,23*76
$GPGSV,3,3,12,07,19,276,22,10,11,318,,19,08,162,,31,08,072,33*77
$GPRMC,225930.000,A,3353.7528,N,09832.0324,W,0.11,269.46,020412,,,D*77
$GPGGA,225931.000,3353.7528,N,09832.0325,W,2,07,1.2,304.3,M,-23.7,M,1.8,0000*45
$GPGSA,A,3,30,32,06,23,16,07,03,,,,,,2.6,1.2,2.3*32
$GPRMC,225931.000,A,3353.7528,N,09832.0325,W,0.06,210.58,020412,,,D*70
$GPGGA,225932.000,3353.7527,N,09832.0328,W,2,07,1.2,303.8,M,-23.7,M,0.8,0000*49
$GPGSA,A,3,30,32,06,23,16,07,03,,,,,,2.6,1.2,2.3*32
$GPRMC,225932.000,A,3353.7527,N,09832.0328,W,0.12,11.43,020412,,,D*4D
$GPGGA,225933.000,3353.7530,N,09832.0325,W,2,07,1.2,303.9,M,-23.7,M,0.8,0000*42
$GPGSA,A,3,30,32,06,23,16,07,03,,,,,,2.6,1.2,2.3*32
$GPRMC,225933.000,A,3353.7530,N,09832.0325,W,0.25,348.32,020412,,,D*7A
$GPGGA,225934.000,3353.7532,N,09832.0323,W,2,08,1.1,304.1,M,-23.7,M,0.8,0000*42
$GPGSA,A,3,30,32,06,23,16,13,07,03,,,,,2.5,1.1,2.2*31
$GPRMC,225934.000,A,3353.7532,N,09832.0323,W,0.33,47.56,020412,,,D*40
$GPGGA,225935.000,3353.7531,N,09832.0320,W,2,08,1.1,305.0,M,-23.7,M,0.8,0000*43
$GPGSA,A,3,30,32,06,23,16,13,07,03,,,,,2.5,1.1,2.2*31
$GPGSV,3,1,12,23,68,332,38,16,67,053,32,30,39,043,35,20,38,217,*7A
$GPGSV,3,2,12,13,36,318,19,03,33,135,35,06,32,115,37,32,29,187,23*7F
$GPGSV,3,3,12,07,19,276,22,10,11,318,,19,08,162,,31,08,072,33*77
$GPRMC,225935.000,A,3353.7531,N,09832.0320,W,0.34,70.77,020412,,,D*41
$GPGGA,225936.000,3353.7532,N,09832.0320,W,2,08,1.1,304.8,M,-23.7,M,1.8,0000*4B
$GPGSA,A,3,30,32,06,23,16,13,07,03,,,,,2.5,1.1,2.2*31
$GPRMC,225936.000,A,3353.7532,N,09832.0320,W,0.06,280.05,020412,,,D*78
$GPGGA,225937.000,3353.7533,N,09832.0320,W,2,08,1.1,304.7,M,-23.7,M,0.8,0000*45
$GPGSA,A,3,30,32,06,23,16,13,07,03,,,,,2.5,1.1,2.2*31
$GPRMC,225937.000,A,3353.7533,N,09832.0320,W,0.23,15.59,020412,,,D*48
$GPGGA,225938.000,3353.7535,N,09832.0319,W,2,08,1.1,304.8,M,-23.7,M,0.8,0000*49
$GPGSA,A,3,30,32,06,23,16,13,07,03,,,,,2.5,1.1,2.2*31
$GPRMC,225938.000,A,3353.7535,N,09832.0319,W,0.49,27.65,020412,,,D*49
$GPGGA,225939.000,3353.7539,N,09832.0314,W,2,08,1.1,305.3,M,-23.7,M,0.8,0000*43
$GPGSA,A,3,30,32,06,23,16,13,07,03,,,,,2.5,1.1,2.2*31
$GPRMC,225939.000,A,3353.7539,N,09832.0314,W,0.35,356.38,020412,,,D*7F
$GPGGA,225940.000,3353.7540,N,09832.0314,W,2,08,1.1,305.3,M,-23.7,M,0.8,0000*43
$GPGSA,A,3,30,32,06,23,16,13,07,03,,,,,2.5,1.1,2.2*31
$GPGSV,3,1,12,23,68,332,38,16,67,053,32,30,39,043,35,20,38,217,*7A
$GPGSV,3,2,12,13,36,318,19,03,33,135,35,06,32,115,37,32,29,187,23*7F
$GPGSV,3,3,12,07,19,276,21,10,11,318,,19,08,162,,31,08,072,33*74
$GPRMC,225940.000,A,3353.7540,N,09832.0314,W,0.24,259.88,020412,,,D*7A
$GPGGA,225941.000,3353.7539,N,09832.0315,W,2,09,1.0,305.3,M,-23.7,M,0.8,0000*4D
$GPGSA,A,3,30,32,06,23,16,13,20,07,03,,,,2.3,1.0,2.1*37
$GPRMC,225941.000,A,3353.7539,N,09832.0315,W,0.13,170.68,020412,,,D*76
$GPGGA,225942.000,3353.7538,N,09832.0315,W,2,09,1.0,305.4,M,-23.7,M,1.8,0000*49
$GPGSA,A,3,30,32,06,23,16,13,20,07,03,,,,2.3,1.0,2.1*37
$GPRMC,225942.000,A,3353.7538,N,09832.0315,W,0.20,171.42,020412,,,D*7D
$GPGGA,225943.000,3353.7537,N,09832.0317,W,2,09,1.0,305.2,M,-23.7,M,2.8,0000*40
$GPGSA,A,3,30,32,06,23,16,13,20,07,03,,,,2.3,1.0,2.1*37
$GPRMC,225943.000,A,3353.7537,N,09832.0317,W,0.19,44.31,020412,,,D*48
$GPGGA,225944.000,3353.7537,N,09832.0317,W,2,09,1.0,305.2,M,-23.7,M,0.8,0000*45
$GPGSA,A,3,30,32,06,23,16,13,20,07,03,,,,2.3,1.0,2.1*37
$GPRMC,225944.000,A,3353.7537,N,09832.0317,W,0.05,168.59,020412,,,D*73
$GPGGA,225945.000,3353.7537,N,09832.0318,W,2,09,1.0,305.1,M,-23.7,M,0.8,0000*48
$GPGSA,A,3,30,32,06,23,16,13,20,07,03,,,,2.3,1.0,2.1*37
$GPGSV,3,1,12,23,68,332,38,16,67,053,33,30,39,043,35,20,38,217,21*78
$GPGSV,3,2,12,13,36,318,19,03,33,135,35,06,32,115,37,32,29,187,23*7F
$GPGSV,3,3,12,07,19,276,21,10,11,318,,19,08,162,,31,08,072,33*74
$GPRMC,225945.000,A,3353.7537,N,09832.0318,W,0.22,87.74,020412,,,D*47
$GPGGA,225946.000,3353.7536,N,09832.0318,W,2,09,1.0,305.0,M,-23.7,M,0.8,0000*4B
$GPGSA,A,3,30,32,06,23,16,13,20,07,03,,,,2.3,1.0,2.1*37
$GPRMC,225946.000,A,3353.7536,N,09832.0318,W,0.51,81.83,020412,,,D*4F
$GPGGA,225947.000,3353.7537,N,09832.0316,W,2,09,1.0,305.0,M,-23.7,M,0.8,0000*45
$GPGSA,A,3,30,32,06,23,16,13,20,07,03,,,,2.3,1.0,2.1*37
$GPRMC,225947.000,A,3353.7537,N,09832.0316,W,0.15,17.15,020412,,,D*41
$GPGGA,225948.000,3353.7537,N,09832.0316,W,2,09,1.0,305.5,M,-23.7,M,1.8,0000*4E
$GPGSA,A,3,30,32,06,23,16,13,20,07,03,,,,2.3,1.0,2.1*37
$GPRMC,225948.000,A,3353.7537,N,09832.0316,W,0.09,209.42,020412,,,D*7C
$GPGGA,225949.000,3353.7538,N,09832.0314,W,2,09,1.0,305.7,M,-23.7,M,0.8,0000*41
$GPGSA,A,3,30,32,06,23,16,13,20,07,03,,,,2.3,1.0,2.1*37
$GPRMC,225949.000,A,3353.7538,N,09832.0314,W,0.05,227.74,020412,,,D*75
$GPGGA,225950.000,3353.7537,N,09832.0314,W,2,09,1.0,306.0,M,-23.7,M,1.8,0000*43
$GPGSA,A,3,30,32,06,23,16,13,20,07,03,,,,2.3,1.0,2.1*37
$GPGSV,3,1,12,23,68,332,38,16,67,053,32,30,39,043,35,20,38,217,22*7A
$GPGSV,3,2,12,13,36,318,20,03,33,135,36,06,32,115,37,32,29,187,18*7E
$GPGSV,3,3,12,07,19,276,22,10,11,318,,19,08,162,,31,08,072,32*76
$GPRMC,225950.000,A,3353.7537,N,09832.0314,W,0.29,230.15,020412,,,D*7D
$GPGGA,225951.000,3353.7538,N,09832.0312,W,2,09,1.0,306.4,M,-23.7,M,0.8,0000*4E
$GPGSA,A,3,30,32,06,23,16,13,20,07,03,,,,2.3,1.0,2.1*37
$GPRMC,225951.000,A,3353.7538,N,09832.0312,W,0.26,101.88,020412,,,D*7F
$GPGGA,225952.000,3353.7538,N,09832.0311,W,2,09,1.0,307.0,M,-23.7,M,0.8,0000*4B
$GPGSA,A,3,30,32,06,23,16,13,20,07,03,,,,2.3,1.0,2.1*37
$GPRMC,225952.000,A,3353.7538,N,09832.0311,W,0.15,97.31,020412,,,D*43
$GPGGA,225953.000,3353.7540,N,09832.0306,W,2,09,1.0,307.4,M,-23.7,M,0.8,0000*47
$GPGSA,A,3,30,32,06,23,16,13,20,07,03,,,,2.3,1.0,2.1*37
$GPRMC,225953.000,A,3353.7540,N,09832.0306,W,0.21,18.05,020412,,,D*4C
$GPGGA,225954.000,3353.7541,N,09832.0304,W,2,09,1.0,307.8,M,-23.7,M,1.8,0000*4E
$GPGSA,A,3,30,32,06,23,16,13,20,07,03,,,,2.3,1.0,2.1*37
$GPRMC,225954.000,A,3353.7541,N,09832.0304,W,0.31,85.43,020412,,,D*4F
$GPGGA,225955.000,3353.7540,N,09832.0301,W,2,09,1.0,308.9,M,-23.7,M,2.8,0000*46
$GPGSA,A,3,30,32,06,23,16,13,20,07,03,,,,2.3,1.0,2.1*37
$GPGSV,3,1,12,23,68,332,38,16,67,053,32,30,39,043,35,20,38,217,23*7B
$GPGSV,3,2,12,13,36,318,20,03,33,135,36,06,32,115,37,32,29,187,19*7F
$GPGSV,3,3,12,07,19,276,21,10,11,318,,19,08,162,16,31,08,072,32*72
$GPRMC,225955.000,A,3353.7540,N,09832.0301,W,0.26,86.75,020412,,,D*4A
$GPGGA,225956.000,3353.7541,N,09832.0297,W,2,09,1.0,309.6,M,-23.7,M,3.8,0000*45
$GPGSA,A,3,30,32,06,23,16,13,20,07,03,,,,2.3,1.0,2.1*37
$GPRMC,225956.000,A,3353.7541,N,09832.0297,W,0.31,90.15,020412,,,D*41
$GPGGA,225957.000,3353.7539,N,09832.0290,W,2,09,1.0,312.0,M,-23.7,M,0.8,0000*43
$GPGSA,A,3,30,32,06,23,16,13,20,07,03,,,,2.3,1.0,2.1*37
$GPRMC,225957.000,A,3353.7539,N,09832.0290,W,0.50,77.46,020412,,,D*40
$GPGGA,225958.000,3353.7542,N,09832.0284,W,2,09,1.0,312.8,M,-23.7,M,0.8,0000*4D
$GPGSA,A,3,30,32,06,23,16,13,20,07,03,,,,2.3,1.0,2.1*37
$GPRMC,225958.000,A,3353.7542,N,09832.0284,W,0.32,82.84,020412,,,D*46
$GPGGA,225959.000,3353.7544,N,09832.0278,W,2,09,1.0,313.6,M,-23.7,M,0.8,0000*46
$GPGSA,A,3,30,32,06,23,16,13,20,07,03,,,,2.3,1.0,2.1*37
$GPRMC,225959.000,A,3353.7544,N,09832.0278,W,0.25,118.12,020412,,,D*79
$GPGGA,230000.000,3353.7546,N,09832.0273,W,2,09,1.0,314.3,M,-23.7,M,1.8,0000*4D
$GPGSA,A,3,30,32,06,23,16,13,20,07,03,,,,2.3,1.0,2.1*37
$GPGSV,3,1,12,23,68,332,38,16,67,053,32,30,39,043,36,20,38,217,24*7F
$GPGSV,3,2,12,13,36,318,20,03,33,135,36,06,32,115,37,32,29,187,20*75
$GPGSV,3,3,12,07,19,276,21,10,11,318,,19,08,162,15,31,08,072,32*71
$GPRMC,230000.000,A,3353.7546,N,09832.0273,W,0.14,133.25,020412,,,D*7E
$GPGGA,230001.000,3353.7549,N,09832.0266,W,2,09,1.0,315.2,M,-23.7,M,2.8,0000*44
$GPGSA,A,3,30,32,06,23,16,13,20,07,03,,,,2.3,1.0,2.1*37
$GPRMC,230001.000,A,3353.7549,N,09832.0266,W,0.20,234.00,020412,,,D*70
$GPGGA,230002.000,3353.7551,N,09832.0261,W,2,09,1.0,316.0,M,-23.7,M,3.8,0000*49
$GPGSA,A,3,30,32,06,23,16,13,20,07,03,,,,2.3,1.0,2.1*37
$GPRMC,230002.000,A,3353.7551,N,09832.0261,W,0.18,226.56,020412,,,D*76
$GPGGA,230003.000,3353.7552,N,09832.0257,W,2,09,1.0,316.9,M,-23.7,M,0.8,0000*44
$GPGSA,A,3,30,32,06,23,16,13,20,07,03,,,,2.3,1.0,2.1*37
$GPRMC,230003.000,A,3353.7552,N,09832.0257,W,0.02,113.08,020412,,,D*74
$GPGGA,230004.000,3353.7553,N,09832.0255,W,2,09,1.0,317.6,M,-23.7,M,0.8,0000*4E
$GPGSA,A,3,30,32,06,23,16,13,20,07,03,,,,2.3,1.0,2.1*37
$GPRMC,230004.000,A,3353.7553,N,09832.0255,W,0.14,111.50,020412,,,D*78
$GPGGA,230005.000,3353.7553,N,09832.0251,W,2,09,1.0,318.5,M,-23.7,M,0.8,0000*47
$GPGSA,A,3,30,32,06,23,16,13,20,07,03,,,,2.3,1.0,2.1*37
$GPGSV,3,1,12,23,68,332,38,16,67,053,32,30,39,043,36,20,38,217,24*7F
$GPGSV,3,2,12,13,36,318,21,03,33,135,36,06,32,115,37,32,29,187,21*75
$GPGSV,3,3,12,07,19,276,21,10,11,318,,19,08,162,15,31,08,072,32*71
$GPRMC,230005.000,A,3353.7553,N,09832.0251,W,0.44,100.98,020412,,,D*7C
$GPGGA,230006.000,3353.7554,N,09832.0246,W,2,09,1.0,319.6,M,-23.7,M,1.8,0000*46
$GPGSA,A,3,30,32,06,23,16,13,20,07,03,,,,2.3,1.0,2.1*37
$GPRMC,230006.000,A,3353.7554,N,09832.0246,W,0.49,75.22,020412,,,D*41
$GPGGA,230007.000,3353.7554,N,09832.0244,W,2,09,1.0,320.2,M,-23.7,M,2.8,0000*48
$GPGSA,A,3,30,32,06,23,16,13,20,07,03,,,,2.3,1.0,2.1*37
$GPRMC,230007.000,A,3353.7554,N,09832.0244,W,0.44,74.72,020412,,,D*4B
$GPGGA,230008.000,3353.7554,N,09832.0244,W,2,09,1.0,320.4,M,-23.7,M,3.8,0000*40
$GPGSA,A,3,30,32,06,23,16,13,20,07,03,,,,2.3,1.0,2.1*37
$GPRMC,230008.000,A,3353.7554,N,09832.0244,W,0.09,30.71,020412,,,D*4E
$GPGGA,230009.000,3353.7554,N,09832.0243,W,2,09,1.0,320.6,M,-23.7,M,0.8,0000*47
$GPGSA,A,3,30,32,06,23,16,13,20,07,03,,,,2.3,1.0,2.1*37
$GPRMC,230009.000,A,3353.7554,N,09832.0243,W,0.16,134.02,020412,,,D*77
$GPGGA,230010.000,3353.7555,N,09832.0241,W,2,09,1.0,320.9,M,-23.7,M,0.8,0000*43
$GPGSA,A,3,30,32,06,23,16,13,20,07,03,,,,2.3,1.0,2.1*37
$GPGSV,3,1,12,23,68,332,37,16,67,053,32,30,39,043,36,20,38,217,25*71
$GPGSV,3,2,12,13,36,318,21,03,33,135,36,06,32,115,37,32,29,187,23*77
$GPGSV,3,3,12,07,19,276,20,10,11,318,,19,08,162,15,31,08,072,32*70
$GPRMC,230010.000,A,3353.7555,N,09832.0241,W,0.16,179.63,020412,,,D*72
$GPGGA,230011.000,3353.7555,N,09832.0240,W,2,09,1.0,321.2,M,-23.7,M,0.8,0000*49
$GPGSA,A,3,30,32,06,23,16,13,20,07,03,,,,2.3,1.0,2.1*37
$GPRMC,230011.000,A,3353.7555,N,09832.0240,W,0.17,213.85,020412,,,D*74
$GPGGA,230012.000,3353.7555,N,09832.0239,W,2,09,1.0,321.5,M,-23.7,M,0.8,0000*43
$GPGSA,A,3,30,32,06,23,16,13,20,07,03,,,,2.3,1.0,2.1*37
$GPRMC,230012.000,A,3353.7555,N,09832.0239,W,0.14,252.13,020412,,,D*70
$GPGGA,230013.000,3353.7556,N,09832.0238,W,2,09,1.0,321.6,M,-23.7,M,0.8,0000*43
$GPGSA,A,3,30,32,06,23,16,13,20,07,03,,,,2.3,1.0,2.1*37
$GPRMC,230013.000,A,3353.7556,N,09832.0238,W,0.25,306.46,020412,,,D*71
$GPGGA,230014.000,3353.7557,N,09832.0236,W,2,09,1.0,321.8,M,-23.7,M,0.8,0000*45
$GPGSA,A,3,30,32,06,23,16,13,20,07,03,,,,2.3,1.0,2.1*37
$GPRMC,230014.000,A,3353.7557,N,09832.0236,W,0.13,273.87,020412,,,D*72
$GPGGA,230015.000,3353.7557,N,09832.0234,W,2,08,1.1,322.5,M,-23.7,M,0.8,0000*48
$GPGSA,A,3,30,32,06,23,16,13,20,03,,,,,2.8,1.1,2.6*3D
$GPGSV,3,1,12,23,68,332,37,16,67,053,32,30,39,043,36,20,38,217,26*72
$GPGSV,3,2,12,13,36,318,22,03,33,135,37,06,32,115,36,32,29,187,25*72
$GPGSV,3,3,12,07,19,276,13,10,11,318,,19,08,162,17,31,08,072,32*72
$GPRMC,230015.000,A,3353.7557,N,09832.0234,W,0.09,109.61,020412,,,D*7C
$GPGGA,230016.000,3353.7557,N,09832.0232,W,2,08,1.1,322.9,M,-23.7,M,0.8,0000*41
$GPGSA,A,3,30,32,06,23,16,13,20,03,,,,,2.8,1.1,2.6*3D
$GPRMC,230016.000,A,3353.7557,N,09832.0232,W,0.13,338.69,020412,,,D*7A
$GPGGA,230017.000,3353.7558,N,09832.0230,W,2,08,1.1,323.4,M,-23.7,M,0.8,0000*41
$GPGSA,A,3,30,32,06,23,16,13,20,03,,,,,2.8,1.1,2.6*3D
$GPRMC,230017.000,A,3353.7558,N,09832.0230,W,0.06,58.67,020412,,,D*49
$GPGGA,230018.000,3353.7558,N,09832.0228,W,2,08,1.1,324.0,M,-23.7,M,1.8,0000*45
$GPGSA,A,3,30,32,06,23,16,13,20,03,,,,,2.8,1.1,2.6*3D
$GPRMC,230018.000,A,3353.7558,N,09832.0228,W,0.08,56.48,020412,,,D*42
$GPGGA,230019.000,3353.7559,N,09832.0225,W,2,08,1.1,324.6,M,-23.7,M,2.8,0000*4D
$GPGSA,A,3,30,32,06,23,16,13,20,03,,,,,2.8,1.1,2.6*3D
$GPRMC,230019.000,A,3353.7559,N,09832.0225,W,0.12,87.24,020412,,,D*42
$GPGGA,230020.000,3353.7558,N,09832.0224,W,2,08,1.1,325.2,M,-23.7,M,3.8,0000*43
$GPGSA,A,3,30,32,06,23,16,13,20,03,,,,,2.8,1.1,2.6*3D
$GPGSV,3,1,12,23,68,332,36,16,67,053,32,30,39,043,36,20,38,217,26*73
$GPGSV,3,2,12,13,36,318,22,03,33,135,37,06,32,115,36,32,29,187,25*72
$GPGSV,3,3,12,07,19,276,,10,11,318,,19,08,162,17,31,08,072,32*70
$GPRMC,230020.000,A,3353.7558,N,09832.0224,W,0.19,144.96,020412,,,D*74
$GPGGA,230021.000,3353.7558,N,09832.0222,W,2,08,1.1,325.7,M,-23.7,M,0.8,0000*42
$GPGSA,A,3,30,32,06,23,16,13,20,03,,,,,2.8,1.1,2.6*3D
$GPRMC,230021.000,A,3353.7558,N,09832.0222,W,0.28,135.32,020412,,,D*79
$GPGGA,230022.000,3353.7557,N,09832.0220,W,2,08,1.1,326.3,M,-23.7,M,0.8,0000*4B
$GPGSA,A,3,30,32,06,23,16,13,20,03,,,,,2.8,1.1,2.6*3D
$GPRMC,230022.000,A,3353.7557,N,09832.0220,W,0.34,128.23,020412,,,D*76
$GPGGA,230023.000,3353.7557,N,09832.0218,W,2,08,1.1,326.7,M,-23.7,M,0.8,0000*45
$GPGSA,A,3,30,32,06,23,16,13,20,03,,,,,2.8,1.1,2.6*3D
$GPRMC,230023.000,A,3353.7557,N,09832.0218,W,0.05,125.65,020412,,,D*71
$GPGGA,230024.000,3353.7557,N,09832.0217,W,2,08,1.1,327.1,M,-23.7,M,1.8,0000*4B
$GPGSA,A,3,30,32,06,23,16,13,20,03,,,,,2.8,1.1,2.6*3D
$GPRMC,230024.000,A,3353.7557,N,09832.0217,W,0.06,278.43,020412,,,D*75
$GPGGA,230025.000,3353.7558,N,09832.0216,W,2,09,1.0,327.3,M,-23.7,M,2.8,0000*45
$GPGSA,A,3,30,32,06,23,16,13,20,07,03,,,,2.3,1.0,2.1*37
$GPGSV,3,1,12,23,68,332,36,16,67,053,32,30,39,043,36,20,38,217,26*73
$GPGSV,3,2,12,13,36,318,23,03,33,135,37,06,32,115,36,32,29,187,25*73
$GPGSV,3,3,12,07,19,276,21,10,11,318,,19,08,162,17,31,08,072,32*73
$GPRMC,230025.000,A,3353.7558,N,09832.0216,W,0.19,278.97,020412,,,D*7D
$GPGGA,230026.000,3353.7558,N,09832.0214,W,2,09,1.0,327.8,M,-23.7,M,3.8,0000*4E
$GPGSA,A,3,30,32,06,23,16,13,20,07,03,,,,2.3,1.0,2.1*37
$GPRMC,230026.000,A,3353.7558,N,09832.0214,W,0.06,180.01,020412,,,D*79
$GPGGA,230027.000,3353.7558,N,09832.0213,W,2,09,1.0,328.3,M,-23.7,M,0.8,0000*4F
$GPGSA,A,3,30,32,06,23,16,13,20,07,03,,,,2.3,1.0,2.1*37
$GPRMC,230027.000,A,3353.7558,N,09832.0213,W,0.05,208.92,020412,,,D*75
$GPGGA,230028.000,3353.7558,N,09832.0211,W,2,09,1.0,328.8,M,-23.7,M,0.8,0000*49
$GPGSA,A,3,30,32,06,23,16,13,20,07,03,,,,2.3,1.0,2.1*37
$GPRMC,230028.000,A,3353.7558,N,09832.0211,W,0.02,119.97,020412,,,D*79
$GPGGA,230029.000,3353.7559,N,09832.0210,W,2,09,1.0,329.2,M,-23.7,M,0.8,0000*43
$GPGSA,A,3,30,32,06,23,16,13,20,07,03,,,,2.3,1.0,2.1*37
$GPRMC,230029.000,A,3353.7559,N,09832.0210,W,0.06,44.37,020412,,,D*4F
$GPGGA,230030.000,3353.7559,N,09832.0209,W,2,09,1.0,329.5,M,-23.7,M,1.8,0000*45
$GPGSA,A,3,30,32,06,23,16,13,20,07,03,,,,2.3,1.0,2.1*37
$GPGSV,3,1,12,23,68,332,36,16,67,053,32,30,39,043,36,20,38,217,26*73
$GPGSV,3,2,12,13,36,318,24,03,33,135,37,06,32,115,36,32,29,187,26*77
$GPGSV,3,3,12,07,19,276,20,10,11,318,,19,08,162,16,31,08,072,32*73
$GPRMC,230030.000,A,3353.7559,N,09832.0209,W,0.15,293.37,020412,,,D*75
$GPGGA,230031.000,3353.7560,N,09832.0208,W,2,09,1.0,329.7,M,-23.7,M,2.8,0000*4E
$GPGSA,A,3,30,32,06,23,16,13,20,07,03,,,,2.3,1.0,2.1*37
$GPRMC,230031.000,A,3353.7560,N,09832.0208,W,0.11,274.10,020412,,,D*77
$GPGGA,230032.000,3353.7560,N,09832.0207,W,2,09,1.0,329.9,M,-23.7,M,0.8,0000*4E
$GPGSA,A,3,30,32,06,23,16,13,20,07,03,,,,2.3,1.0,2.1*37
$GPRMC,230032.000,A,3353.7560,N,09832.0207,W,0.05,239.10,020412,,,D*77
$GPGGA,230033.000,3353.7558,N,09832.0209,W,2,09,1.0,329.8,M,-23.7,M,0.8,0000*4B
$GPGSA,A,3,30,32,06,23,16,13,20,07,03,,,,2.3,1.0,2.1*37
$GPRMC,230033.000,A,3353.7558,N,09832.0209,W,0.26,121.60,020412,,,D*7F
$GPGGA,230034.000,3353.7558,N,09832.0208,W,2,09,1.0,329.9,M,-23.7,M,0.8,0000*4C
$GPGSA,A,3,30,32,06,23,16,13,20,07,03,,,,2.3,1.0,2.1*37
$GPRMC,230034.000,A,3353.7558,N,09832.0208,W,0.09,264.07,020412,,,D*77
$GPGGA,230035.000,3353.7556,N,09832.0210,W,2,09,1.0,329.5,M,-23.7,M,0.8,0000*46
$GPGSA,A,3,30,32,06,23,16,13,20,07,03,,,,2.3,1.0,2.1*37
$GPGSV,3,1,12,23,68,332,36,16,67,053,32,30,39,043,35,20,38,217,27*71
$GPGSV,3,2,12,13,36,318,24,03,33,135,37,06,32,115,36,32,29,187,27*76
$GPGSV,3,3,12,07,19,276,20,10,11,318,,19,08,162,18,31,08,072,32*7D
$GPRMC,230035.000,A,3353.7556,N,09832.0210,W,0.05,235.85,020412,,,D*73
$GPGGA,230036.000,3353.7557,N,09832.0209,W,2,09,1.0,329.6,M,-23.7,M,1.8,0000*4E
$GPGSA,A,3,30,32,06,23,16,13,20,07,03,,,,2.3,1.0,2.1*37
$GPRMC,230036.000,A,3353.7557,N,09832.0209,W,0.10,45.28,020412,,,D*4F
$GPGGA,230037.000,3353.7555,N,09832.0212,W,2,09,1.0,328.8,M,-23.7,M,2.8,0000*4B
