$GPGGA,043239.000,3353.7472,N,09832.0192,W,1,07,1.1,323.2,M,-23.7,M,,0000*67
$GPGSA,A,3,01,26,07,11,17,28,08,,,,,,2.3,1.1,2.0*37
$GPRMC,043239.000,A,3353.7472,N,09832.0192,W,0.13,34.02,020412,,,A*4B
$GPGGA,043240.000,3353.7472,N,09832.0193,W,1,07,1.1,323.0,M,-23.7,M,,0000*6A
$GPGSA,A,3,01,26,07,11,17,28,08,,,,,,2.3,1.1,2.0*37
$GPRMC,043240.000,A,3353.7472,N,09832.0193,W,0.14,27.75,020412,,,A*41
$GPGGA,043241.000,3353.7472,N,09832.0194,W,1,07,1.1,322.9,M,-23.7,M,,0000*64
$GPGSA,A,3,01,26,07,11,17,28,08,,,,,,2.3,1.1,2.0*37
$GPRMC,043241.000,A,3353.7472,N,09832.0194,W,0.17,16.24,020412,,,A*42
$GPGGA,043242.000,3353.7471,N,09832.0195,W,1,07,1.1,323.0,M,-23.7,M,,0000*6D
$GPGSA,A,3,01,26,07,11,17,28,08,,,,,,2.3,1.1,2.0*37
$GPGSV,3,1,11,08,67,150,35,17,64,254,25,28,60,351,37,01,40,070,36*78
$GPGSV,3,2,11,26,29,266,25,11,28,053,20,07,28,148,31,27,09,321,*72
$GPGSV,3,3,11,15,09,309,,04,05,193,,48,36,230,28*46
$GPRMC,043242.000,A,3353.7471,N,09832.0195,W,0.05,185.74,020412,,,A*7E
$GPGGA,043243.000,3353.7471,N,09832.0195,W,1,07,1.1,323.1,M,-23.7,M,,0000*6D
$GPGSA,A,3,01,26,07,11,17,28,08,,,,,,2.3,1.1,2.0*37
$GPRMC,043243.000,A,3353.7471,N,09832.0195,W,0.09,85.65,020412,,,A*42
$GPGGA,043244.000,3353.7471,N,09832.0196,W,1,06,1.4,323.3,M,-23.7,M,,0000*6F
$GPGSA,A,3,01,26,07,17,28,08,,,,,,,2.7,1.4,2.3*35
$GPRMC,043244.000,A,3353.7471,N,09832.0196,W,0.22,98.50,020412,,,A*45
$GPGGA,043245.000,3353.7470,N,09832.0197,W,1,07,1.1,323.5,M,-23.7,M,,0000*6C
$GPGSA,A,3,01,26,07,11,17,28,08,,,,,,2.3,1.1,2.0*37
$GPRMC,043245.000,A,3353.7470,N,09832.0197,W,0.19,211.98,020412,,,A*7B
$GPGGA,043246.000,3353.7469,N,09832.0199,W,1,07,1.1,323.8,M,-23.7,M,,0000*64
$GPGSA,A,3,01,26,07,11,17,28,08,,,,,,2.3,1.1,2.0*37
$GPRMC,043246.000,A,3353.7469,N,09832.0199,W,0.33,229.14,020412,,,A*79
$GPGGA,043247.000,3353.7469,N,09832.0201,W,1,07,1.1,324.0,M,-23.7,M,,0000*68
$GPGSA,A,3,01,26,07,11,17,28,08,,,,,,2.3,1.1,2.0*37
$GPGSV,3,1,11,08,67,150,35,17,64,254,24,28,60,351,37,01,40,070,36*79
$GPGSV,3,2,11,26,29,266,19,11,28,053,15,07,28,148,32,27,09,321,*78
$GPGSV,3,3,11,15,09,309,,04,05,193,,48,36,230,27*49
$GPRMC,043247.000,A,3353.7469,N,09832.0201,W,0.36,226.39,020412,,,A*7F
$GPGGA,043248.000,3353.7468,N,09832.0203,W,1,07,1.1,324.3,M,-23.7,M,,0000*67
$GPGSA,A,3,01,26,07,11,17,28,08,,,,,,2.3,1.1,2.0*37
$GPRMC,043248.000,A,3353.7468,N,09832.0203,W,0.23,171.28,020412,,,A*76
$GPGGA,043249.000,3353.7467,N,09832.0203,W,1,07,1.1,324.7,M,-23.7,M,,0000*6D
$GPGSA,A,3,01,26,07,11,17,28,08,,,,,,2.3,1.1,2.0*37
$GPRMC,043249.000,A,3353.7467,N,09832.0203,W,0.29,133.54,020412,,,A*7F
$GPGGA,043250.000,3353.7467,N,09832.0203,W,1,07,1.1,325.0,M,-23.7,M,,0000*63
$GPGSA,A,3,01,26,07,11,17,28,08,,,,,,2.3,1.1,2.0*37
$GPRMC,043250.000,A,3353.7467,N,09832.0203,W,0.44,90.25,020412,,,A*42
$GPGGA,043251.000,3353.7467,N,09832.0203,W,1,07,1.1,325.4,M,-23.7,M,,0000*66
$GPGSA,A,3,01,26,07,11,17,28,08,,,,,,2.3,1.1,2.0*37
$GPRMC,043251.000,A,3353.7467,N,09832.0203,W,0.54,83.04,020412,,,A*43
$GPGGA,043252.000,3353.7467,N,09832.0204,W,1,07,1.1,325.7,M,-23.7,M,,0000*61
$GPGSA,A,3,01,26,07,11,17,28,08,,,,,,2.3,1.1,2.0*37
$GPGSV,3,1,11,08,67,150,35,17,64,254,25,28,60,351,37,01,40,070,36*78
$GPGSV,3,2,11,26,29,266,19,11,28,053,18,07,28,148,32,27,09,321,*75
$GPGSV,3,3,11,15,09,309,,04,05,193,,48,36,230,27*49
$GPRMC,043252.000,A,3353.7467,N,09832.0204,W,0.38,89.14,020412,,,A*46
$GPGGA,043253.000,3353.7467,N,09832.0204,W,1,07,1.1,326.0,M,-23.7,M,,0000*64
$GPGSA,A,3,01,26,07,11,17,28,08,,,,,,2.3,1.1,2.0*37
$GPRMC,043253.000,A,3353.7467,N,09832.0204,W,0.51,91.09,020412,,,A*4D
$GPGGA,043254.000,3353.7467,N,09832.0204,W,1,07,1.1,326.3,M,-23.7,M,,0000*60
$GPGSA,A,3,01,26,07,11,17,28,08,,,,,,2.3,1.1,2.0*37
$GPRMC,043254.000,A,3353.7467,N,09832.0204,W,0.63,84.30,020412,,,A*45
$GPGGA,043255.000,3353.7467,N,09832.0205,W,1,07,1.1,326.5,M,-23.7,M,,0000*66
$GPGSA,A,3,01,26,07,11,17,28,08,,,,,,2.3,1.1,2.0*37
$GPRMC,043255.000,A,3353.7467,N,09832.0205,W,0.17,92.72,020412,,,A*47
$GPGGA,043256.000,3353.7467,N,09832.0207,W,1,07,1.1,326.6,M,-23.7,M,,0000*64
$GPGSA,A,3,01,26,07,11,17,28,08,,,,,,2.3,1.1,2.0*37
$GPRMC,043256.000,A,3353.7467,N,09832.0207,W,0.05,182.80,020412,,,A*78
$GPGGA,043257.000,3353.7467,N,09832.0209,W,1,07,1.1,326.6,M,-23.7,M,,0000*6B
$GPGSA,A,3,01,26,07,11,17,28,08,,,,,,2.3,1.1,2.0*37
$GPGSV,3,1,11,08,67,150,35,17,64,254,27,28,60,351,37,01,40,070,36*7A
$GPGSV,3,2,11,26,29,266,18,11,28,053,19,07,28,148,31,27,09,321,*76
$GPGSV,3,3,11,15,09,309,,04,05,193,,48,36,230,26*48
$GPRMC,043257.000,A,3353.7467,N,09832.0209,W,0.07,279.29,020412,,,A*71
$GPGGA,043258.000,3353.7467,N,09832.0212,W,1,07,1.1,326.6,M,-23.7,M,,0000*6E
$GPGSA,A,3,01,26,07,11,17,28,08,,,,,,2.3,1.1,2.0*37
$GPRMC,043258.000,A,3353.7467,N,09832.0212,W,0.28,245.29,020412,,,A*76
$GPGGA,043259.000,3353.7467,N,09832.0214,W,1,07,1.1,326.4,M,-23.7,M,,0000*6B
$GPGSA,A,3,01,26,07,11,17,28,08,,,,,,2.3,1.1,2.0*37
$GPRMC,043259.000,A,3353.7467,N,09832.0214,W,0.13,231.55,020412,,,A*71
$GPGGA,043300.000,3353.7467,N,09832.0217,W,1,07,1.1,326.2,M,-23.7,M,,0000*63
$GPGSA,A,3,01,26,07,11,17,28,08,,,,,,2.3,1.1,2.0*37
$GPRMC,043300.000,A,3353.7467,N,09832.0217,W,0.15,265.01,020412,,,A*79
$GPGGA,043301.000,3353.7467,N,09832.0218,W,1,07,1.1,326.0,M,-23.7,M,,0000*6F
$GPGSA,A,3,01,26,07,11,17,28,08,,,,,,2.3,1.1,2.0*37
$GPRMC,043301.000,A,3353.7467,N,09832.0218,W,0.22,74.75,020412,,,A*42
$GPGGA,043302.000,3353.7468,N,09832.0218,W,1,07,1.1,325.8,M,-23.7,M,,0000*68
$GPGSA,A,3,01,26,07,11,17,28,08,,,,,,2.3,1.1,2.0*37
$GPGSV,3,1,11,08,67,150,35,17,64,254,27,28,60,351,37,01,40,070,36*7A
$GPGSV,3,2,11,26,29,266,18,11,28,053,23,07,28,148,30,27,09,321,*7E
$GPGSV,3,3,11,15,09,309,,04,05,193,,48,36,230,27*49
$GPRMC,043302.000,A,3353.7468,N,09832.0218,W,0.32,93.50,020412,,,A*41
$GPGGA,043303.000,3353.7467,N,09832.0219,W,1,07,1.1,325.7,M,-23.7,M,,0000*68
$GPGSA,A,3,01,26,07,11,17,28,08,,,,,,2.3,1.1,2.0*37
$GPRMC,043303.000,A,3353.7467,N,09832.0219,W,0.27,110.41,020412,,,A*70
$GPGGA,043304.000,3353.7467,N,09832.0221,W,1,07,1.1,325.5,M,-23.7,M,,0000*66
$GPGSA,A,3,01,26,07,11,17,28,08,,,,,,2.3,1.1,2.0*37
$GPRMC,043304.000,A,3353.7467,N,09832.0221,W,0.14,220.45,020412,,,A*78
$GPGGA,043305.000,3353.7467,N,09832.0224,W,1,07,1.1,325.3,M,-23.7,M,,0000*64
$GPGSA,A,3,01,26,07,11,17,28,08,,,,,,2.3,1.1,2.0*37
$GPRMC,043305.000,A,3353.7467,N,09832.0224,W,0.24,249.47,020412,,,A*72
$GPGGA,043306.000,3353.7467,N,09832.0225,W,1,07,1.1,325.1,M,-23.7,M,,0000*64
$GPGSA,A,3,01,26,07,11,17,28,08,,,,,,2.3,1.1,2.0*37
$GPRMC,043306.000,A,3353.7467,N,09832.0225,W,0.11,116.22,020412,,,A*7C
$GPGGA,043307.000,3353.7467,N,09832.0226,W,1,07,1.1,325.0,M,-23.7,M,,0000*67
$GPGSA,A,3,01,26,07,11,17,28,08,,,,,,2.3,1.1,2.0*37
$GPGSV,3,1,11,08,67,150,35,17,64,254,27,28,60,351,37,01,40,070,36*7A
$GPGSV,3,2,11,26,29,266,19,11,28,053,24,07,28,148,30,27,09,321,*78
$GPGSV,3,3,11,15,09,309,,04,05,193,,48,36,230,25*4B
$GPRMC,043307.000,A,3353.7467,N,09832.0226,W,0.26,103.52,020412,,,A*79
$GPGGA,043308.000,3353.7467,N,09832.0228,W,1,07,1.1,324.8,M,-23.7,M,,0000*6F
$GPGSA,A,3,01,26,07,11,17,28,08,,,,,,2.3,1.1,2.0*37
$GPRMC,043308.000,A,3353.7467,N,09832.0228,W,0.10,231.63,020412,,,A*7D
$GPGGA,043309.000,3353.7467,N,09832.0230,W,1,07,1.1,324.6,M,-23.7,M,,0000*69
$GPGSA,A,3,01,26,07,11,17,28,08,,,,,,2.3,1.1,2.0*37
$GPRMC,043309.000,A,3353.7467,N,09832.0230,W,0.15,241.23,020412,,,A*73
$GPGGA,043310.000,3353.7467,N,09832.0230,W,1,07,1.1,324.5,M,-23.7,M,,0000*62
$GPGSA,A,3,01,26,07,11,17,28,08,,,,,,2.3,1.1,2.0*37
$GPRMC,043310.000,A,3353.7467,N,09832.0230,W,0.18,111.93,020412,,,A*7B
$GPGGA,043311.000,3353.7467,N,09832.0231,W,1,07,1.1,324.3,M,-23.7,M,,0000*64
$GPGSA,A,3,01,26,07,11,17,28,08,,,,,,2.3,1.1,2.0*37
$GPRMC,043311.000,A,3353.7467,N,09832.0231,W,0.31,97.81,020412,,,A*4C
$GPGGA,043312.000,3353.7467,N,09832.0232,W,1,07,1.1,324.2,M,-23.7,M,,0000*65
$GPGSA,A,3,01,26,07,11,17,28,08,,,,,,2.3,1.1,2.0*37
$GPGSV,3,1,10,08,67,150,36,17,64,254,27,28,60,351,37,01,40,070,36*78
$GPGSV,3,2,10,26,29,266,18,11,28,053,25,07,28,148,29,27,09,321,*71
$GPGSV,3,3,10,15,09,309,,04,05,193,*75
$GPRMC,043312.000,A,3353.7467,N,09832.0232,W,0.11,125.74,020412,,,A*7C
$GPGGA,043313.000,3353.7467,N,09832.0233,W,1,07,1.1,324.1,M,-23.7,M,,0000*66
$GPGSA,A,3,01,26,07,11,17,28,08,,,,,,2.3,1.1,2.0*37
$GPRMC,043313.000,A,3353.7467,N,09832.0233,W,0.24,107.09,020412,,,A*70
$GPGGA,043314.000,3353.7467,N,09832.0234,W,1,07,1.1,324.0,M,-23.7,M,,0000*67
$GPGSA,A,3,01,26,07,11,17,28,08,,,,,,2.3,1.1,2.0*37
$GPRMC,043314.000,A,3353.7467,N,09832.0234,W,0.06,217.51,020412,,,A*7F
$GPGGA,043315.000,3353.7467,N,09832.0236,W,1,07,1.1,323.8,M,-23.7,M,,0000*6B
$GPGSA,A,3,01,26,07,11,17,28,08,,,,,,2.3,1.1,2.0*37
$GPRMC,043315.000,A,3353.7467,N,09832.0236,W,0.08,156.26,020412,,,A*74
$GPGGA,043316.000,3353.7467,N,09832.0236,W,1,07,1.1,323.7,M,-23.7,M,,0000*67
$GPGSA,A,3,01,26,07,11,17,28,08,,,,,,2.3,1.1,2.0*37
$GPRMC,043316.000,A,3353.7467,N,09832.0236,W,0.23,101.23,020412,,,A*79
$GPGGA,043317.000,3353.7467,N,09832.0237,W,1,07,1.1,323.6,M,-23.7,M,,0000*66
$GPGSA,A,3,01,26,07,11,17,28,08,,,,,,2.3,1.1,2.0*37
$GPGSV,3,1,10,08,67,150,36,17,64,254,28,28,60,351,37,01,40,070,36*77
$GPGSV,3,2,10,26,29,266,19,11,28,053,26,07,28,148,30,27,09,321,*7B
$GPGSV,3,3,10,15,09,309,,04,05,193,*75
$GPRMC,043317.000,A,3353.7467,N,09832.0237,W,0.15,116.69,020412,,,A*74
$GPGGA,043318.000,3353.7467,N,09832.0238,W,1,07,1.1,323.5,M,-23.7,M,,0000*65
$GPGSA,A,3,01,26,07,11,17,28,08,,,,,,2.3,1.1,2.0*37
$GPRMC,043318.000,A,3353.7467,N,09832.0238,W,0.28,104.21,020412,,,A*75
$GPGGA,043319.000,3353.7467,N,09832.0239,W,1,07,1.1,323.4,M,-23.7,M,,0000*64
$GPGSA,A,3,01,26,07,11,17,28,08,,,,,,2.3,1.1,2.0*37
$GPRMC,043319.000,A,3353.7467,N,09832.0239,W,0.13,122.24,020412,,,A*7C
$GPGGA,043320.000,3353.7467,N,09832.0240,W,1,07,1.1,323.3,M,-23.7,M,,0000*67
$GPGSA,A,3,01,26,07,11,17,28,08,,,,,,2.3,1.1,2.0*37
$GPRMC,043320.000,A,3353.7467,N,09832.0240,W,0.11,230.86,020412,,,A*72
$GPGGA,043321.000,3353.7467,N,09832.0241,W,1,07,1.1,323.1,M,-23.7,M,,0000*65
$GPGSA,A,3,01,26,07,11,17,28,08,,,,,,2.3,1.1,2.0*37
$GPRMC,043321.000,A,3353.7467,N,09832.0241,W,0.20,107.46,020412,,,A*7B
$GPGGA,043322.000,3353.7467,N,09832.0241,W,1,06,1.9,323.1,M,-23.7,M,,0000*6F
$GPGSA,A,3,01,07,11,17,28,08,,,,,,,4.0,1.9,3.6*39
$GPGSV,3,1,10,08,67,150,35,17,64,254,28,28,60,351,37,01,40,070,36*74
$GPGSV,3,2,10,26,29,266,16,11,28,053,27,07,28,148,31,27,09,321,*74
$GPGSV,3,3,10,15,09,309,,04,05,193,*75
$GPRMC,043322.000,A,3353.7467,N,09832.0241,W,0.14,117.91,020412,,,A*74
$GPGGA,043323.000,3353.7467,N,09832.0243,W,1,07,1.1,322.9,M,-23.7,M,,0000*6C
$GPGSA,A,3,01,26,07,11,17,28,08,,,,,,2.3,1.1,2.0*37
$GPRMC,043323.000,A,3353.7467,N,09832.0243,W,0.08,204.29,020412,,,A*78
$GPGGA,043324.000,3353.7467,N,09832.0244,W,1,07,1.1,322.8,M,-23.7,M,,0000*6D
$GPGSA,A,3,01,26,07,11,17,28,08,,,,,,2.3,1.1,2.0*37
$GPRMC,043324.000,A,3353.7467,N,09832.0244,W,0.10,232.91,020412,,,A*77
$GPGGA,043325.000,3353.7467,N,09832.0246,W,1,07,1.1,322.5,M,-23.7,M,,0000*63
$GPGSA,A,3,01,26,07,11,17,28,08,,,,,,2.3,1.1,2.0*37
$GPRMC,043325.000,A,3353.7467,N,09832.0246,W,0.16,247.19,020412,,,A*70
$GPGGA,043326.000,3353.7467,N,09832.0247,W,1,07,1.1,322.3,M,-23.7,M,,0000*67
$GPGSA,A,3,01,26,07,11,17,28,08,,,,,,2.3,1.1,2.0*37
$GPRMC,043326.000,A,3353.7467,N,09832.0247,W,0.17,245.08,020412,,,A*71
$GPGGA,043327.000,3353.7467,N,09832.0249,W,1,07,1.1,322.0,M,-23.7,M,,0000*6B
$GPGSA,A,3,01,26,07,11,17,28,08,,,,,,2.3,1.1,2.0*37
$GPGSV,3,1,10,08,67,150,35,17,64,254,29,28,60,351,37,01,40,070,36*75
$GPGSV,3,2,10,26,29,266,15,11,28,053,28,07,28,148,31,27,09,321,*78
$GPGSV,3,3,10,15,09,309,,04,05,193,*75
$GPRMC,043327.000,A,3353.7467,N,09832.0249,W,0.15,247.18,020412,,,A*7F
$GPGGA,043328.000,3353.7467,N,09832.0250,W,1,07,1.1,321.7,M,-23.7,M,,0000*68
$GPGSA,A,3,01,26,07,11,17,28,08,,,,,,2.3,1.1,2.0*37
$GPRMC,043328.000,A,3353.7467,N,09832.0250,W,0.13,252.53,020412,,,A*75
$GPGGA,043329.000,3353.7467,N,09832.0251,W,1,07,1.1,321.4,M,-23.7,M,,0000*6B
$GPGSA,A,3,01,26,07,11,17,28,08,,,,,,2.3,1.1,2.0*37
$GPRMC,043329.000,A,3353.7467,N,09832.0251,W,0.20,255.55,020412,,,A*74
$GPGGA,043330.000,3353.7467,N,09832.0253,W,1,07,1.1,321.0,M,-23.7,M,,0000*65
$GPGSA,A,3,01,26,07,11,17,28,08,,,,,,2.3,1.1,2.0*37
$GPRMC,043330.000,A,3353.7467,N,09832.0253,W,0.24,259.71,020412,,,A*70
$GPGGA,043331.000,3353.7467,N,09832.0254,W,1,06,1.9,320.7,M,-23.7,M,,0000*6C
$GPGSA,A,3,01,07,11,17,28,08,,,,,,,4.0,1.9,3.6*39
$GPRMC,043331.000,A,3353.7467,N,09832.0254,W,0.09,248.85,020412,,,A*72
$GPGGA,043332.000,3353.7468,N,09832.0255,W,1,06,1.9,320.3,M,-23.7,M,,0000*65
$GPGSA,A,3,01,07,11,17,28,08,,,,,,,4.0,1.9,3.6*39
$GPGSV,3,1,10,08,67,150,35,17,64,254,29,28,60,351,37,01,40,070,36*75
$GPGSV,3,2,10,26,29,266,,11,28,053,28,07,28,148,30,27,09,321,*7D
$GPGSV,3,3,10,15,09,309,,04,05,193,*75
$GPRMC,043332.000,A,3353.7468,N,09832.0255,W,0.03,259.63,020412,,,A*7D
$GPGGA,043333.000,3353.7468,N,09832.0256,W,1,06,1.9,320.0,M,-23.7,M,,0000*64
$GPGSA,A,3,01,07,11,17,28,08,,,,,,,4.0,1.9,3.6*39
$GPRMC,043333.000,A,3353.7468,N,09832.0256,W,0.02,213.55,020412,,,A*75
$GPGGA,043334.000,3353.7468,N,09832.0256,W,1,06,1.9,319.7,M,-23.7,M,,0000*6E
$GPGSA,A,3,01,07,11,17,28,08,,,,,,,4.0,1.9,3.6*39
$GPRMC,043334.000,A,3353.7468,N,09832.0256,W,0.05,253.38,020412,,,A*7A
$GPGGA,043335.000,3353.7468,N,09832.0257,W,1,06,1.9,319.4,M,-23.7,M,,0000*6D
$GPGSA,A,3,01,07,11,17,28,08,,,,,,,4.0,1.9,3.6*39
$GPRMC,043335.000,A,3353.7468,N,09832.0257,W,0.04,169.35,020412,,,A*7C
$GPGGA,043336.000,3353.7468,N,09832.0257,W,1,06,1.9,319.2,M,-23.7,M,,0000*68
$GPGSA,A,3,01,07,11,17,28,08,,,,,,,4.0,1.9,3.6*39
$GPRMC,043336.000,A,3353.7468,N,09832.0257,W,0.04,211.88,020412,,,A*75
$GPGGA,043337.000,3353.7468,N,09832.0257,W,1,06,1.9,318.9,M,-23.7,M,,0000*63
$GPGSA,A,3,01,07,11,17,28,08,,,,,,,4.0,1.9,3.6*39
$GPGSV,3,1,10,08,67,150,35,17,64,254,28,28,60,351,37,01,40,070,36*74
$GPGSV,3,2,10,26,29,266,,11,28,053,28,07,28,148,30,27,09,321,*7D
$GPGSV,3,3,10,15,09,309,,04,05,193,*75
$GPRMC,043337.000,A,3353.7468,N,09832.0257,W,0.04,131.11,020412,,,A*75
$GPGGA,043338.000,3353.7468,N,09832.0258,W,1,06,1.9,318.7,M,-23.7,M,,0000*6D
$GPGSA,A,3,01,07,11,17,28,08,,,,,,,4.0,1.9,3.6*39
$GPRMC,043338.000,A,3353.7468,N,09832.0258,W,0.04,178.18,020412,,,A*71
$GPGGA,043339.000,3353.7468,N,09832.0258,W,1,06,1.9,318.5,M,-23.7,M,,0000*6E
$GPGSA,A,3,01,07,11,17,28,08,,,,,,,4.0,1.9,3.6*39
$GPRMC,043339.000,A,3353.7468,N,09832.0258,W,0.03,190.14,020412,,,A*7D
$GPGGA,043340.000,3353.7468,N,09832.0258,W,1,06,1.9,318.3,M,-23.7,M,,0000*66
$GPGSA,A,3,01,07,11,17,28,08,,,,,,,4.0,1.9,3.6*39
$GPRMC,043340.000,A,3353.7468,N,09832.0258,W,0.05,162.99,020412,,,A*7D
$GPGGA,043341.000,3353.7468,N,09832.0258,W,1,06,1.9,318.2,M,-23.7,M,,0000*66
$GPGSA,A,3,01,07,11,17,28,08,,,,,,,4.0,1.9,3.6*39
$GPRMC,043341.000,A,3353.7468,N,09832.0258,W,0.04,140.78,020412,,,A*72
$GPGGA,043342.000,3353.7468,N,09832.0258,W,1,06,1.9,318.0,M,-23.7,M,,0000*67
$GPGSA,A,3,01,07,11,17,28,08,,,,,,,4.0,1.9,3.6*39
$GPGSV,3,1,10,08,67,150,35,17,64,254,28,28,60,351,37,01,40,070,35*77
$GPGSV,3,2,10,26,29,266,11,11,28,053,28,07,28,148,29,27,09,321,*75
$GPGSV,3,3,10,15,09,309,,04,05,193,*75
$GPRMC,043342.000,A,3353.7468,N,09832.0258,W,0.06,132.46,020412,,,A*7B
$GPGGA,043343.000,3353.7468,N,09832.0259,W,1,06,1.9,317.9,M,-23.7,M,,0000*61
$GPGSA,A,3,01,07,11,17,28,08,,,,,,,4.0,1.9,3.6*39
$GPRMC,043343.000,A,3353.7468,N,09832.0259,W,0.03,118.21,020412,,,A*77
$GPGGA,043344.000,3353.7468,N,09832.0259,W,1,06,1.9,317.8,M,-23.7,M,,0000*67
$GPGSA,A,3,01,07,11,17,28,08,,,,,,,4.0,1.9,3.6*39
$GPRMC,043344.000,A,3353.7468,N,09832.0259,W,0.08,148.79,020412,,,A*73
$GPGGA,043345.000,3353.7468,N,09832.0259,W,1,06,1.9,317.8,M,-23.7,M,,0000*66
$GPGSA,A,3,01,07,11,17,28,08,,,,,,,4.0,1.9,3.6*39
$GPRMC,043345.000,A,3353.7468,N,09832.0259,W,0.06,139.40,020412,,,A*70
$GPGGA,043346.000,3353.7468,N,09832.0259,W,1,06,1.9,317.7,M,-23.7,M,,0000*6A
$GPGSA,A,3,01,07,11,17,28,08,,,,,,,4.0,1.9,3.6*39
$GPRMC,043346.000,A,3353.7468,N,09832.0259,W,0.08,120.96,020412,,,A*7E
$GPGGA,043347.000,3353.7468,N,09832.0258,W,1,06,1.9,317.7,M,-23.7,M,,0000*6A
$GPGSA,A,3,01,07,11,17,28,08,,,,,,,4.0,1.9,3.6*39
$GPGSV,3,1,10,08,67,150,34,17,64,254,27,28,60,351,37,01,40,070,35*79
$GPGSV,3,2,10,26,29,266,12,11,28,053,29,07,28,148,29,27,09,321,*77
$GPGSV,3,3,10,15,09,309,,04,05,193,*75
$GPRMC,043347.000,A,3353.7468,N,09832.0258,W,0.08,120.80,020412,,,A*79
$GPGGA,043348.000,3353.7468,N,09832.0258,W,1,06,1.9,317.7,M,-23.7,M,,0000*65
$GPGSA,A,3,01,07,11,17,28,08,,,,,,,4.0,1.9,3.5*3A
$GPRMC,043348.000,A,3353.7468,N,09832.0258,W,0.10,116.04,020412,,,A*76
$GPGGA,043349.000,3353.7468,N,09832.0258,W,1,06,1.9,317.7,M,-23.7,M,,0000*64
$GPGSA,A,3,01,07,11,17,28,08,,,,,,,4.0,1.9,3.5*3A
$GPRMC,043349.000,A,3353.7468,N,09832.0258,W,0.10,127.80,020412,,,A*79
$GPGGA,043350.000,3353.7468,N,09832.0258,W,1,06,1.9,317.7,M,-23.7,M,,0000*6C
$GPGSA,A,3,01,07,11,17,28,08,,,,,,,4.0,1.9,3.5*3A
$GPRMC,043350.000,A,3353.7468,N,09832.0258,W,0.09,125.93,020412,,,A*79
$GPGGA,043351.000,3353.7468,N,09832.0258,W,1,06,1.9,317.8,M,-23.7,M,,0000*62
$GPGSA,A,3,01,07,11,17,28,08,,,,,,,4.0,1.9,3.5*3A
$GPRMC,043351.000,A,3353.7468,N,09832.0258,W,0.12,119.65,020412,,,A*74
$GPGGA,043352.000,3353.7468,N,09832.0258,W,1,06,1.9,317.9,M,-23.7,M,,0000*60
$GPGSA,A,3,01,07,11,17,28,08,,,,,,,4.0,1.9,3.5*3A
$GPGSV,3,1,11,08,67,150,35,17,64,256,27,28,61,352,37,01,40,069,35*71
$GPGSV,3,2,11,26,28,265,11,11,28,052,29,07,27,148,28,27,10,321,*70
$GPGSV,3,3,11,15,09,308,,04,06,193,,20,00,114,*40
$GPRMC,043352.000,A,3353.7468,N,09832.0258,W,0.13,113.60,020412,,,A*79
$GPGGA,043353.000,3353.7468,N,09832.0257,W,1,06,1.9,318.0,M,-23.7,M,,0000*68
$GPGSA,A,3,01,07,11,17,28,08,,,,,,,4.0,1.9,3.5*3A
$GPRMC,043353.000,A,3353.7468,N,09832.0257,W,0.14,106.70,020412,,,A*75
$GPGGA,043354.000,3353.7468,N,09832.0257,W,1,06,1.9,318.1,M,-23.7,M,,0000*6E
$GPGSA,A,3,01,07,11,17,28,08,,,,,,,4.0,1.9,3.5*3A
$GPRMC,043354.000,A,3353.7468,N,09832.0257,W,0.17,116.80,020412,,,A*7F
$GPGGA,043355.000,3353.7467,N,09832.0257,W,1,06,1.9,318.2,M,-23.7,M,,0000*63
$GPGSA,A,3,01,07,11,17,28,08,,,,,,,4.0,1.9,3.5*3A
$GPRMC,043355.000,A,3353.7467,N,09832.0257,W,0.16,121.86,020412,,,A*72
$GPGGA,043356.000,3353.7467,N,09832.0256,W,1,06,1.9,318.3,M,-23.7,M,,0000*60
$GPGSA,A,3,01,07,11,17,28,08,,,,,,,4.0,1.9,3.5*3A
$GPRMC,043356.000,A,3353.7467,N,09832.0256,W,0.13,106.51,020412,,,A*7A
$GPGGA,043357.000,3353.7467,N,09832.0256,W,1,06,1.9,318.4,M,-23.7,M,,0000*66
$GPGSA,A,3,01,07,11,17,28,08,,,,,,,4.0,1.9,3.5*3A
$GPGSV,3,1,11,08,67,150,35,17,64,256,28,28,61,352,37,01,40,069,35*7E
$GPGSV,3,2,11,26,28,265,,11,28,052,30,07,27,148,29,27,10,321,*79
$GPGSV,3,3,11,15,09,308,,04,06,193,,20,00,114,*40
$GPRMC,043357.000,A,3353.7467,N,09832.0256,W,0.17,113.86,020412,,,A*71
$GPGGA,043358.000,3353.7467,N,09832.0256,W,1,06,1.9,318.5,M,-23.7,M,,0000*68
$GPGSA,A,3,01,07,11,17,28,08,,,,,,,4.0,1.9,3.5*3A
$GPRMC,043358.000,A,3353.7467,N,09832.0256,W,0.18,112.30,020412,,,A*7D
$GPGGA,043359.000,3353.7467,N,09832.0255,W,1,06,1.9,318.7,M,-23.7,M,,0000*68
$GPGSA,A,3,01,07,11,17,28,08,,,,,,,4.0,1.9,3.5*3A
$GPRMC,043359.000,A,3353.7467,N,09832.0255,W,0.16,109.40,020412,,,A*7C
$GPGGA,043400.000,3353.7467,N,09832.0255,W,1,06,1.9,318.8,M,-23.7,M,,0000*6C
$GPGSA,A,3,01,07,11,17,28,08,,,,,,,4.0,1.9,3.5*3A
$GPRMC,043400.000,A,3353.7467,N,09832.0255,W,0.18,121.51,020412,,,A*73
$GPGGA,043401.000,3353.7467,N,09832.0255,W,1,06,1.9,318.9,M,-23.7,M,,0000*6C
$GPGSA,A,3,01,07,11,17,28,08,,,,,,,4.0,1.9,3.5*3A
$GPRMC,043401.000,A,3353.7467,N,09832.0255,W,0.18,118.04,020412,,,A*78
$GPGGA,043402.000,3353.7466,N,09832.0255,W,1,06,1.9,319.0,M,-23.7,M,,0000*66
$GPGSA,A,3,01,07,11,17,28,08,,,,,,,4.0,1.9,3.5*3A
$GPGSV,3,1,11,08,67,150,35,17,64,256,28,28,61,352,37,01,40,069,35*7E
$GPGSV,3,2,11,26,28,265,,11,28,052,30,07,27,148,28,27,10,321,*78
$GPGSV,3,3,11,15,09,308,,04,06,193,,20,00,114,*40
$GPRMC,043402.000,A,3353.7466,N,09832.0255,W,0.18,115.25,020412,,,A*74
$GPGGA,043403.000,3353.7466,N,09832.0254,W,1,06,1.9,319.2,M,-23.7,M,,0000*64
$GPGSA,A,3,01,07,11,17,28,08,,,,,,,4.0,1.9,3.5*3A
$GPRMC,043403.000,A,3353.7466,N,09832.0254,W,0.18,112.19,020412,,,A*7C
$GPGGA,043404.000,3353.7466,N,09832.0254,W,1,06,1.9,319.3,M,-23.7,M,,0000*62
$GPGSA,A,3,01,07,11,17,28,08,,,,,,,4.0,1.9,3.5*3A
$GPRMC,043404.000,A,3353.7466,N,09832.0254,W,0.18,109.02,020412,,,A*7B
$GPGGA,043405.000,3353.7466,N,09832.0255,W,1,07,1.1,319.3,M,-23.7,M,,0000*6B
$GPGSA,A,3,01,26,07,11,17,28,08,,,,,,2.3,1.1,2.0*37
$GPRMC,043405.000,A,3353.7466,N,09832.0255,W,0.08,186.87,020412,,,A*70
$GPGGA,043406.000,3353.7466,N,09832.0255,W,1,07,1.1,319.3,M,-23.7,M,,0000*68
$GPGSA,A,3,01,26,07,11,17,28,08,,,,,,2.3,1.1,2.0*37
$GPRMC,043406.000,A,3353.7466,N,09832.0255,W,0.08,202.84,020412,,,A*7F
$GPGGA,043407.000,3353.7466,N,09832.0255,W,1,07,1.1,319.4,M,-23.7,M,,0000*6E
$GPGSA,A,3,01,26,07,11,17,28,08,,,,,,2.3,1.1,2.0*37
$GPGSV,3,1,11,08,67,150,35,17,64,256,28,28,61,352,37,01,40,069,35*7E
$GPGSV,3,2,11,26,28,265,14,11,28,052,30,07,27,148,28,27,10,321,*7D
$GPGSV,3,3,11,15,09,308,,04,06,193,,20,00,114,*40
$GPRMC,043407.000,A,3353.7466,N,09832.0255,W,0.11,119.03,020412,,,A*70
$GPGGA,043408.000,3353.7466,N,09832.0255,W,1,07,1.1,319.4,M,-23.7,M,,0000*61
$GPGSA,A,3,01,26,07,11,17,28,08,,,,,,2.3,1.1,2.0*37
$GPRMC,043408.000,A,3353.7466,N,09832.0255,W,0.26,106.39,020412,,,A*7C
$GPGGA,043409.000,3353.7465,N,09832.0255,W,1,07,1.1,319.4,M,-23.7,M,,0000*63
$GPGSA,A,3,01,26,07,11,17,28,08,,,,,,2.3,1.1,2.0*37
$GPRMC,043409.000,A,3353.7465,N,09832.0255,W,0.06,185.82,020412,,,A*77
$GPGGA,043410.000,3353.7465,N,09832.0255,W,1,07,1.1,319.4,M,-23.7,M,,0000*6B
$GPGSA,A,3,01,26,07,11,17,28,08,,,,,,2.3,1.1,2.0*37
$GPRMC,043410.000,A,3353.7465,N,09832.0255,W,0.11,131.66,020412,,,A*7C
$GPGGA,043411.000,3353.7465,N,09832.0255,W,1,07,1.1,319.5,M,-23.7,M,,0000*6B
$GPGSA,A,3,01,26,07,11,17,28,08,,,,,,2.3,1.1,2.0*37
$GPRMC,043411.000,A,3353.7465,N,09832.0255,W,0.21,107.81,020412,,,A*72
$GPGGA,043412.000,3353.7465,N,09832.0255,W,1,07,1.1,319.5,M,-23.7,M,,0000*68
$GPGSA,A,3,01,26,07,11,17,28,08,,,,,,2.3,1.1,2.0*37
$GPGSV,3,1,11,08,67,150,35,17,64,256,29,28,61,352,37,01,40,069,35*7F
$GPGSV,3,2,11,26,28,265,12,11,28,052,30,07,27,148,28,27,10,321,*7B
$GPGSV,3,3,11,15,09,308,,04,06,193,,20,00,114,*40
$GPRMC,043412.000,A,3353.7465,N,09832.0255,W,0.24,108.02,020412,,,A*70
$GPGGA,043413.000,3353.7465,N,09832.0254,W,1,06,1.9,319.6,M,-23.7,M,,0000*62
$GPGSA,A,3,01,07,11,17,28,08,,,,,,,4.0,1.9,3.5*3A
$GPRMC,043413.000,A,3353.7465,N,09832.0254,W,0.17,116.67,020412,,,A*7C
$GPGGA,043414.000,3353.7465,N,09832.0254,W,1,06,1.9,319.7,M,-23.7,M,,0000*64
$GPGSA,A,3,01,07,11,17,28,08,,,,,,,4.0,1.9,3.5*3A
$GPRMC,043414.000,A,3353.7465,N,09832.0254,W,0.17,111.21,020412,,,A*7E
$GPGGA,043415.000,3353.7464,N,09832.0254,W,1,06,1.9,319.7,M,-23.7,M,,0000*64
$GPGSA,A,3,01,07,11,17,28,08,,,,,,,4.0,1.9,3.5*3A
$GPRMC,043415.000,A,3353.7464,N,09832.0254,W,0.18,118.66,020412,,,A*7B
$GPGGA,043416.000,3353.7464,N,09832.0254,W,1,06,1.9,319.8,M,-23.7,M,,0000*68
$GPGSA,A,3,01,07,11,17,28,08,,,,,,,4.0,1.9,3.5*3A
$GPRMC,043416.000,A,3353.7464,N,09832.0254,W,0.19,110.91,020412,,,A*79
$GPGGA,043417.000,3353.7464,N,09832.0254,W,1,06,1.9,319.9,M,-23.7,M,,0000*68
$GPGSA,A,3,01,07,11,17,28,08,,,,,,,4.0,1.9,3.5*3A
$GPGSV,3,1,11,08,67,150,35,17,64,256,29,28,61,352,37,01,40,069,35*7F
$GPGSV,3,2,11,26,28,265,,11,28,052,30,07,27,148,28,27,10,321,*78
$GPGSV,3,3,11,15,09,308,,04,06,193,,20,00,114,*40
$GPRMC,043417.000,A,3353.7464,N,09832.0254,W,0.16,115.00,020412,,,A*7A
$GPGGA,043418.000,3353.7464,N,09832.0254,W,1,06,1.9,319.9,M,-23.7,M,,0000*67
$GPGSA,A,3,01,07,11,17,28,08,,,,,,,4.0,1.9,3.5*3A
$GPRMC,043418.000,A,3353.7464,N,09832.0254,W,0.19,115.05,020412,,,A*7F
$GPGGA,043419.000,3353.7464,N,09832.0253,W,1,06,1.9,320.0,M,-23.7,M,,0000*62
$GPGSA,A,3,01,07,11,17,28,08,,,,,,,4.0,1.9,3.5*3A
$GPRMC,043419.000,A,3353.7464,N,09832.0253,W,0.18,116.55,020412,,,A*7E
$GPGGA,043420.000,3353.7463,N,09832.0254,W,1,07,1.1,320.0,M,-23.7,M,,0000*61
$GPGSA,A,3,01,26,07,11,17,28,08,,,,,,2.3,1.1,2.0*37
$GPRMC,043420.000,A,3353.7463,N,09832.0254,W,0.09,159.68,020412,,,A*71
$GPGGA,043421.000,3353.7463,N,09832.0254,W,1,07,1.1,319.9,M,-23.7,M,,0000*63
$GPGSA,A,3,01,26,07,11,17,28,08,,,,,,2.3,1.1,2.0*37
$GPRMC,043421.000,A,3353.7463,N,09832.0254,W,0.08,211.29,020412,,,A*7B
$GPGGA,043422.000,3353.7463,N,09832.0255,W,1,07,1.1,319.9,M,-23.7,M,,0000*61
$GPGSA,A,3,01,26,07,11,17,28,08,,,,,,2.3,1.1,2.0*37
$GPGSV,3,1,11,08,67,150,35,17,64,256,29,28,61,352,37,01,40,069,34*7E
$GPGSV,3,2,11,26,28,265,13,11,28,052,29,07,27,148,28,27,10,321,*72
$GPGSV,3,3,11,15,09,308,,04,06,193,,20,00,114,*40
$GPRMC,043422.000,A,3353.7463,N,09832.0255,W,0.11,220.69,020412,,,A*77
$GPGGA,043423.000,3353.7463,N,09832.0256,W,1,07,1.1,319.7,M,-23.7,M,,0000*6D
$GPGSA,A,3,01,26,07,11,17,28,08,,,,,,2.3,1.1,2.0*37
$GPRMC,043423.000,A,3353.7463,N,09832.0256,W,0.19,241.85,020412,,,A*78
$GPGGA,043424.000,3353.7462,N,09832.0257,W,1,07,1.1,319.5,M,-23.7,M,,0000*68
$GPGSA,A,3,01,26,07,11,17,28,08,,,,,,2.3,1.1,2.0*37
$GPRMC,043424.000,A,3353.7462,N,09832.0257,W,0.25,257.45,020412,,,A*7B
$GPGGA,043425.000,3353.7462,N,09832.0258,W,1,07,1.1,319.3,M,-23.7,M,,0000*60
$GPGSA,A,3,01,26,07,11,17,28,08,,,,,,2.3,1.1,2.0*37
$GPRMC,043425.000,A,3353.7462,N,09832.0258,W,0.24,247.14,020412,,,A*71
$GPGGA,043426.000,3353.7462,N,09832.0259,W,1,07,1.1,319.0,M,-23.7,M,,0000*61
$GPGSA,A,3,01,26,07,11,17,28,08,,,,,,2.3,1.1,2.0*37
$GPRMC,043426.000,A,3353.7462,N,09832.0259,W,0.12,237.62,020412,,,A*70
$GPGGA,043427.000,3353.7462,N,09832.0260,W,1,07,1.1,318.8,M,-23.7,M,,0000*63
$GPGSA,A,3,01,26,07,11,17,28,08,,,,,,2.3,1.1,2.0*37
$GPGSV,3,1,11,08,67,150,35,17,64,256,29,28,61,352,37,01,40,069,34*7E
$GPGSV,3,2,11,26,28,265,13,11,28,052,29,07,27,148,27,27,10,321,*7D
$GPGSV,3,3,11,15,09,308,,04,06,193,,20,00,114,*40
$GPRMC,043427.000,A,3353.7462,N,09832.0260,W,0.13,241.71,020412,,,A*79
$GPGGA,043428.000,3353.7462,N,09832.0261,W,1,07,1.1,318.5,M,-23.7,M,,0000*60
$GPGSA,A,3,01,26,07,11,17,28,08,,,,,,2.3,1.1,2.0*37
$GPRMC,043428.000,A,3353.7462,N,09832.0261,W,0.23,248.34,020412,,,A*7C
$GPGGA,043429.000,3353.7461,N,09832.0261,W,1,07,1.1,318.3,M,-23.7,M,,0000*64
$GPGSA,A,3,01,26,07,11,17,28,08,,,,,,2.3,1.1,2.0*37
$GPRMC,043429.000,A,3353.7461,N,09832.0261,W,0.09,208.27,020412,,,A*70
$GPGGA,043430.000,3353.7461,N,09832.0262,W,1,07,1.1,318.0,M,-23.7,M,,0000*6C
$GPGSA,A,3,01,26,07,11,17,28,08,,,,,,2.3,1.1,2.0*37
$GPRMC,043430.000,A,3353.7461,N,09832.0262,W,0.17,246.17,020412,,,A*7D
$GPGGA,043431.000,3353.7461,N,09832.0263,W,1,07,1.1,317.7,M,-23.7,M,,0000*64
$GPGSA,A,3,01,26,07,11,17,28,08,,,,,,2.3,1.1,2.0*37
$GPRMC,043431.000,A,3353.7461,N,09832.0263,W,0.18,246.36,020412,,,A*71
$GPGGA,043432.000,3353.7461,N,09832.0264,W,1,07,1.1,317.5,M,-23.7,M,,0000*62
$GPGSA,A,3,01,26,07,11,17,28,08,,,,,,2.3,1.1,2.0*37
$GPGSV,3,1,11,08,67,150,35,17,64,256,29,28,61,352,37,01,40,069,34*7E
$GPGSV,3,2,11,26,28,265,16,11,28,052,29,07,27,148,27,27,10,321,*78
$GPGSV,3,3,11,15,09,308,,04,06,193,,20,00,114,*40
$GPRMC,043432.000,A,3353.7461,N,09832.0264,W,0.19,236.96,020412,,,A*79
$GPGGA,043433.000,3353.7460,N,09832.0265,W,1,07,1.1,317.2,M,-23.7,M,,0000*64
$GPGSA,A,3,01,26,07,11,17,28,08,,,,,,2.3,1.1,2.0*37
$GPRMC,043433.000,A,3353.7460,N,09832.0265,W,0.26,250.84,020412,,,A*77
$GPGGA,043434.000,3353.7460,N,09832.0266,W,1,07,1.1,316.9,M,-23.7,M,,0000*6A
$GPGSA,A,3,01,26,07,11,17,28,08,,,,,,2.3,1.1,2.0*37
$GPRMC,043434.000,A,3353.7460,N,09832.0266,W,0.25,254.56,020412,,,A*7B
$GPGGA,043435.000,3353.7460,N,09832.0267,W,1,07,1.1,316.5,M,-23.7,M,,0000*66
$GPGSA,A,3,01,26,07,11,17,28,08,,,,,,2.3,1.1,2.0*37
$GPRMC,043435.000,A,3353.7460,N,09832.0267,W,0.24,251.49,020412,,,A*71
$GPGGA,043436.000,3353.7460,N,09832.0266,W,1,07,1.1,316.3,M,-23.7,M,,0000*62
$GPGSA,A,3,01,26,07,11,17,28,08,,,,,,2.3,1.1,2.0*37
$GPRMC,043436.000,A,3353.7460,N,09832.0266,W,0.10,137.44,020412,,,A*7A
$GPGGA,043437.000,3353.7460,N,09832.0266,W,1,07,1.1,316.1,M,-23.7,M,,0000*61
$GPGSA,A,3,01,26,07,11,17,28,08,,,,,,2.3,1.1,2.0*37
$GPGSV,3,1,11,08,67,150,35,17,64,256,30,28,61,352,37,01,40,069,34*76
$GPGSV,3,2,11,26,28,265,17,11,28,052,24,07,27,148,27,27,10,321,*74
$GPGSV,3,3,11,15,09,308,,04,06,193,,20,00,114,*40
$GPRMC,043437.000,A,3353.7460,N,09832.0266,W,0.10,168.36,020412,,,A*74
$GPGGA,043438.000,3353.7460,N,09832.0266,W,1,07,1.1,315.9,M,-23.7,M,,0000*65
$GPGSA,A,3,01,26,07,11,17,28,08,,,,,,2.3,1.1,2.0*37
$GPRMC,043438.000,A,3353.7460,N,09832.0266,W,0.18,111.84,020412,,,A*74
$GPGGA,043439.000,3353.7459,N,09832.0265,W,1,07,1.1,315.8,M,-23.7,M,,0000*6C
$GPGSA,A,3,01,26,07,11,17,28,08,,,,,,2.3,1.1,2.0*37
$GPRMC,043439.000,A,3353.7459,N,09832.0265,W,0.28,99.68,020412,,,A*4C
$GPGGA,043440.000,3353.7459,N,09832.0264,W,1,07,1.1,315.8,M,-23.7,M,,0000*63
$GPGSA,A,3,01,26,07,11,17,28,08,,,,,,2.3,1.1,2.0*37
$GPRMC,043440.000,A,3353.7459,N,09832.0264,W,0.35,95.22,020412,,,A*4D
$GPGGA,043441.000,3353.7459,N,09832.0263,W,1,07,1.1,315.8,M,-23.7,M,,0000*65
$GPGSA,A,3,01,26,07,11,17,28,08,,,,,,2.3,1.1,2.0*37
$GPRMC,043441.000,A,3353.7459,N,09832.0263,W,0.32,98.78,020412,,,A*4E
$GPGGA,043442.000,3353.7459,N,09832.0262,W,1,06,1.9,315.7,M,-23.7,M,,0000*61
$GPGSA,A,3,01,07,11,17,28,08,,,,,,,4.0,1.9,3.5*3A
$GPGSV,3,1,11,08,67,150,35,17,64,256,30,28,61,352,37,01,40,069,34*76
$GPGSV,3,2,11,26,28,265,11,11,28,052,26,07,27,148,28,27,10,321,*7F
$GPGSV,3,3,11,15,09,308,,04,06,193,16,20,00,114,*47
$GPRMC,043442.000,A,3353.7459,N,09832.0262,W,0.15,107.33,020412,,,A*71
$GPGGA,043443.000,3353.7459,N,09832.0262,W,1,06,1.9,315.7,M,-23.7,M,,0000*60
$GPGSA,A,3,01,07,11,17,28,08,,,,,,,4.0,1.9,3.5*3A
$GPRMC,043443.000,A,3353.7459,N,09832.0262,W,0.12,114.69,020412,,,A*7A
$GPGGA,043444.000,3353.7459,N,09832.0262,W,1,06,1.9,315.7,M,-23.7,M,,0000*67
$GPGSA,A,3,01,07,11,17,28,08,,,,,,,4.0,1.9,3.5*3A
$GPRMC,043444.000,A,3353.7459,N,09832.0262,W,0.10,124.12,020412,,,A*70
$GPGGA,043445.000,3353.7459,N,09832.0261,W,1,06,1.9,315.7,M,-23.7,M,,0000*65
$GPGSA,A,3,01,07,11,17,28,08,,,,,,,4.0,1.9,3.5*3A
$GPRMC,043445.000,A,3353.7459,N,09832.0261,W,0.11,116.49,020412,,,A*7C
$GPGGA,043446.000,3353.7459,N,09832.0261,W,1,06,1.9,315.7,M,-23.7,M,,0000*66
$GPGSA,A,3,01,07,11,17,28,08,,,,,,,4.0,1.9,3.5*3A
$GPRMC,043446.000,A,3353.7459,N,09832.0261,W,0.09,115.93,020412,,,A*72
$GPGGA,043447.000,3353.7459,N,09832.0261,W,1,06,1.9,315.7,M,-23.7,M,,0000*67
$GPGSA,A,3,01,07,11,17,28,08,,,,,,,4.0,1.9,3.5*3A
$GPGSV,3,1,11,08,67,150,35,17,64,256,31,28,61,352,38,01,40,069,34*78
$GPGSV,3,2,11,26,28,265,,11,28,052,26,07,27,148,28,27,10,321,*7F
$GPGSV,3,3,11,15,09,308,,04,06,193,15,20,00,114,*44
$GPRMC,043447.000,A,3353.7459,N,09832.0261,W,0.11,117.25,020412,,,A*75
$GPGGA,043448.000,3353.7459,N,09832.0261,W,1,06,1.9,315.7,M,-23.7,M,,0000*68
$GPGSA,A,3,01,07,11,17,28,08,,,,,,,4.0,1.9,3.5*3A
$GPRMC,043448.000,A,3353.7459,N,09832.0261,W,0.13,110.50,020412,,,A*7D
$GPGGA,043449.000,3353.7459,N,09832.0260,W,1,06,1.9,315.7,M,-23.7,M,,0000*68
$GPGSA,A,3,01,07,11,17,28,08,,,,,,,4.0,1.9,3.5*3A
$GPRMC,043449.000,A,3353.7459,N,09832.0260,W,0.08,124.39,020412,,,A*7F
$GPGGA,043450.000,3353.7459,N,09832.0260,W,1,06,1.9,315.7,M,-23.7,M,,0000*60
$GPGSA,A,3,01,07,11,17,28,08,,,,,,,4.0,1.9,3.5*3A
$GPRMC,043450.000,A,3353.7459,N,09832.0260,W,0.12,117.72,020412,,,A*73
$GPGGA,043451.000,3353.7459,N,09832.0260,W,1,06,1.9,315.7,M,-23.7,M,,0000*61
$GPGSA,A,3,01,07,11,17,28,08,,,,,,,4.0,1.9,3.5*3A
$GPRMC,043451.000,A,3353.7459,N,09832.0260,W,0.14,119.99,020412,,,A*7F
$GPGGA,043452.000,3353.7459,N,09832.0259,W,1,06,1.9,315.8,M,-23.7,M,,0000*67
$GPGSA,A,3,01,07,11,17,28,08,,,,,,,4.0,1.9,3.5*3A
$GPGSV,3,1,11,08,67,150,34,17,64,256,31,28,61,352,38,01,40,069,34*79
$GPGSV,3,2,11,26,28,265,,11,28,052,26,07,27,148,30,27,10,321,*76
$GPGSV,3,3,11,15,09,308,,04,06,193,15,20,00,114,*44
$GPRMC,043452.000,A,3353.7459,N,09832.0259,W,0.13,116.04,020412,,,A*7A
$GPGGA,043453.000,3353.7459,N,09832.0259,W,1,06,1.9,315.8,M,-23.7,M,,0000*66
$GPGSA,A,3,01,07,11,17,28,08,,,,,,,4.0,1.9,3.5*3A
$GPRMC,043453.000,A,3353.7459,N,09832.0259,W,0.16,113.05,020412,,,A*7A
$GPGGA,043454.000,3353.7459,N,09832.0258,W,1,06,1.9,315.9,M,-23.7,M,,0000*61
$GPGSA,A,3,01,07,11,17,28,08,,,,,,,4.0,1.9,3.5*3A
$GPRMC,043454.000,A,3353.7459,N,09832.0258,W,0.15,118.81,020412,,,A*78
$GPGGA,043455.000,3353.7459,N,09832.0258,W,1,06,1.9,316.0,M,-23.7,M,,0000*6A
$GPGSA,A,3,01,07,11,17,28,08,,,,,,,4.0,1.9,3.5*3A
$GPRMC,043455.000,A,3353.7459,N,09832.0258,W,0.17,117.72,020412,,,A*78
$GPGGA,043456.000,3353.7459,N,09832.0257,W,1,07,1.1,316.1,M,-23.7,M,,0000*6E
$GPGSA,A,3,01,26,07,11,17,28,08,,,,,,2.3,1.1,2.0*37
$GPRMC,043456.000,A,3353.7459,N,09832.0257,W,0.36,100.83,020412,,,A*7F
$GPGGA,043457.000,3353.7459,N,09832.0256,W,1,07,1.1,316.2,M,-23.7,M,,0000*6D
$GPGSA,A,3,01,26,07,11,17,28,08,,,,,,2.3,1.1,2.0*37
$GPGSV,3,1,11,08,67,150,34,17,64,256,31,28,61,352,38,01,40,069,34*79
$GPGSV,3,2,11,26,28,265,20,11,28,052,26,07,27,148,30,27,10,321,*74
$GPGSV,3,3,11,15,09,308,,04,06,193,14,20,00,114,*45
$GPRMC,043457.000,A,3353.7459,N,09832.0256,W,0.22,108.90,020412,,,A*70
$GPGGA,043458.000,3353.7459,N,09832.0256,W,1,07,1.1,316.3,M,-23.7,M,,0000*63
$GPGSA,A,3,01,26,07,11,17,28,08,,,,,,2.3,1.1,2.0*37
$GPRMC,043458.000,A,3353.7459,N,09832.0256,W,0.09,194.28,020412,,,A*70
$GPGGA,043459.000,3353.7459,N,09832.0257,W,1,07,1.1,316.4,M,-23.7,M,,0000*64
$GPGSA,A,3,01,26,07,11,17,28,08,,,,,,2.3,1.1,2.0*37
$GPRMC,043459.000,A,3353.7459,N,09832.0257,W,0.18,236.81,020412,,,A*78
$GPGGA,043500.000,3353.7459,N,09832.0258,W,1,07,1.1,316.3,M,-23.7,M,,0000*61
$GPGSA,A,3,01,26,07,11,17,28,08,,,,,,2.3,1.1,2.0*37
$GPRMC,043500.000,A,3353.7459,N,09832.0258,W,0.18,238.11,020412,,,A*7D
$GPGGA,043501.000,3353.7459,N,09832.0257,W,1,07,1.1,316.3,M,-23.7,M,,0000*6F
$GPGSA,A,3,01,26,07,11,17,28,08,,,,,,2.3,1.1,2.0*37
$GPRMC,043501.000,A,3353.7459,N,09832.0257,W,0.19,105.03,020412,,,A*7C
$GPGGA,043502.000,3353.7459,N,09832.0256,W,1,07,1.1,316.4,M,-23.7,M,,0000*6A
$GPGSA,A,3,01,26,07,11,17,28,08,,,,,,2.3,1.1,1.9*3D
$GPGSV,3,1,11,08,67,150,34,17,64,256,31,28,61,352,38,01,40,069,35*78
$GPGSV,3,2,11,26,28,265,19,11,28,052,27,07,27,148,30,27,10,321,*7F
$GPGSV,3,3,11,15,09,308,,04,06,193,13,20,00,114,*42
$GPRMC,043502.000,A,3353.7459,N,09832.0256,W,0.24,101.02,020412,,,A*75
$GPGGA,043503.000,3353.7459,N,09832.0257,W,1,07,1.1,316.4,M,-23.7,M,,0000*6A
$GPGSA,A,3,01,26,07,11,17,28,08,,,,,,2.3,1.1,1.9*3D
$GPRMC,043503.000,A,3353.7459,N,09832.0257,W,0.10,184.49,020412,,,A*70
$GPGGA,043504.000,3353.7459,N,09832.0257,W,1,07,1.1,316.4,M,-23.7,M,,0000*6D
$GPGSA,A,3,01,26,07,11,17,28,08,,,,,,2.3,1.1,1.9*3D
$GPRMC,043504.000,A,3353.7459,N,09832.0257,W,0.15,237.87,020412,,,A*7B
$GPGGA,043505.000,3353.7459,N,09832.0257,W,1,06,1.9,316.4,M,-23.7,M,,0000*65
$GPGSA,A,3,01,07,11,17,28,08,,,,,,,4.0,1.9,3.5*3A
$GPRMC,043505.000,A,3353.7459,N,09832.0257,W,0.08,155.48,020412,,,A*72
$GPGGA,043506.000,3353.7459,N,09832.0257,W,1,06,1.9,316.3,M,-23.7,M,,0000*61
$GPGSA,A,3,01,07,11,17,28,08,,,,,,,4.0,1.9,3.5*3A
$GPRMC,043506.000,A,3353.7459,N,09832.0257,W,0.11,117.14,020412,,,A*76
$GPGGA,043507.000,3353.7459,N,09832.0257,W,1,06,1.9,316.3,M,-23.7,M,,0000*60
$GPGSA,A,3,01,07,11,17,28,08,,,,,,,4.0,1.9,3.5*3A
$GPGSV,3,1,11,08,67,150,34,17,64,256,31,28,61,352,38,01,40,069,35*78
$GPGSV,3,2,11,26,28,265,10,11,28,052,27,07,27,148,30,27,10,321,*76
$GPGSV,3,3,11,15,09,308,,04,06,193,14,20,00,114,*45
$GPRMC,043507.000,A,3353.7459,N,09832.0257,W,0.12,113.06,020412,,,A*73
$GPGGA,043508.000,3353.7459,N,09832.0256,W,1,06,1.9,316.3,M,-23.7,M,,0000*6E
$GPGSA,A,3,01,07,11,17,28,08,,,,,,,4.0,1.9,3.5*3A
$GPRMC,043508.000,A,3353.7459,N,09832.0256,W,0.12,111.05,020412,,,A*7C
$GPGGA,043509.000,3353.7459,N,09832.0256,W,1,06,1.9,316.3,M,-23.7,M,,0000*6F
$GPGSA,A,3,01,07,11,17,28,08,,,,,,,4.0,1.9,3.5*3A
$GPRMC,043509.000,A,3353.7459,N,09832.0256,W,0.12,118.44,020412,,,A*71
$GPGGA,043510.000,3353.7459,N,09832.0256,W,1,06,1.9,316.3,M,-23.7,M,,0000*67
$GPGSA,A,3,01,07,11,17,28,08,,,,,,,4.0,1.9,3.5*3A
$GPRMC,043510.000,A,3353.7459,N,09832.0256,W,0.11,128.95,020412,,,A*75
$GPGGA,043511.000,3353.7459,N,09832.0256,W,1,06,1.9,316.3,M,-23.7,M,,0000*66
$GPGSA,A,3,01,07,11,17,28,08,,,,,,,4.0,1.9,3.5*3A
$GPRMC,043511.000,A,3353.7459,N,09832.0256,W,0.13,112.41,020412,,,A*76
$GPGGA,043512.000,3353.7459,N,09832.0256,W,1,06,1.9,316.3,M,-23.7,M,,0000*65
$GPGSA,A,3,01,07,11,17,28,08,,,,,,,4.0,1.9,3.5*3A
$GPGSV,3,1,12,08,67,150,34,17,64,256,31,28,61,352,38,01,40,069,35*7B
$GPGSV,3,2,12,26,28,265,11,11,28,052,27,07,27,148,30,27,10,321,*74
$GPGSV,3,3,12,15,09,308,,04,06,193,13,20,00,114,,48,36,230,28*73
$GPRMC,043512.000,A,3353.7459,N,09832.0256,W,0.13,119.25,020412,,,A*7C
$GPGGA,043513.000,3353.7459,N,09832.0256,W,1,06,1.9,316.3,M,-23.7,M,,0000*64
$GPGSA,A,3,01,07,11,17,28,08,,,,,,,4.0,1.9,3.5*3A
$GPRMC,043513.000,A,3353.7459,N,09832.0256,W,0.12,120.82,020412,,,A*7B
$GPGGA,043514.000,3353.7459,N,09832.0255,W,1,06,1.9,316.3,M,-23.7,M,,0000*60
$GPGSA,A,3,01,07,11,17,28,08,,,,,,,4.0,1.9,3.5*3A
$GPRMC,043514.000,A,3353.7459,N,09832.0255,W,0.13,118.28,020412,,,A*75
$GPGGA,043515.000,3353.7459,N,09832.0255,W,1,06,1.9,316.3,M,-23.7,M,,0000*61
$GPGSA,A,3,01,07,11,17,28,08,,,,,,,4.0,1.9,3.5*3A
$GPRMC,043515.000,A,3353.7459,N,09832.0255,W,0.13,118.31,020412,,,A*7C
$GPGGA,043516.000,3353.7459,N,09832.0255,W,1,06,1.9,316.3,M,-23.7,M,,0000*62
$GPGSA,A,3,01,07,11,17,28,08,,,,,,,4.0,1.9,3.5*3A
$GPRMC,043516.000,A,3353.7459,N,09832.0255,W,0.14,111.97,020412,,,A*7D
$GPGGA,043517.000,3353.7458,N,09832.0255,W,1,06,1.9,316.3,M,-23.7,M,,0000*62
$GPGSA,A,3,01,07,11,17,28,08,,,,,,,4.0,1.9,3.5*3A
$GPGSV,3,1,12,08,66,151,34,17,65,257,31,28,61,353,38,01,40,068,35*7B
$GPGSV,3,2,12,26,28,265,11,11,27,052,26,07,26,149,31,27,10,321,*7B
$GPGSV,3,3,12,15,09,307,,04,06,193,14,20,00,114,,48,36,230,26*75
$GPRMC,043517.000,A,3353.7458,N,09832.0255,W,0.15,169.90,020412,,,A*74
$GPGGA,043518.000,3353.7458,N,09832.0255,W,1,05,2.7,316.4,M,-23.7,M,,0000*64
$GPGSA,A,3,01,11,17,28,08,,,,,,,,6.5,2.7,5.9*3D
$GPRMC,043518.000,A,3353.7458,N,09832.0255,W,0.21,144.65,020412,,,A*79
$GPGGA,043519.000,3353.7457,N,09832.0254,W,1,06,1.9,316.5,M,-23.7,M,,0000*64
$GPGSA,A,3,01,07,11,17,28,08,,,,,,,4.0,1.9,3.5*3A
$GPRMC,043519.000,A,3353.7457,N,09832.0254,W,0.32,146.08,020412,,,A*7D
$GPGGA,043520.000,3353.7457,N,09832.0253,W,1,07,1.1,316.6,M,-23.7,M,,0000*63
$GPGSA,A,3,01,26,07,11,17,28,08,,,,,,2.3,1.1,1.9*3D
$GPRMC,043520.000,A,3353.7457,N,09832.0253,W,0.35,107.55,020412,,,A*7A
$GPGGA,043521.000,3353.7457,N,09832.0253,W,1,07,1.1,316.8,M,-23.7,M,,0000*6C
$GPGSA,A,3,01,26,07,11,17,28,08,,,,,,2.3,1.1,1.9*3D
$GPRMC,043521.000,A,3353.7457,N,09832.0253,W,0.22,107.91,020412,,,A*75
$GPGGA,043522.000,3353.7457,N,09832.0252,W,1,07,1.1,317.1,M,-23.7,M,,0000*66
$GPGSA,A,3,01,26,07,11,17,28,08,,,,,,2.3,1.1,1.9*3D
$GPGSV,3,1,11,08,66,151,34,17,65,257,31,28,61,353,38,01,40,068,35*78
$GPGSV,3,2,11,26,28,265,19,11,27,052,26,07,26,149,33,27,10,321,*72
$GPGSV,3,3,11,15,09,307,,04,06,193,14,20,00,114,*4A
$GPRMC,043522.000,A,3353.7457,N,09832.0252,W,0.40,100.19,020412,,,A*74
$GPGGA,043523.000,3353.7456,N,09832.0251,W,1,07,1.1,317.3,M,-23.7,M,,0000*67
$GPGSA,A,3,01,26,07,11,17,28,08,,,,,,2.3,1.1,1.9*3D
$GPRMC,043523.000,A,3353.7456,N,09832.0251,W,0.17,125.19,020412,,,A*72
$GPGGA,043524.000,3353.7456,N,09832.0251,W,1,07,1.1,317.6,M,-23.7,M,,0000*65
$GPGSA,A,3,01,26,07,11,17,28,08,,,,,,2.3,1.1,1.9*3D
$GPRMC,043524.000,A,3353.7456,N,09832.0251,W,0.26,113.00,020412,,,A*7A
$GPGGA,043525.000,3353.7456,N,09832.0249,W,1,07,1.1,317.9,M,-23.7,M,,0000*62
$GPGSA,A,3,01,26,07,11,17,28,08,,,,,,2.3,1.1,1.9*3D
$GPRMC,043525.000,A,3353.7456,N,09832.0249,W,0.39,104.36,020412,,,A*7F
$GPGGA,043526.000,3353.7456,N,09832.0249,W,1,07,1.1,318.1,M,-23.7,M,,0000*66
$GPGSA,A,3,01,26,07,11,17,28,08,,,,,,2.3,1.1,1.9*3D
$GPRMC,043526.000,A,3353.7456,N,09832.0249,W,0.19,132.90,020412,,,A*77
$GPGGA,043527.000,3353.7456,N,09832.0248,W,1,07,1.1,318.4,M,-23.7,M,,0000*63
$GPGSA,A,3,01,26,07,11,17,28,08,,,,,,2.3,1.1,1.9*3D
$GPGSV,3,1,11,08,66,151,34,17,65,257,31,28,61,353,38,01,40,068,36*7B
$GPGSV,3,2,11,26,28,265,18,11,27,052,25,07,26,149,33,27,10,321,*70
$GPGSV,3,3,11,15,09,307,,04,06,193,15,20,00,114,*4B
$GPRMC,043527.000,A,3353.7456,N,09832.0248,W,0.36,104.37,020412,,,A*72
$GPGGA,043528.000,3353.7456,N,09832.0247,W,1,07,1.1,318.7,M,-23.7,M,,0000*60
$GPGSA,A,3,01,26,07,11,17,28,08,,,,,,2.3,1.1,1.9*3D
$GPRMC,043528.000,A,3353.7456,N,09832.0247,W,0.26,113.69,020412,,,A*7E
$GPGGA,043529.000,3353.7456,N,09832.0247,W,1,07,1.1,319.0,M,-23.7,M,,0000*67
$GPGSA,A,3,01,26,07,11,17,28,08,,,,,,2.3,1.1,1.9*3D
$GPRMC,043529.000,A,3353.7456,N,09832.0247,W,0.18,137.91,020412,,,A*73
$GPGGA,043530.000,3353.7456,N,09832.0247,W,1,07,1.1,319.2,M,-23.7,M,,0000*6D
$GPGSA,A,3,01,26,07,11,17,28,08,,,,,,2.3,1.1,1.9*3D
$GPRMC,043530.000,A,3353.7456,N,09832.0247,W,0.16,156.81,020412,,,A*73
$GPGGA,043531.000,3353.7455,N,09832.0247,W,1,07,1.1,319.3,M,-23.7,M,,0000*6E
$GPGSA,A,3,01,26,07,11,17,28,08,,,,,,2.3,1.1,1.9*3D
$GPRMC,043531.000,A,3353.7455,N,09832.0247,W,0.13,159.02,020412,,,A*70
$GPGGA,043532.000,3353.7455,N,09832.0247,W,1,07,1.1,319.4,M,-23.7,M,,0000*6A
$GPGSA,A,3,01,26,07,11,17,28,08,,,,,,2.3,1.1,1.9*3D
$GPGSV,3,1,11,08,66,151,35,17,65,257,31,28,61,353,38,01,40,068,36*7A
$GPGSV,3,2,11,26,28,265,16,11,27,052,25,07,26,149,34,27,10,321,*79
$GPGSV,3,3,11,15,09,307,,04,06,193,15,20,00,114,15*4F
$GPRMC,043532.000,A,3353.7455,N,09832.0247,W,0.13,167.59,020412,,,A*70
$GPGGA,043533.000,3353.7455,N,09832.0248,W,1,07,1.1,319.4,M,-23.7,M,,0000*64
$GPGSA,A,3,01,26,07,11,17,28,08,,,,,,2.3,1.1,1.9*3D
$GPRMC,043533.000,A,3353.7455,N,09832.0248,W,0.13,200.90,020412,,,A*79
$GPGGA,043534.000,3353.7455,N,09832.0248,W,1,07,1.1,319.3,M,-23.7,M,,0000*64
$GPGSA,A,3,01,26,07,11,17,28,08,,,,,,2.3,1.1,1.9*3D
$GPRMC,043534.000,A,3353.7455,N,09832.0248,W,0.16,222.88,020412,,,A*72
$GPGGA,043535.000,3353.7455,N,09832.0249,W,1,07,1.1,319.2,M,-23.7,M,,0000*65
$GPGSA,A,3,01,26,07,11,17,28,08,,,,,,2.2,1.1,1.9*3C
$GPRMC,043535.000,A,3353.7455,N,09832.0249,W,0.18,234.10,020412,,,A*7A
$GPGGA,043536.000,3353.7455,N,09832.0250,W,1,07,1.1,318.9,M,-23.7,M,,0000*64
$GPGSA,A,3,01,26,07,11,17,28,08,,,,,,2.2,1.1,1.9*3C
$GPRMC,043536.000,A,3353.7455,N,09832.0250,W,0.22,245.44,020412,,,A*7F
$GPGGA,043537.000,3353.7455,N,09832.0250,W,1,07,1.1,318.7,M,-23.7,M,,0000*6B
$GPGSA,A,3,01,26,07,11,17,28,08,,,,,,2.2,1.1,1.9*3C
$GPGSV,3,1,11,08,66,151,35,17,65,257,31,28,61,353,38,01,40,068,36*7A
$GPGSV,3,2,11,26,28,265,16,11,27,052,24,07,26,149,34,27,10,321,*78
$GPGSV,3,3,11,15,09,307,,04,06,193,15,20,00,114,13*49
$GPRMC,043537.000,A,3353.7455,N,09832.0250,W,0.09,143.23,020412,,,A*73
$GPGGA,043538.000,3353.7455,N,09832.0250,W,1,07,1.1,318.6,M,-23.7,M,,0000*65
$GPGSA,A,3,01,26,07,11,17,28,08,,,,,,2.2,1.1,1.9*3C
$GPRMC,043538.000,A,3353.7455,N,09832.0250,W,0.17,114.67,020412,,,A*71
$GPGGA,043539.000,3353.7455,N,09832.0250,W,1,07,1.1,318.5,M,-23.7,M,,0000*67
$GPGSA,A,3,01,26,07,11,17,28,08,,,,,,2.2,1.1,1.9*3C
$GPRMC,043539.000,A,3353.7455,N,09832.0250,W,0.17,204.12,020412,,,A*70
$GPGGA,043540.000,3353.7455,N,09832.0251,W,1,07,1.1,318.4,M,-23.7,M,,0000*69
$GPGSA,A,3,01,26,07,11,17,28,08,,,,,,2.2,1.1,1.9*3C
$GPRMC,043540.000,A,3353.7455,N,09832.0251,W,0.22,229.57,020412,,,A*77
$GPGGA,043541.000,3353.7455,N,09832.0252,W,1,07,1.1,318.2,M,-23.7,M,,0000*6D
$GPGSA,A,3,01,26,07,11,17,28,08,,,,,,2.2,1.1,1.9*3C
$GPRMC,043541.000,A,3353.7455,N,09832.0252,W,0.20,239.19,020412,,,A*7C
$GPGGA,043542.000,3353.7455,N,09832.0253,W,1,07,1.1,317.9,M,-23.7,M,,0000*6B
$GPGSA,A,3,01,26,07,11,17,28,08,,,,,,2.2,1.1,1.9*3C
$GPGSV,3,1,11,08,66,151,35,17,65,257,31,28,61,353,38,01,40,068,36*7A
$GPGSV,3,2,11,26,28,265,16,11,27,052,24,07,26,149,30,27,10,321,*7C
$GPGSV,3,3,11,15,09,307,,04,06,193,15,20,00,114,*4B
$GPRMC,043542.000,A,3353.7455,N,09832.0253,W,0.16,238.59,020412,,,A*7E
$GPGGA,043543.000,3353.7455,N,09832.0253,W,1,07,1.1,317.6,M,-23.7,M,,0000*65
$GPGSA,A,3,01,26,07,11,17,28,08,,,,,,2.2,1.1,1.9*3C
$GPRMC,043543.000,A,3353.7455,N,09832.0253,W,0.22,244.42,020412,,,A*79
$GPGGA,043544.000,3353.7455,N,09832.0253,W,1,07,1.1,317.4,M,-23.7,M,,0000*60
$GPGSA,A,3,01,26,07,11,17,28,08,,,,,,2.2,1.1,1.9*3C
$GPRMC,043544.000,A,3353.7455,N,09832.0253,W,0.11,101.72,020412,,,A*7F
$GPGGA,043545.000,3353.7455,N,09832.0253,W,1,07,1.1,317.2,M,-23.7,M,,0000*67
$GPGSA,A,3,01,26,07,11,17,28,08,,,,,,2.2,1.1,1.9*3C
$GPRMC,043545.000,A,3353.7455,N,09832.0253,W,0.14,105.34,020412,,,A*7D
$GPGGA,043546.000,3353.7455,N,09832.0253,W,1,07,1.1,317.0,M,-23.7,M,,0000*66
$GPGSA,A,3,01,26,07,11,17,28,08,,,,,,2.2,1.1,1.9*3C
$GPRMC,043546.000,A,3353.7455,N,09832.0253,W,0.06,151.85,020412,,,A*76
$GPGGA,043547.000,3353.7455,N,09832.0252,W,1,07,1.1,316.9,M,-23.7,M,,0000*6E
$GPGSA,A,3,01,26,07,11,17,28,08,,,,,,2.2,1.1,1.9*3C
$GPGSV,3,1,11,08,66,151,35,17,65,257,31,28,61,353,39,01,40,068,37*7A
$GPGSV,3,2,11,26,28,265,16,11,27,052,26,07,26,149,30,27,10,321,*7E
$GPGSV,3,3,11,15,09,307,,04,06,193,16,20,00,114,*48
$GPRMC,043547.000,A,3353.7455,N,09832.0252,W,0.18,94.96,020412,,,A*43
$GPGGA,043548.000,3353.7455,N,09832.0252,W,1,07,1.1,316.8,M,-23.7,M,,0000*60
$GPGSA,A,3,01,26,07,11,17,28,08,,,,,,2.2,1.1,1.9*3C
$GPRMC,043548.000,A,3353.7455,N,09832.0252,W,0.21,93.50,020412,,,A*4B
$GPGGA,043549.000,3353.7455,N,09832.0252,W,1,07,1.1,316.7,M,-23.7,M,,0000*6E
$GPGSA,A,3,01,26,07,11,17,28,08,,,,,,2.2,1.1,1.9*3C
$GPRMC,043549.000,A,3353.7455,N,09832.0252,W,0.15,212.58,020412,,,A*7E
$GPGGA,043550.000,3353.7454,N,09832.0253,W,1,07,1.1,316.5,M,-23.7,M,,0000*64
$GPGSA,A,3,01,26,07,11,17,28,08,,,,,,2.2,1.1,1.9*3C
$GPRMC,043550.000,A,3353.7454,N,09832.0253,W,0.20,234.82,020412,,,A*73
$GPGGA,043551.000,3353.7454,N,09832.0253,W,1,07,1.1,316.4,M,-23.7,M,,0000*64
$GPGSA,A,3,01,26,07,11,17,28,08,,,,,,2.2,1.1,1.9*3C
$GPRMC,043551.000,A,3353.7454,N,09832.0253,W,0.14,122.12,020412,,,A*78
$GPGGA,043552.000,3353.7454,N,09832.0253,W,1,07,1.1,316.3,M,-23.7,M,,0000*60
$GPGSA,A,3,01,26,07,11,17,28,08,,,,,,2.2,1.1,1.9*3C
$GPGSV,3,1,11,08,66,151,35,17,65,257,31,28,61,353,38,01,40,068,37*7B
$GPGSV,3,2,11,26,28,265,17,11,27,052,26,07,26,149,31,27,10,321,*7E
$GPGSV,3,3,11,15,09,307,,04,06,193,17,20,00,114,*49
$GPRMC,043552.000,A,3353.7454,N,09832.0253,W,0.07,170.63,020412,,,A*78
$GPGGA,043553.000,3353.7454,N,09832.0253,W,1,07,1.1,316.2,M,-23.7,M,,0000*60
$GPGSA,A,3,01,26,07,11,17,28,08,,,,,,2.2,1.1,1.9*3C
$GPRMC,043553.000,A,3353.7454,N,09832.0253,W,0.09,187.51,020412,,,A*7E
$GPGGA,043554.000,3353.7454,N,09832.0253,W,1,07,1.1,316.0,M,-23.7,M,,0000*65
$GPGSA,A,3,01,26,07,11,17,28,08,,,,,,2.2,1.1,1.9*3C
$GPRMC,043554.000,A,3353.7454,N,09832.0253,W,0.16,230.10,020412,,,A*7D
$GPGGA,043555.000,3353.7454,N,09832.0254,W,1,07,1.1,315.8,M,-23.7,M,,0000*68
$GPGSA,A,3,01,26,07,11,17,28,08,,,,,,2.2,1.1,1.9*3C
$GPRMC,043555.000,A,3353.7454,N,09832.0254,W,0.17,231.21,020412,,,A*79
$GPGGA,043556.000,3353.7453,N,09832.0254,W,1,07,1.1,315.7,M,-23.7,M,,0000*63
$GPGSA,A,3,01,26,07,11,17,28,08,,,,,,2.2,1.1,1.9*3C
$GPRMC,043556.000,A,3353.7453,N,09832.0254,W,0.13,215.54,020412,,,A*7D
$GPGGA,043557.000,3353.7453,N,09832.0254,W,1,07,1.1,315.5,M,-23.7,M,,0000*60
$GPGSA,A,3,01,26,07,11,17,28,08,,,,,,2.2,1.1,1.9*3C
$GPGSV,3,1,11,08,66,151,36,17,65,257,31,28,61,353,38,01,40,068,37*78
$GPGSV,3,2,11,26,28,265,18,11,27,052,26,07,26,149,32,27,10,321,*72
$GPGSV,3,3,11,15,09,307,,04,06,193,16,20,00,114,*48
$GPRMC,043557.000,A,3353.7453,N,09832.0254,W,0.07,185.01,020412,,,A*73
$GPGGA,043558.000,3353.7453,N,09832.0255,W,1,07,1.1,315.3,M,-23.7,M,,0000*68
$GPGSA,A,3,01,26,07,11,17,28,08,,,,,,2.2,1.1,1.9*3C
$GPRMC,043558.000,A,3353.7453,N,09832.0255,W,0.17,232.12,020412,,,A*71
$GPGGA,043559.000,3353.7453,N,09832.0255,W,1,07,1.1,315.2,M,-23.7,M,,0000*68
$GPGSA,A,3,01,26,07,11,17,28,08,,,,,,2.2,1.1,1.9*3C
$GPRMC,043559.000,A,3353.7453,N,09832.0255,W,0.16,116.48,020412,,,A*7B
$GPGGA,043600.000,3353.7453,N,09832.0254,W,1,07,1.1,315.2,M,-23.7,M,,0000*66
$GPGSA,A,3,01,26,07,11,17,28,08,,,,,,2.2,1.1,1.9*3C
$GPRMC,043600.000,A,3353.7453,N,09832.0254,W,0.27,95.65,020412,,,A*42
$GPGGA,043601.000,3353.7453,N,09832.0253,W,1,07,1.1,315.2,M,-23.7,M,,0000*60
$GPGSA,A,3,01,26,07,11,17,28,08,,,,,,2.2,1.1,1.9*3C
$GPRMC,043601.000,A,3353.7453,N,09832.0253,W,0.24,103.36,020412,,,A*7F
$GPGGA,043602.000,3353.7453,N,09832.0253,W,1,07,1.1,315.2,M,-23.7,M,,0000*63
$GPGSA,A,3,01,26,07,11,17,28,08,,,,,,2.2,1.1,1.9*3C
$GPGSV,3,1,11,08,66,151,36,17,65,257,31,28,61,353,38,01,40,068,38*77
$GPGSV,3,2,11,26,28,265,18,11,27,052,27,07,26,149,33,27,10,321,*72
$GPGSV,3,3,11,15,09,307,,04,06,193,14,20,00,114,*4A
$GPRMC,043602.000,A,3353.7453,N,09832.0253,W,0.21,107.39,020412,,,A*72
$GPGGA,043603.000,3353.7453,N,09832.0252,W,1,07,1.1,315.3,M,-23.7,M,,0000*62
$GPGSA,A,3,01,26,07,11,17,28,08,,,,,,2.2,1.1,1.9*3C
$GPRMC,043603.000,A,3353.7453,N,09832.0252,W,0.25,101.08,020412,,,A*72
$GPGGA,043604.000,3353.7453,N,09832.0252,W,1,07,1.1,315.4,M,-23.7,M,,0000*62
$GPGSA,A,3,01,26,07,11,17,28,08,,,,,,2.2,1.1,1.9*3C
$GPRMC,043604.000,A,3353.7453,N,09832.0252,W,0.12,172.18,020412,,,A*74
$GPGGA,043605.000,3353.7453,N,09832.0252,W,1,07,1.1,315.4,M,-23.7,M,,0000*63
$GPGSA,A,3,01,26,07,11,17,28,08,,,,,,2.2,1.1,1.9*3C
$GPRMC,043605.000,A,3353.7453,N,09832.0252,W,0.11,208.40,020412,,,A*75
$GPGGA,043606.000,3353.7453,N,09832.0253,W,1,07,1.1,315.3,M,-23.7,M,,0000*66
$GPGSA,A,3,01,26,07,11,17,28,08,,,,,,2.2,1.1,1.9*3C
$GPRMC,043606.000,A,3353.7453,N,09832.0253,W,0.11,204.24,020412,,,A*79
$GPGGA,043607.000,3353.7452,N,09832.0253,W,1,07,1.1,315.2,M,-23.7,M,,0000*67
$GPGSA,A,3,01,26,07,11,17,28,08,,,,,,2.2,1.1,1.9*3C
$GPGSV,3,1,11,08,66,151,36,17,65,257,31,28,61,353,38,01,40,068,38*77
$GPGSV,3,2,11,26,28,265,18,11,27,052,26,07,26,149,34,27,10,321,*74
$GPGSV,3,3,11,15,09,307,,04,06,193,14,20,00,114,*4A
$GPRMC,043607.000,A,3353.7452,N,09832.0253,W,0.10,194.30,020412,,,A*77
$GPGGA,043608.000,3353.7452,N,09832.0253,W,1,07,1.1,315.2,M,-23.7,M,,0000*68
$GPGSA,A,3,01,26,07,11,17,28,08,,,,,,2.2,1.1,1.9*3C
$GPRMC,043608.000,A,3353.7452,N,09832.0253,W,0.19,109.02,020412,,,A*74
$GPGGA,043609.000,3353.7452,N,09832.0252,W,1,07,1.1,315.3,M,-23.7,M,,0000*69
$GPGSA,A,3,01,26,07,11,17,28,08,,,,,,2.2,1.1,1.9*3C
$GPRMC,043609.000,A,3353.7452,N,09832.0252,W,0.27,102.12,020412,,,A*73
$GPGGA,043610.000,3353.7452,N,09832.0252,W,1,07,1.1,315.3,M,-23.7,M,,0000*61
$GPGSA,A,3,01,26,07,11,17,28,08,,,,,,2.2,1.1,1.9*3C
$GPRMC,043610.000,A,3353.7452,N,09832.0252,W,0.10,136.41,020412,,,A*7E
$GPGGA,043611.000,3353.7452,N,09832.0252,W,1,07,1.1,315.3,M,-23.7,M,,0000*60
$GPGSA,A,3,01,26,07,11,17,28,08,,,,,,2.2,1.1,1.9*3C
$GPRMC,043611.000,A,3353.7452,N,09832.0252,W,0.18,108.21,020412,,,A*7C
$GPGGA,043612.000,3353.7452,N,09832.0252,W,1,07,1.1,315.3,M,-23.7,M,,0000*63
$GPGSA,A,3,01,26,07,11,17,28,08,,,,,,2.2,1.1,1.9*3C
$GPGSV,3,1,11,08,66,151,36,17,65,257,31,28,61,353,38,01,40,068,39*76
$GPGSV,3,2,11,26,28,265,21,11,27,052,26,07,26,149,34,27,10,321,*7E
$GPGSV,3,3,11,15,09,307,,04,06,193,14,20,00,114,*4A
$GPRMC,043612.000,A,3353.7452,N,09832.0252,W,0.12,139.32,020412,,,A*75
$GPGGA,043613.000,3353.7452,N,09832.0251,W,1,07,1.1,315.3,M,-23.7,M,,0000*61
$GPGSA,A,3,01,26,07,11,17,28,08,,,,,,2.2,1.1,1.9*3C
$GPRMC,043613.000,A,3353.7452,N,09832.0251,W,0.25,99.31,020412,,,A*4B
$GPGGA,043614.000,3353.7452,N,09832.0251,W,1,07,1.1,315.4,M,-23.7,M,,0000*61
$GPGSA,A,3,01,26,07,11,17,28,08,,,,,,2.2,1.1,1.9*3C
$GPRMC,043614.000,A,3353.7452,N,09832.0251,W,0.16,118.68,020412,,,A*78
$GPGGA,043615.000,3353.7452,N,09832.0251,W,1,07,1.1,315.4,M,-23.7,M,,0000*60
$GPGSA,A,3,01,26,07,11,17,28,08,,,,,,2.2,1.1,1.9*3C
$GPRMC,043615.000,A,3353.7452,N,09832.0251,W,0.11,179.06,020412,,,A*71
$GPGGA,043616.000,3353.7452,N,09832.0251,W,1,07,1.1,315.4,M,-23.7,M,,0000*63
$GPGSA,A,3,01,26,07,11,17,28,08,,,,,,2.2,1.1,1.9*3C
$GPRMC,043616.000,A,3353.7452,N,09832.0251,W,0.17,113.39,020412,,,A*74
$GPGGA,043617.000,3353.7452,N,09832.0251,W,1,07,1.1,315.3,M,-23.7,M,,0000*65
$GPGSA,A,3,01,26,07,11,17,28,08,,,,,,2.2,1.1,1.9*3C
$GPGSV,3,1,11,08,66,151,36,17,65,257,31,28,61,353,38,01,40,068,39*76
$GPGSV,3,2,11,26,28,265,21,11,27,052,25,07,26,149,34,27,10,321,*7D
$GPGSV,3,3,11,15,09,307,,04,06,193,12,20,00,114,*4C
$GPRMC,043617.000,A,3353.7452,N,09832.0251,W,0.09,179.07,020412,,,A*7B
$GPGGA,043618.000,3353.7452,N,09832.0251,W,1,07,1.1,315.3,M,-23.7,M,,0000*6A
$GPGSA,A,3,01,26,07,11,17,28,08,,,,,,2.2,1.1,1.9*3C
$GPRMC,043618.000,A,3353.7452,N,09832.0251,W,0.10,146.86,020412,,,A*79
$GPGGA,043619.000,3353.7452,N,09832.0251,W,1,07,1.1,315.3,M,-23.7,M,,0000*6B
$GPGSA,A,3,01,26,07,11,17,28,08,,,,,,2.2,1.1,1.9*3C
$GPRMC,043619.000,A,3353.7452,N,09832.0251,W,0.16,122.10,020412,,,A*73
$GPGGA,043620.000,3353.7452,N,09832.0251,W,1,07,1.1,315.3,M,-23.7,M,,0000*61
$GPGSA,A,3,01,26,07,11,17,28,08,,,,,,2.2,1.1,1.9*3C
$GPRMC,043620.000,A,3353.7452,N,09832.0251,W,0.12,138.34,020412,,,A*70
$GPGGA,043621.000,3353.7452,N,09832.0251,W,1,07,1.1,315.3,M,-23.7,M,,0000*60
$GPGSA,A,3,01,26,07,11,17,28,08,,,,,,2.2,1.1,1.9*3C
$GPRMC,043621.000,A,3353.7452,N,09832.0251,W,0.19,111.92,020412,,,A*7D
$GPGGA,043622.000,3353.7452,N,09832.0251,W,1,07,1.1,315.3,M,-23.7,M,,0000*63
$GPGSA,A,3,01,26,07,11,17,28,08,,,,,,2.2,1.1,1.9*3C
$GPGSV,3,1,11,08,66,151,36,17,65,257,31,28,61,353,38,01,40,068,39*76
$GPGSV,3,2,11,26,28,265,22,11,27,052,25,07,26,149,34,27,10,321,*7E
$GPGSV,3,3,11,15,09,307,,04,06,193,,20,00,114,*4F
$GPRMC,043622.000,A,3353.7452,N,09832.0251,W,0.21,114.93,020412,,,A*71
$GPGGA,043623.000,3353.7452,N,09832.0250,W,1,07,1.1,315.4,M,-23.7,M,,0000*64
$GPGSA,A,3,01,26,07,11,17,28,08,,,,,,2.2,1.1,1.9*3C
$GPRMC,043623.000,A,3353.7452,N,09832.0250,W,0.35,98.50,020412,,,A*4E
$GPGGA,043624.000,3353.7452,N,09832.0249,W,1,07,1.1,315.6,M,-23.7,M,,0000*69
$GPGSA,A,3,01,26,07,11,17,28,08,,,,,,2.2,1.1,1.9*3C
$GPRMC,043624.000,A,3353.7452,N,09832.0249,W,0.37,100.11,020412,,,A*76
$GPGGA,043625.000,3353.7451,N,09832.0249,W,1,07,1.1,315.7,M,-23.7,M,,0000*6A
$GPGSA,A,3,01,26,07,11,17,28,08,,,,,,2.2,1.1,1.9*3C
$GPRMC,043625.000,A,3353.7451,N,09832.0249,W,0.13,125.39,020412,,,A*7F
$GPGGA,043626.000,3353.7451,N,09832.0249,W,1,07,1.1,315.8,M,-23.7,M,,0000*66
$GPGSA,A,3,01,26,07,11,17,28,08,,,,,,2.2,1.1,1.9*3C
$GPRMC,043626.000,A,3353.7451,N,09832.0249,W,0.10,161.38,020412,,,A*7E
$GPGGA,043627.000,3353.7451,N,09832.0249,W,1,07,1.1,315.9,M,-23.7,M,,0000*66
$GPGSA,A,3,01,26,07,11,17,28,08,,,,,,2.2,1.1,1.9*3C
$GPGSV,3,1,11,08,66,151,36,17,65,257,31,28,61,353,38,01,40,068,39*76
$GPGSV,3,2,11,26,28,265,17,11,27,052,25,07,26,149,33,27,10,321,*7F
$GPGSV,3,3,11,15,09,307,,04,06,193,,20,00,114,*4F
$GPRMC,043627.000,A,3353.7451,N,09832.0249,W,0.08,229.58,020412,,,A*7F
$GPGGA,043628.000,3353.7451,N,09832.0249,W,1,07,1.1,315.9,M,-23.7,M,,0000*69
$GPGSA,A,3,01,26,07,11,17,28,08,,,,,,2.2,1.1,1.9*3C
$GPRMC,043628.000,A,3353.7451,N,09832.0249,W,0.15,118.02,020412,,,A*72
$GPGGA,043629.000,3353.7451,N,09832.0249,W,1,07,1.1,316.0,M,-23.7,M,,0000*62
$GPGSA,A,3,01,26,07,11,17,28,08,,,,,,2.2,1.1,1.9*3C
$GPRMC,043629.000,A,3353.7451,N,09832.0249,W,0.33,99.23,020412,,,A*4C
$GPGGA,043630.000,3353.7451,N,09832.0248,W,1,07,1.1,316.1,M,-23.7,M,,0000*6A
$GPGSA,A,3,01,26,07,11,17,28,08,,,,,,2.2,1.1,1.9*3C
$GPRMC,043630.000,A,3353.7451,N,09832.0248,W,0.30,108.74,020412,,,A*7D
$GPGGA,043631.000,3353.7451,N,09832.0248,W,1,07,1.1,316.2,M,-23.7,M,,0000*68
$GPGSA,A,3,01,26,07,11,17,28,08,,,,,,2.2,1.1,1.9*3C
$GPRMC,043631.000,A,3353.7451,N,09832.0248,W,0.16,114.60,020412,,,A*70
$GPGGA,043632.000,3353.7451,N,09832.0247,W,1,07,1.1,316.4,M,-23.7,M,,0000*62
$GPGSA,A,3,01,26,07,11,17,28,08,,,,,,2.2,1.1,1.9*3C
$GPGSV,3,1,11,08,66,151,37,17,65,257,31,28,61,353,38,01,40,068,39*77
$GPGSV,3,2,11,26,28,265,16,11,27,052,25,07,26,149,33,27,10,321,*7E
$GPGSV,3,3,11,15,09,307,,04,06,193,,20,00,114,*4F
$GPRMC,043632.000,A,3353.7451,N,09832.0247,W,0.35,93.80,020412,,,A*4D
$GPGGA,043633.000,3353.7451,N,09832.0246,W,1,07,1.1,316.6,M,-23.7,M,,0000*60
$GPGSA,A,3,01,26,07,11,17,28,08,,,,,,2.2,1.1,1.9*3C
$GPRMC,043633.000,A,3353.7451,N,09832.0246,W,0.40,101.27,020412,,,A*78
$GPGGA,043634.000,3353.7451,N,09832.0245,W,1,07,1.1,316.8,M,-23.7,M,,0000*6A
$GPGSA,A,3,01,26,07,11,17,28,08,,,,,,2.2,1.1,1.9*3C
$GPRMC,043634.000,A,3353.7451,N,09832.0245,W,0.45,104.25,020412,,,A*7E
$GPGGA,043635.000,3353.7450,N,09832.0245,W,1,07,1.1,317.0,M,-23.7,M,,0000*63
$GPGSA,A,3,01,26,07,11,17,28,08,,,,,,2.2,1.1,1.9*3C
$GPRMC,043635.000,A,3353.7450,N,09832.0245,W,0.20,111.51,020412,,,A*7A
$GPGGA,043636.000,3353.7450,N,09832.0245,W,1,07,1.1,317.1,M,-23.7,M,,0000*61
$GPGSA,A,3,01,26,07,11,17,28,08,,,,,,2.2,1.1,1.9*3C
$GPRMC,043636.000,A,3353.7450,N,09832.0245,W,0.17,120.09,020412,,,A*72
$GPGGA,043637.000,3353.7450,N,09832.0244,W,1,07,1.1,317.3,M,-23.7,M,,0000*63
$GPGSA,A,3,01,26,07,11,17,28,08,,,,,,2.2,1.1,1.9*3C
$GPGSV,3,1,11,08,66,151,37,17,65,257,31,28,61,353,38,01,40,068,39*77
$GPGSV,3,2,11,26,28,265,18,11,27,052,26,07,26,149,35,27,10,321,*75
$GPGSV,3,3,11,15,09,307,,04,06,193,,20,00,114,*4F
$GPRMC,043637.000,A,3353.7450,N,09832.0244,W,0.31,108.29,020412,,,A*7E
$GPGGA,043638.000,3353.7450,N,09832.0244,W,1,07,1.1,317.5,M,-23.7,M,,0000*6A
$GPGSA,A,3,01,26,07,11,17,28,08,,,,,,2.2,1.1,1.9*3C
$GPRMC,043638.000,A,3353.7450,N,09832.0244,W,0.28,107.94,020412,,,A*70
$GPGGA,043639.000,3353.7450,N,09832.0244,W,1,07,1.1,317.6,M,-23.7,M,,0000*68
$GPGSA,A,3,01,26,07,11,17,28,08,,,,,,2.2,1.1,1.9*3C
$GPRMC,043639.000,A,3353.7450,N,09832.0244,W,0.12,128.63,020412,,,A*7D
$GPGGA,043640.000,3353.7450,N,09832.0244,W,1,07,1.1,317.7,M,-23.7,M,,0000*67
$GPGSA,A,3,01,26,07,11,17,28,08,,,,,,2.2,1.1,1.9*3C
$GPRMC,043640.000,A,3353.7450,N,09832.0244,W,0.11,138.16,020412,,,A*73
$GPGGA,043641.000,3353.7450,N,09832.0245,W,1,07,1.1,317.7,M,-23.7,M,,0000*67
$GPGSA,A,3,01,26,07,11,17,28,08,,,,,,2.2,1.1,1.9*3C
$GPRMC,043641.000,A,3353.7450,N,09832.0245,W,0.05,198.34,020412,,,A*7C
$GPGGA,043642.000,3353.7450,N,09832.0246,W,1,07,1.1,317.6,M,-23.7,M,,0000*66
$GPGSA,A,3,01,26,07,11,17,28,08,,,,,,2.2,1.1,1.9*3C
$GPGSV,3,1,11,08,66,151,37,17,65,257,31,28,61,353,38,01,40,068,39*77
$GPGSV,3,2,11,26,28,265,17,11,27,052,26,07,26,149,35,27,10,321,*7A
$GPGSV,3,3,11,15,09,307,,04,06,193,,20,00,114,*4F
$GPRMC,043642.000,A,3353.7450,N,09832.0246,W,0.10,243.78,020412,,,A*75
$GPGGA,043643.000,3353.7450,N,09832.0247,W,1,07,1.1,317.5,M,-23.7,M,,0000*65
$GPGSA,A,3,01,26,07,11,17,28,08,,,,,,2.2,1.1,1.9*3C
$GPRMC,043643.000,A,3353.7450,N,09832.0247,W,0.14,255.82,020412,,,A*73
$GPGGA,043644.000,3353.7450,N,09832.0247,W,1,07,1.1,317.4,M,-23.7,M,,0000*63
$GPGSA,A,3,01,26,07,11,17,28,08,,,,,,2.2,1.1,1.9*3C
$GPRMC,043644.000,A,3353.7450,N,09832.0247,W,0.04,177.85,020412,,,A*71
$GPGGA,043645.000,3353.7450,N,09832.0247,W,1,07,1.1,317.3,M,-23.7,M,,0000*65
$GPGSA,A,3,01,26,07,11,17,28,08,,,,,,2.2,1.1,1.9*3C
$GPRMC,043645.000,A,3353.7450,N,09832.0247,W,0.22,104.50,020412,,,A*78
$GPGGA,043646.000,3353.7450,N,09832.0247,W,1,07,1.1,317.3,M,-23.7,M,,0000*66
$GPGSA,A,3,01,26,07,11,17,28,08,,,,,,2.2,1.1,1.9*3C
$GPRMC,043646.000,A,3353.7450,N,09832.0247,W,0.27,105.49,020412,,,A*77
$GPGGA,043647.000,3353.7450,N,09832.0247,W,1,07,1.1,317.3,M,-23.7,M,,0000*67
$GPGSA,A,3,01,26,07,11,17,28,08,,,,,,2.2,1.1,1.9*3C
$GPGSV,3,1,11,08,66,151,37,17,65,257,31,28,61,353,38,01,40,068,39*77
$GPGSV,3,2,11,26,28,265,16,11,27,052,27,07,26,149,36,27,10,321,*79
$GPGSV,3,3,11,15,09,307,,04,06,193,,20,00,114,*4F
$GPRMC,043647.000,A,3353.7450,N,09832.0247,W,0.22,108.15,020412,,,A*77
$GPGGA,043648.000,3353.7450,N,09832.0248,W,1,07,1.1,317.2,M,-23.7,M,,0000*66
$GPGSA,A,3,01,26,07,11,17,28,08,,,,,,2.2,1.1,1.9*3C
