$GPGGA,160849.000,3352.3424,N,09831.2422,W,2,09,1.2,290.0,M,-23.7,M,3.8,0000*43
$GPGSA,A,3,14,22,15,27,18,19,21,09,06,,,,2.2,1.2,1.8*31
$GPRMC,160849.000,A,3352.3424,N,09831.2422,W,0.26,192.25,020412,,,D*74
$GPGGA,160850.000,3352.3423,N,09831.2423,W,2,09,1.2,289.9,M,-23.7,M,4.8,0000*4B
$GPGSA,A,3,14,22,15,27,18,19,21,09,06,,,,2.2,1.2,1.8*31
$GPRMC,160850.000,A,3352.3423,N,09831.2423,W,0.20,173.03,020412,,,D*77
$GPGGA,160851.000,3352.3423,N,09831.2423,W,2,09,1.2,289.9,M,-23.7,M,5.8,0000*4B
$GPGSA,A,3,14,22,15,27,18,19,21,09,06,,,,2.2,1.2,1.8*31
$GPGSV,3,1,11,18,58,047,38,22,54,317,35,21,54,147,34,14,49,234,19*77
$GPGSV,3,2,11,09,37,070,39,06,26,260,24,27,23,049,25,03,21,271,*72
$GPGSV,3,3,11,15,16,047,35,19,15,309,29,51,49,195,36*43
$GPRMC,160851.000,A,3352.3423,N,09831.2423,W,0.19,46.62,020412,,,D*4C
$GPGGA,160852.000,3352.3424,N,09831.2423,W,2,09,1.2,289.7,M,-23.7,M,6.8,0000*42
$GPGSA,A,3,14,22,15,27,18,19,21,09,06,,,,2.2,1.2,1.8*31
$GPRMC,160852.000,A,3352.3424,N,09831.2423,W,0.17,42.69,020412,,,D*49
$GPGGA,160853.000,3352.3424,N,09831.2424,W,2,09,1.2,289.6,M,-23.7,M,7.8,0000*44
$GPGSA,A,3,14,22,15,27,18,19,21,09,06,,,,2.2,1.2,1.8*31
$GPRMC,160853.000,A,3352.3424,N,09831.2424,W,0.07,144.18,020412,,,D*7F
$GPGGA,160854.000,3352.3424,N,09831.2424,W,2,09,1.2,289.6,M,-23.7,M,8.8,0000*4C
$GPGSA,A,3,14,22,15,27,18,19,21,09,06,,,,2.2,1.2,1.8*31
$GPRMC,160854.000,A,3352.3424,N,09831.2424,W,0.12,63.92,020412,,,D*4A
$GPGGA,160855.000,3352.3424,N,09831.2424,W,2,09,1.2,289.5,M,-23.7,M,9.8,0000*4F
$GPGSA,A,3,14,22,15,27,18,19,21,09,06,,,,2.2,1.2,1.8*31
$GPRMC,160855.000,A,3352.3424,N,09831.2424,W,0.20,177.72,020412,,,D*70
$GPGGA,160856.000,3352.3423,N,09831.2425,W,2,09,1.2,289.4,M,-23.7,M,10.8,0000*73
$GPGSA,A,3,14,22,15,27,18,19,21,09,06,,,,2.2,1.2,1.8*31
$GPGSV,3,1,11,18,58,047,38,22,54,317,35,21,54,147,33,14,49,234,18*71
$GPGSV,3,2,11,09,37,070,39,06,26,260,24,27,23,049,25,03,21,271,*72
$GPGSV,3,3,11,15,16,047,36,19,15,309,29,51,49,195,36*40
$GPRMC,160856.000,A,3352.3423,N,09831.2425,W,0.21,181.18,020412,,,D*71
$GPGGA,160857.000,3352.3422,N,09831.2425,W,2,09,1.2,289.3,M,-23.7,M,0.8,0000*45
$GPGSA,A,3,14,22,15,27,18,19,21,09,06,,,,2.2,1.2,1.8*31
$GPRMC,160857.000,A,3352.3422,N,09831.2425,W,0.29,180.66,020412,,,D*71
$GPGGA,160858.000,3352.3421,N,09831.2426,W,2,09,1.2,289.3,M,-23.7,M,0.8,0000*4A
$GPGSA,A,3,14,22,15,27,18,19,21,09,06,,,,2.2,1.2,1.8*31
$GPRMC,160858.000,A,3352.3421,N,09831.2426,W,0.23,166.89,020412,,,D*7D
$GPGGA,160859.000,3352.3421,N,09831.2426,W,2,09,1.2,289.2,M,-23.7,M,1.8,0000*4B
$GPGSA,A,3,14,22,15,27,18,19,21,09,06,,,,2.2,1.2,1.8*31
$GPRMC,160859.000,A,3352.3421,N,09831.2426,W,0.20,155.58,020412,,,D*73
$GPGGA,160900.000,3352.3420,N,09831.2426,W,2,09,1.2,289.2,M,-23.7,M,2.8,0000*44
$GPGSA,A,3,14,22,15,27,18,19,21,09,06,,,,2.2,1.2,1.8*31
$GPRMC,160900.000,A,3352.3420,N,09831.2426,W,0.14,124.60,020412,,,D*75
$GPGGA,160901.000,3352.3421,N,09831.2426,W,2,09,1.2,289.2,M,-23.7,M,3.8,0000*45
$GPGSA,A,3,14,22,15,27,18,19,21,09,06,,,,2.2,1.2,1.8*31
$GPGSV,3,1,11,18,58,047,38,22,54,317,35,21,54,147,33,14,49,234,17*7E
$GPGSV,3,2,11,09,37,070,39,06,26,260,24,27,23,049,25,03,21,271,*72
$GPGSV,3,3,11,15,16,047,36,19,15,309,29,51,49,195,36*40
$GPRMC,160901.000,A,3352.3421,N,09831.2426,W,0.18,64.64,020412,,,D*48
$GPGGA,160902.000,3352.3421,N,09831.2425,W,2,09,1.2,289.3,M,-23.7,M,4.8,0000*43
$GPGSA,A,3,14,22,15,27,18,19,21,09,06,,,,2.2,1.2,1.8*31
$GPRMC,160902.000,A,3352.3421,N,09831.2425,W,0.18,61.57,020412,,,D*4D
$GPGGA,160903.000,3352.3421,N,09831.2425,W,2,09,1.2,289.3,M,-23.7,M,5.8,0000*43
$GPGSA,A,3,14,22,15,27,18,19,21,09,06,,,,2.2,1.2,1.8*31
$GPRMC,160903.000,A,3352.3421,N,09831.2425,W,0.07,113.31,020412,,,D*76
$GPGGA,160904.000,3352.3421,N,09831.2425,W,2,09,1.2,289.3,M,-23.7,M,6.8,0000*47
$GPGSA,A,3,14,22,15,27,18,19,21,09,06,,,,2.2,1.2,1.8*31
$GPRMC,160904.000,A,3352.3421,N,09831.2425,W,0.10,101.59,020412,,,D*7A
$GPGGA,160905.000,3352.3420,N,09831.2425,W,2,09,1.2,289.4,M,-23.7,M,0.8,0000*46
$GPGSA,A,3,14,22,15,27,18,19,21,09,06,,,,2.2,1.2,1.8*31
$GPRMC,160905.000,A,3352.3420,N,09831.2425,W,0.10,156.31,020412,,,D*76
$GPGGA,160906.000,3352.3420,N,09831.2425,W,2,09,1.2,289.4,M,-23.7,M,0.8,0000*45
$GPGSA,A,3,14,22,15,27,18,19,21,09,06,,,,2.2,1.2,1.8*31
$GPGSV,3,1,11,18,58,047,38,22,54,317,36,21,54,147,33,14,49,234,14*7E
$GPGSV,3,2,11,09,37,070,39,06,26,260,24,27,23,049,25,03,21,271,*72
$GPGSV,3,3,11,15,16,047,36,19,15,309,29,51,49,195,36*40
$GPRMC,160906.000,A,3352.3420,N,09831.2425,W,0.10,115.91,020412,,,D*78
$GPGGA,160907.000,3352.3420,N,09831.2425,W,2,08,1.3,289.4,M,-23.7,M,1.8,0000*45
$GPGSA,A,3,22,15,27,18,19,21,09,06,,,,,2.2,1.3,1.8*35
$GPRMC,160907.000,A,3352.3420,N,09831.2425,W,0.18,184.19,020412,,,D*79
$GPGGA,160908.000,3352.3419,N,09831.2426,W,2,08,1.3,289.4,M,-23.7,M,2.8,0000*40
$GPGSA,A,3,22,15,27,18,19,21,09,06,,,,,2.2,1.3,1.8*35
$GPRMC,160908.000,A,3352.3419,N,09831.2426,W,0.13,150.90,020412,,,D*7C
$GPGGA,160909.000,3352.3419,N,09831.2426,W,2,08,1.3,289.3,M,-23.7,M,3.8,0000*47
$GPGSA,A,3,22,15,27,18,19,21,09,06,,,,,2.2,1.3,1.8*35
$GPRMC,160909.000,A,3352.3419,N,09831.2426,W,0.18,178.48,020412,,,D*79
$GPGGA,160910.000,3352.3419,N,09831.2426,W,2,08,1.3,289.4,M,-23.7,M,0.8,0000*4B
$GPGSA,A,3,22,15,27,18,19,21,09,06,,,,,2.2,1.3,1.8*35
$GPRMC,160910.000,A,3352.3419,N,09831.2426,W,0.13,96.00,020412,,,D*47
$GPGGA,160911.000,3352.3419,N,09831.2425,W,2,08,1.3,289.5,M,-23.7,M,1.8,0000*49
$GPGSA,A,3,22,15,27,18,19,21,09,06,,,,,2.2,1.3,1.8*35
$GPGSV,3,1,11,18,58,047,38,22,54,317,36,21,54,147,33,14,49,234,*7B
$GPGSV,3,2,11,09,37,070,39,06,26,260,24,27,23,049,26,03,21,271,*71
$GPGSV,3,3,11,15,16,047,36,19,15,309,29,51,49,195,36*40
$GPRMC,160911.000,A,3352.3419,N,09831.2425,W,0.16,86.02,020412,,,D*43
$GPGGA,160912.000,3352.3419,N,09831.2426,W,2,08,1.3,289.5,M,-23.7,M,2.8,0000*4A
$GPGSA,A,3,22,15,27,18,19,21,09,06,,,,,2.2,1.3,1.8*35
$GPRMC,160912.000,A,3352.3419,N,09831.2426,W,0.19,184.97,020412,,,D*73
$GPGGA,160913.000,3352.3418,N,09831.2426,W,2,08,1.3,289.6,M,-23.7,M,3.8,0000*48
$GPGSA,A,3,22,15,27,18,19,21,09,06,,,,,2.2,1.3,1.8*35
$GPRMC,160913.000,A,3352.3418,N,09831.2426,W,0.13,118.35,020412,,,D*74
$GPGGA,160914.000,3352.3418,N,09831.2426,W,2,08,1.3,289.6,M,-23.7,M,4.8,0000*48
$GPGSA,A,3,22,15,27,18,19,21,09,06,,,,,2.2,1.3,1.8*35
$GPRMC,160914.000,A,3352.3418,N,09831.2426,W,0.16,180.44,020412,,,D*71
$GPGGA,160915.000,3352.3417,N,09831.2426,W,2,08,1.3,289.5,M,-23.7,M,5.8,0000*44
$GPGSA,A,3,22,15,27,18,19,21,09,06,,,,,2.2,1.3,1.8*35
$GPRMC,160915.000,A,3352.3417,N,09831.2426,W,0.19,181.91,020412,,,D*79
$GPGGA,160916.000,3352.3417,N,09831.2426,W,2,08,1.3,289.5,M,-23.7,M,0.8,0000*42
$GPGSA,A,3,22,15,27,18,19,21,09,06,,,,,2.2,1.3,1.8*35
$GPGSV,3,1,11,18,58,048,38,22,54,317,35,21,54,147,33,14,49,235,*76
$GPGSV,3,2,11,09,37,070,39,06,26,260,23,27,23,048,26,03,21,271,*77
$GPGSV,3,3,11,15,16,047,36,19,15,309,29,51,49,195,36*40
$GPRMC,160916.000,A,3352.3417,N,09831.2426,W,0.19,184.74,020412,,,D*74
$GPGGA,160917.000,3352.3416,N,09831.2426,W,2,08,1.3,289.4,M,-23.7,M,1.8,0000*42
$GPGSA,A,3,22,15,27,18,19,21,09,06,,,,,2.2,1.3,1.8*35
$GPRMC,160917.000,A,3352.3416,N,09831.2426,W,0.25,183.72,020412,,,D*7A
$GPGGA,160918.000,3352.3416,N,09831.2427,W,2,08,1.3,289.3,M,-23.7,M,2.8,0000*48
$GPGSA,A,3,22,15,27,18,19,21,09,06,,,,,2.2,1.3,1.8*35
$GPRMC,160918.000,A,3352.3416,N,09831.2427,W,0.22,180.40,020412,,,D*71
$GPGGA,160919.000,3352.3416,N,09831.2427,W,2,08,1.3,289.3,M,-23.7,M,3.8,0000*48
$GPGSA,A,3,22,15,27,18,19,21,09,06,,,,,2.2,1.3,1.8*35
$GPRMC,160919.000,A,3352.3416,N,09831.2427,W,0.13,121.78,020412,,,D*72
$GPGGA,160920.000,3352.3415,N,09831.2427,W,2,08,1.3,289.3,M,-23.7,M,4.8,0000*46
$GPGSA,A,3,22,15,27,18,19,21,09,06,,,,,2.2,1.3,1.8*35
$GPRMC,160920.000,A,3352.3415,N,09831.2427,W,0.21,182.56,020412,,,D*7F
$GPGGA,160921.000,3352.3415,N,09831.2427,W,2,08,1.3,289.3,M,-23.7,M,5.8,0000*46
$GPGSA,A,3,22,15,27,18,19,21,09,06,,,,,2.2,1.3,1.8*35
$GPGSV,3,1,11,18,58,048,38,22,54,317,35,21,54,147,33,14,49,235,*76
$GPGSV,3,2,11,09,37,070,39,06,26,260,23,27,23,048,27,03,21,271,*76
$GPGSV,3,3,11,15,16,047,36,19,15,309,29,51,49,195,36*40
$GPRMC,160921.000,A,3352.3415,N,09831.2427,W,0.13,143.08,020412,,,D*79
$GPGGA,160922.000,3352.3415,N,09831.2427,W,2,08,1.3,289.3,M,-23.7,M,6.8,0000*46
$GPGSA,A,3,22,15,27,18,19,21,09,06,,,,,2.2,1.3,1.8*35
$GPRMC,160922.000,A,3352.3415,N,09831.2427,W,0.16,164.01,020412,,,D*73
$GPGGA,160923.000,3352.3415,N,09831.2427,W,2,08,1.3,289.4,M,-23.7,M,0.8,0000*46
$GPGSA,A,3,22,15,27,18,19,21,09,06,,,,,2.2,1.3,1.8*35
$GPRMC,160923.000,A,3352.3415,N,09831.2427,W,0.13,123.27,020412,,,D*70
$GPGGA,160924.000,3352.3415,N,09831.2427,W,2,08,1.3,289.4,M,-23.7,M,1.8,0000*40
$GPGSA,A,3,22,15,27,18,19,21,09,06,,,,,2.2,1.3,1.8*35
$GPRMC,160924.000,A,3352.3415,N,09831.2427,W,0.12,129.45,020412,,,D*78
$GPGGA,160925.000,3352.3414,N,09831.2427,W,2,08,1.3,289.4,M,-23.7,M,2.8,0000*43
$GPGSA,A,3,22,15,27,18,19,21,09,06,,,,,2.2,1.3,1.8*35
$GPRMC,160925.000,A,3352.3414,N,09831.2427,W,0.20,179.74,020412,,,D*7E
$GPGGA,160926.000,3352.3414,N,09831.2427,W,2,08,1.3,289.5,M,-23.7,M,3.8,0000*40
$GPGSA,A,3,22,15,27,18,19,21,09,06,,,,,2.2,1.3,1.8*35
$GPGSV,3,1,11,18,58,048,38,22,54,317,35,21,54,147,33,14,49,235,*76
$GPGSV,3,2,11,09,37,070,40,06,26,260,23,27,23,048,28,03,21,271,*77
$GPGSV,3,3,11,15,16,047,36,19,15,309,30,51,49,195,36*48
$GPRMC,160926.000,A,3352.3414,N,09831.2427,W,0.15,103.76,020412,,,D*74
$GPGGA,160927.000,3352.3415,N,09831.2426,W,2,08,1.3,289.6,M,-23.7,M,4.8,0000*45
$GPGSA,A,3,22,15,27,18,19,21,09,06,,,,,2.2,1.3,1.8*35
$GPRMC,160927.000,A,3352.3415,N,09831.2426,W,0.15,86.15,020412,,,D*4C
$GPGGA,160928.000,3352.3415,N,09831.2426,W,2,08,1.3,289.7,M,-23.7,M,0.8,0000*4F
$GPGSA,A,3,22,15,27,18,19,21,09,06,,,,,2.2,1.3,1.8*35
$GPRMC,160928.000,A,3352.3415,N,09831.2426,W,0.10,143.60,020412,,,D*7C
$GPGGA,160929.000,3352.3415,N,09831.2427,W,2,08,1.3,289.6,M,-23.7,M,1.8,0000*4F
$GPGSA,A,3,22,15,27,18,19,21,09,06,,,,,2.2,1.3,1.8*35
$GPRMC,160929.000,A,3352.3415,N,09831.2427,W,0.20,186.90,020412,,,D*79
$GPGGA,160930.000,3352.3414,N,09831.2427,W,2,08,1.3,289.6,M,-23.7,M,2.8,0000*45
$GPGSA,A,3,22,15,27,18,19,21,09,06,,,,,2.2,1.3,1.8*35
$GPRMC,160930.000,A,3352.3414,N,09831.2427,W,0.26,188.53,020412,,,D*77
$GPGGA,160931.000,3352.3414,N,09831.2428,W,2,08,1.3,289.6,M,-23.7,M,3.8,0000*4A
$GPGSA,A,3,22,15,27,18,19,21,09,06,,,,,2.2,1.3,1.8*35
$GPGSV,3,1,11,18,58,048,38,22,54,317,35,21,54,147,33,14,49,235,*76
$GPGSV,3,2,11,09,37,070,40,06,26,260,24,27,23,048,28,03,21,271,*70
$GPGSV,3,3,11,15,16,047,37,19,15,309,30,51,49,195,36*49
$GPRMC,160931.000,A,3352.3414,N,09831.2428,W,0.13,101.27,020412,,,D*7D
$GPGGA,160932.000,3352.3415,N,09831.2428,W,2,08,1.3,289.6,M,-23.7,M,4.8,0000*4F
$GPGSA,A,3,22,15,27,18,19,21,09,06,,,,,2.2,1.3,1.8*35
$GPRMC,160932.000,A,3352.3415,N,09831.2428,W,0.10,144.61,020412,,,D*7F
$GPGGA,160933.000,3352.3415,N,09831.2428,W,2,08,1.3,289.6,M,-23.7,M,0.8,0000*4A
$GPGSA,A,3,22,15,27,18,19,21,09,06,,,,,2.2,1.3,1.8*35
$GPRMC,160933.000,A,3352.3415,N,09831.2428,W,0.12,124.38,020412,,,D*76
$GPGGA,160934.000,3352.3415,N,09831.2427,W,2,08,1.3,289.6,M,-23.7,M,1.8,0000*43
$GPGSA,A,3,22,15,27,18,19,21,09,06,,,,,2.2,1.3,1.8*35
$GPRMC,160934.000,A,3352.3415,N,09831.2427,W,0.18,81.79,020412,,,D*4F
$GPGGA,160935.000,3352.3414,N,09831.2427,W,2,08,1.3,289.6,M,-23.7,M,0.8,0000*42
$GPGSA,A,3,22,15,27,18,19,21,09,06,,,,,2.2,1.3,1.8*35
$GPRMC,160935.000,A,3352.3414,N,09831.2427,W,0.13,174.24,020412,,,D*77
$GPGGA,160936.000,3352.3414,N,09831.2428,W,2,09,1.2,289.5,M,-23.7,M,1.8,0000*4C
$GPGSA,A,3,14,22,15,27,18,19,21,09,06,,,,2.2,1.2,1.8*31
$GPGSV,3,1,11,18,58,048,38,22,54,317,35,21,54,147,33,14,49,235,17*70
$GPGSV,3,2,11,09,37,070,40,06,26,260,24,27,23,048,29,03,21,271,*71
$GPGSV,3,3,11,15,16,047,37,19,15,309,31,51,49,195,36*48
$GPRMC,160936.000,A,3352.3414,N,09831.2428,W,0.31,193.42,020412,,,D*72
$GPGGA,160937.000,3352.3413,N,09831.2428,W,2,09,1.2,289.5,M,-23.7,M,2.8,0000*49
$GPGSA,A,3,14,22,15,27,18,19,21,09,06,,,,2.2,1.2,1.8*31
$GPRMC,160937.000,A,3352.3413,N,09831.2428,W,0.22,169.13,020412,,,D*77
$GPGGA,160938.000,3352.3413,N,09831.2428,W,2,09,1.2,289.6,M,-23.7,M,3.8,0000*44
$GPGSA,A,3,14,22,15,27,18,19,21,09,06,,,,2.2,1.2,1.8*31
$GPRMC,160938.000,A,3352.3413,N,09831.2428,W,0.22,173.72,020412,,,D*74
$GPGGA,160939.000,3352.3413,N,09831.2428,W,2,09,1.2,289.6,M,-23.7,M,4.8,0000*42
$GPGSA,A,3,14,22,15,27,18,19,21,09,06,,,,2.2,1.2,1.8*31
$GPRMC,160939.000,A,3352.3413,N,09831.2428,W,0.17,166.84,020412,,,D*7E
$GPGGA,160940.000,3352.3413,N,09831.2428,W,2,09,1.2,289.6,M,-23.7,M,5.8,0000*4D
$GPGSA,A,3,14,22,15,27,18,19,21,09,06,,,,2.2,1.2,1.8*31
$GPRMC,160940.000,A,3352.3413,N,09831.2428,W,0.12,165.19,020412,,,D*72
$GPGGA,160941.000,3352.3413,N,09831.2428,W,2,09,1.2,289.7,M,-23.7,M,0.8,0000*48
$GPGSA,A,3,14,22,15,27,18,19,21,09,06,,,,2.2,1.2,1.8*31
$GPGSV,3,1,11,18,58,048,38,22,54,317,35,21,54,147,33,14,49,235,17*70
$GPGSV,3,2,11,09,37,070,40,06,26,260,23,27,23,048,29,03,21,271,*76
$GPGSV,3,3,11,15,16,047,37,19,15,309,31,51,49,195,36*48
$GPRMC,160941.000,A,3352.3413,N,09831.2428,W,0.15,75.02,020412,,,D*4E
$GPGGA,160942.000,3352.3413,N,09831.2428,W,2,09,1.2,289.7,M,-23.7,M,1.8,0000*4A
$GPGSA,A,3,14,22,15,27,18,19,21,09,06,,,,2.2,1.2,1.8*31
$GPRMC,160942.000,A,3352.3413,N,09831.2428,W,0.25,54.93,020412,,,D*45
$GPGGA,160943.000,3352.3414,N,09831.2427,W,2,09,1.2,289.8,M,-23.7,M,2.8,0000*4F
$GPGSA,A,3,14,22,15,27,18,19,21,09,06,,,,2.2,1.2,1.8*31
$GPRMC,160943.000,A,3352.3414,N,09831.2427,W,0.17,65.33,020412,,,D*45
$GPGGA,160944.000,3352.3414,N,09831.2427,W,2,09,1.2,289.8,M,-23.7,M,3.8,0000*49
$GPGSA,A,3,14,22,15,27,18,19,21,09,06,,,,2.2,1.2,1.8*31
$GPRMC,160944.000,A,3352.3414,N,09831.2427,W,0.10,69.41,020412,,,D*4C
$GPGGA,160945.000,3352.3414,N,09831.2427,W,2,09,1.2,289.8,M,-23.7,M,4.8,0000*4F
$GPGSA,A,3,14,22,15,27,18,19,21,09,06,,,,2.2,1.2,1.8*31
$GPRMC,160945.000,A,3352.3414,N,09831.2427,W,0.07,120.79,020412,,,D*7C
$GPGGA,160946.000,3352.3414,N,09831.2427,W,2,09,1.2,289.8,M,-23.7,M,5.8,0000*4D
$GPGSA,A,3,14,22,15,27,18,19,21,09,06,,,,2.2,1.2,1.8*31
$GPGSV,3,1,11,18,58,048,39,22,54,318,35,21,53,148,33,14,50,235,18*71
$GPGSV,3,2,11,09,37,069,40,06,26,260,23,27,23,048,29,03,20,271,*7F
$GPGSV,3,3,11,15,16,047,37,19,15,309,32,51,49,195,36*4B
$GPRMC,160946.000,A,3352.3414,N,09831.2427,W,0.12,79.57,020412,,,D*4A
$GPGGA,160947.000,3352.3414,N,09831.2427,W,2,09,1.2,289.8,M,-23.7,M,6.8,0000*4F
$GPGSA,A,3,14,22,15,27,18,19,21,09,06,,,,2.2,1.2,1.8*31
$GPRMC,160947.000,A,3352.3414,N,09831.2427,W,0.10,142.34,020412,,,D*75
$GPGGA,160948.000,3352.3414,N,09831.2427,W,2,09,1.2,289.8,M,-23.7,M,7.8,0000*41
$GPGSA,A,3,14,22,15,27,18,19,21,09,06,,,,2.2,1.2,1.8*31
$GPRMC,160948.000,A,3352.3414,N,09831.2427,W,0.14,179.72,020412,,,D*74
$GPGGA,160949.000,3352.3414,N,09831.2427,W,2,09,1.2,289.8,M,-23.7,M,8.8,0000*4F
$GPGSA,A,3,14,22,15,27,18,19,21,09,06,,,,2.2,1.2,1.8*31
$GPRMC,160949.000,A,3352.3414,N,09831.2427,W,0.16,154.01,020412,,,D*7C
$GPGGA,160950.000,3352.3414,N,09831.2427,W,2,09,1.2,289.9,M,-23.7,M,9.8,0000*47
$GPGSA,A,3,14,22,15,27,18,19,21,09,06,,,,2.2,1.2,1.8*31
$GPRMC,160950.000,A,3352.3414,N,09831.2427,W,0.14,74.21,020412,,,D*47
$GPGGA,160951.000,3352.3414,N,09831.2427,W,2,09,1.2,289.9,M,-23.7,M,0.8,0000*4F
$GPGSA,A,3,14,22,15,27,18,19,21,09,06,,,,2.2,1.2,1.8*31
$GPGSV,3,1,11,18,58,048,39,22,54,318,35,21,53,148,33,14,50,235,19*70
$GPGSV,3,2,11,09,37,069,40,06,26,260,23,27,23,048,29,03,20,271,*7F
$GPGSV,3,3,11,15,16,047,37,19,15,309,33,51,49,195,36*4A
$GPRMC,160951.000,A,3352.3414,N,09831.2427,W,0.18,159.47,020412,,,D*74
$GPGGA,160952.000,3352.3414,N,09831.2427,W,2,09,1.2,289.9,M,-23.7,M,0.8,0000*4C
$GPGSA,A,3,14,22,15,27,18,19,21,09,06,,,,2.2,1.2,1.8*31
$GPRMC,160952.000,A,3352.3414,N,09831.2427,W,0.12,162.09,020412,,,D*7F
$GPGGA,160953.000,3352.3413,N,09831.2427,W,2,09,1.2,289.9,M,-23.7,M,0.8,0000*4A
$GPGSA,A,3,14,22,15,27,18,19,21,09,06,,,,2.2,1.2,1.8*31
$GPRMC,160953.000,A,3352.3413,N,09831.2427,W,0.17,180.38,020412,,,D*72
$GPGGA,160954.000,3352.3413,N,09831.2427,W,2,09,1.2,290.0,M,-23.7,M,1.8,0000*4D
$GPGSA,A,3,14,22,15,27,18,19,21,09,06,,,,2.2,1.2,1.8*31
$GPRMC,160954.000,A,3352.3413,N,09831.2427,W,0.13,162.52,020412,,,D*71
$GPGGA,160955.000,3352.3413,N,09831.2427,W,2,09,1.2,290.0,M,-23.7,M,2.8,0000*4F
$GPGSA,A,3,14,22,15,27,18,19,21,09,06,,,,2.2,1.2,1.8*31
$GPRMC,160955.000,A,3352.3413,N,09831.2427,W,0.19,185.81,020412,,,D*7D
$GPGGA,160956.000,3352.3413,N,09831.2427,W,2,09,1.2,290.0,M,-23.7,M,3.8,0000*4D
$GPGSA,A,3,14,22,15,27,18,19,21,09,06,,,,2.2,1.2,1.8*31
$GPGSV,3,1,11,18,57,048,39,22,54,318,35,21,53,148,33,14,50,235,19*7F
$GPGSV,3,2,11,09,37,069,40,06,26,260,23,27,23,048,29,03,20,271,*7F
$GPGSV,3,3,11,15,16,047,37,19,15,309,33,51,49,195,36*4A
$GPRMC,160956.000,A,3352.3413,N,09831.2427,W,0.10,92.63,020412,,,D*4C
$GPGGA,160957.000,3352.3413,N,09831.2427,W,2,09,1.2,290.1,M,-23.7,M,4.8,0000*4A
$GPGSA,A,3,14,22,15,27,18,19,21,09,06,,,,2.2,1.2,1.8*31
$GPRMC,160957.000,A,3352.3413,N,09831.2427,W,0.13,64.61,020412,,,D*45
$GPGGA,160958.000,3352.3413,N,09831.2427,W,2,09,1.2,290.1,M,-23.7,M,0.8,0000*41
$GPGSA,A,3,14,22,15,27,18,19,21,09,06,,,,2.2,1.2,1.8*31
$GPRMC,160958.000,A,3352.3413,N,09831.2427,W,0.17,174.69,020412,,,D*76
$GPGGA,160959.000,3352.3413,N,09831.2428,W,2,09,1.2,290.1,M,-23.7,M,1.8,0000*4E
$GPGSA,A,3,14,22,15,27,18,19,21,09,06,,,,2.2,1.2,1.8*31
$GPRMC,160959.000,A,3352.3413,N,09831.2428,W,0.15,177.11,020412,,,D*76
$GPGGA,161000.000,3352.3413,N,09831.2428,W,2,09,1.2,290.1,M,-23.7,M,2.8,0000*49
$GPGSA,A,3,14,22,15,27,18,19,21,09,06,,,,2.2,1.2,1.8*31
$GPRMC,161000.000,A,3352.3413,N,09831.2428,W,0.11,72.43,020412,,,D*45
$GPGGA,161001.000,3352.3414,N,09831.2428,W,2,09,1.2,290.1,M,-23.7,M,0.8,0000*4D
$GPGSA,A,3,14,22,15,27,18,19,21,09,06,,,,2.2,1.2,1.8*31
$GPGSV,3,1,11,18,57,048,39,22,54,318,35,21,53,148,33,14,50,235,19*7F
$GPGSV,3,2,11,09,37,069,40,06,26,260,23,27,23,048,29,03,20,271,*7F
$GPGSV,3,3,11,15,16,047,37,19,15,309,33,51,49,195,36*4A
$GPRMC,161001.000,A,3352.3414,N,09831.2428,W,0.05,80.28,020412,,,D*46
$GPGGA,161002.000,3352.3414,N,09831.2428,W,2,09,1.2,290.2,M,-23.7,M,1.8,0000*4C
$GPGSA,A,3,14,22,15,27,18,19,21,09,06,,,,2.2,1.2,1.8*31
$GPRMC,161002.000,A,3352.3414,N,09831.2428,W,0.10,113.32,020412,,,D*71
$GPGGA,161003.000,3352.3414,N,09831.2428,W,2,09,1.2,290.2,M,-23.7,M,0.8,0000*4C
$GPGSA,A,3,14,22,15,27,18,19,21,09,06,,,,2.2,1.2,1.8*31
$GPRMC,161003.000,A,3352.3414,N,09831.2428,W,0.15,148.64,020412,,,D*78
$GPGGA,161004.000,3352.3414,N,09831.2428,W,2,09,1.2,290.4,M,-23.7,M,0.8,0000*4D
$GPGSA,A,3,14,22,15,27,18,19,21,09,06,,,,2.2,1.2,1.8*31
$GPRMC,161004.000,A,3352.3414,N,09831.2428,W,0.18,63.47,020412,,,D*4B
$GPGGA,161005.000,3352.3414,N,09831.2427,W,2,09,1.2,290.4,M,-23.7,M,1.8,0000*42
$GPGSA,A,3,14,22,15,27,18,19,21,09,06,,,,2.2,1.2,1.8*31
$GPRMC,161005.000,A,3352.3414,N,09831.2427,W,0.13,136.42,020412,,,D*7A
$GPGGA,161006.000,3352.3414,N,09831.2427,W,2,09,1.2,290.5,M,-23.7,M,2.8,0000*43
$GPGSA,A,3,14,22,15,27,18,19,21,09,06,,,,2.2,1.2,1.8*31
$GPGSV,3,1,11,18,57,048,39,22,54,318,35,21,53,148,34,14,50,235,19*78
$GPGSV,3,2,11,09,37,069,40,06,26,260,22,27,23,048,29,03,20,271,*7E
$GPGSV,3,3,11,15,16,047,37,19,15,309,33,51,49,195,36*4A
$GPRMC,161006.000,A,3352.3414,N,09831.2427,W,0.17,158.78,020412,,,D*7C
$GPGGA,161007.000,3352.3414,N,09831.2427,W,2,09,1.2,290.6,M,-23.7,M,3.8,0000*40
$GPGSA,A,3,14,22,15,27,18,19,21,09,06,,,,2.2,1.2,1.8*31
$GPRMC,161007.000,A,3352.3414,N,09831.2427,W,0.23,59.67,020412,,,D*44
$GPGGA,161008.000,3352.3415,N,09831.2427,W,2,09,1.2,290.7,M,-23.7,M,4.8,0000*48
$GPGSA,A,3,14,22,15,27,18,19,21,09,06,,,,2.2,1.2,1.8*31
$GPRMC,161008.000,A,3352.3415,N,09831.2427,W,0.10,128.11,020412,,,D*7C
$GPGGA,161009.000,3352.3415,N,09831.2427,W,2,09,1.2,290.8,M,-23.7,M,5.8,0000*47
$GPGSA,A,3,14,22,15,27,18,19,21,09,06,,,,2.2,1.2,1.8*31
$GPRMC,161009.000,A,3352.3415,N,09831.2427,W,0.16,145.61,020412,,,D*77
$GPGGA,161010.000,3352.3415,N,09831.2427,W,2,09,1.2,290.9,M,-23.7,M,6.8,0000*4D
$GPGSA,A,3,14,22,15,27,18,19,21,09,06,,,,2.2,1.2,1.8*31
$GPRMC,161010.000,A,3352.3415,N,09831.2427,W,0.23,55.31,020412,,,D*4C
$GPGGA,161011.000,3352.3415,N,09831.2427,W,2,09,1.2,290.9,M,-23.7,M,0.8,0000*4A
$GPGSA,A,3,14,22,15,27,18,19,21,09,06,,,,2.2,1.2,1.8*31
$GPGSV,3,1,11,18,57,048,39,22,54,318,35,21,53,148,34,14,50,235,18*79
$GPGSV,3,2,11,09,37,069,40,06,26,260,22,27,23,048,29,03,20,271,*7E
$GPGSV,3,3,11,15,16,047,37,19,15,309,34,51,49,195,36*4D
$GPRMC,161011.000,A,3352.3415,N,09831.2427,W,0.06,64.60,020412,,,D*4C
$GPGGA,161012.000,3352.3415,N,09831.2427,W,2,09,1.2,291.0,M,-23.7,M,1.8,0000*40
$GPGSA,A,3,14,22,15,27,18,19,21,09,06,,,,2.2,1.2,1.8*31
$GPRMC,161012.000,A,3352.3415,N,09831.2427,W,0.13,97.85,020412,,,D*4C
$GPGGA,161013.000,3352.3415,N,09831.2427,W,2,09,1.2,291.1,M,-23.7,M,2.8,0000*43
$GPGSA,A,3,14,22,15,27,18,19,21,09,06,,,,2.2,1.2,1.8*31
$GPRMC,161013.000,A,3352.3415,N,09831.2427,W,0.14,161.91,020412,,,D*77
$GPGGA,161014.000,3352.3416,N,09831.2427,W,2,09,1.2,291.2,M,-23.7,M,3.8,0000*45
$GPGSA,A,3,14,22,15,27,18,19,21,09,06,,,,2.2,1.2,1.8*31
$GPRMC,161014.000,A,3352.3416,N,09831.2427,W,0.13,66.82,020412,,,D*40
$GPGGA,161015.000,3352.3416,N,09831.2426,W,2,09,1.2,291.3,M,-23.7,M,4.8,0000*43
$GPGSA,A,3,14,22,15,27,18,19,21,09,06,,,,2.2,1.2,1.8*31
$GPRMC,161015.000,A,3352.3416,N,09831.2426,W,0.33,44.73,020412,,,D*4C
$GPGGA,161016.000,3352.3416,N,09831.2426,W,2,09,1.2,291.2,M,-23.7,M,5.8,0000*40
$GPGSA,A,3,14,22,15,27,18,19,21,09,06,,,,2.2,1.2,1.8*31
$GPGSV,3,1,11,18,57,048,39,22,54,318,36,21,53,148,34,14,50,235,18*7A
$GPGSV,3,2,11,09,37,069,40,06,26,259,22,27,23,048,29,03,20,270,*75
$GPGSV,3,3,11,15,16,047,37,19,15,309,34,51,49,195,36*4D
$GPRMC,161016.000,A,3352.3416,N,09831.2426,W,0.15,187.95,020412,,,D*7D
$GPGGA,161017.000,3352.3416,N,09831.2427,W,2,09,1.2,291.2,M,-23.7,M,0.8,0000*45
$GPGSA,A,3,14,22,15,27,18,19,21,09,06,,,,2.2,1.2,1.8*31
$GPRMC,161017.000,A,3352.3416,N,09831.2427,W,0.08,173.42,020412,,,D*70
$GPGGA,161018.000,3352.3416,N,09831.2427,W,2,09,1.2,291.2,M,-23.7,M,1.8,0000*4B
$GPGSA,A,3,14,22,15,27,18,19,21,09,06,,,,2.2,1.2,1.8*31
$GPRMC,161018.000,A,3352.3416,N,09831.2427,W,0.13,75.37,020412,,,D*40
$GPGGA,161019.000,3352.3416,N,09831.2427,W,2,09,1.2,291.2,M,-23.7,M,2.8,0000*49
$GPGSA,A,3,14,22,15,27,18,19,21,09,06,,,,2.2,1.2,1.8*31
$GPRMC,161019.000,A,3352.3416,N,09831.2427,W,0.15,174.44,020412,,,D*73
$GPGGA,161020.000,3352.3415,N,09831.2427,W,2,09,1.2,291.1,M,-23.7,M,3.8,0000*42
$GPGSA,A,3,14,22,15,27,18,19,21,09,06,,,,2.2,1.2,1.8*31
$GPRMC,161020.000,A,3352.3415,N,09831.2427,W,0.40,196.73,020412,,,D*72
$GPGGA,161021.000,3352.3414,N,09831.2428,W,2,09,1.2,291.0,M,-23.7,M,4.8,0000*4B
$GPGSA,A,3,14,22,15,27,18,19,21,09,06,,,,2.2,1.2,1.8*31
$GPGSV,3,1,11,18,57,048,39,22,54,318,36,21,53,148,34,14,50,235,18*7A
$GPGSV,3,2,11,09,37,069,40,06,26,259,22,27,23,048,29,03,20,270,*75
$GPGSV,3,3,11,15,16,047,37,19,15,309,34,51,49,195,36*4D
$GPRMC,161021.000,A,3352.3414,N,09831.2428,W,0.30,188.59,020412,,,D*7D
$GPGGA,161022.000,3352.3414,N,09831.2428,W,2,09,1.2,291.0,M,-23.7,M,5.8,0000*49
$GPGSA,A,3,14,22,15,27,18,19,21,09,06,,,,2.2,1.2,1.8*31
$GPRMC,161022.000,A,3352.3414,N,09831.2428,W,0.10,131.86,020412,,,D*7C
$GPGGA,161023.000,3352.3414,N,09831.2428,W,2,09,1.2,290.9,M,-23.7,M,6.8,0000*43
$GPGSA,A,3,14,22,15,27,18,19,21,09,06,,,,2.2,1.2,1.8*31
$GPRMC,161023.000,A,3352.3414,N,09831.2428,W,0.16,184.51,020412,,,D*7F
$GPGGA,161024.000,3352.3414,N,09831.2428,W,2,09,1.2,290.9,M,-23.7,M,7.8,0000*45
$GPGSA,A,3,14,22,15,27,18,19,21,09,06,,,,2.2,1.2,1.8*31
$GPRMC,161024.000,A,3352.3414,N,09831.2428,W,0.33,188.24,020412,,,D*71
$GPGGA,161025.000,3352.3414,N,09831.2428,W,2,09,1.2,290.9,M,-23.7,M,8.8,0000*4B
$GPGSA,A,3,14,22,15,27,18,19,21,09,06,,,,2.2,1.2,1.8*31
$GPRMC,161025.000,A,3352.3414,N,09831.2428,W,0.15,97.08,020412,,,D*45
$GPGGA,161026.000,3352.3414,N,09831.2428,W,2,09,1.2,290.8,M,-23.7,M,9.8,0000*48
$GPGSA,A,3,14,22,15,27,18,19,21,09,06,,,,2.2,1.2,1.8*31
$GPGSV,3,1,11,18,57,048,39,22,54,318,36,21,53,148,34,14,50,235,19*7B
$GPGSV,3,2,11,09,37,069,40,06,26,259,22,27,23,048,29,03,20,270,*75
$GPGSV,3,3,11,15,16,047,37,19,15,309,34,51,49,195,36*4D
$GPRMC,161026.000,A,3352.3414,N,09831.2428,W,0.15,169.53,020412,,,D*78
$GPGGA,161027.000,3352.3414,N,09831.2428,W,2,09,1.2,290.9,M,-23.7,M,10.8,0000*70
$GPGSA,A,3,14,22,15,27,18,19,21,09,06,,,,2.2,1.2,1.8*31
$GPRMC,161027.000,A,3352.3414,N,09831.2428,W,0.24,63.96,020412,,,D*49
$GPGGA,161028.000,3352.3414,N,09831.2428,W,2,09,1.2,290.9,M,-23.7,M,0.8,0000*4E
$GPGSA,A,3,14,22,15,27,18,19,21,09,06,,,,2.2,1.2,1.8*31
$GPRMC,161028.000,A,3352.3414,N,09831.2428,W,0.12,133.06,020412,,,D*7E
$GPGGA,161029.000,3352.3414,N,09831.2427,W,2,09,1.2,290.8,M,-23.7,M,1.8,0000*40
$GPGSA,A,3,14,22,15,27,18,19,21,09,06,,,,2.2,1.2,1.8*31
$GPRMC,161029.000,A,3352.3414,N,09831.2427,W,0.14,159.80,020412,,,D*74
$GPGGA,161030.000,3352.3414,N,09831.2428,W,2,09,1.2,290.8,M,-23.7,M,2.8,0000*44
$GPGSA,A,3,14,22,15,27,18,19,21,09,06,,,,2.2,1.2,1.8*31
$GPRMC,161030.000,A,3352.3414,N,09831.2428,W,0.21,163.31,020412,,,D*76
$GPGGA,161031.000,3352.3414,N,09831.2427,W,2,09,1.2,290.9,M,-23.7,M,3.8,0000*4A
$GPGSA,A,3,14,22,15,27,18,19,21,09,06,,,,2.2,1.2,1.8*31
$GPGSV,3,1,11,18,57,048,39,22,54,318,36,21,53,148,33,14,50,235,20*76
$GPGSV,3,2,11,09,37,069,40,06,26,259,22,27,23,048,28,03,20,270,*74
$GPGSV,3,3,11,15,16,047,37,19,15,309,34,51,49,195,36*4D
$GPRMC,161031.000,A,3352.3414,N,09831.2427,W,0.20,76.80,020412,,,D*46
$GPGGA,161032.000,3352.3415,N,09831.2427,W,2,09,1.2,290.9,M,-23.7,M,4.8,0000*4F
$GPGSA,A,3,14,22,15,27,18,19,21,09,06,,,,2.2,1.2,1.8*31
$GPRMC,161032.000,A,3352.3415,N,09831.2427,W,0.11,87.88,020412,,,D*40
$GPGGA,161033.000,3352.3415,N,09831.2427,W,2,09,1.2,290.9,M,-23.7,M,0.8,0000*4A
$GPGSA,A,3,14,22,15,27,18,19,21,09,06,,,,2.2,1.2,1.8*31
$GPRMC,161033.000,A,3352.3415,N,09831.2427,W,0.14,75.62,020412,,,D*4D
$GPGGA,161034.000,3352.3415,N,09831.2427,W,2,09,1.2,290.9,M,-23.7,M,1.8,0000*4C
$GPGSA,A,3,14,22,15,27,18,19,21,09,06,,,,2.2,1.2,1.8*31
$GPRMC,161034.000,A,3352.3415,N,09831.2427,W,0.10,152.37,020412,,,D*7A
$GPGGA,161035.000,3352.3415,N,09831.2427,W,2,09,1.2,290.8,M,-23.7,M,2.8,0000*4F
$GPGSA,A,3,14,22,15,27,18,19,21,09,06,,,,2.2,1.2,1.8*31
$GPRMC,161035.000,A,3352.3415,N,09831.2427,W,0.24,174.67,020412,,,D*7D
$GPGGA,161036.000,3352.3414,N,09831.2427,W,2,09,1.2,290.7,M,-23.7,M,3.8,0000*43
$GPGSA,A,3,14,22,15,27,18,19,21,09,06,,,,2.2,1.2,1.8*31
$GPGSV,3,1,11,18,57,048,39,22,54,318,36,21,53,148,33,14,50,235,22*74
$GPGSV,3,2,11,09,37,069,40,06,26,259,21,27,23,048,28,03,20,270,*77
$GPGSV,3,3,11,15,16,047,37,19,15,309,34,51,49,195,36*4D
$GPRMC,161036.000,A,3352.3414,N,09831.2427,W,0.20,174.48,020412,,,D*76
$GPGGA,161037.000,3352.3414,N,09831.2427,W,2,09,1.2,290.8,M,-23.7,M,4.8,0000*4A
$GPGSA,A,3,14,22,15,27,18,19,21,09,06,,,,2.2,1.2,1.8*31
$GPRMC,161037.000,A,3352.3414,N,09831.2427,W,0.17,87.10,020412,,,D*43
$GPGGA,161038.000,3352.3415,N,09831.2427,W,2,10,1.1,290.7,M,-23.7,M,5.8,0000*41
$GPGSA,A,3,14,22,15,27,18,19,21,09,06,03,,,2.1,1.1,1.7*3D
$GPRMC,161038.000,A,3352.3415,N,09831.2427,W,0.13,89.52,020412,,,D*41
$GPGGA,161039.000,3352.3415,N,09831.2426,W,2,10,1.1,290.7,M,-23.7,M,6.8,0000*42
$GPGSA,A,3,14,22,15,27,18,19,21,09,06,03,,,2.1,1.1,1.7*3D
$GPRMC,161039.000,A,3352.3415,N,09831.2426,W,0.17,71.71,020412,,,D*43
$GPGGA,161040.000,3352.3415,N,09831.2426,W,2,10,1.1,290.7,M,-23.7,M,7.8,0000*4D
$GPGSA,A,3,14,22,15,27,18,19,21,09,06,03,,,2.1,1.1,1.7*3D
$GPRMC,161040.000,A,3352.3415,N,09831.2426,W,0.12,81.70,020412,,,D*46
$GPGGA,161041.000,3352.3415,N,09831.2426,W,2,10,1.1,290.7,M,-23.7,M,0.8,0000*4B
$GPGSA,A,3,14,22,15,27,18,19,21,09,06,03,,,2.1,1.1,1.7*3D
$GPGSV,3,1,11,18,57,048,39,22,54,318,36,21,53,148,33,14,50,235,22*74
$GPGSV,3,2,11,09,37,069,40,06,26,259,22,27,23,048,28,03,20,270,13*76
$GPGSV,3,3,11,15,16,047,37,19,15,309,35,51,49,195,36*4C
$GPRMC,161041.000,A,3352.3415,N,09831.2426,W,0.17,136.87,020412,,,D*77
$GPGGA,161042.000,3352.3415,N,09831.2426,W,2,10,1.1,290.7,M,-23.7,M,1.8,0000*49
$GPGSA,A,3,14,22,15,27,18,19,21,09,06,03,,,2.1,1.1,1.7*3D
$GPRMC,161042.000,A,3352.3415,N,09831.2426,W,0.29,56.86,020412,,,D*4F
$GPGGA,161043.000,3352.3415,N,09831.2425,W,2,10,1.1,290.6,M,-23.7,M,2.8,0000*49
$GPGSA,A,3,14,22,15,27,18,19,21,09,06,03,,,2.1,1.1,1.7*3D
$GPRMC,161043.000,A,3352.3415,N,09831.2425,W,0.15,119.59,020412,,,D*7A
$GPGGA,161044.000,3352.3415,N,09831.2425,W,2,10,1.1,290.5,M,-23.7,M,3.8,0000*4C
$GPGSA,A,3,14,22,15,27,18,19,21,09,06,03,,,2.1,1.1,1.7*3D
$GPRMC,161044.000,A,3352.3415,N,09831.2425,W,0.24,169.87,020412,,,D*7B
$GPGGA,161045.000,3352.3415,N,09831.2425,W,2,10,1.1,290.4,M,-23.7,M,4.8,0000*4B
$GPGSA,A,3,14,22,15,27,18,19,21,09,06,03,,,2.1,1.1,1.7*3D
$GPRMC,161045.000,A,3352.3415,N,09831.2425,W,0.12,136.25,020412,,,D*7D
$GPGGA,161046.000,3352.3414,N,09831.2425,W,2,10,1.1,290.2,M,-23.7,M,0.8,0000*4B
$GPGSA,A,3,14,22,15,27,18,19,21,09,06,03,,,2.1,1.1,1.7*3D
$GPGSV,3,1,11,18,57,049,39,22,54,318,36,21,53,148,33,14,50,235,23*74
$GPGSV,3,2,11,09,37,069,40,06,26,259,22,27,23,048,28,03,20,270,13*76
$GPGSV,3,3,11,15,16,047,37,19,15,308,35,51,49,195,36*4D
$GPRMC,161046.000,A,3352.3414,N,09831.2425,W,0.15,169.90,020412,,,D*7C
$GPGGA,161047.000,3352.3414,N,09831.2425,W,2,10,1.1,290.2,M,-23.7,M,1.8,0000*4B
$GPGSA,A,3,14,22,15,27,18,19,21,09,06,03,,,2.1,1.1,1.7*3D
$GPRMC,161047.000,A,3352.3414,N,09831.2425,W,0.19,71.15,020412,,,D*44
$GPGGA,161048.000,3352.3414,N,09831.2425,W,2,10,1.1,290.0,M,-23.7,M,2.8,0000*45
$GPGSA,A,3,14,22,15,27,18,19,21,09,06,03,,,2.1,1.1,1.7*3D
$GPRMC,161048.000,A,3352.3414,N,09831.2425,W,0.21,182.77,020412,,,D*79
$GPGGA,161049.000,3352.3414,N,09831.2425,W,2,10,1.1,290.0,M,-23.7,M,3.8,0000*45
$GPGSA,A,3,14,22,15,27,18,19,21,09,06,03,,,2.1,1.1,1.7*3D
$GPRMC,161049.000,A,3352.3414,N,09831.2425,W,0.22,158.37,020412,,,D*78
$GPGGA,161050.000,3352.3414,N,09831.2425,W,2,10,1.1,289.9,M,-23.7,M,4.8,0000*4B
$GPGSA,A,3,14,22,15,27,18,19,21,09,06,03,,,2.1,1.1,1.7*3D
$GPRMC,161050.000,A,3352.3414,N,09831.2425,W,0.18,124.00,020412,,,D*76
$GPGGA,161051.000,3352.3414,N,09831.2425,W,2,10,1.1,290.0,M,-23.7,M,5.8,0000*4A
$GPGSA,A,3,14,22,15,27,18,19,21,09,06,03,,,2.1,1.1,1.7*3D
$GPGSV,3,1,11,18,57,049,39,22,54,318,36,21,53,148,33,14,50,235,23*74
$GPGSV,3,2,11,09,37,069,40,06,26,259,23,27,23,048,28,03,20,270,13*77
$GPGSV,3,3,11,15,16,047,38,19,15,308,35,51,49,195,36*42
$GPRMC,161051.000,A,3352.3414,N,09831.2425,W,0.22,79.25,020412,,,D*40
$GPGGA,161052.000,3352.3414,N,09831.2424,W,2,10,1.1,289.9,M,-23.7,M,0.8,0000*4C
$GPGSA,A,3,14,22,15,27,18,19,21,09,06,03,,,2.1,1.1,1.7*3D
$GPRMC,161052.000,A,3352.3414,N,09831.2424,W,0.22,161.36,020412,,,D*78
$GPGGA,161053.000,3352.3414,N,09831.2424,W,2,10,1.1,289.9,M,-23.7,M,1.8,0000*4C
$GPGSA,A,3,14,22,15,27,18,19,21,09,06,03,,,2.1,1.1,1.7*3D
$GPRMC,161053.000,A,3352.3414,N,09831.2424,W,0.17,108.34,020412,,,D*72
$GPGGA,161054.000,3352.3414,N,09831.2424,W,2,10,1.1,289.9,M,-23.7,M,2.8,0000*48
$GPGSA,A,3,14,22,15,27,18,19,21,09,06,03,,,2.1,1.1,1.7*3D
$GPRMC,161054.000,A,3352.3414,N,09831.2424,W,0.21,101.96,020412,,,D*71
$GPGGA,161055.000,3352.3414,N,09831.2424,W,2,10,1.1,290.0,M,-23.7,M,3.8,0000*49
$GPGSA,A,3,14,22,15,27,18,19,21,09,06,03,,,2.1,1.1,1.7*3D
$GPRMC,161055.000,A,3352.3414,N,09831.2424,W,0.23,98.10,020412,,,D*4D
$GPGGA,161056.000,3352.3414,N,09831.2423,W,2,10,1.1,289.9,M,-23.7,M,4.8,0000*4B
$GPGSA,A,3,14,22,15,27,18,19,21,09,06,03,,,2.1,1.1,1.7*3D
$GPGSV,3,1,11,18,57,049,39,22,54,318,36,21,53,148,33,14,50,235,24*73
$GPGSV,3,2,11,09,37,069,40,06,26,259,24,27,23,048,28,03,20,270,13*70
$GPGSV,3,3,11,15,16,047,38,19,15,308,35,51,49,195,36*42
$GPRMC,161056.000,A,3352.3414,N,09831.2423,W,0.22,154.09,020412,,,D*71
$GPGGA,161057.000,3352.3414,N,09831.2423,W,2,10,1.1,289.9,M,-23.7,M,5.8,0000*4B
$GPGSA,A,3,14,22,15,27,18,19,21,09,06,03,,,2.1,1.1,1.7*3D
$GPRMC,161057.000,A,3352.3414,N,09831.2423,W,0.16,154.22,020412,,,D*7E
$GPGGA,161058.000,3352.3413,N,09831.2423,W,2,10,1.1,289.8,M,-23.7,M,6.8,0000*41
$GPGSA,A,3,14,22,15,27,18,19,21,09,06,03,,,2.1,1.1,1.7*3D
$GPRMC,161058.000,A,3352.3413,N,09831.2423,W,0.12,149.85,020412,,,D*73
$GPGGA,161059.000,3352.3413,N,09831.2423,W,2,10,1.1,289.7,M,-23.7,M,7.8,0000*4E
$GPGSA,A,3,14,22,15,27,18,19,21,09,06,03,,,2.1,1.1,1.7*3D
$GPRMC,161059.000,A,3352.3413,N,09831.2423,W,0.18,166.55,020412,,,D*78
$GPGGA,161100.000,3352.3413,N,09831.2424,W,2,10,1.1,289.6,M,-23.7,M,8.8,0000*4A
$GPGSA,A,3,14,22,15,27,18,19,21,09,06,03,,,2.1,1.1,1.7*3D
$GPRMC,161100.000,A,3352.3413,N,09831.2424,W,0.15,163.95,020412,,,D*76
$GPGGA,161101.000,3352.3413,N,09831.2424,W,2,10,1.1,289.5,M,-23.7,M,9.8,0000*49
$GPGSA,A,3,14,22,15,27,18,19,21,09,06,03,,,2.1,1.1,1.7*3D
$GPGSV,3,1,11,18,57,049,39,22,54,318,37,21,53,148,33,14,50,235,25*73
$GPGSV,3,2,11,09,37,069,40,06,26,259,25,27,23,048,28,03,20,270,13*71
$GPGSV,3,3,11,15,16,047,38,19,15,308,35,51,49,195,36*42
$GPRMC,161101.000,A,3352.3413,N,09831.2424,W,0.17,167.05,020412,,,D*78
$GPGGA,161102.000,3352.3413,N,09831.2424,W,2,10,1.1,289.4,M,-23.7,M,10.8,0000*73
$GPGSA,A,3,14,22,15,27,18,19,21,09,06,03,,,2.1,1.1,1.7*3D
$GPRMC,161102.000,A,3352.3413,N,09831.2424,W,0.16,134.92,020412,,,D*72
$GPGGA,161103.000,3352.3413,N,09831.2424,W,2,10,1.1,289.4,M,-23.7,M,11.8,0000*73
$GPGSA,A,3,14,22,15,27,18,19,21,09,06,03,,,2.1,1.1,1.7*3D
$GPRMC,161103.000,A,3352.3413,N,09831.2424,W,0.17,157.64,020412,,,D*7E
$GPGGA,161104.000,3352.3413,N,09831.2424,W,2,10,1.1,289.3,M,-23.7,M,12.8,0000*70
$GPGSA,A,3,14,22,15,27,18,19,21,09,06,03,,,2.1,1.1,1.7*3D
$GPRMC,161104.000,A,3352.3413,N,09831.2424,W,0.15,156.91,020412,,,D*70
$GPGGA,161105.000,3352.3412,N,09831.2424,W,2,10,1.1,289.2,M,-23.7,M,13.8,0000*70
$GPGSA,A,3,14,22,15,27,18,19,21,09,06,03,,,2.1,1.1,1.7*3D
$GPRMC,161105.000,A,3352.3412,N,09831.2424,W,0.13,166.81,020412,,,D*74
$GPGGA,161106.000,3352.3412,N,09831.2424,W,2,10,1.1,289.1,M,-23.7,M,14.8,0000*77
$GPGSA,A,3,14,22,15,27,18,19,21,09,06,03,,,2.1,1.1,1.7*3D
$GPGSV,3,1,11,18,57,049,39,22,54,318,37,21,53,148,33,14,50,235,25*73
$GPGSV,3,2,11,09,37,069,40,06,26,259,26,27,23,048,28,03,20,270,13*72
$GPGSV,3,3,11,15,16,047,38,19,15,308,35,51,49,195,36*42
$GPRMC,161106.000,A,3352.3412,N,09831.2424,W,0.16,173.15,020412,,,D*7B
$GPGGA,161107.000,3352.3412,N,09831.2424,W,2,10,1.1,289.0,M,-23.7,M,15.8,0000*76
$GPGSA,A,3,14,22,15,27,18,19,21,09,06,03,,,2.1,1.1,1.7*3D
$GPRMC,161107.000,A,3352.3412,N,09831.2424,W,0.17,183.01,020412,,,D*71
$GPGGA,161108.000,3352.3412,N,09831.2424,W,2,10,1.1,288.9,M,-23.7,M,16.8,0000*72
$GPGSA,A,3,14,22,15,27,18,19,21,09,06,03,,,2.1,1.1,1.7*3D
$GPRMC,161108.000,A,3352.3412,N,09831.2424,W,0.17,166.30,020412,,,D*77
$GPGGA,161109.000,3352.3412,N,09831.2424,W,2,10,1.1,288.8,M,-23.7,M,17.8,0000*73
$GPGSA,A,3,14,22,15,27,18,19,21,09,06,03,,,2.1,1.1,1.7*3D
$GPRMC,161109.000,A,3352.3412,N,09831.2424,W,0.18,176.31,020412,,,D*79
$GPGGA,161110.000,3352.3413,N,09831.2424,W,2,10,1.1,288.9,M,-23.7,M,18.8,0000*74
$GPGSA,A,3,14,22,15,27,18,19,21,09,06,03,,,2.1,1.1,1.7*3D
$GPRMC,161110.000,A,3352.3413,N,09831.2424,W,0.15,159.72,020412,,,D*77
$GPGGA,161111.000,3352.3413,N,09831.2424,W,2,10,1.1,288.9,M,-23.7,M,1.8,0000*4D
$GPGSA,A,3,14,22,15,27,18,19,21,09,06,03,,,2.1,1.1,1.7*3D
$GPGSV,3,1,11,18,57,049,39,22,54,318,37,21,53,148,33,14,50,235,26*70
$GPGSV,3,2,11,09,37,069,40,06,26,259,26,27,23,048,28,03,20,270,13*72
$GPGSV,3,3,11,15,16,047,38,19,15,308,35,51,49,195,36*42
$GPRMC,161111.000,A,3352.3413,N,09831.2424,W,0.14,155.64,020412,,,D*7C
$GPGGA,161112.000,3352.3413,N,09831.2424,W,2,10,1.1,289.0,M,-23.7,M,2.8,0000*45
$GPGSA,A,3,14,22,15,27,18,19,21,09,06,03,,,2.1,1.1,1.7*3D
$GPRMC,161112.000,A,3352.3413,N,09831.2424,W,0.17,112.41,020412,,,D*78
$GPGGA,161113.000,3352.3414,N,09831.2423,W,2,10,1.1,289.1,M,-23.7,M,3.8,0000*44
$GPGSA,A,3,14,22,15,27,18,19,21,09,06,03,,,2.1,1.1,1.7*3D
$GPRMC,161113.000,A,3352.3414,N,09831.2423,W,0.15,87.09,020412,,,D*4A
$GPGGA,161114.000,3352.3415,N,09831.2423,W,2,10,1.1,289.2,M,-23.7,M,4.8,0000*46
$GPGSA,A,3,14,22,15,27,18,19,21,09,06,03,,,2.1,1.1,1.7*3D
$GPRMC,161114.000,A,3352.3415,N,09831.2423,W,0.22,85.24,020412,,,D*45
$GPGGA,161115.000,3352.3415,N,09831.2422,W,2,10,1.1,289.3,M,-23.7,M,5.8,0000*46
$GPGSA,A,3,14,22,15,27,18,19,21,09,06,03,,,2.1,1.1,1.7*3D
$GPRMC,161115.000,A,3352.3415,N,09831.2422,W,0.15,106.66,020412,,,D*7D
$GPGGA,161116.000,3352.3416,N,09831.2422,W,2,10,1.1,289.4,M,-23.7,M,6.8,0000*42
$GPGSA,A,3,14,22,15,27,18,19,21,09,06,03,,,2.1,1.1,1.7*3D
$GPGSV,3,1,11,18,57,049,39,22,54,319,37,21,53,148,33,14,50,236,27*73
$GPGSV,3,2,11,09,37,068,40,06,26,259,27,27,23,048,28,03,20,270,13*72
$GPGSV,3,3,11,15,15,047,37,19,15,308,35,51,49,195,36*4E
$GPRMC,161116.000,A,3352.3416,N,09831.2422,W,0.13,104.22,020412,,,D*79
$GPGGA,161117.000,3352.3416,N,09831.2422,W,2,10,1.1,289.4,M,-23.7,M,7.8,0000*42
$GPGSA,A,3,14,22,15,27,18,19,21,09,06,03,,,2.1,1.1,1.7*3D
$GPRMC,161117.000,A,3352.3416,N,09831.2422,W,0.13,114.32,020412,,,D*78
$GPGGA,161118.000,3352.3416,N,09831.2422,W,2,10,1.1,289.5,M,-23.7,M,8.8,0000*43
$GPGSA,A,3,14,22,15,27,18,19,21,09,06,03,,,2.1,1.1,1.7*3D
$GPRMC,161118.000,A,3352.3416,N,09831.2422,W,0.11,154.61,020412,,,D*77
$GPGGA,161119.000,3352.3416,N,09831.2422,W,2,10,1.1,289.4,M,-23.7,M,9.8,0000*42
$GPGSA,A,3,14,22,15,27,18,19,21,09,06,03,,,2.1,1.1,1.7*3D
$GPRMC,161119.000,A,3352.3416,N,09831.2422,W,0.10,165.53,020412,,,D*74
$GPGGA,161120.000,3352.3416,N,09831.2422,W,2,10,1.1,289.4,M,-23.7,M,10.8,0000*70
$GPGSA,A,3,14,22,15,27,18,19,21,09,06,03,,,2.1,1.1,1.7*3D
$GPRMC,161120.000,A,3352.3416,N,09831.2422,W,0.11,176.12,020412,,,D*78
$GPGGA,161121.000,3352.3416,N,09831.2422,W,2,10,1.1,289.4,M,-23.7,M,11.8,0000*70
$GPGSA,A,3,14,22,15,27,18,19,21,09,06,03,,,2.1,1.1,1.7*3D
$GPGSV,3,1,11,18,57,049,39,22,54,319,37,21,53,148,33,14,50,236,27*73
$GPGSV,3,2,11,09,37,068,40,06,26,259,28,27,23,048,29,03,20,270,13*7C
$GPGSV,3,3,11,15,15,047,37,19,15,308,34,51,49,195,36*4F
$GPRMC,161121.000,A,3352.3416,N,09831.2422,W,0.14,176.38,020412,,,D*74
$GPGGA,161122.000,3352.3416,N,09831.2422,W,2,10,1.1,289.4,M,-23.7,M,12.8,0000*70
$GPGSA,A,3,14,22,15,27,18,19,21,09,06,03,,,2.1,1.1,1.7*3D
$GPRMC,161122.000,A,3352.3416,N,09831.2422,W,0.14,173.41,020412,,,D*7C
$GPGGA,161123.000,3352.3417,N,09831.2422,W,2,10,1.1,289.4,M,-23.7,M,13.8,0000*71
$GPGSA,A,3,14,22,15,27,18,19,21,09,06,03,,,2.1,1.1,1.7*3D
$GPRMC,161123.000,A,3352.3417,N,09831.2422,W,0.11,167.87,020412,,,D*76
$GPGGA,161124.000,3352.3417,N,09831.2422,W,2,10,1.1,289.3,M,-23.7,M,14.8,0000*76
$GPGSA,A,3,14,22,15,27,18,19,21,09,06,03,,,2.1,1.1,1.7*3D
$GPRMC,161124.000,A,3352.3417,N,09831.2422,W,0.16,169.59,020412,,,D*7B
$GPGGA,161125.000,3352.3417,N,09831.2422,W,2,10,1.1,289.3,M,-23.7,M,15.8,0000*76
$GPGSA,A,3,14,22,15,27,18,19,21,09,06,03,,,2.1,1.1,1.7*3D
$GPRMC,161125.000,A,3352.3417,N,09831.2422,W,0.12,165.52,020412,,,D*79
$GPGGA,161126.000,3352.3417,N,09831.2422,W,2,10,1.1,289.4,M,-23.7,M,16.8,0000*71
$GPGSA,A,3,14,22,15,27,18,19,21,09,06,03,,,2.1,1.1,1.7*3D
$GPGSV,3,1,11,18,57,049,39,22,54,319,37,21,53,148,33,14,50,236,28*7C
$GPGSV,3,2,11,09,37,068,40,06,26,259,29,27,23,048,29,03,20,270,15*7B
$GPGSV,3,3,11,15,15,047,37,19,15,308,34,51,49,195,36*4F
$GPRMC,161126.000,A,3352.3417,N,09831.2422,W,0.16,141.70,020412,,,D*78
$GPGGA,161127.000,3352.3417,N,09831.2422,W,2,10,1.1,289.4,M,-23.7,M,17.8,0000*71
$GPGSA,A,3,14,22,15,27,18,19,21,09,06,03,,,2.1,1.1,1.7*3D
$GPRMC,161127.000,A,3352.3417,N,09831.2422,W,0.13,162.75,020412,,,D*78
$GPGGA,161128.000,3352.3417,N,09831.2422,W,1,10,1.1,289.4,M,-23.7,M,18.8,0000*72
$GPGSA,A,3,14,22,15,27,18,19,21,09,06,03,,,2.1,1.1,1.7*3D
$GPRMC,161128.000,A,3352.3417,N,09831.2422,W,0.13,168.36,020412,,,A*7F
$GPGGA,161129.000,3352.3417,N,09831.2422,W,1,10,1.1,289.3,M,-23.7,M,18.8,0000*74
$GPGSA,A,3,14,22,15,27,18,19,21,09,06,03,,,2.1,1.1,1.7*3D
$GPRMC,161129.000,A,3352.3417,N,09831.2422,W,0.14,164.24,020412,,,A*76
$GPGGA,161130.000,3352.3416,N,09831.2421,W,1,10,1.1,289.2,M,-23.7,M,18.8,0000*7F
$GPGSA,A,3,14,22,15,27,18,19,21,09,06,03,,,2.1,1.1,1.7*3D
$GPRMC,161130.000,A,3352.3416,N,09831.2421,W,0.15,160.69,020412,,,A*70
$GPGGA,161131.000,3352.3416,N,09831.2422,W,1,10,1.1,289.1,M,-23.7,M,18.8,0000*7E
$GPGSA,A,3,14,22,15,27,18,19,21,09,06,03,,,2.1,1.1,1.7*3D
$GPGSV,3,1,11,18,57,049,39,22,54,319,37,21,53,148,33,14,50,236,28*7C
$GPGSV,3,2,11,09,37,068,40,06,26,259,29,27,23,048,29,03,20,270,16*78
$GPGSV,3,3,11,15,15,047,37,19,15,308,34,51,49,195,36*4F
$GPRMC,161131.000,A,3352.3416,N,09831.2422,W,0.13,177.45,020412,,,A*7C
$GPGGA,161132.000,3352.3416,N,09831.2421,W,1,10,1.1,289.1,M,-23.7,M,18.8,0000*7E
$GPGSA,A,3,14,22,15,27,18,19,21,09,06,03,,,2.1,1.1,1.7*3D
$GPRMC,161132.000,A,3352.3416,N,09831.2421,W,0.14,170.48,020412,,,A*71
$GPGGA,161133.000,3352.3416,N,09831.2421,W,1,10,1.1,289.0,M,-23.7,M,18.8,0000*7E
$GPGSA,A,3,14,22,15,27,18,19,21,09,06,03,,,2.1,1.1,1.7*3D
$GPRMC,161133.000,A,3352.3416,N,09831.2421,W,0.16,132.18,020412,,,A*71
$GPGGA,161134.000,3352.3418,N,09831.2422,W,2,10,1.1,289.3,M,-23.7,M,0.8,0000*4D
$GPGSA,A,3,14,22,15,27,18,19,21,09,06,03,,,2.1,1.1,1.7*3D
$GPRMC,161134.000,A,3352.3418,N,09831.2422,W,0.15,123.57,020412,,,D*76
$GPGGA,161135.000,3352.3418,N,09831.2421,W,2,10,1.1,289.4,M,-23.7,M,1.8,0000*49
$GPGSA,A,3,14,22,15,27,18,19,21,09,06,03,,,2.1,1.1,1.7*3D
$GPRMC,161135.000,A,3352.3418,N,09831.2421,W,0.15,113.54,020412,,,D*74
$GPGGA,161136.000,3352.3418,N,09831.2421,W,2,10,1.1,289.4,M,-23.7,M,2.8,0000*49
$GPGSA,A,3,14,22,15,27,18,19,21,09,06,03,,,2.1,1.1,1.7*3D
$GPGSV,3,1,11,18,57,049,38,22,54,319,37,21,53,148,33,14,50,236,28*7D
$GPGSV,3,2,11,09,37,068,40,06,26,259,30,27,23,048,30,03,20,270,16*78
$GPGSV,3,3,11,15,15,047,37,19,15,308,34,51,49,195,36*4F
$GPRMC,161136.000,A,3352.3418,N,09831.2421,W,0.14,130.62,020412,,,D*72
$GPGGA,161137.000,3352.3418,N,09831.2421,W,2,10,1.1,289.5,M,-23.7,M,3.8,0000*48
$GPGSA,A,3,14,22,15,27,18,19,21,09,06,03,,,2.1,1.1,1.7*3D
$GPRMC,161137.000,A,3352.3418,N,09831.2421,W,0.12,129.96,020412,,,D*76
$GPGGA,161138.000,3352.3418,N,09831.2421,W,2,10,1.1,289.6,M,-23.7,M,4.8,0000*43
$GPGSA,A,3,14,22,15,27,18,19,21,09,06,03,,,2.1,1.1,1.7*3D
$GPRMC,161138.000,A,3352.3418,N,09831.2421,W,0.14,117.50,020412,,,D*78
$GPGGA,161139.000,3352.3419,N,09831.2421,W,2,10,1.1,289.6,M,-23.7,M,5.8,0000*42
$GPGSA,A,3,14,22,15,27,18,19,21,09,06,03,,,2.1,1.1,1.7*3D
$GPRMC,161139.000,A,3352.3419,N,09831.2421,W,0.10,154.75,020412,,,D*7C
$GPGGA,161140.000,3352.3419,N,09831.2421,W,2,10,1.1,289.7,M,-23.7,M,6.8,0000*4E
$GPGSA,A,3,14,22,15,27,18,19,21,09,06,03,,,2.1,1.1,1.7*3D
$GPRMC,161140.000,A,3352.3419,N,09831.2421,W,0.11,118.50,020412,,,D*7C
$GPGGA,161141.000,3352.3419,N,09831.2420,W,2,10,1.1,289.8,M,-23.7,M,7.8,0000*40
$GPGSA,A,3,14,22,15,27,18,19,21,09,06,03,,,2.1,1.1,1.7*3D
$GPGSV,3,1,11,18,57,049,38,22,54,319,37,21,53,148,33,14,50,236,29*7C
$GPGSV,3,2,11,09,37,068,40,06,26,259,30,27,23,048,30,03,20,270,17*79
$GPGSV,3,3,11,15,15,047,37,19,15,308,34,51,49,195,36*4F
$GPRMC,161141.000,A,3352.3419,N,09831.2420,W,0.14,116.92,020412,,,D*79
$GPGGA,161142.000,3352.3419,N,09831.2420,W,2,10,1.1,289.8,M,-23.7,M,8.8,0000*4C
$GPGSA,A,3,14,22,15,27,18,19,21,09,06,03,,,2.1,1.1,1.7*3D
$GPRMC,161142.000,A,3352.3419,N,09831.2420,W,0.15,120.36,020412,,,D*70
$GPGGA,161143.000,3352.3419,N,09831.2420,W,2,10,1.1,289.8,M,-23.7,M,9.8,0000*4C
$GPGSA,A,3,14,22,15,27,18,19,21,09,06,03,,,2.1,1.1,1.7*3D
$GPRMC,161143.000,A,3352.3419,N,09831.2420,W,0.08,145.40,020412,,,D*7F
$GPGGA,161144.000,3352.3419,N,09831.2420,W,2,10,1.1,289.9,M,-23.7,M,10.8,0000*72
$GPGSA,A,3,14,22,15,27,18,19,21,09,06,03,,,2.1,1.1,1.7*3D
$GPRMC,161144.000,A,3352.3419,N,09831.2420,W,0.14,120.26,020412,,,D*76
$GPGGA,161145.000,3352.3419,N,09831.2420,W,2,10,1.1,289.9,M,-23.7,M,11.8,0000*72
$GPGSA,A,3,14,22,15,27,18,19,21,09,06,03,,,2.1,1.1,1.7*3D
$GPRMC,161145.000,A,3352.3419,N,09831.2420,W,0.09,159.16,020412,,,D*76
$GPGGA,161146.000,3352.3419,N,09831.2420,W,2,10,1.1,289.9,M,-23.7,M,0.8,0000*41
$GPGSA,A,3,14,22,15,27,18,19,21,09,06,03,,,2.1,1.1,1.7*3D
$GPGSV,3,1,11,18,57,049,38,22,54,319,37,21,53,148,33,14,50,236,29*7C
$GPGSV,3,2,11,09,37,068,40,06,26,259,30,27,23,048,31,03,20,270,18*77
$GPGSV,3,3,11,15,15,047,37,19,15,308,34,51,49,195,36*4F
$GPRMC,161146.000,A,3352.3419,N,09831.2420,W,0.13,113.42,020412,,,D*71
$GPGGA,161147.000,3352.3419,N,09831.2420,W,2,10,1.1,289.9,M,-23.7,M,1.8,0000*41
$GPGSA,A,3,14,22,15,27,18,19,21,09,06,03,,,2.1,1.1,1.7*3D
$GPRMC,161147.000,A,3352.3419,N,09831.2420,W,0.11,160.08,020412,,,D*78
$GPGGA,161148.000,3352.3419,N,09831.2420,W,2,10,1.1,289.9,M,-23.7,M,2.8,0000*4D
$GPGSA,A,3,14,22,15,27,18,19,21,09,06,03,,,2.1,1.1,1.7*3D
$GPRMC,161148.000,A,3352.3419,N,09831.2420,W,0.11,168.80,020412,,,D*7F
$GPGGA,161149.000,3352.3419,N,09831.2420,W,2,10,1.1,289.9,M,-23.7,M,3.8,0000*4D
$GPGSA,A,3,14,22,15,27,18,19,21,09,06,03,,,2.1,1.1,1.7*3D
$GPRMC,161149.000,A,3352.3419,N,09831.2420,W,0.14,117.10,020412,,,D*7A
$GPGGA,161150.000,3352.3419,N,09831.2420,W,2,10,1.1,289.9,M,-23.7,M,4.8,0000*42
$GPGSA,A,3,14,22,15,27,18,19,21,09,06,03,,,2.1,1.1,1.7*3D
$GPRMC,161150.000,A,3352.3419,N,09831.2420,W,0.11,169.16,020412,,,D*78
$GPGGA,161151.000,3352.3419,N,09831.2420,W,2,10,1.1,289.9,M,-23.7,M,5.8,0000*42
$GPGSA,A,3,14,22,15,27,18,19,21,09,06,03,,,2.1,1.1,1.7*3D
$GPGSV,3,1,11,18,57,049,38,22,54,319,37,21,53,148,33,14,50,236,29*7C
$GPGSV,3,2,11,09,37,068,40,06,26,259,30,27,23,048,31,03,20,270,19*76
$GPGSV,3,3,11,15,15,047,37,19,15,308,34,51,49,195,36*4F
$GPRMC,161151.000,A,3352.3419,N,09831.2420,W,0.10,172.03,020412,,,D*76
$GPGGA,161152.000,3352.3419,N,09831.2420,W,2,10,1.1,289.9,M,-23.7,M,0.8,0000*44
$GPGSA,A,3,14,22,15,27,18,19,21,09,06,03,,,2.1,1.1,1.7*3D
$GPRMC,161152.000,A,3352.3419,N,09831.2420,W,0.12,155.36,020412,,,D*74
$GPGGA,161153.000,3352.3419,N,09831.2421,W,2,10,1.1,290.0,M,-23.7,M,0.8,0000*45
$GPGSA,A,3,14,22,15,27,18,19,21,09,06,03,,,2.1,1.1,1.7*3D
$GPRMC,161153.000,A,3352.3419,N,09831.2421,W,0.14,147.10,020412,,,D*75
$GPGGA,161154.000,3352.3419,N,09831.2421,W,2,10,1.1,290.0,M,-23.7,M,1.8,0000*43
$GPGSA,A,3,14,22,15,27,18,19,21,09,06,03,,,2.1,1.1,1.7*3D
$GPRMC,161154.000,A,3352.3419,N,09831.2421,W,0.13,169.05,020412,,,D*7D
$GPGGA,161155.000,3352.3419,N,09831.2422,W,2,10,1.1,290.1,M,-23.7,M,2.8,0000*43
$GPGSA,A,3,14,22,15,27,18,19,21,09,06,03,,,2.1,1.1,1.7*3D
$GPRMC,161155.000,A,3352.3419,N,09831.2422,W,0.12,162.43,020412,,,D*77
$GPGGA,161156.000,3352.3419,N,09831.2422,W,2,10,1.1,290.2,M,-23.7,M,3.8,0000*42
$GPGSA,A,3,14,22,15,27,18,19,21,09,06,03,,,2.1,1.1,1.7*3D
$GPGSV,3,1,11,18,57,049,38,22,54,319,37,21,53,148,33,14,50,236,29*7C
$GPGSV,3,2,11,09,37,068,40,06,26,259,30,27,23,048,31,03,20,270,20*7C
$GPGSV,3,3,11,15,15,047,37,19,15,308,34,51,49,195,36*4F
$GPRMC,161156.000,A,3352.3419,N,09831.2422,W,0.14,132.75,020412,,,D*72
$GPGGA,161157.000,3352.3419,N,09831.2422,W,2,10,1.1,290.3,M,-23.7,M,4.8,0000*45
$GPGSA,A,3,14,22,15,27,18,19,21,09,06,03,,,2.0,1.1,1.7*3C
$GPRMC,161157.000,A,3352.3419,N,09831.2422,W,0.12,158.80,020412,,,D*73
$GPGGA,161158.000,3352.3419,N,09831.2423,W,2,10,1.1,290.4,M,-23.7,M,5.8,0000*4D
$GPGSA,A,3,14,22,15,27,18,19,21,09,06,03,,,2.0,1.1,1.7*3C
$GPRMC,161158.000,A,3352.3419,N,09831.2423,W,0.12,167.35,020412,,,D*7F
$GPGGA,161159.000,3352.3419,N,09831.2423,W,2,10,1.1,290.5,M,-23.7,M,6.8,0000*4E
$GPGSA,A,3,14,22,15,27,18,19,21,09,06,03,,,2.0,1.1,1.7*3C
$GPRMC,161159.000,A,3352.3419,N,09831.2423,W,0.16,131.28,020412,,,D*75
$GPGGA,161200.000,3352.3419,N,09831.2423,W,2,10,1.1,290.6,M,-23.7,M,7.8,0000*43
$GPGSA,A,3,14,22,15,27,18,19,21,09,06,03,,,2.0,1.1,1.7*3C
$GPRMC,161200.000,A,3352.3419,N,09831.2423,W,0.10,172.94,020412,,,D*7C
$GPGGA,161201.000,3352.3419,N,09831.2424,W,2,10,1.1,290.7,M,-23.7,M,8.8,0000*4B
$GPGSA,A,3,14,22,15,27,18,19,21,09,06,03,,,2.0,1.1,1.7*3C
$GPGSV,3,1,11,18,57,049,38,22,54,319,37,21,53,148,33,14,50,236,29*7C
$GPGSV,3,2,11,09,37,068,40,06,26,259,30,27,23,048,32,03,20,270,20*7F
$GPGSV,3,3,11,15,15,047,37,19,15,308,34,51,49,195,36*4F
$GPRMC,161201.000,A,3352.3419,N,09831.2424,W,0.15,126.94,020412,,,D*7E
$GPGGA,161202.000,3352.3419,N,09831.2424,W,2,10,1.1,290.8,M,-23.7,M,9.8,0000*46
$GPGSA,A,3,14,22,15,27,18,19,21,09,06,03,,,2.0,1.1,1.7*3C
$GPRMC,161202.000,A,3352.3419,N,09831.2424,W,0.16,117.88,020412,,,D*71
$GPGGA,161203.000,3352.3419,N,09831.2424,W,2,10,1.1,291.0,M,-23.7,M,10.8,0000*76
$GPGSA,A,3,14,22,15,27,18,19,21,09,06,03,,,2.0,1.1,1.7*3C
$GPRMC,161203.000,A,3352.3419,N,09831.2424,W,0.12,122.54,020412,,,D*73
$GPGGA,161204.000,3352.3419,N,09831.2424,W,2,10,1.1,291.1,M,-23.7,M,11.8,0000*71
$GPGSA,A,3,14,22,15,27,18,19,21,09,06,03,,,2.0,1.1,1.7*3C
$GPRMC,161204.000,A,3352.3419,N,09831.2424,W,0.12,135.69,020412,,,D*7C
$GPGGA,161205.000,3352.3419,N,09831.2424,W,2,10,1.1,291.2,M,-23.7,M,12.8,0000*70
$GPGSA,A,3,14,22,15,27,18,19,21,09,06,03,,,2.0,1.1,1.7*3C
$GPRMC,161205.000,A,3352.3419,N,09831.2424,W,0.14,120.78,020412,,,D*7F
$GPGGA,161206.000,3352.3419,N,09831.2425,W,2,10,1.1,291.3,M,-23.7,M,13.8,0000*72
$GPGSA,A,3,14,22,15,27,18,19,21,09,06,03,,,2.0,1.1,1.7*3C
$GPGSV,3,1,11,18,57,049,38,22,54,319,37,21,53,148,34,14,50,236,29*7B
$GPGSV,3,2,11,09,37,068,40,06,26,259,30,27,23,048,32,03,20,270,21*7E
$GPGSV,3,3,11,15,15,047,37,19,15,308,33,51,49,195,36*48
$GPRMC,161206.000,A,3352.3419,N,09831.2425,W,0.09,142.76,020412,,,D*7B
$GPGGA,161207.000,3352.3419,N,09831.2425,W,2,10,1.1,291.3,M,-23.7,M,14.8,0000*74
$GPGSA,A,3,14,22,15,27,18,19,21,09,06,03,,,2.0,1.1,1.7*3C
$GPRMC,161207.000,A,3352.3419,N,09831.2425,W,0.10,157.14,020412,,,D*72
$GPGGA,161208.000,3352.3419,N,09831.2425,W,2,10,1.1,291.3,M,-23.7,M,15.8,0000*7A
$GPGSA,A,3,14,22,15,27,18,19,21,09,06,03,,,2.0,1.1,1.7*3C
$GPRMC,161208.000,A,3352.3419,N,09831.2425,W,0.11,169.36,020412,,,D*71
$GPGGA,161209.000,3352.3419,N,09831.2425,W,2,10,1.1,291.3,M,-23.7,M,0.8,0000*4F
$GPGSA,A,3,14,22,15,27,18,19,21,09,06,03,,,2.0,1.1,1.7*3C
$GPRMC,161209.000,A,3352.3419,N,09831.2425,W,0.16,126.03,020412,,,D*7A
$GPGGA,161210.000,3352.3418,N,09831.2425,W,2,10,1.1,291.3,M,-23.7,M,1.8,0000*47
$GPGSA,A,3,14,22,15,27,18,19,21,09,06,03,,,2.0,1.1,1.7*3C
$GPRMC,161210.000,A,3352.3418,N,09831.2425,W,0.10,168.82,020412,,,D*76
$GPGGA,161211.000,3352.3418,N,09831.2426,W,2,10,1.1,291.3,M,-23.7,M,2.8,0000*46
$GPGSA,A,3,14,22,15,27,18,19,21,09,06,03,,,2.0,1.1,1.7*3C
$GPGSV,3,1,11,18,57,049,38,22,54,319,37,21,53,148,34,14,50,236,29*7B
$GPGSV,3,2,11,09,37,068,40,06,26,259,30,27,23,048,32,03,20,270,21*7E
$GPGSV,3,3,11,15,15,047,36,19,15,308,33,51,49,195,36*49
$GPRMC,161211.000,A,3352.3418,N,09831.2426,W,0.13,170.79,020412,,,D*7A
$GPGGA,161212.000,3352.3418,N,09831.2426,W,2,10,1.1,291.3,M,-23.7,M,3.8,0000*44
$GPGSA,A,3,14,22,15,27,18,19,21,09,06,03,,,2.0,1.1,1.7*3C
$GPRMC,161212.000,A,3352.3418,N,09831.2426,W,0.12,134.58,020412,,,D*7B
$GPGGA,161213.000,3352.3418,N,09831.2426,W,2,10,1.1,291.4,M,-23.7,M,4.8,0000*45
$GPGSA,A,3,14,22,15,27,18,19,21,09,06,03,,,2.0,1.1,1.7*3C
$GPRMC,161213.000,A,3352.3418,N,09831.2426,W,0.12,143.59,020412,,,D*7B
$GPGGA,161214.000,3352.3418,N,09831.2426,W,2,10,1.1,291.4,M,-23.7,M,5.8,0000*43
$GPGSA,A,3,14,22,15,27,18,19,21,09,06,03,,,2.0,1.1,1.7*3C
$GPRMC,161214.000,A,3352.3418,N,09831.2426,W,0.11,152.88,020412,,,D*73
$GPGGA,161215.000,3352.3417,N,09831.2426,W,2,10,1.1,291.4,M,-23.7,M,6.8,0000*4E
$GPGSA,A,3,14,22,15,27,18,19,21,09,06,03,,,2.0,1.1,1.7*3C
$GPRMC,161215.000,A,3352.3417,N,09831.2426,W,0.13,135.96,020412,,,D*71
$GPGGA,161216.000,3352.3417,N,09831.2426,W,2,10,1.1,291.4,M,-23.7,M,7.8,0000*4C
$GPGSA,A,3,14,22,15,27,18,19,21,09,06,03,,,2.0,1.1,1.7*3C
$GPGSV,3,1,11,18,57,049,38,22,54,319,36,21,53,148,34,14,50,236,29*7A
$GPGSV,3,2,11,09,37,068,40,06,26,259,30,27,23,048,33,03,20,270,21*7F
$GPGSV,3,3,11,15,15,047,36,19,15,308,32,51,49,195,36*48
$GPRMC,161216.000,A,3352.3417,N,09831.2426,W,0.11,164.03,020412,,,D*78
$GPGGA,161217.000,3352.3417,N,09831.2426,W,2,10,1.1,291.5,M,-23.7,M,8.8,0000*43
$GPGSA,A,3,14,22,15,27,18,19,21,09,06,03,,,2.0,1.1,1.7*3C
$GPRMC,161217.000,A,3352.3417,N,09831.2426,W,0.14,122.01,020412,,,D*7C
$GPGGA,161218.000,3352.3417,N,09831.2426,W,2,10,1.1,291.5,M,-23.7,M,9.8,0000*4D
$GPGSA,A,3,14,22,15,27,18,19,21,09,06,03,,,2.0,1.1,1.7*3C
$GPRMC,161218.000,A,3352.3417,N,09831.2426,W,0.15,124.00,020412,,,D*75
$GPGGA,161219.000,3352.3417,N,09831.2426,W,2,10,1.1,291.6,M,-23.7,M,10.8,0000*77
$GPGSA,A,3,14,22,15,27,18,19,21,09,06,03,,,2.0,1.1,1.7*3C
$GPRMC,161219.000,A,3352.3417,N,09831.2426,W,0.14,106.18,020412,,,D*7C
$GPGGA,161220.000,3352.3417,N,09831.2426,W,2,10,1.1,291.7,M,-23.7,M,11.8,0000*7D
$GPGSA,A,3,14,22,15,27,18,19,21,09,06,03,,,2.0,1.1,1.7*3C
$GPRMC,161220.000,A,3352.3417,N,09831.2426,W,0.09,161.87,020412,,,D*7D
$GPGGA,161221.000,3352.3417,N,09831.2426,W,2,10,1.1,291.6,M,-23.7,M,12.8,0000*7E
$GPGSA,A,3,14,22,15,27,18,19,21,09,06,03,,,2.0,1.1,1.7*3C
$GPGSV,3,1,11,18,57,049,38,22,54,319,36,21,53,148,34,14,50,236,29*7A
$GPGSV,3,2,11,09,37,068,40,06,26,259,30,27,23,048,33,03,20,270,21*7F
$GPGSV,3,3,11,15,15,047,36,19,15,308,31,51,49,195,36*4B
$GPRMC,161221.000,A,3352.3417,N,09831.2426,W,0.10,161.14,020412,,,D*7E
$GPGGA,161222.000,3352.3417,N,09831.2426,W,2,10,1.1,291.7,M,-23.7,M,13.8,0000*7D
$GPGSA,A,3,14,22,15,27,18,19,21,09,06,03,,,2.0,1.1,1.7*3C
$GPRMC,161222.000,A,3352.3417,N,09831.2426,W,0.11,140.38,020412,,,D*71
$GPGGA,161223.000,3352.3417,N,09831.2426,W,2,10,1.1,291.7,M,-23.7,M,14.8,0000*7B
$GPGSA,A,3,14,22,15,27,18,19,21,09,06,03,,,2.0,1.1,1.7*3C
$GPRMC,161223.000,A,3352.3417,N,09831.2426,W,0.11,136.93,020412,,,D*70
$GPGGA,161224.000,3352.3417,N,09831.2426,W,2,10,1.1,291.8,M,-23.7,M,15.8,0000*72
$GPGSA,A,3,14,22,15,27,18,19,21,09,06,03,,,2.0,1.1,1.7*3C
$GPRMC,161224.000,A,3352.3417,N,09831.2426,W,0.16,111.25,020412,,,D*78
$GPGGA,161225.000,3352.3418,N,09831.2426,W,2,10,1.1,291.9,M,-23.7,M,16.8,0000*7E
$GPGSA,A,3,14,22,15,27,18,19,21,09,06,03,,,2.0,1.1,1.7*3C
$GPRMC,161225.000,A,3352.3418,N,09831.2426,W,0.13,110.56,020412,,,D*76
$GPGGA,161226.000,3352.3418,N,09831.2426,W,2,10,1.1,292.0,M,-23.7,M,17.8,0000*76
$GPGSA,A,3,14,22,15,27,18,19,21,09,06,03,,,2.0,1.1,1.7*3C
$GPGSV,3,1,11,18,57,049,37,22,54,319,36,21,53,148,34,14,50,236,29*75
$GPGSV,3,2,11,09,37,068,40,06,26,259,30,27,23,048,33,03,20,270,21*7F
$GPGSV,3,3,11,15,15,047,36,19,15,308,31,51,49,195,36*4B
$GPRMC,161226.000,A,3352.3418,N,09831.2426,W,0.10,151.92,020412,,,D*7B
$GPGGA,161227.000,3352.3418,N,09831.2426,W,2,10,1.1,291.9,M,-23.7,M,18.8,0000*72
$GPGSA,A,3,14,22,15,27,18,19,21,09,06,03,,,2.0,1.1,1.7*3C
$GPRMC,161227.000,A,3352.3418,N,09831.2426,W,0.08,162.01,020412,,,D*79
$GPGGA,161228.000,3352.3418,N,09831.2425,W,2,10,1.1,291.9,M,-23.7,M,2.8,0000*45
$GPGSA,A,3,14,22,15,27,18,19,21,09,06,03,,,2.0,1.1,1.7*3C
$GPRMC,161228.000,A,3352.3418,N,09831.2425,W,0.12,131.52,020412,,,D*7E
$GPGGA,161229.000,3352.3418,N,09831.2425,W,2,10,1.1,291.9,M,-23.7,M,3.8,0000*45
$GPGSA,A,3,14,22,15,27,18,19,21,09,06,03,,,2.0,1.1,1.7*3C
$GPRMC,161229.000,A,3352.3418,N,09831.2425,W,0.15,121.29,020412,,,D*75
$GPGGA,161230.000,3352.3418,N,09831.2424,W,2,10,1.1,291.9,M,-23.7,M,4.8,0000*4B
$GPGSA,A,3,14,22,15,27,18,19,21,09,06,03,,,2.0,1.1,1.7*3C
$GPRMC,161230.000,A,3352.3418,N,09831.2424,W,0.10,117.50,020412,,,D*72
$GPGGA,161231.000,3352.3418,N,09831.2424,W,2,10,1.1,291.8,M,-23.7,M,5.8,0000*4A
$GPGSA,A,3,14,22,15,27,18,19,21,09,06,03,,,2.0,1.1,1.7*3C
$GPGSV,3,1,11,18,57,049,37,22,54,319,36,21,53,148,34,14,50,236,29*75
$GPGSV,3,2,11,09,37,068,40,06,26,259,31,27,23,048,33,03,20,270,21*7E
$GPGSV,3,3,11,15,15,047,36,19,15,308,30,51,49,195,36*4A
$GPRMC,161231.000,A,3352.3418,N,09831.2424,W,0.12,120.76,020412,,,D*71
$GPGGA,161232.000,3352.3418,N,09831.2424,W,2,10,1.1,291.8,M,-23.7,M,6.8,0000*4A
$GPGSA,A,3,14,22,15,27,18,19,21,09,06,03,,,2.0,1.1,1.7*3C
$GPRMC,161232.000,A,3352.3418,N,09831.2424,W,0.12,123.98,020412,,,D*71
$GPGGA,161233.000,3352.3419,N,09831.2423,W,2,10,1.1,291.8,M,-23.7,M,7.8,0000*4C
$GPGSA,A,3,14,22,15,27,18,19,21,09,06,03,,,2.0,1.1,1.7*3C
$GPRMC,161233.000,A,3352.3419,N,09831.2423,W,0.12,116.06,020412,,,D*77
$GPGGA,161234.000,3352.3419,N,09831.2423,W,2,10,1.1,291.8,M,-23.7,M,8.8,0000*44
$GPGSA,A,3,14,22,15,27,18,19,21,09,06,03,,,2.0,1.1,1.7*3C
$GPRMC,161234.000,A,3352.3419,N,09831.2423,W,0.15,116.15,020412,,,D*75
$GPGGA,161235.000,3352.3419,N,09831.2422,W,2,10,1.1,291.8,M,-23.7,M,9.8,0000*45
$GPGSA,A,3,14,22,15,27,18,19,21,09,06,03,,,2.0,1.1,1.7*3C
$GPRMC,161235.000,A,3352.3419,N,09831.2422,W,0.13,109.02,020412,,,D*7B
$GPGGA,161236.000,3352.3419,N,09831.2422,W,2,10,1.1,291.9,M,-23.7,M,10.8,0000*7F
$GPGSA,A,3,14,22,15,27,18,19,21,09,06,03,,,2.0,1.1,1.7*3C
$GPGSV,3,1,11,18,57,049,37,22,54,319,36,21,53,148,34,14,50,236,29*75
$GPGSV,3,2,11,09,37,068,40,06,26,259,31,27,23,048,33,03,20,270,21*7E
$GPGSV,3,3,11,15,15,047,36,19,15,308,30,51,49,195,36*4A
$GPRMC,161236.000,A,3352.3419,N,09831.2422,W,0.13,120.40,020412,,,D*75
$GPGGA,161237.000,3352.3419,N,09831.2422,W,2,10,1.1,291.9,M,-23.7,M,11.8,0000*7F
$GPGSA,A,3,14,22,15,27,18,19,21,09,06,03,,,2.0,1.1,1.7*3C
$GPRMC,161237.000,A,3352.3419,N,09831.2422,W,0.13,111.27,020412,,,D*77
$GPGGA,161238.000,3352.3420,N,09831.2421,W,2,10,1.1,291.9,M,-23.7,M,12.8,0000*7A
$GPGSA,A,3,14,22,15,27,18,19,21,09,06,03,,,2.0,1.1,1.7*3C
$GPRMC,161238.000,A,3352.3420,N,09831.2421,W,0.14,110.72,020412,,,D*77
$GPGGA,161239.000,3352.3420,N,09831.2421,W,2,10,1.1,291.9,M,-23.7,M,0.8,0000*48
$GPGSA,A,3,14,22,15,27,18,19,21,09,06,03,,,2.0,1.1,1.7*3C
$GPRMC,161239.000,A,3352.3420,N,09831.2421,W,0.09,130.80,020412,,,D*75
$GPGGA,161240.000,3352.3420,N,09831.2420,W,2,10,1.1,291.7,M,-23.7,M,0.8,0000*49
$GPGSA,A,3,14,22,15,27,18,19,21,09,06,03,,,2.0,1.1,1.7*3C
$GPRMC,161240.000,A,3352.3420,N,09831.2420,W,0.10,126.34,020412,,,D*7A
$GPGGA,161241.000,3352.3421,N,09831.2420,W,2,10,1.1,291.6,M,-23.7,M,1.8,0000*49
$GPGSA,A,3,14,22,15,27,18,19,21,09,06,03,,,2.0,1.1,1.7*3C
$GPGSV,3,1,11,18,57,049,37,22,54,319,36,21,53,148,34,14,50,236,29*75
$GPGSV,3,2,11,09,37,068,40,06,26,259,31,27,23,048,33,03,20,270,22*7D
$GPGSV,3,3,11,15,15,047,36,19,15,308,29,51,49,195,36*42
$GPRMC,161241.000,A,3352.3421,N,09831.2420,W,0.09,119.81,020412,,,D*70
$GPGGA,161242.000,3352.3421,N,09831.2420,W,2,10,1.1,291.3,M,-23.7,M,2.8,0000*4C
$GPGSA,A,3,14,22,15,27,18,19,21,09,06,03,,,2.0,1.1,1.7*3C
$GPRMC,161242.000,A,3352.3421,N,09831.2420,W,0.10,159.32,020412,,,D*77
$GPGGA,161243.000,3352.3421,N,09831.2420,W,2,10,1.1,291.1,M,-23.7,M,3.8,0000*4E
$GPGSA,A,3,14,22,15,27,18,19,21,09,06,03,,,2.0,1.1,1.7*3C
$GPRMC,161243.000,A,3352.3421,N,09831.2420,W,0.09,169.32,020412,,,D*7D
$GPGGA,161244.000,3352.3421,N,09831.2420,W,2,10,1.1,291.0,M,-23.7,M,0.8,0000*4B
$GPGSA,A,3,14,22,15,27,18,19,21,09,06,03,,,2.0,1.1,1.7*3C
$GPRMC,161244.000,A,3352.3421,N,09831.2420,W,0.12,127.88,020412,,,D*7B
$GPGGA,161245.000,3352.3422,N,09831.2419,W,2,10,1.1,290.9,M,-23.7,M,0.8,0000*4B
$GPGSA,A,3,14,22,15,27,18,19,21,09,06,03,,,2.0,1.1,1.7*3C
$GPRMC,161245.000,A,3352.3422,N,09831.2419,W,0.11,129.21,020412,,,D*7D
$GPGGA,161246.000,3352.3422,N,09831.2419,W,2,10,1.1,290.7,M,-23.7,M,0.8,0000*46
$GPGSA,A,3,14,22,15,27,18,19,21,09,06,03,,,2.0,1.1,1.7*3C
$GPGSV,3,1,11,18,57,050,37,22,55,319,36,21,52,148,35,14,51,236,29*7D
$GPGSV,3,2,11,09,37,068,40,06,25,258,30,27,22,047,33,03,20,269,22*78
$GPGSV,3,3,11,19,16,308,29,15,15,048,36,51,49,195,36*4E
$GPRMC,161246.000,A,3352.3422,N,09831.2419,W,0.09,162.76,020412,,,D*7A
$GPGGA,161247.000,3352.3422,N,09831.2419,W,2,10,1.1,290.7,M,-23.7,M,0.8,0000*47
$GPGSA,A,3,14,22,15,27,18,19,21,09,06,03,,,2.0,1.1,1.7*3C
$GPRMC,161247.000,A,3352.3422,N,09831.2419,W,0.11,153.97,020412,,,D*7F
$GPGGA,161248.000,3352.3422,N,09831.2420,W,2,10,1.1,290.6,M,-23.7,M,1.8,0000*42
$GPGSA,A,3,14,22,15,27,18,19,21,09,06,03,,,2.0,1.1,1.7*3C
