$GPGGA,204722.000,3352.8226,N,09831.7217,W,2,10,0.8,299.1,M,-23.7,M,0.8,0000*42
$GPGSA,A,3,30,23,22,16,32,25,20,01,31,14,,,1.5,0.8,1.2*3A
$GPRMC,204722.000,A,3352.8226,N,09831.7217,W,0.22,71.20,300312,,,D*46
$GPGGA,204723.000,3352.8226,N,09831.7218,W,2,10,0.8,299.6,M,-23.7,M,0.8,0000*4B
$GPGSA,A,3,30,23,22,16,32,25,20,01,31,14,,,1.5,0.8,1.2*3A
$GPRMC,204723.000,A,3352.8226,N,09831.7218,W,0.03,142.94,300312,,,D*75
$GPGGA,204724.000,3352.8225,N,09831.7220,W,2,10,0.8,300.1,M,-23.7,M,0.8,0000*42
$GPGSA,A,3,30,23,22,16,32,25,20,01,31,14,,,1.5,0.8,1.2*3A
$GPRMC,204724.000,A,3352.8225,N,09831.7220,W,0.01,111.51,300312,,,D*77
$GPGGA,204725.000,3352.8224,N,09831.7221,W,2,10,0.8,300.5,M,-23.7,M,1.8,0000*46
$GPGSA,A,3,30,23,22,16,32,25,20,01,31,14,,,1.5,0.8,1.2*3A
$GPRMC,204725.000,A,3352.8224,N,09831.7221,W,0.17,77.15,300312,,,D*40
$GPGGA,204726.000,3352.8223,N,09831.7222,W,2,10,0.8,301.1,M,-23.7,M,2.8,0000*47
$GPGSA,A,3,30,23,22,16,32,25,20,01,31,14,,,1.5,0.8,1.2*3A
$GPGSV,3,1,12,32,68,301,27,31,57,030,40,30,51,151,30,20,39,309,29*7F
$GPGSV,3,2,12,16,27,172,35,14,26,081,28,01,23,253,20,23,14,293,30*70
$GPGSV,3,3,12,25,11,039,31,22,10,145,30,11,09,235,31,51,49,195,38*77
$GPRMC,204726.000,A,3352.8223,N,09831.7222,W,0.04,131.35,300312,,,D*74
$GPGGA,204727.000,3352.8222,N,09831.7223,W,2,10,0.8,301.4,M,-23.7,M,0.8,0000*41
$GPGSA,A,3,30,23,22,16,32,25,20,01,31,14,,,1.5,0.8,1.2*3A
$GPRMC,204727.000,A,3352.8222,N,09831.7223,W,0.07,33.42,300312,,,D*45
$GPGGA,204728.000,3352.8222,N,09831.7224,W,2,10,0.8,301.7,M,-23.7,M,0.8,0000*4A
$GPGSA,A,3,30,23,22,16,32,25,20,01,31,14,,,1.5,0.8,1.2*3A
$GPRMC,204728.000,A,3352.8222,N,09831.7224,W,0.04,279.05,300312,,,D*71
$GPGGA,204729.000,3352.8221,N,09831.7226,W,2,10,0.8,302.0,M,-23.7,M,0.8,0000*4E
$GPGSA,A,3,30,23,22,16,32,25,20,01,31,14,,,1.5,0.8,1.2*3A
$GPRMC,204729.000,A,3352.8221,N,09831.7226,W,0.08,261.82,300312,,,D*7B
$GPGGA,204730.000,3352.8220,N,09831.7226,W,2,10,0.8,302.4,M,-23.7,M,1.8,0000*42
$GPGSA,A,3,30,23,22,16,32,25,20,01,31,14,,,1.5,0.8,1.2*3A
$GPRMC,204730.000,A,3352.8220,N,09831.7226,W,0.09,61.60,300312,,,D*4D
$GPGGA,204731.000,3352.8220,N,09831.7226,W,2,10,0.8,302.7,M,-23.7,M,0.8,0000*41
$GPGSA,A,3,30,23,22,16,32,25,20,01,31,14,,,1.5,0.8,1.2*3A
$GPGSV,3,1,12,32,68,301,27,31,57,030,41,30,51,151,31,20,39,309,30*77
$GPGSV,3,2,12,16,27,172,34,14,26,081,28,01,23,253,21,23,14,293,30*70
$GPGSV,3,3,12,25,11,039,31,22,10,145,30,11,09,235,31,51,49,195,38*77
$GPRMC,204731.000,A,3352.8220,N,09831.7226,W,0.06,47.02,300312,,,D*43
$GPGGA,204732.000,3352.8219,N,09831.7226,W,2,10,0.8,303.0,M,-23.7,M,1.8,0000*4F
$GPGSA,A,3,30,23,22,16,32,25,20,01,31,14,,,1.5,0.8,1.2*3A
$GPRMC,204732.000,A,3352.8219,N,09831.7226,W,0.02,39.72,300312,,,D*40
$GPGGA,204733.000,3352.8218,N,09831.7226,W,2,10,0.8,303.3,M,-23.7,M,0.8,0000*4D
$GPGSA,A,3,30,23,22,16,32,25,20,01,31,14,,,1.5,0.8,1.2*3A
$GPRMC,204733.000,A,3352.8218,N,09831.7226,W,0.05,143.64,300312,,,D*7C
$GPGGA,204734.000,3352.8218,N,09831.7226,W,2,10,0.8,303.6,M,-23.7,M,0.8,0000*4F
$GPGSA,A,3,30,23,22,16,32,25,20,01,31,14,,,1.5,0.8,1.2*3A
$GPRMC,204734.000,A,3352.8218,N,09831.7226,W,0.10,73.29,300312,,,D*44
$GPGGA,204735.000,3352.8217,N,09831.7225,W,2,10,0.8,303.8,M,-23.7,M,0.8,0000*4C
$GPGSA,A,3,30,23,22,16,32,25,20,01,31,14,,,1.5,0.8,1.2*3A
$GPRMC,204735.000,A,3352.8217,N,09831.7225,W,0.10,70.39,300312,,,D*4B
$GPGGA,204736.000,3352.8217,N,09831.7225,W,2,10,0.8,304.1,M,-23.7,M,1.8,0000*40
$GPGSA,A,3,30,23,22,16,32,25,20,01,31,14,,,1.5,0.8,1.2*3A
$GPGSV,3,1,12,32,68,301,27,31,57,030,41,30,51,151,32,20,39,309,30*74
$GPGSV,3,2,12,16,27,172,34,14,26,081,29,01,23,253,25,23,14,293,29*7D
$GPGSV,3,3,12,25,11,039,30,22,10,145,31,11,09,235,32,51,49,195,38*74
$GPRMC,204736.000,A,3352.8217,N,09831.7225,W,0.11,74.17,300312,,,D*41
$GPGGA,204737.000,3352.8217,N,09831.7225,W,2,10,0.8,304.3,M,-23.7,M,2.8,0000*40
$GPGSA,A,3,30,23,22,16,32,25,20,01,31,14,,,1.5,0.8,1.2*3A
$GPRMC,204737.000,A,3352.8217,N,09831.7225,W,0.10,71.32,300312,,,D*43
$GPGGA,204738.000,3352.8216,N,09831.7224,W,2,10,0.8,304.6,M,-23.7,M,3.8,0000*4B
$GPGSA,A,3,30,23,22,16,32,25,20,01,31,14,,,1.5,0.8,1.2*3A
$GPRMC,204738.000,A,3352.8216,N,09831.7224,W,0.09,69.06,300312,,,D*4A
$GPGGA,204739.000,3352.8216,N,09831.7224,W,2,10,0.8,304.7,M,-23.7,M,0.8,0000*48
$GPGSA,A,3,30,23,22,16,32,25,20,01,31,14,,,1.5,0.8,1.2*3A
$GPRMC,204739.000,A,3352.8216,N,09831.7224,W,0.09,36.48,300312,,,D*4B
$GPGGA,204740.000,3352.8216,N,09831.7224,W,2,10,0.8,305.0,M,-23.7,M,0.8,0000*40
$GPGSA,A,3,30,23,22,16,32,25,20,01,31,14,,,1.5,0.8,1.2*3A
$GPRMC,204740.000,A,3352.8216,N,09831.7224,W,0.01,328.41,300312,,,D*78
$GPGGA,204741.000,3352.8215,N,09831.7225,W,2,10,0.8,305.1,M,-23.7,M,0.8,0000*42
$GPGSA,A,3,30,23,22,16,32,25,20,01,31,14,,,1.5,0.8,1.2*3A
$GPGSV,3,1,12,32,68,301,27,31,57,030,41,30,51,151,32,20,39,309,29*7C
$GPGSV,3,2,12,16,27,172,34,14,26,081,30,01,23,253,26,23,14,293,29*76
$GPGSV,3,3,12,25,11,039,30,22,10,145,32,11,09,235,33,51,49,195,38*76
$GPRMC,204741.000,A,3352.8215,N,09831.7225,W,0.04,86.75,300312,,,D*4E
$GPGGA,204742.000,3352.8215,N,09831.7225,W,2,10,0.8,305.3,M,-23.7,M,1.8,0000*42
$GPGSA,A,3,30,23,22,16,32,25,20,01,31,14,,,1.5,0.8,1.2*3A
$GPRMC,204742.000,A,3352.8215,N,09831.7225,W,0.03,26.62,300312,,,D*46
$GPGGA,204743.000,3352.8215,N,09831.7225,W,2,10,0.8,305.5,M,-23.7,M,2.8,0000*46
$GPGSA,A,3,30,23,22,16,32,25,20,01,31,14,,,1.5,0.8,1.2*3A
$GPRMC,204743.000,A,3352.8215,N,09831.7225,W,0.03,47.18,300312,,,D*4D
$GPGGA,204744.000,3352.8214,N,09831.7226,W,2,10,0.8,305.7,M,-23.7,M,3.8,0000*40
$GPGSA,A,3,30,23,22,16,32,25,20,01,31,14,,,1.5,0.8,1.2*3A
$GPRMC,204744.000,A,3352.8214,N,09831.7226,W,0.04,53.41,300312,,,D*46
$GPGGA,204745.000,3352.8214,N,09831.7226,W,2,10,0.8,305.9,M,-23.7,M,0.8,0000*4C
$GPGSA,A,3,30,23,22,16,32,25,20,01,31,14,,,1.5,0.8,1.2*3A
$GPRMC,204745.000,A,3352.8214,N,09831.7226,W,0.06,113.67,300312,,,D*74
$GPGGA,204746.000,3352.8214,N,09831.7226,W,2,10,0.8,306.0,M,-23.7,M,0.8,0000*45
$GPGSA,A,3,30,23,22,16,32,25,20,01,31,14,,,1.5,0.8,1.2*3A
$GPGSV,3,1,12,32,68,301,27,31,57,030,40,30,51,151,33,20,39,309,28*7D
$GPGSV,3,2,12,16,27,172,34,14,26,081,30,01,23,253,27,23,14,293,28*76
$GPGSV,3,3,12,25,11,039,29,22,10,145,32,11,09,235,33,51,49,195,38*7E
$GPRMC,204746.000,A,3352.8214,N,09831.7226,W,0.12,64.03,300312,,,D*41
$GPGGA,204747.000,3352.8213,N,09831.7226,W,2,10,0.8,306.2,M,-23.7,M,0.8,0000*41
$GPGSA,A,3,30,23,22,16,32,25,20,01,31,14,,,1.5,0.8,1.2*3A
$GPRMC,204747.000,A,3352.8213,N,09831.7226,W,0.08,64.05,300312,,,D*4A
$GPGGA,204748.000,3352.8213,N,09831.7226,W,2,10,0.8,306.4,M,-23.7,M,1.8,0000*49
$GPGSA,A,3,30,23,22,16,32,25,20,01,31,14,,,1.5,0.8,1.2*3A
$GPRMC,204748.000,A,3352.8213,N,09831.7226,W,0.09,63.79,300312,,,D*48
$GPGGA,204749.000,3352.8213,N,09831.7226,W,2,10,0.8,306.5,M,-23.7,M,2.8,0000*4A
$GPGSA,A,3,30,23,22,16,32,25,20,01,31,14,,,1.5,0.8,1.2*3A
$GPRMC,204749.000,A,3352.8213,N,09831.7226,W,0.09,57.48,300312,,,D*4C
$GPGGA,204750.000,3352.8213,N,09831.7226,W,2,10,0.8,306.7,M,-23.7,M,3.8,0000*41
$GPGSA,A,3,30,23,22,16,32,25,20,01,31,14,,,1.5,0.8,1.2*3A
$GPRMC,204750.000,A,3352.8213,N,09831.7226,W,0.07,65.05,300312,,,D*42
$GPGGA,204751.000,3352.8213,N,09831.7226,W,2,10,0.8,306.8,M,-23.7,M,0.8,0000*4C
$GPGSA,A,3,30,23,22,16,32,25,20,01,31,14,,,1.5,0.8,1.2*3A
$GPGSV,3,1,12,32,68,301,27,31,57,030,40,30,51,151,33,20,39,309,28*7D
$GPGSV,3,2,12,16,27,172,34,14,26,081,31,01,23,253,27,23,14,293,28*77
$GPGSV,3,3,12,25,11,039,28,22,10,145,32,11,09,235,33,51,49,195,38*7F
$GPRMC,204751.000,A,3352.8213,N,09831.7226,W,0.09,11.04,300312,,,D*4F
$GPGGA,204752.000,3352.8213,N,09831.7225,W,2,10,0.8,306.9,M,-23.7,M,0.8,0000*4D
$GPGSA,A,3,30,23,22,16,32,25,20,01,31,14,,,1.5,0.8,1.2*3A
$GPRMC,204752.000,A,3352.8213,N,09831.7225,W,0.03,32.94,300312,,,D*4D
$GPGGA,204753.000,3352.8212,N,09831.7225,W,2,10,0.8,307.0,M,-23.7,M,0.8,0000*45
$GPGSA,A,3,30,23,22,16,32,25,20,01,31,14,,,1.5,0.8,1.2*3A
$GPRMC,204753.000,A,3352.8212,N,09831.7225,W,0.02,2.19,300312,,,D*7A
$GPGGA,204754.000,3352.8212,N,09831.7225,W,2,10,0.8,307.0,M,-23.7,M,0.8,0000*42
$GPGSA,A,3,30,23,22,16,32,25,20,01,31,14,,,1.5,0.8,1.2*3A
$GPRMC,204754.000,A,3352.8212,N,09831.7225,W,0.08,3.82,300312,,,D*74
$GPGGA,204755.000,3352.8212,N,09831.7224,W,2,10,0.8,307.1,M,-23.7,M,1.8,0000*42
$GPGSA,A,3,30,23,22,16,32,25,20,01,31,14,,,1.5,0.8,1.2*3A
$GPRMC,204755.000,A,3352.8212,N,09831.7224,W,0.08,27.83,300312,,,D*43
$GPGGA,204756.000,3352.8212,N,09831.7223,W,2,10,0.8,307.2,M,-23.7,M,2.8,0000*46
$GPGSA,A,3,30,23,22,16,32,25,20,01,31,14,,,1.5,0.8,1.2*3A
$GPGSV,3,1,12,32,68,301,28,31,57,030,39,30,51,151,34,20,39,309,29*7A
$GPGSV,3,2,12,16,27,172,34,14,26,081,31,01,23,253,26,23,14,293,27*79
$GPGSV,3,3,12,25,11,039,24,22,10,145,31,11,09,235,33,51,49,195,38*70
$GPRMC,204756.000,A,3352.8212,N,09831.7223,W,0.20,47.73,300312,,,D*44
$GPGGA,204757.000,3352.8211,N,09831.7222,W,2,10,0.8,307.4,M,-23.7,M,0.8,0000*41
$GPGSA,A,3,30,23,22,16,32,25,20,01,31,14,,,1.5,0.8,1.2*3A
$GPRMC,204757.000,A,3352.8211,N,09831.7222,W,0.13,90.38,300312,,,D*42
$GPGGA,204758.000,3352.8211,N,09831.7220,W,2,10,0.8,307.5,M,-23.7,M,0.8,0000*4D
$GPGSA,A,3,30,23,22,16,32,25,20,01,31,14,,,1.5,0.8,1.2*3A
$GPRMC,204758.000,A,3352.8211,N,09831.7220,W,0.38,64.33,300312,,,D*46
$GPGGA,204759.000,3352.8210,N,09831.7218,W,2,10,0.8,307.8,M,-23.7,M,0.8,0000*4B
$GPGSA,A,3,30,23,22,16,32,25,20,01,31,14,,,1.5,0.8,1.2*3A
$GPRMC,204759.000,A,3352.8210,N,09831.7218,W,0.16,111.90,300312,,,D*7B
$GPGGA,204800.000,3352.8209,N,09831.7217,W,2,10,0.8,308.1,M,-23.7,M,1.8,0000*48
$GPGSA,A,3,30,23,22,16,32,25,20,01,31,14,,,1.5,0.8,1.2*3A
$GPRMC,204800.000,A,3352.8209,N,09831.7217,W,0.16,98.89,300312,,,D*47
$GPGGA,204801.000,3352.8209,N,09831.7215,W,2,10,0.8,308.4,M,-23.7,M,2.8,0000*4D
$GPGSA,A,3,30,23,22,16,32,25,20,01,31,14,,,1.5,0.8,1.2*3A
$GPGSV,3,1,12,32,68,301,28,31,57,030,39,30,51,151,34,20,39,309,28*7B
$GPGSV,3,2,12,16,27,172,34,14,26,081,31,01,23,253,26,23,14,293,19*74
$GPGSV,3,3,12,25,11,039,23,22,10,145,31,11,09,235,33,51,49,195,37*78
$GPRMC,204801.000,A,3352.8209,N,09831.7215,W,0.21,87.29,300312,,,D*44
$GPGGA,204802.000,3352.8209,N,09831.7215,W,2,10,0.8,308.4,M,-23.7,M,0.8,0000*4C
$GPGSA,A,3,30,23,22,16,32,25,20,01,31,14,,,1.5,0.8,1.2*3A
$GPRMC,204802.000,A,3352.8209,N,09831.7215,W,0.16,59.60,300312,,,D*4D
$GPGGA,204803.000,3352.8209,N,09831.7215,W,2,10,0.8,308.4,M,-23.7,M,0.8,0000*4D
$GPGSA,A,3,30,23,22,16,32,25,20,01,31,14,,,1.5,0.8,1.2*3A
$GPRMC,204803.000,A,3352.8209,N,09831.7215,W,0.08,324.49,300312,,,D*71
$GPGGA,204804.000,3352.8209,N,09831.7216,W,2,10,0.8,308.5,M,-23.7,M,0.8,0000*48
$GPGSA,A,3,30,23,22,16,32,25,20,01,31,14,,,1.5,0.8,1.2*3A
$GPRMC,204804.000,A,3352.8209,N,09831.7216,W,0.12,265.12,300312,,,D*74
$GPGGA,204805.000,3352.8209,N,09831.7216,W,2,10,0.8,308.6,M,-23.7,M,0.8,0000*4A
$GPGSA,A,3,30,23,22,16,32,25,20,01,31,14,,,1.5,0.8,1.2*3A
$GPRMC,204805.000,A,3352.8209,N,09831.7216,W,0.05,110.83,300312,,,D*7A
$GPGGA,204806.000,3352.8209,N,09831.7216,W,2,10,0.8,308.6,M,-23.7,M,1.8,0000*48
$GPGSA,A,3,30,23,22,16,32,25,20,01,31,14,,,1.5,0.8,1.2*3A
$GPGSV,3,1,12,32,68,301,28,31,57,030,39,30,51,151,34,20,39,309,23*70
$GPGSV,3,2,12,16,27,172,34,14,26,081,31,01,23,253,26,23,14,293,24*7A
$GPGSV,3,3,12,25,11,039,23,22,10,145,31,11,09,235,33,51,49,195,38*77
$GPRMC,204806.000,A,3352.8209,N,09831.7216,W,0.03,337.69,300312,,,D*7C
$GPGGA,204807.000,3352.8208,N,09831.7216,W,2,10,0.8,308.6,M,-23.7,M,2.8,0000*4B
$GPGSA,A,3,30,23,22,16,32,25,20,01,31,14,,,1.5,0.8,1.2*3A
$GPRMC,204807.000,A,3352.8208,N,09831.7216,W,0.19,71.34,300312,,,D*4E
$GPGGA,204808.000,3352.8208,N,09831.7216,W,2,10,0.8,308.7,M,-23.7,M,0.8,0000*47
$GPGSA,A,3,30,23,22,16,32,25,20,01,31,14,,,1.5,0.8,1.2*3A
$GPRMC,204808.000,A,3352.8208,N,09831.7216,W,0.11,54.36,300312,,,D*4C
$GPGGA,204809.000,3352.8208,N,09831.7216,W,2,10,0.8,308.5,M,-23.7,M,0.8,0000*44
$GPGSA,A,3,30,23,22,16,32,25,20,01,31,14,,,1.5,0.8,1.2*3A
$GPRMC,204809.000,A,3352.8208,N,09831.7216,W,0.05,4.33,300312,,,D*78
$GPGGA,204810.000,3352.8208,N,09831.7216,W,2,10,0.8,308.5,M,-23.7,M,0.8,0000*4C
$GPGSA,A,3,30,23,22,16,32,25,20,01,31,14,,,1.5,0.8,1.2*3A
$GPRMC,204810.000,A,3352.8208,N,09831.7216,W,0.09,293.89,300312,,,D*71
$GPGGA,204811.000,3352.8208,N,09831.7216,W,2,10,0.8,308.4,M,-23.7,M,0.8,0000*4C
$GPGSA,A,3,30,23,22,16,32,25,20,01,31,14,,,1.5,0.8,1.2*3A
$GPGSV,3,1,12,32,68,301,28,31,57,030,39,30,51,151,34,20,39,309,23*70
$GPGSV,3,2,12,16,27,172,34,14,26,081,30,01,23,253,26,23,14,293,23*7C
$GPGSV,3,3,12,25,11,039,23,22,10,145,31,11,09,235,33,51,49,195,38*77
$GPRMC,204811.000,A,3352.8208,N,09831.7216,W,0.11,271.83,300312,,,D*7F
$GPGGA,204812.000,3352.8208,N,09831.7216,W,2,10,0.8,308.4,M,-23.7,M,1.8,0000*4E
$GPGSA,A,3,30,23,22,16,32,25,20,01,31,14,,,1.5,0.8,1.2*3A
$GPRMC,204812.000,A,3352.8208,N,09831.7216,W,0.10,112.16,300312,,,D*77
$GPGGA,204813.000,3352.8208,N,09831.7216,W,2,10,0.8,308.3,M,-23.7,M,0.8,0000*49
$GPGSA,A,3,30,23,22,16,32,25,20,01,31,14,,,1.5,0.8,1.2*3A
$GPRMC,204813.000,A,3352.8208,N,09831.7216,W,0.15,15.11,300312,,,D*42
$GPGGA,204814.000,3352.8209,N,09831.7217,W,2,10,0.8,308.0,M,-23.7,M,1.8,0000*4C
$GPGSA,A,3,30,23,22,16,32,25,20,01,31,14,,,1.5,0.8,1.2*3A
$GPRMC,204814.000,A,3352.8209,N,09831.7217,W,0.37,327.17,300312,,,D*71
$GPGGA,204815.000,3352.8209,N,09831.7217,W,2,10,0.8,307.9,M,-23.7,M,0.8,0000*4A
$GPGSA,A,3,30,23,22,16,32,25,20,01,31,14,,,1.5,0.8,1.2*3A
$GPRMC,204815.000,A,3352.8209,N,09831.7217,W,0.16,310.98,300312,,,D*70
$GPGGA,204816.000,3352.8209,N,09831.7218,W,2,10,0.8,307.8,M,-23.7,M,0.8,0000*47
$GPGSA,A,3,30,23,22,16,32,25,20,01,31,14,,,1.5,0.8,1.2*3A
$GPGSV,3,1,12,32,68,301,29,31,57,030,39,30,51,151,34,20,39,309,23*71
$GPGSV,3,2,12,16,27,172,34,14,26,081,30,01,23,253,26,23,14,293,23*7C
$GPGSV,3,3,12,25,11,039,23,22,10,145,31,11,09,235,33,51,49,195,37*78
$GPRMC,204816.000,A,3352.8209,N,09831.7218,W,0.17,4.58,300312,,,D*77
$GPGGA,204817.000,3352.8210,N,09831.7218,W,2,10,0.8,307.7,M,-23.7,M,0.8,0000*41
$GPGSA,A,3,30,23,22,16,32,25,20,01,31,14,,,1.5,0.8,1.2*3A
$GPRMC,204817.000,A,3352.8210,N,09831.7218,W,0.15,337.72,300312,,,D*77
$GPGGA,204818.000,3352.8210,N,09831.7218,W,2,10,0.8,307.7,M,-23.7,M,1.8,0000*4F
$GPGSA,A,3,30,23,22,16,32,25,20,01,31,14,,,1.5,0.8,1.2*3A
$GPRMC,204818.000,A,3352.8210,N,09831.7218,W,0.03,327.55,300312,,,D*7B
$GPGGA,204819.000,3352.8210,N,09831.7218,W,2,10,0.8,307.7,M,-23.7,M,0.8,0000*4F
$GPGSA,A,3,30,23,22,16,32,25,20,01,31,14,,,1.5,0.8,1.2*3A
$GPRMC,204819.000,A,3352.8210,N,09831.7218,W,0.23,45.39,300312,,,D*45
$GPGGA,204820.000,3352.8210,N,09831.7218,W,2,10,0.8,307.7,M,-23.7,M,1.8,0000*44
$GPGSA,A,3,30,23,22,16,32,25,20,01,31,14,,,1.5,0.8,1.2*3A
$GPRMC,204820.000,A,3352.8210,N,09831.7218,W,0.28,64.23,300312,,,D*4C
$GPGGA,204821.000,3352.8210,N,09831.7218,W,2,10,0.8,307.6,M,-23.7,M,2.8,0000*47
$GPGSA,A,3,30,23,22,16,32,25,20,01,31,14,,,1.5,0.8,1.2*3A
$GPGSV,3,1,12,32,68,301,29,31,57,030,39,30,51,151,34,20,39,309,24*76
$GPGSV,3,2,12,16,27,172,34,14,26,081,30,01,23,253,25,23,14,293,24*78
$GPGSV,3,3,12,25,11,039,23,22,10,145,32,11,09,235,33,51,49,195,38*74
$GPRMC,204821.000,A,3352.8210,N,09831.7218,W,0.15,9.21,300312,,,D*7A
$GPGGA,204822.000,3352.8210,N,09831.7218,W,2,10,0.8,307.5,M,-23.7,M,0.8,0000*45
$GPGSA,A,3,30,23,22,16,32,25,20,01,31,14,,,1.5,0.8,1.2*3A
$GPRMC,204822.000,A,3352.8210,N,09831.7218,W,0.22,347.18,300312,,,D*7E
$GPGGA,204823.000,3352.8211,N,09831.7218,W,2,10,0.8,307.5,M,-23.7,M,0.8,0000*45
$GPGSA,A,3,30,23,22,16,32,25,20,01,31,14,,,1.5,0.8,1.2*3A
$GPRMC,204823.000,A,3352.8211,N,09831.7218,W,0.17,27.34,300312,,,D*43
$GPGGA,204824.000,3352.8212,N,09831.7222,W,2,10,0.8,306.6,M,-23.7,M,1.8,0000*4B
$GPGSA,A,3,30,23,22,16,32,25,20,01,31,14,,,1.5,0.8,1.2*3A
$GPRMC,204824.000,A,3352.8212,N,09831.7222,W,0.11,349.01,300312,,,D*75
$GPGGA,204825.000,3352.8212,N,09831.7222,W,2,10,0.8,306.6,M,-23.7,M,0.8,0000*4B
$GPGSA,A,3,30,23,22,16,32,25,20,01,31,14,,,1.5,0.8,1.2*3A
$GPRMC,204825.000,A,3352.8212,N,09831.7222,W,0.06,342.13,300312,,,D*7A
$GPGGA,204826.000,3352.8212,N,09831.7223,W,2,10,0.8,306.5,M,-23.7,M,0.8,0000*4A
$GPGSA,A,3,30,23,22,16,32,25,20,01,31,14,,,1.5,0.8,1.2*3A
$GPGSV,3,1,12,32,68,301,29,31,57,030,39,30,51,151,34,20,39,309,25*77
$GPGSV,3,2,12,16,27,172,34,14,26,081,30,01,23,253,25,23,14,293,27*7B
$GPGSV,3,3,12,25,11,039,24,22,10,145,32,11,09,235,32,51,49,195,38*72
$GPRMC,204826.000,A,3352.8212,N,09831.7223,W,0.09,323.72,300312,,,D*77
$GPGGA,204827.000,3352.8212,N,09831.7223,W,2,10,0.8,306.6,M,-23.7,M,0.8,0000*48
$GPGSA,A,3,30,23,22,16,32,25,20,01,31,14,,,1.5,0.8,1.2*3A
$GPRMC,204827.000,A,3352.8212,N,09831.7223,W,0.06,261.67,300312,,,D*7A
$GPGGA,204828.000,3352.8212,N,09831.7223,W,2,10,0.8,306.7,M,-23.7,M,0.8,0000*46
$GPGSA,A,3,30,23,22,16,32,25,20,01,31,14,,,1.5,0.8,1.2*3A
$GPRMC,204828.000,A,3352.8212,N,09831.7223,W,0.09,181.11,300312,,,D*76
$GPGGA,204829.000,3352.8211,N,09831.7223,W,2,10,0.8,306.9,M,-23.7,M,0.8,0000*4A
$GPGSA,A,3,30,23,22,16,32,25,20,01,31,14,,,1.5,0.8,1.2*3A
$GPRMC,204829.000,A,3352.8211,N,09831.7223,W,0.12,210.93,300312,,,D*7F
$GPGGA,204830.000,3352.8211,N,09831.7223,W,2,10,0.8,307.0,M,-23.7,M,1.8,0000*4B
$GPGSA,A,3,30,23,22,16,32,25,20,01,31,14,,,1.5,0.8,1.2*3A
$GPRMC,204830.000,A,3352.8211,N,09831.7223,W,0.05,90.60,300312,,,D*47
$GPGGA,204831.000,3352.8210,N,09831.7223,W,2,10,0.8,307.0,M,-23.7,M,2.8,0000*48
$GPGSA,A,3,30,23,22,16,32,25,20,01,31,14,,,1.5,0.8,1.2*3A
$GPGSV,3,1,12,32,68,301,30,31,57,030,39,30,51,151,34,20,39,309,25*7F
$GPGSV,3,2,12,16,27,172,34,14,26,081,29,01,23,253,24,23,14,293,27*72
$GPGSV,3,3,12,25,11,039,25,22,10,145,32,11,09,235,31,51,49,195,38*70
$GPRMC,204831.000,A,3352.8210,N,09831.7223,W,0.04,241.19,300312,,,D*76
$GPGGA,204832.000,3352.8210,N,09831.7223,W,2,10,0.8,307.1,M,-23.7,M,3.8,0000*4B
$GPGSA,A,3,30,23,22,16,32,25,20,01,31,14,,,1.5,0.8,1.2*3A
$GPRMC,204832.000,A,3352.8210,N,09831.7223,W,0.02,232.37,300312,,,D*7B
$GPGGA,204833.000,3352.8210,N,09831.7223,W,2,10,0.8,307.1,M,-23.7,M,0.8,0000*49
$GPGSA,A,3,30,23,22,16,32,25,20,01,31,14,,,1.5,0.8,1.2*3A
$GPRMC,204833.000,A,3352.8210,N,09831.7223,W,0.08,46.00,300312,,,D*45
$GPGGA,204834.000,3352.8210,N,09831.7222,W,2,10,0.8,307.0,M,-23.7,M,0.8,0000*4E
$GPGSA,A,3,30,23,22,16,32,25,20,01,31,14,,,1.5,0.8,1.2*3A
$GPRMC,204834.000,A,3352.8210,N,09831.7222,W,0.30,71.44,300312,,,D*4C
$GPGGA,204835.000,3352.8210,N,09831.7222,W,2,10,0.8,307.0,M,-23.7,M,0.8,0000*4F
$GPGSA,A,3,30,23,22,16,32,25,20,01,31,14,,,1.5,0.8,1.2*3A
$GPRMC,204835.000,A,3352.8210,N,09831.7222,W,0.07,73.00,300312,,,D*4B
$GPGGA,204836.000,3352.8210,N,09831.7221,W,2,10,0.8,307.0,M,-23.7,M,0.8,0000*4F
$GPGSA,A,3,30,23,22,16,32,25,20,01,31,14,,,1.5,0.8,1.2*3A
$GPGSV,3,1,12,32,68,301,30,31,57,030,39,30,51,151,34,20,39,309,25*7F
$GPGSV,3,2,12,16,27,172,34,14,26,081,29,01,23,253,24,23,14,293,28*7D
$GPGSV,3,3,12,25,11,039,24,22,10,145,32,11,09,235,31,51,49,195,38*71
$GPRMC,204836.000,A,3352.8210,N,09831.7221,W,0.14,47.40,300312,,,D*4A
$GPGGA,204837.000,3352.8209,N,09831.7219,W,2,10,0.8,307.4,M,-23.7,M,1.8,0000*48
$GPGSA,A,3,30,23,22,16,32,25,20,01,31,14,,,1.5,0.8,1.2*3A
$GPRMC,204837.000,A,3352.8209,N,09831.7219,W,0.12,66.96,300312,,,D*46
$GPGGA,204838.000,3352.8209,N,09831.7217,W,2,10,0.8,307.8,M,-23.7,M,2.8,0000*46
$GPGSA,A,3,30,23,22,16,32,25,20,01,31,14,,,1.5,0.8,1.2*3A
$GPRMC,204838.000,A,3352.8209,N,09831.7217,W,0.09,76.00,300312,,,D*43
$GPGGA,204839.000,3352.8208,N,09831.7215,W,2,10,0.8,308.1,M,-23.7,M,0.8,0000*40
$GPGSA,A,3,30,23,22,16,32,25,20,01,31,14,,,1.5,0.8,1.2*3A
$GPRMC,204839.000,A,3352.8208,N,09831.7215,W,0.06,48.09,300312,,,D*4A
$GPGGA,204840.000,3352.8208,N,09831.7213,W,2,10,0.8,308.4,M,-23.7,M,0.8,0000*4D
$GPGSA,A,3,30,23,22,16,32,25,20,01,31,14,,,1.5,0.8,1.2*3A
$GPRMC,204840.000,A,3352.8208,N,09831.7213,W,0.10,86.03,300312,,,D*4D
$GPGGA,204841.000,3352.8207,N,09831.7212,W,2,10,0.8,308.5,M,-23.7,M,0.8,0000*43
$GPGSA,A,3,30,23,22,16,32,25,20,01,31,14,,,1.5,0.8,1.2*3A
$GPGSV,3,1,12,32,68,301,30,31,57,030,39,30,51,151,34,20,39,309,24*7E
$GPGSV,3,2,12,16,27,172,34,14,26,081,28,01,23,253,25,23,14,293,29*7C
$GPGSV,3,3,12,25,11,039,24,22,10,145,32,11,09,235,30,51,49,195,37*7F
$GPRMC,204841.000,A,3352.8207,N,09831.7212,W,0.02,70.44,300312,,,D*4B
$GPGGA,204842.000,3352.8207,N,09831.7211,W,2,10,0.8,308.7,M,-23.7,M,1.8,0000*40
$GPGSA,A,3,30,23,22,16,32,25,20,01,31,14,,,1.5,0.8,1.2*3A
$GPRMC,204842.000,A,3352.8207,N,09831.7211,W,0.01,283.33,300312,,,D*76
$GPGGA,204843.000,3352.8207,N,09831.7210,W,2,10,0.8,308.7,M,-23.7,M,2.8,0000*43
$GPGSA,A,3,30,23,22,16,32,25,20,01,31,14,,,1.5,0.8,1.2*3A
$GPRMC,204843.000,A,3352.8207,N,09831.7210,W,0.08,85.99,300312,,,D*4B
$GPGGA,204844.000,3352.8207,N,09831.7209,W,2,10,0.8,308.8,M,-23.7,M,0.8,0000*41
$GPGSA,A,3,30,23,22,16,32,25,20,01,31,14,,,1.5,0.8,1.2*3A
$GPRMC,204844.000,A,3352.8207,N,09831.7209,W,0.13,48.79,300312,,,D*41
$GPGGA,204845.000,3352.8207,N,09831.7208,W,2,10,0.8,308.8,M,-23.7,M,0.8,0000*41
$GPGSA,A,3,30,23,22,16,32,25,20,01,31,14,,,1.5,0.8,1.2*3A
$GPRMC,204845.000,A,3352.8207,N,09831.7208,W,0.04,181.23,300312,,,D*7C
$GPGGA,204846.000,3352.8207,N,09831.7207,W,2,10,0.8,308.8,M,-23.7,M,0.8,0000*4D
$GPGSA,A,3,30,23,22,16,32,25,20,01,31,14,,,1.5,0.8,1.2*3A
$GPGSV,3,1,12,32,68,301,30,31,57,030,39,30,51,151,33,20,39,309,24*79
$GPGSV,3,2,12,16,27,172,34,14,26,081,27,01,23,253,26,23,14,293,29*70
$GPGSV,3,3,12,25,11,039,24,22,10,145,32,11,09,235,30,51,49,195,38*70
$GPRMC,204846.000,A,3352.8207,N,09831.7207,W,0.11,56.78,300312,,,D*41
$GPGGA,204847.000,3352.8207,N,09831.7206,W,2,10,0.8,308.7,M,-23.7,M,0.8,0000*42
$GPGSA,A,3,30,23,22,16,32,25,20,01,31,14,,,1.5,0.8,1.2*3A
$GPRMC,204847.000,A,3352.8207,N,09831.7206,W,0.13,100.80,300312,,,D*76
$GPGGA,204848.000,3352.8207,N,09831.7205,W,2,10,0.8,308.7,M,-23.7,M,1.8,0000*4F
$GPGSA,A,3,30,23,22,16,32,25,20,01,31,14,,,1.5,0.8,1.2*3A
$GPRMC,204848.000,A,3352.8207,N,09831.7205,W,0.03,281.56,300312,,,D*7A
$GPGGA,204849.000,3352.8207,N,09831.7205,W,2,10,0.8,308.6,M,-23.7,M,2.8,0000*4C
$GPGSA,A,3,30,23,22,16,32,25,20,01,31,14,,,1.5,0.8,1.2*3A
$GPRMC,204849.000,A,3352.8207,N,09831.7205,W,0.05,36.16,300312,,,D*47
$GPGGA,204850.000,3352.8207,N,09831.7204,W,2,10,0.8,308.5,M,-23.7,M,3.8,0000*47
$GPGSA,A,3,30,23,22,16,32,25,20,01,31,14,,,1.5,0.8,1.2*3A
$GPRMC,204850.000,A,3352.8207,N,09831.7204,W,0.03,94.39,300312,,,D*4D
$GPGGA,204851.000,3352.8207,N,09831.7203,W,2,10,0.8,308.4,M,-23.7,M,0.8,0000*43
$GPGSA,A,3,30,23,22,16,32,25,20,01,31,14,,,1.5,0.8,1.2*3A
$GPGSV,3,1,12,32,68,301,30,31,57,030,38,30,51,151,33,20,39,309,25*79
$GPGSV,3,2,12,16,27,172,34,14,26,081,27,01,23,253,26,23,14,293,29*70
$GPGSV,3,3,12,25,11,039,24,22,10,145,32,11,09,235,30,51,49,195,38*70
$GPRMC,204851.000,A,3352.8207,N,09831.7203,W,0.02,184.60,300312,,,D*76
$GPGGA,204852.000,3352.8207,N,09831.7203,W,2,10,0.8,308.3,M,-23.7,M,0.8,0000*47
$GPGSA,A,3,30,23,22,16,32,25,20,01,31,14,,,1.5,0.8,1.2*3A
$GPRMC,204852.000,A,3352.8207,N,09831.7203,W,0.08,66.56,300312,,,D*47
$GPGGA,204853.000,3352.8208,N,09831.7202,W,2,10,0.8,308.0,M,-23.7,M,1.8,0000*4A
$GPGSA,A,3,30,23,22,16,32,25,20,01,31,14,,,1.5,0.8,1.2*3A
$GPRMC,204853.000,A,3352.8208,N,09831.7202,W,0.13,43.30,300312,,,D*45
$GPGGA,204854.000,3352.8208,N,09831.7202,W,2,10,0.8,307.9,M,-23.7,M,2.8,0000*48
$GPGSA,A,3,30,23,22,16,32,25,20,01,31,14,,,1.5,0.8,1.2*3A
$GPRMC,204854.000,A,3352.8208,N,09831.7202,W,0.05,198.55,300312,,,D*71
$GPGGA,204855.000,3352.8208,N,09831.7202,W,2,10,0.8,307.7,M,-23.7,M,3.8,0000*46
$GPGSA,A,3,30,23,22,16,32,25,20,01,31,14,,,1.5,0.8,1.2*3A
$GPRMC,204855.000,A,3352.8208,N,09831.7202,W,0.04,114.57,300312,,,D*77
$GPGGA,204856.000,3352.8208,N,09831.7201,W,2,10,0.8,307.4,M,-23.7,M,4.8,0000*42
$GPGSA,A,3,30,23,22,16,32,25,20,01,31,14,,,1.5,0.8,1.2*3A
$GPGSV,3,1,12,32,68,301,30,31,57,030,38,30,51,151,33,20,39,309,25*79
$GPGSV,3,2,12,16,27,172,35,14,26,081,27,01,23,253,27,23,14,293,30*78
$GPGSV,3,3,12,25,11,039,24,22,10,145,32,11,09,235,30,51,49,195,37*7F
$GPRMC,204856.000,A,3352.8208,N,09831.7201,W,0.16,57.69,300312,,,D*4F
$GPGGA,204857.000,3352.8209,N,09831.7201,W,2,10,0.8,307.2,M,-23.7,M,0.8,0000*40
$GPGSA,A,3,30,23,22,16,32,25,20,01,31,14,,,1.5,0.8,1.2*3A
$GPRMC,204857.000,A,3352.8209,N,09831.7201,W,0.04,356.00,300312,,,D*71
$GPGGA,204858.000,3352.8209,N,09831.7200,W,2,10,0.8,307.0,M,-23.7,M,0.8,0000*4C
$GPGSA,A,3,30,23,22,16,32,25,20,01,31,14,,,1.5,0.8,1.2*3A
$GPRMC,204858.000,A,3352.8209,N,09831.7200,W,0.03,229.93,300312,,,D*7B
$GPGGA,204859.000,3352.8210,N,09831.7200,W,2,10,0.8,306.8,M,-23.7,M,0.8,0000*4C
$GPGSA,A,3,30,23,22,16,32,25,20,01,31,14,,,1.5,0.8,1.2*3A
$GPRMC,204859.000,A,3352.8210,N,09831.7200,W,0.09,56.22,300312,,,D*48
$GPGGA,204900.000,3352.8210,N,09831.7200,W,2,10,0.8,306.6,M,-23.7,M,0.8,0000*4F
$GPGSA,A,3,30,23,22,16,32,25,20,01,31,14,,,1.5,0.8,1.2*3A
$GPRMC,204900.000,A,3352.8210,N,09831.7200,W,0.00,245.71,300312,,,D*7A
$GPGGA,204901.000,3352.8210,N,09831.7200,W,2,10,0.8,306.4,M,-23.7,M,0.8,0000*4C
$GPGSA,A,3,30,23,22,16,32,25,20,01,31,14,,,1.5,0.8,1.2*3A
$GPGSV,3,1,12,32,68,301,29,31,57,030,38,30,51,151,33,20,39,309,25*71
$GPGSV,3,2,12,16,27,172,35,14,26,081,26,01,23,253,27,23,14,293,29*71
$GPGSV,3,3,12,25,11,039,23,22,10,145,31,11,09,235,31,51,49,195,38*75
$GPRMC,204901.000,A,3352.8210,N,09831.7200,W,0.13,113.20,300312,,,D*7D
$GPGGA,204902.000,3352.8210,N,09831.7200,W,2,10,0.8,306.3,M,-23.7,M,1.8,0000*49
$GPGSA,A,3,30,23,22,16,32,25,20,01,31,14,,,1.5,0.8,1.2*3A
$GPRMC,204902.000,A,3352.8210,N,09831.7200,W,0.07,171.80,300312,,,D*75
$GPGGA,204903.000,3352.8211,N,09831.7200,W,2,10,0.8,306.1,M,-23.7,M,0.8,0000*4A
$GPGSA,A,3,30,23,22,16,32,25,20,01,31,14,,,1.5,0.8,1.2*3A
$GPRMC,204903.000,A,3352.8211,N,09831.7200,W,0.09,189.52,300312,,,D*73
$GPGGA,204904.000,3352.8211,N,09831.7200,W,2,10,0.8,306.1,M,-23.7,M,0.8,0000*4D
$GPGSA,A,3,30,23,22,16,32,25,20,01,31,14,,,1.5,0.8,1.2*3A
$GPRMC,204904.000,A,3352.8211,N,09831.7200,W,0.15,236.96,300312,,,D*76
$GPGGA,204905.000,3352.8211,N,09831.7201,W,2,10,0.8,305.9,M,-23.7,M,0.8,0000*46
$GPGSA,A,3,30,23,22,16,32,25,20,01,31,14,,,1.5,0.8,1.2*3A
$GPRMC,204905.000,A,3352.8211,N,09831.7201,W,0.06,6.93,300312,,,D*70
$GPGGA,204906.000,3352.8211,N,09831.7201,W,2,10,0.8,305.8,M,-23.7,M,1.8,0000*45
$GPGSA,A,3,30,23,22,16,32,25,20,01,31,14,,,1.5,0.8,1.2*3A
$GPGSV,3,1,12,32,68,301,28,31,57,030,37,30,51,151,33,20,39,309,24*7E
$GPGSV,3,2,12,16,27,172,35,14,26,081,26,01,23,253,27,23,14,293,28*70
$GPGSV,3,3,12,25,11,039,23,22,10,145,31,11,09,235,32,51,49,195,37*79
$GPRMC,204906.000,A,3352.8211,N,09831.7201,W,0.02,328.89,300312,,,D*73
$GPGGA,204907.000,3352.8212,N,09831.7201,W,2,10,0.8,305.6,M,-23.7,M,2.8,0000*4A
$GPGSA,A,3,30,23,22,16,32,25,20,01,31,14,,,1.5,0.8,1.2*3A
$GPRMC,204907.000,A,3352.8212,N,09831.7201,W,0.13,36.35,300312,,,D*4A
$GPGGA,204908.000,3352.8212,N,09831.7201,W,2,10,0.8,305.5,M,-23.7,M,3.8,0000*47
$GPGSA,A,3,30,23,22,16,32,25,20,01,31,14,,,1.5,0.8,1.2*3A
$GPRMC,204908.000,A,3352.8212,N,09831.7201,W,0.12,158.76,300312,,,D*7A
$GPGGA,204909.000,3352.8212,N,09831.7201,W,2,10,0.8,305.3,M,-23.7,M,0.8,0000*43
$GPGSA,A,3,30,23,22,16,32,25,20,01,31,14,,,1.5,0.8,1.2*3A
$GPRMC,204909.000,A,3352.8212,N,09831.7201,W,0.05,309.76,300312,,,D*7B
$GPGGA,204910.000,3352.8213,N,09831.7201,W,2,10,0.8,305.0,M,-23.7,M,0.8,0000*49
$GPGSA,A,3,30,23,22,16,32,25,20,01,31,14,,,1.5,0.8,1.2*3A
$GPRMC,204910.000,A,3352.8213,N,09831.7201,W,0.09,44.72,300312,,,D*40
$GPGGA,204911.000,3352.8214,N,09831.7201,W,2,10,0.8,304.7,M,-23.7,M,0.8,0000*49
$GPGSA,A,3,30,23,22,16,32,25,20,01,31,14,,,1.5,0.8,1.2*3A
$GPGSV,3,1,12,32,68,301,28,31,57,030,37,30,51,151,33,20,39,309,24*7E
$GPGSV,3,2,12,16,27,172,34,14,26,081,26,01,23,253,27,23,14,293,28*71
$GPGSV,3,3,12,25,11,039,23,22,10,145,31,11,09,235,33,51,49,195,38*77
$GPRMC,204911.000,A,3352.8214,N,09831.7201,W,0.19,57.58,300312,,,D*4D
$GPGGA,204912.000,3352.8214,N,09831.7201,W,2,10,0.8,304.4,M,-23.7,M,1.8,0000*48
$GPGSA,A,3,30,23,22,16,32,25,20,01,31,14,,,1.5,0.8,1.2*3A
$GPRMC,204912.000,A,3352.8214,N,09831.7201,W,0.15,61.13,300312,,,D*48
$GPGGA,204913.000,3352.8215,N,09831.7201,W,2,10,0.8,304.2,M,-23.7,M,2.8,0000*4D
$GPGSA,A,3,30,23,22,16,32,25,20,01,31,14,,,1.5,0.8,1.2*3A
$GPRMC,204913.000,A,3352.8215,N,09831.7201,W,0.05,112.97,300312,,,D*70
$GPGGA,204914.000,3352.8213,N,09831.7204,W,2,10,0.8,304.8,M,-23.7,M,0.8,0000*41
$GPGSA,A,3,30,23,22,16,32,25,20,01,31,14,,,1.5,0.8,1.2*3A
$GPRMC,204914.000,A,3352.8213,N,09831.7204,W,0.08,70.58,300312,,,D*4F
$GPGGA,204915.000,3352.8212,N,09831.7205,W,2,10,0.8,305.2,M,-23.7,M,0.8,0000*4B
$GPGSA,A,3,30,23,22,16,32,25,20,01,31,14,,,1.5,0.8,1.2*3A
$GPRMC,204915.000,A,3352.8212,N,09831.7205,W,0.07,330.21,300312,,,D*78
$GPGGA,204916.000,3352.8211,N,09831.7207,W,2,10,0.8,305.5,M,-23.7,M,0.8,0000*4E
$GPGSA,A,3,30,23,22,16,32,25,20,01,31,14,,,1.5,0.8,1.2*3A
$GPGSV,3,1,12,32,68,301,29,31,57,030,37,30,51,151,34,20,39,309,23*7F
$GPGSV,3,2,12,16,27,172,34,14,26,081,26,01,23,253,27,23,14,293,29*70
$GPGSV,3,3,12,25,11,039,34,22,10,145,32,11,09,235,34,51,49,195,38*75
$GPRMC,204916.000,A,3352.8211,N,09831.7207,W,0.21,62.19,300312,,,D*41
$GPGGA,204917.000,3352.8210,N,09831.7208,W,2,10,0.8,305.8,M,-23.7,M,0.8,0000*4C
$GPGSA,A,3,30,23,22,16,32,25,20,01,31,14,,,1.5,0.8,1.2*3A
$GPRMC,204917.000,A,3352.8210,N,09831.7208,W,0.15,93.41,300312,,,D*4A
$GPGGA,204918.000,3352.8210,N,09831.7209,W,2,10,0.8,306.0,M,-23.7,M,1.8,0000*48
$GPGSA,A,3,30,23,22,16,32,25,20,01,31,14,,,1.5,0.8,1.2*3A
$GPRMC,204918.000,A,3352.8210,N,09831.7209,W,0.12,91.07,300312,,,D*43
$GPGGA,204919.000,3352.8209,N,09831.7210,W,2,10,0.8,306.3,M,-23.7,M,2.8,0000*49
$GPGSA,A,3,30,23,22,16,32,25,20,01,31,14,,,1.5,0.8,1.2*3A
$GPRMC,204919.000,A,3352.8209,N,09831.7210,W,0.07,5.03,300312,,,D*7F
$GPGGA,204920.000,3352.8209,N,09831.7211,W,2,10,0.8,306.5,M,-23.7,M,3.8,0000*45
$GPGSA,A,3,30,23,22,16,32,25,20,01,31,14,,,1.5,0.8,1.2*3A
$GPRMC,204920.000,A,3352.8209,N,09831.7211,W,0.09,358.42,300312,,,D*74
$GPGGA,204921.000,3352.8209,N,09831.7213,W,2,10,0.8,306.7,M,-23.7,M,0.8,0000*47
$GPGSA,A,3,30,23,22,16,32,25,20,01,31,14,,,1.5,0.8,1.2*3A
$GPGSV,3,1,12,32,68,301,30,31,57,030,37,30,51,151,34,20,39,309,23*77
$GPGSV,3,2,12,16,27,172,34,14,26,081,27,01,23,253,27,23,14,293,30*79
$GPGSV,3,3,12,25,11,039,33,22,10,145,32,11,09,235,34,51,49,195,37*7D
$GPRMC,204921.000,A,3352.8209,N,09831.7213,W,0.02,339.49,300312,,,D*70
$GPGGA,204922.000,3352.8208,N,09831.7214,W,2,10,0.8,306.8,M,-23.7,M,0.8,0000*4D
$GPGSA,A,3,30,23,22,16,32,25,20,01,31,14,,,1.5,0.8,1.2*3A
$GPRMC,204922.000,A,3352.8208,N,09831.7214,W,0.05,4.37,300312,,,D*76
$GPGGA,204923.000,3352.8209,N,09831.7214,W,2,10,0.8,306.6,M,-23.7,M,0.8,0000*43
$GPGSA,A,3,30,23,22,16,32,25,20,01,31,14,,,1.5,0.8,1.2*3A
$GPRMC,204923.000,A,3352.8209,N,09831.7214,W,0.08,4.90,300312,,,D*76
$GPGGA,204924.000,3352.8209,N,09831.7214,W,2,10,0.8,306.3,M,-23.7,M,1.8,0000*40
$GPGSA,A,3,30,23,22,16,32,25,20,01,31,14,,,1.5,0.8,1.2*3A
$GPRMC,204924.000,A,3352.8209,N,09831.7214,W,0.10,193.03,300312,,,D*7D
$GPGGA,204925.000,3352.8210,N,09831.7214,W,2,10,0.8,306.0,M,-23.7,M,2.8,0000*49
$GPGSA,A,3,30,23,22,16,32,25,20,01,31,14,,,1.5,0.8,1.2*3A
$GPRMC,204925.000,A,3352.8210,N,09831.7214,W,0.04,164.08,300312,,,D*72
$GPGGA,204926.000,3352.8210,N,09831.7214,W,2,10,0.8,305.8,M,-23.7,M,3.8,0000*40
$GPGSA,A,3,30,23,22,16,32,25,20,01,31,14,,,1.5,0.8,1.2*3A
$GPGSV,3,1,12,32,68,301,30,31,57,030,37,30,51,151,34,20,39,309,22*76
$GPGSV,3,2,12,16,27,172,34,14,26,081,27,01,23,253,27,23,14,293,31*78
$GPGSV,3,3,12,25,11,039,25,22,10,145,32,11,09,235,34,51,49,195,37*7A
$GPRMC,204926.000,A,3352.8210,N,09831.7214,W,0.09,172.20,300312,,,D*71
$GPGGA,204927.000,3352.8211,N,09831.7215,W,2,10,0.8,305.3,M,-23.7,M,0.8,0000*49
$GPGSA,A,3,30,23,22,16,32,25,20,01,31,14,,,1.5,0.8,1.2*3A
$GPRMC,204927.000,A,3352.8211,N,09831.7215,W,0.20,6.74,300312,,,D*78
$GPGGA,204928.000,3352.8212,N,09831.7215,W,2,10,0.8,305.0,M,-23.7,M,0.8,0000*46
$GPGSA,A,3,30,23,22,16,32,25,20,01,31,14,,,1.5,0.8,1.2*3A
$GPRMC,204928.000,A,3352.8212,N,09831.7215,W,0.23,21.92,300312,,,D*4A
$GPGGA,204929.000,3352.8212,N,09831.7215,W,2,10,0.8,305.1,M,-23.7,M,0.8,0000*46
$GPGSA,A,3,30,23,22,16,32,25,20,01,31,14,,,1.5,0.8,1.2*3A
$GPRMC,204929.000,A,3352.8212,N,09831.7215,W,0.14,318.10,300312,,,D*7C
$GPGGA,204930.000,3352.8212,N,09831.7215,W,2,10,0.8,305.3,M,-23.7,M,0.8,0000*4C
$GPGSA,A,3,30,23,22,16,32,25,20,01,31,14,,,1.5,0.8,1.2*3A
$GPRMC,204930.000,A,3352.8212,N,09831.7215,W,0.12,30.48,300312,,,D*46
$GPGGA,204931.000,3352.8211,N,09831.7215,W,2,10,0.8,305.4,M,-23.7,M,1.8,0000*48
$GPGSA,A,3,30,23,22,16,32,25,20,01,31,14,,,1.5,0.8,1.2*3A
$GPGSV,3,1,12,32,68,301,31,31,57,030,37,30,51,151,34,20,39,309,22*77
$GPGSV,3,2,12,16,27,172,34,14,26,081,24,01,23,253,24,23,14,293,31*78
$GPGSV,3,3,12,25,11,039,33,22,10,145,32,11,09,235,34,51,49,195,39*73
$GPRMC,204931.000,A,3352.8211,N,09831.7215,W,0.15,85.93,300312,,,D*4B
$GPGGA,204932.000,3352.8211,N,09831.7215,W,2,10,0.8,305.6,M,-23.7,M,0.8,0000*48
$GPGSA,A,3,30,23,22,16,32,25,20,01,31,14,,,1.5,0.8,1.2*3A
$GPRMC,204932.000,A,3352.8211,N,09831.7215,W,0.07,91.41,300312,,,D*41
$GPGGA,204933.000,3352.8211,N,09831.7214,W,2,10,0.8,305.8,M,-23.7,M,0.8,0000*46
$GPGSA,A,3,30,23,22,16,32,25,20,01,31,14,,,1.5,0.8,1.2*3A
$GPRMC,204933.000,A,3352.8211,N,09831.7214,W,0.29,83.29,300312,,,D*40
$GPGGA,204934.000,3352.8211,N,09831.7214,W,2,10,0.8,305.8,M,-23.7,M,0.8,0000*41
$GPGSA,A,3,30,23,22,16,32,25,20,01,31,14,,,1.5,0.8,1.2*3A
$GPRMC,204934.000,A,3352.8211,N,09831.7214,W,0.06,31.07,300312,,,D*4F
$GPGGA,204935.000,3352.8211,N,09831.7213,W,2,10,0.8,305.8,M,-23.7,M,0.8,0000*47
$GPGSA,A,3,30,23,22,16,32,25,20,01,31,14,,,1.5,0.8,1.2*3A
$GPRMC,204935.000,A,3352.8211,N,09831.7213,W,0.02,179.90,300312,,,D*7E
$GPGGA,204936.000,3352.8211,N,09831.7213,W,2,09,0.9,306.0,M,-23.7,M,0.8,0000*46
$GPGSA,A,3,30,23,16,32,25,20,01,31,14,,,,1.6,0.9,1.4*3E
$GPGSV,3,1,12,32,69,298,31,31,56,031,36,30,52,150,34,20,41,308,22*7A
$GPGSV,3,2,12,16,29,171,35,14,25,082,24,01,23,251,21,23,15,294,30*74
$GPGSV,3,3,12,25,11,038,33,22,09,145,31,11,09,234,33,51,49,195,40*71
$GPRMC,204936.000,A,3352.8211,N,09831.7213,W,0.20,48.22,300312,,,D*47
$GPGGA,204937.000,3352.8211,N,09831.7212,W,2,09,0.9,306.2,M,-23.7,M,1.8,0000*45
$GPGSA,A,3,30,23,16,32,25,20,01,31,14,,,,1.6,0.9,1.4*3E
$GPRMC,204937.000,A,3352.8211,N,09831.7212,W,0.22,61.76,300312,,,D*4F
$GPGGA,204938.000,3352.8212,N,09831.7212,W,2,09,0.9,306.4,M,-23.7,M,2.8,0000*4C
$GPGSA,A,3,30,23,16,32,25,20,01,31,14,,,,1.6,0.9,1.4*3E
$GPRMC,204938.000,A,3352.8212,N,09831.7212,W,0.27,29.07,300312,,,D*4C
$GPGGA,204939.000,3352.8212,N,09831.7211,W,2,09,0.9,306.6,M,-23.7,M,0.8,0000*4E
$GPGSA,A,3,30,23,16,32,25,20,01,31,14,,,,1.6,0.9,1.4*3E
$GPRMC,204939.000,A,3352.8212,N,09831.7211,W,0.07,345.53,300312,,,D*74
$GPGGA,204940.000,3352.8212,N,09831.7212,W,2,09,0.9,306.8,M,-23.7,M,0.8,0000*4D
$GPGSA,A,3,30,23,16,32,25,20,01,31,14,,,,1.6,0.9,1.4*3E
$GPRMC,204940.000,A,3352.8212,N,09831.7212,W,0.10,277.58,300312,,,D*74
$GPGGA,204941.000,3352.8212,N,09831.7212,W,2,09,0.9,307.0,M,-23.7,M,0.8,0000*45
$GPGSA,A,3,30,23,16,32,25,20,01,31,14,,,,1.6,0.9,1.4*3E
$GPGSV,3,1,12,32,69,298,31,31,56,031,36,30,52,150,34,20,41,308,23*7B
$GPGSV,3,2,12,16,29,171,35,14,25,082,24,01,23,251,22,23,15,294,30*77
$GPGSV,3,3,12,25,11,038,34,22,09,145,31,11,09,234,33,51,49,195,39*78
$GPRMC,204941.000,A,3352.8212,N,09831.7212,W,0.09,305.18,300312,,,D*7D
$GPGGA,204942.000,3352.8212,N,09831.7211,W,2,09,0.9,307.1,M,-23.7,M,1.8,0000*45
$GPGSA,A,3,30,23,16,32,25,20,01,31,14,,,,1.6,0.9,1.4*3E
$GPRMC,204942.000,A,3352.8212,N,09831.7211,W,0.29,84.38,300312,,,D*47
$GPGGA,204943.000,3352.8212,N,09831.7210,W,2,09,0.9,307.3,M,-23.7,M,2.8,0000*44
$GPGSA,A,3,30,23,16,32,25,20,01,31,14,,,,1.6,0.9,1.4*3E
$GPRMC,204943.000,A,3352.8212,N,09831.7210,W,0.13,93.57,300312,,,D*41
$GPGGA,204944.000,3352.8211,N,09831.7210,W,2,09,0.9,307.4,M,-23.7,M,3.8,0000*46
$GPGSA,A,3,30,23,16,32,25,20,01,31,14,,,,1.6,0.9,1.4*3E
$GPRMC,204944.000,A,3352.8211,N,09831.7210,W,0.09,151.86,300312,,,D*7D
$GPGGA,204945.000,3352.8211,N,09831.7210,W,2,09,0.9,307.6,M,-23.7,M,0.8,0000*46
$GPGSA,A,3,30,23,16,32,25,20,01,31,14,,,,1.6,0.9,1.4*3E
$GPRMC,204945.000,A,3352.8211,N,09831.7210,W,0.03,6.23,300312,,,D*7A
$GPGGA,204946.000,3352.8211,N,09831.7210,W,2,09,0.9,307.7,M,-23.7,M,0.8,0000*44
$GPGSA,A,3,30,23,16,32,25,20,01,31,14,,,,1.6,0.9,1.4*3E
$GPGSV,3,1,12,32,69,298,31,31,56,031,35,30,52,150,35,20,41,308,22*78
$GPGSV,3,2,12,16,29,171,35,14,25,082,24,01,23,251,21,23,15,294,30*74
$GPGSV,3,3,12,25,11,038,33,22,09,145,31,11,09,234,32,51,49,195,40*70
$GPRMC,204946.000,A,3352.8211,N,09831.7210,W,0.13,310.47,300312,,,D*7E
$GPGGA,204947.000,3352.8211,N,09831.7210,W,2,09,0.9,307.8,M,-23.7,M,0.8,0000*4A
$GPGSA,A,3,30,23,16,32,25,20,01,31,14,,,,1.6,0.9,1.4*3E
$GPRMC,204947.000,A,3352.8211,N,09831.7210,W,0.05,56.53,300312,,,D*4C
$GPGGA,204948.000,3352.8211,N,09831.7210,W,2,09,0.9,307.8,M,-23.7,M,1.8,0000*44
$GPGSA,A,3,30,23,16,32,25,20,01,31,14,,,,1.6,0.9,1.4*3E
$GPRMC,204948.000,A,3352.8211,N,09831.7210,W,0.02,89.81,300312,,,D*49
$GPGGA,204949.000,3352.8211,N,09831.7209,W,2,09,0.9,307.8,M,-23.7,M,0.8,0000*4C
$GPGSA,A,3,30,23,16,32,25,20,01,31,14,,,,1.6,0.9,1.4*3E
$GPRMC,204949.000,A,3352.8211,N,09831.7209,W,0.14,84.44,300312,,,D*43
$GPGGA,204950.000,3352.8211,N,09831.7209,W,2,09,0.9,307.8,M,-23.7,M,1.8,0000*45
$GPGSA,A,3,30,23,16,32,25,20,01,31,14,,,,1.6,0.9,1.4*3E
$GPRMC,204950.000,A,3352.8211,N,09831.7209,W,0.07,91.63,300312,,,D*48
$GPGGA,204951.000,3352.8212,N,09831.7208,W,2,09,0.9,307.8,M,-23.7,M,0.8,0000*47
$GPGSA,A,3,30,23,16,32,25,20,01,31,14,,,,1.6,0.9,1.4*3E
$GPGSV,3,1,12,32,69,298,31,31,56,031,35,30,52,150,35,20,41,308,22*78
$GPGSV,3,2,12,16,29,171,35,14,25,082,24,01,23,251,21,23,15,294,30*74
$GPGSV,3,3,12,25,11,038,33,22,09,145,31,11,09,234,31,51,49,195,40*73
$GPRMC,204951.000,A,3352.8212,N,09831.7208,W,0.07,1.46,300312,,,D*75
$GPGGA,204952.000,3352.8212,N,09831.7209,W,2,09,0.9,307.9,M,-23.7,M,0.8,0000*44
$GPGSA,A,3,30,23,16,32,25,20,01,31,14,,,,1.6,0.9,1.4*3E
$GPRMC,204952.000,A,3352.8212,N,09831.7209,W,0.22,284.60,300312,,,D*7B
$GPGGA,204953.000,3352.8212,N,09831.7209,W,2,09,0.9,307.8,M,-23.7,M,0.8,0000*44
$GPGSA,A,3,30,23,16,32,25,20,01,31,14,,,,1.6,0.9,1.4*3E
$GPRMC,204953.000,A,3352.8212,N,09831.7209,W,0.08,95.41,300312,,,D*43
$GPGGA,204954.000,3352.8212,N,09831.7208,W,2,09,0.9,307.9,M,-23.7,M,1.8,0000*42
$GPGSA,A,3,30,23,16,32,25,20,01,31,14,,,,1.6,0.9,1.4*3E
$GPRMC,204954.000,A,3352.8212,N,09831.7208,W,0.40,78.50,300312,,,D*4A
$GPGGA,204955.000,3352.8212,N,09831.7207,W,2,09,0.9,308.0,M,-23.7,M,0.8,0000*4B
$GPGSA,A,3,30,23,16,32,25,20,01,31,14,,,,1.6,0.9,1.4*3E
$GPRMC,204955.000,A,3352.8212,N,09831.7207,W,0.12,90.48,300312,,,D*4C
$GPGGA,204956.000,3352.8212,N,09831.7207,W,2,09,0.9,308.0,M,-23.7,M,1.8,0000*49
$GPGSA,A,3,30,23,16,32,25,20,01,31,14,,,,1.6,0.9,1.4*3E
$GPGSV,3,1,12,32,69,298,31,31,56,031,34,30,52,150,35,20,41,308,21*7A
$GPGSV,3,2,12,16,29,171,35,14,25,082,25,01,23,251,22,23,15,294,31*77
$GPGSV,3,3,12,25,11,038,32,22,09,145,31,11,09,234,30,51,49,195,40*73
$GPRMC,204956.000,A,3352.8212,N,09831.7207,W,0.06,325.88,300312,,,D*7B
$GPGGA,204957.000,3352.8213,N,09831.7211,W,2,09,0.9,307.0,M,-23.7,M,2.8,0000*42
$GPGSA,A,3,30,23,16,32,25,20,01,31,14,,,,1.6,0.9,1.4*3E
$GPRMC,204957.000,A,3352.8213,N,09831.7211,W,0.19,80.75,300312,,,D*4C
$GPGGA,204958.000,3352.8214,N,09831.7214,W,2,09,0.9,306.1,M,-23.7,M,0.8,0000*4D
$GPGSA,A,3,30,23,16,32,25,20,01,31,14,,,,1.6,0.9,1.4*3E
$GPRMC,204958.000,A,3352.8214,N,09831.7214,W,0.21,83.74,300312,,,D*48
$GPGGA,204959.000,3352.8215,N,09831.7217,W,2,09,0.9,305.4,M,-23.7,M,0.8,0000*48
$GPGSA,A,3,30,23,16,32,25,20,01,31,14,,,,1.6,0.9,1.4*3E
$GPRMC,204959.000,A,3352.8215,N,09831.7217,W,0.03,103.22,300312,,,D*71
$GPGGA,205000.000,3352.8216,N,09831.7220,W,2,09,0.9,304.7,M,-23.7,M,1.8,0000*48
$GPGSA,A,3,30,23,16,32,25,20,01,31,14,,,,1.6,0.9,1.4*3E
$GPRMC,205000.000,A,3352.8216,N,09831.7220,W,0.04,239.11,300312,,,D*7F
$GPGGA,205001.000,3352.8217,N,09831.7223,W,2,09,0.9,304.2,M,-23.7,M,0.8,0000*4F
$GPGSA,A,3,30,23,16,32,25,20,01,31,14,,,,1.6,0.9,1.4*3E
$GPGSV,3,1,12,32,69,298,30,31,56,031,34,30,52,150,35,20,41,308,22*78
$GPGSV,3,2,12,16,29,171,35,14,25,082,25,01,23,251,23,23,15,294,31*76
$GPGSV,3,3,12,25,11,038,32,22,09,145,31,11,09,234,30,51,49,195,40*73
$GPRMC,205001.000,A,3352.8217,N,09831.7223,W,0.09,19.73,300312,,,D*45
$GPGGA,205002.000,3352.8218,N,09831.7225,W,2,09,0.9,303.7,M,-23.7,M,0.8,0000*47
$GPGSA,A,3,30,23,16,32,25,20,01,31,14,,,,1.6,0.9,1.4*3E
$GPRMC,205002.000,A,3352.8218,N,09831.7225,W,0.19,81.60,300312,,,D*4D
$GPGGA,205003.000,3352.8218,N,09831.7227,W,2,09,0.9,303.3,M,-23.7,M,0.8,0000*40
$GPGSA,A,3,30,23,16,32,25,20,01,31,14,,,,1.6,0.9,1.4*3E
$GPRMC,205003.000,A,3352.8218,N,09831.7227,W,0.28,79.49,300312,,,D*40
$GPGGA,205004.000,3352.8219,N,09831.7229,W,2,09,0.9,303.0,M,-23.7,M,0.8,0000*4B
$GPGSA,A,3,30,23,16,32,25,20,01,31,14,,,,1.6,0.9,1.4*3E
$GPRMC,205004.000,A,3352.8219,N,09831.7229,W,0.19,52.52,300312,,,D*49
$GPGGA,205005.000,3352.8220,N,09831.7230,W,2,09,0.9,302.7,M,-23.7,M,0.8,0000*4E
$GPGSA,A,3,30,23,16,32,25,20,01,31,14,,,,1.6,0.9,1.4*3E
$GPRMC,205005.000,A,3352.8220,N,09831.7230,W,0.08,72.62,300312,,,D*4B
$GPGGA,205006.000,3352.8221,N,09831.7232,W,2,09,0.9,302.5,M,-23.7,M,1.8,0000*4D
$GPGSA,A,3,30,23,16,32,25,20,01,31,14,,,,1.6,0.9,1.4*3E
$GPGSV,3,1,12,32,69,298,30,31,56,031,33,30,52,150,35,20,41,308,22*7F
$GPGSV,3,2,12,16,29,171,35,14,25,082,24,01,23,251,24,23,15,294,31*70
$GPGSV,3,3,12,25,11,038,32,22,09,145,31,11,09,234,29,51,49,195,40*7B
$GPRMC,205006.000,A,3352.8221,N,09831.7232,W,0.16,16.53,300312,,,D*44
$GPGGA,205007.000,3352.8221,N,09831.7234,W,2,09,0.9,302.4,M,-23.7,M,2.8,0000*48
$GPGSA,A,3,30,23,16,32,25,20,01,31,14,,,,1.6,0.9,1.4*3E
$GPRMC,205007.000,A,3352.8221,N,09831.7234,W,0.15,8.75,300312,,,D*7B
$GPGGA,205008.000,3352.8222,N,09831.7236,W,2,09,0.9,302.2,M,-23.7,M,3.8,0000*41
$GPGSA,A,3,30,23,16,32,25,20,01,31,14,,,,1.6,0.9,1.4*3E
$GPRMC,205008.000,A,3352.8222,N,09831.7236,W,0.15,331.96,300312,,,D*71
$GPGGA,205009.000,3352.8223,N,09831.7238,W,2,09,0.9,302.1,M,-23.7,M,0.8,0000*4F
$GPGSA,A,3,30,23,16,32,25,20,01,31,14,,,,1.6,0.9,1.4*3E
$GPRMC,205009.000,A,3352.8223,N,09831.7238,W,0.05,332.52,300312,,,D*75
$GPGGA,205010.000,3352.8223,N,09831.7240,W,2,09,0.9,302.0,M,-23.7,M,0.8,0000*49
$GPGSA,A,3,30,23,16,32,25,20,01,31,14,,,,1.6,0.9,1.4*3E
$GPRMC,205010.000,A,3352.8223,N,09831.7240,W,0.12,73.51,300312,,,D*41
$GPGGA,205011.000,3352.8224,N,09831.7241,W,2,09,0.9,301.8,M,-23.7,M,0.8,0000*45
$GPGSA,A,3,30,23,16,32,25,20,01,31,14,,,,1.6,0.9,1.4*3E
$GPGSV,3,1,12,32,69,298,30,31,56,031,33,30,52,150,35,20,41,308,23*7E
$GPGSV,3,2,12,16,29,171,35,14,25,082,24,01,23,251,25,23,15,294,31*71
$GPGSV,3,3,12,25,11,038,31,22,09,145,30,11,09,234,30,51,49,195,40*71
$GPRMC,205011.000,A,3352.8224,N,09831.7241,W,0.07,356.05,300312,,,D*77
$GPGGA,205012.000,3352.8224,N,09831.7243,W,2,09,0.9,301.7,M,-23.7,M,1.8,0000*4A
$GPGSA,A,3,30,23,16,32,25,20,01,31,14,,,,1.6,0.9,1.4*3E
$GPRMC,205012.000,A,3352.8224,N,09831.7243,W,0.14,346.98,300312,,,D*71
$GPGGA,205013.000,3352.8224,N,09831.7244,W,2,09,0.9,301.6,M,-23.7,M,2.8,0000*4E
$GPGSA,A,3,30,23,16,32,25,20,01,31,14,,,,1.6,0.9,1.4*3E
$GPRMC,205013.000,A,3352.8224,N,09831.7244,W,0.03,71.32,300312,,,D*46
$GPGGA,205014.000,3352.8225,N,09831.7246,W,2,09,0.9,301.5,M,-23.7,M,3.8,0000*48
$GPGSA,A,3,30,23,16,32,25,20,01,31,14,,,,1.6,0.9,1.4*3E
$GPRMC,205014.000,A,3352.8225,N,09831.7246,W,0.11,345.69,300312,,,D*7B
$GPGGA,205015.000,3352.8225,N,09831.7247,W,2,09,0.9,301.3,M,-23.7,M,0.8,0000*4D
$GPGSA,A,3,30,23,16,32,25,20,01,31,14,,,,1.6,0.9,1.4*3E
$GPRMC,205015.000,A,3352.8225,N,09831.7247,W,0.10,92.20,300312,,,D*4E
$GPGGA,205016.000,3352.8225,N,09831.7249,W,2,09,0.9,301.2,M,-23.7,M,0.8,0000*41
$GPGSA,A,3,30,23,16,32,25,20,01,31,14,,,,1.6,0.9,1.4*3E
$GPGSV,3,1,12,32,69,298,29,31,56,031,33,30,52,150,35,20,41,308,23*76
$GPGSV,3,2,12,16,29,171,35,14,25,082,24,01,23,251,25,23,15,294,30*70
$GPGSV,3,3,12,25,11,038,31,22,09,145,30,11,09,234,30,51,49,195,40*71
$GPRMC,205016.000,A,3352.8225,N,09831.7249,W,0.08,347.21,300312,,,D*70
$GPGGA,205017.000,3352.8226,N,09831.7250,W,2,09,0.9,301.1,M,-23.7,M,0.8,0000*48
$GPGSA,A,3,30,23,16,32,25,20,01,31,14,,,,1.6,0.9,1.4*3E
$GPRMC,205017.000,A,3352.8226,N,09831.7250,W,0.14,345.35,300312,,,D*70
$GPGGA,205018.000,3352.8226,N,09831.7252,W,2,09,0.9,301.1,M,-23.7,M,1.8,0000*44
$GPGSA,A,3,30,23,16,32,25,20,01,31,14,,,,1.6,0.9,1.4*3E
$GPRMC,205018.000,A,3352.8226,N,09831.7252,W,0.03,30.24,300312,,,D*4A
$GPGGA,205019.000,3352.8226,N,09831.7253,W,2,09,0.9,301.0,M,-23.7,M,0.8,0000*44
$GPGSA,A,3,30,23,16,32,25,20,01,31,14,,,,1.6,0.9,1.4*3E
$GPRMC,205019.000,A,3352.8226,N,09831.7253,W,0.11,46.51,300312,,,D*4A
$GPGGA,205020.000,3352.8226,N,09831.7254,W,2,09,0.9,300.9,M,-23.7,M,1.8,0000*40
$GPGSA,A,3,30,23,16,32,25,20,01,31,14,,,,1.6,0.9,1.4*3E
$GPRMC,205020.000,A,3352.8226,N,09831.7254,W,0.07,65.11,300312,,,D*45
$GPGGA,205021.000,3352.8226,N,09831.7255,W,2,09,0.9,300.9,M,-23.7,M,0.8,0000*41
$GPGSA,A,3,30,23,16,32,25,20,01,31,14,,,,1.6,0.9,1.4*3E
$GPGSV,3,1,12,32,69,298,29,31,56,031,33,30,52,150,35,20,41,308,23*76
$GPGSV,3,2,12,16,29,171,35,14,25,082,24,01,23,251,25,23,15,294,30*70
$GPGSV,3,3,12,25,11,038,31,22,09,145,30,11,09,234,31,51,49,195,39*7E
$GPRMC,205021.000,A,3352.8226,N,09831.7255,W,0.10,52.04,300312,,,D*43
$GPGGA,205022.000,3352.8227,N,09831.7256,W,2,09,0.9,300.8,M,-23.7,M,0.8,0000*41
$GPGSA,A,3,30,23,16,32,25,20,01,31,14,,,,1.6,0.9,1.4*3E
$GPRMC,205022.000,A,3352.8227,N,09831.7256,W,0.09,40.13,300312,,,D*4F
$GPGGA,205023.000,3352.8227,N,09831.7257,W,2,09,0.9,300.8,M,-23.7,M,0.8,0000*41
$GPGSA,A,3,30,23,16,32,25,20,01,31,14,,,,1.6,0.9,1.4*3E
$GPRMC,205023.000,A,3352.8227,N,09831.7257,W,0.12,312.29,300312,,,D*78
$GPGGA,205024.000,3352.8227,N,09831.7259,W,2,09,0.9,300.7,M,-23.7,M,1.8,0000*46
$GPGSA,A,3,30,23,16,32,25,20,01,31,14,,,,1.6,0.9,1.4*3E
$GPRMC,205024.000,A,3352.8227,N,09831.7259,W,0.19,305.91,300312,,,D*7F
$GPGGA,205025.000,3352.8227,N,09831.7260,W,2,09,0.9,300.7,M,-23.7,M,2.8,0000*4E
$GPGSA,A,3,30,23,16,32,25,20,01,31,14,,,,1.6,0.9,1.4*3E
$GPRMC,205025.000,A,3352.8227,N,09831.7260,W,0.07,328.78,300312,,,D*73
$GPGGA,205026.000,3352.8228,N,09831.7261,W,2,09,0.9,300.6,M,-23.7,M,0.8,0000*40
$GPGSA,A,3,30,23,16,32,25,20,01,31,14,,,,1.6,0.9,1.4*3E
$GPGSV,3,1,12,32,69,298,28,31,56,031,33,30,52,150,35,20,41,308,22*76
$GPGSV,3,2,12,16,29,171,35,14,25,082,24,01,23,251,25,23,15,294,30*70
$GPGSV,3,3,12,25,11,038,31,22,09,145,30,11,09,234,32,51,49,195,40*73
$GPRMC,205026.000,A,3352.8228,N,09831.7261,W,0.08,57.74,300312,,,D*46
$GPGGA,205027.000,3352.8227,N,09831.7262,W,2,09,0.9,300.4,M,-23.7,M,0.8,0000*4F
$GPGSA,A,3,30,23,16,32,25,20,01,31,14,,,,1.6,0.9,1.4*3E
$GPRMC,205027.000,A,3352.8227,N,09831.7262,W,0.12,122.61,300312,,,D*77
$GPGGA,205028.000,3352.8227,N,09831.7262,W,2,09,0.9,300.4,M,-23.7,M,0.8,0000*40
$GPGSA,A,3,30,23,16,32,25,20,01,31,14,,,,1.6,0.9,1.4*3E
$GPRMC,205028.000,A,3352.8227,N,09831.7262,W,0.04,10.43,300312,,,D*4F
$GPGGA,205029.000,3352.8227,N,09831.7263,W,2,09,0.9,300.4,M,-23.7,M,1.8,0000*41
$GPGSA,A,3,30,23,16,32,25,20,01,31,14,,,,1.6,0.9,1.4*3E
$GPRMC,205029.000,A,3352.8227,N,09831.7263,W,0.17,268.05,300312,,,D*72
$GPGGA,205030.000,3352.8227,N,09831.7265,W,2,09,0.9,300.3,M,-23.7,M,2.8,0000*4B
$GPGSA,A,3,30,23,16,32,25,20,01,31,14,,,,1.6,0.9,1.4*3E
$GPRMC,205030.000,A,3352.8227,N,09831.7265,W,0.08,280.40,300312,,,D*75
$GPGGA,205031.000,3352.8227,N,09831.7265,W,2,09,0.9,300.4,M,-23.7,M,3.8,0000*4C
$GPGSA,A,3,30,23,16,32,25,20,01,31,14,,,,1.6,0.9,1.4*3E
$GPGSV,3,1,12,32,69,298,28,31,56,031,33,30,52,150,35,20,41,308,21*75
$GPGSV,3,2,12,16,29,171,35,14,25,082,24,01,23,251,24,23,15,294,30*71
$GPGSV,3,3,12,25,11,038,30,22,09,145,30,11,09,234,33,51,49,195,40*73
$GPRMC,205031.000,A,3352.8227,N,09831.7265,W,0.14,45.85,300312,,,D*4B
$GPGGA,205032.000,3352.8227,N,09831.7265,W,2,09,0.9,300.4,M,-23.7,M,4.8,0000*48
$GPGSA,A,3,30,23,16,32,25,20,01,31,14,,,,1.6,0.9,1.4*3E
$GPRMC,205032.000,A,3352.8227,N,09831.7265,W,0.16,47.48,300312,,,D*49
$GPGGA,205033.000,3352.8227,N,09831.7266,W,2,09,0.9,300.4,M,-23.7,M,0.8,0000*4E
$GPGSA,A,3,30,23,16,32,25,20,01,31,14,,,,1.6,0.9,1.4*3E
$GPRMC,205033.000,A,3352.8227,N,09831.7266,W,0.07,104.15,300312,,,D*75
$GPGGA,205034.000,3352.8227,N,09831.7266,W,2,09,0.9,300.4,M,-23.7,M,0.8,0000*49
$GPGSA,A,3,30,23,16,32,25,20,01,31,14,,,,1.6,0.9,1.4*3E
$GPRMC,205034.000,A,3352.8227,N,09831.7266,W,0.18,83.65,300312,,,D*45
$GPGGA,205035.000,3352.8227,N,09831.7266,W,2,09,0.9,300.3,M,-23.7,M,0.8,0000*4F
$GPGSA,A,3,30,23,16,32,25,20,01,31,14,,,,1.6,0.9,1.4*3E
$GPRMC,205035.000,A,3352.8227,N,09831.7266,W,0.06,91.35,300312,,,D*4D
$GPGGA,205036.000,3352.8227,N,09831.7266,W,2,09,0.9,300.4,M,-23.7,M,0.8,0000*4B
$GPGSA,A,3,30,23,16,32,25,20,01,31,14,,,,1.6,0.9,1.4*3E
$GPGSV,3,1,12,32,69,298,27,31,56,031,32,30,52,150,36,20,41,308,20*79
$GPGSV,3,2,12,16,29,171,35,14,25,082,25,01,23,251,24,23,15,294,30*70
$GPGSV,3,3,12,25,11,038,30,22,09,145,29,11,09,234,33,51,49,195,40*7B
$GPRMC,205036.000,A,3352.8227,N,09831.7266,W,0.18,40.15,300312,,,D*4F
$GPGGA,205037.000,3352.8228,N,09831.7267,W,2,09,0.9,300.4,M,-23.7,M,1.8,0000*45
$GPGSA,A,3,30,23,16,32,25,20,01,31,14,,,,1.6,0.9,1.4*3E
$GPRMC,205037.000,A,3352.8228,N,09831.7267,W,0.20,30.83,300312,,,D*43
$GPGGA,205038.000,3352.8228,N,09831.7267,W,2,09,0.9,300.5,M,-23.7,M,2.8,0000*48
$GPGSA,A,3,30,23,16,32,25,20,01,31,14,,,,1.6,0.9,1.4*3E
$GPRMC,205038.000,A,3352.8228,N,09831.7267,W,0.13,22.89,300312,,,D*45
$GPGGA,205039.000,3352.8228,N,09831.7267,W,2,09,0.9,300.4,M,-23.7,M,0.8,0000*4A
$GPGSA,A,3,30,23,16,32,25,20,01,31,14,,,,1.6,0.9,1.4*3E
$GPRMC,205039.000,A,3352.8228,N,09831.7267,W,0.21,80.68,300312,,,D*42
$GPGGA,205040.000,3352.8228,N,09831.7267,W,2,09,0.9,300.4,M,-23.7,M,0.8,0000*44
$GPGSA,A,3,30,23,16,32,25,20,01,31,14,,,,1.6,0.9,1.4*3E
$GPRMC,205040.000,A,3352.8228,N,09831.7267,W,0.35,78.08,300312,,,D*48
$GPGGA,205041.000,3352.8228,N,09831.7266,W,2,09,0.9,300.3,M,-23.7,M,0.8,0000*43
$GPGSA,A,3,30,23,16,32,25,20,01,31,14,,,,1.6,0.9,1.4*3E
$GPGSV,3,1,12,32,69,298,27,31,56,031,31,30,52,150,36,20,41,308,20*7A
$GPGSV,3,2,12,16,29,171,34,14,25,082,24,01,23,251,24,23,15,294,30*70
$GPGSV,3,3,12,25,11,038,29,22,09,145,29,11,09,234,33,51,49,195,40*73
$GPRMC,205041.000,A,3352.8228,N,09831.7266,W,0.42,83.24,300312,,,D*42
$GPGGA,205042.000,3352.8228,N,09831.7265,W,2,09,0.9,300.4,M,-23.7,M,1.8,0000*45
$GPGSA,A,3,30,23,16,32,25,20,01,31,14,,,,1.6,0.9,1.4*3E
$GPRMC,205042.000,A,3352.8228,N,09831.7265,W,0.24,44.40,300312,,,D*4B
$GPGGA,205043.000,3352.8229,N,09831.7265,W,2,09,0.9,300.5,M,-23.7,M,2.8,0000*47
$GPGSA,A,3,30,23,16,32,25,20,01,31,14,,,,1.6,0.9,1.4*3E
$GPRMC,205043.000,A,3352.8229,N,09831.7265,W,0.18,30.89,300312,,,D*42
$GPGGA,205044.000,3352.8229,N,09831.7266,W,2,09,0.9,300.5,M,-23.7,M,0.8,0000*41
$GPGSA,A,3,30,23,16,32,25,20,01,31,14,,,,1.6,0.9,1.4*3E
$GPRMC,205044.000,A,3352.8229,N,09831.7266,W,0.19,302.30,300312,,,D*77
$GPGGA,205045.000,3352.8229,N,09831.7267,W,2,09,0.9,300.6,M,-23.7,M,0.8,0000*42
$GPGSA,A,3,30,23,16,32,25,20,01,31,14,,,,1.6,0.9,1.4*3E
$GPRMC,205045.000,A,3352.8229,N,09831.7267,W,0.17,73.18,300312,,,D*46
$GPGGA,205046.000,3352.8229,N,09831.7266,W,2,09,0.9,300.5,M,-23.7,M,0.8,0000*43
$GPGSA,A,3,30,23,16,32,25,20,01,31,14,,,,1.6,0.9,1.4*3E
$GPGSV,3,1,12,32,69,298,26,31,56,031,30,30,52,150,36,20,41,308,20*7A
$GPGSV,3,2,12,16,29,171,34,14,25,082,24,01,23,251,23,23,15,294,30*77
$GPGSV,3,3,12,25,11,038,29,22,09,145,29,11,09,234,34,51,49,195,40*74
$GPRMC,205046.000,A,3352.8229,N,09831.7266,W,0.18,77.95,300312,,,D*4A
$GPGGA,205047.000,3352.8229,N,09831.7267,W,2,09,0.9,300.5,M,-23.7,M,0.8,0000*43
$GPGSA,A,3,30,23,16,32,25,20,01,31,14,,,,1.6,0.9,1.4*3E
$GPRMC,205047.000,A,3352.8229,N,09831.7267,W,0.10,289.66,300312,,,D*7D
$GPGGA,205048.000,3352.8229,N,09831.7267,W,2,09,0.9,300.4,M,-23.7,M,1.8,0000*4C
$GPGSA,A,3,30,23,16,32,25,20,01,31,14,,,,1.6,0.9,1.4*3E
$GPRMC,205048.000,A,3352.8229,N,09831.7267,W,0.15,60.83,300312,,,D*49
$GPGGA,205049.000,3352.8229,N,09831.7267,W,2,09,0.9,300.4,M,-23.7,M,0.8,0000*4C
$GPGSA,A,3,30,23,16,32,25,20,01,31,14,,,,1.6,0.9,1.4*3E
$GPRMC,205049.000,A,3352.8229,N,09831.7267,W,0.17,62.18,300312,,,D*4A
$GPGGA,205050.000,3352.8229,N,09831.7267,W,2,09,0.9,300.4,M,-23.7,M,0.8,0000*44
$GPGSA,A,3,30,23,16,32,25,20,01,31,14,,,,1.6,0.9,1.4*3E
$GPRMC,205050.000,A,3352.8229,N,09831.7267,W,0.06,51.87,300312,,,D*44
$GPGGA,205051.000,3352.8229,N,09831.7268,W,2,09,0.9,300.4,M,-23.7,M,0.8,0000*4A
$GPGSA,A,3,30,23,16,32,25,20,01,31,14,,,,1.6,0.9,1.4*3E
$GPGSV,3,1,12,32,69,298,26,31,56,031,30,30,52,150,36,20,41,308,21*7B
$GPGSV,3,2,12,16,29,171,34,14,25,082,24,01,23,251,23,23,15,294,30*77
$GPGSV,3,3,12,25,11,038,29,22,09,145,28,11,09,234,34,51,49,195,40*75
$GPRMC,205051.000,A,3352.8229,N,09831.7268,W,0.10,324.07,300312,,,D*74
$GPGGA,205052.000,3352.8229,N,09831.7268,W,2,09,0.9,300.4,M,-23.7,M,0.8,0000*49
$GPGSA,A,3,30,23,16,32,25,20,01,31,14,,,,1.6,0.9,1.4*3E
$GPRMC,205052.000,A,3352.8229,N,09831.7268,W,0.22,48.60,300312,,,D*4E
$GPGGA,205053.000,3352.8230,N,09831.7267,W,2,09,0.9,300.4,M,-23.7,M,0.8,0000*4F
$GPGSA,A,3,30,23,16,32,25,20,01,31,14,,,,1.6,0.9,1.4*3E
$GPRMC,205053.000,A,3352.8230,N,09831.7267,W,0.37,77.58,300312,,,D*4B
$GPGGA,205054.000,3352.8230,N,09831.7266,W,2,09,0.9,300.5,M,-23.7,M,1.8,0000*49
$GPGSA,A,3,30,23,16,32,25,20,01,31,14,,,,1.6,0.9,1.4*3E
$GPRMC,205054.000,A,3352.8230,N,09831.7266,W,0.45,71.19,300312,,,D*4B
$GPGGA,205055.000,3352.8230,N,09831.7266,W,2,09,0.9,300.4,M,-23.7,M,2.8,0000*4A
$GPGSA,A,3,30,23,16,32,25,20,01,31,14,,,,1.6,0.9,1.4*3E
$GPRMC,205055.000,A,3352.8230,N,09831.7266,W,0.14,56.15,300312,,,D*47
$GPGGA,205056.000,3352.8230,N,09831.7266,W,2,09,0.9,300.4,M,-23.7,M,3.8,0000*48
$GPGSA,A,3,30,23,16,32,25,20,01,31,14,,,,1.6,0.9,1.4*3E
$GPGSV,3,1,12,32,69,298,26,31,56,031,30,30,52,150,36,20,41,308,21*7B
$GPGSV,3,2,12,16,29,171,33,14,25,082,24,01,23,251,24,23,15,294,30*77
$GPGSV,3,3,12,25,11,038,29,22,09,145,28,11,09,234,33,51,49,195,40*72
$GPRMC,205056.000,A,3352.8230,N,09831.7266,W,0.23,48.63,300312,,,D*4E
$GPGGA,205057.000,3352.8230,N,09831.7266,W,2,09,0.9,300.5,M,-23.7,M,0.8,0000*4B
$GPGSA,A,3,30,23,16,32,25,20,01,31,14,,,,1.6,0.9,1.4*3E
$GPRMC,205057.000,A,3352.8230,N,09831.7266,W,0.07,69.06,300312,,,D*49
$GPGGA,205058.000,3352.8230,N,09831.7266,W,2,09,0.9,300.4,M,-23.7,M,0.8,0000*45
$GPGSA,A,3,30,23,16,32,25,20,01,31,14,,,,1.6,0.9,1.4*3E
$GPRMC,205058.000,A,3352.8230,N,09831.7266,W,0.22,84.10,300312,,,D*45
$GPGGA,205059.000,3352.8230,N,09831.7266,W,2,09,0.9,300.4,M,-23.7,M,0.8,0000*44
$GPGSA,A,3,30,23,16,32,25,20,01,31,14,,,,1.6,0.9,1.4*3E
$GPRMC,205059.000,A,3352.8230,N,09831.7266,W,0.16,87.80,300312,,,D*49
$GPGGA,205100.000,3352.8230,N,09831.7266,W,2,09,0.9,300.4,M,-23.7,M,1.8,0000*48
$GPGSA,A,3,30,23,16,32,25,20,01,31,14,,,,1.6,0.9,1.4*3E
$GPRMC,205100.000,A,3352.8230,N,09831.7266,W,0.05,352.06,300312,,,D*73
$GPGGA,205101.000,3352.8230,N,09831.7267,W,2,09,0.9,300.4,M,-23.7,M,2.8,0000*4B
$GPGSA,A,3,30,23,16,32,25,20,01,31,14,,,,1.6,0.9,1.4*3E
$GPGSV,3,1,12,32,69,298,26,31,56,031,30,30,52,150,36,20,41,308,21*7B
$GPGSV,3,2,12,16,29,171,33,14,25,082,24,01,23,251,25,23,15,294,30*76
$GPGSV,3,3,12,25,11,038,29,22,09,145,27,11,09,234,33,51,49,195,40*7D
$GPRMC,205101.000,A,3352.8230,N,09831.7267,W,0.19,298.76,300312,,,D*7E
$GPGGA,205102.000,3352.8230,N,09831.7268,W,2,09,0.9,300.5,M,-23.7,M,3.8,0000*47
$GPGSA,A,3,30,23,16,32,25,20,01,31,14,,,,1.6,0.9,1.4*3E
$GPRMC,205102.000,A,3352.8230,N,09831.7268,W,0.26,297.17,300312,,,D*76
$GPGGA,205103.000,3352.8230,N,09831.7269,W,2,09,0.9,300.4,M,-23.7,M,0.8,0000*45
$GPGSA,A,3,30,23,16,32,25,20,01,31,14,,,,1.6,0.9,1.4*3E
$GPRMC,205103.000,A,3352.8230,N,09831.7269,W,0.10,339.31,300312,,,D*72
$GPGGA,205104.000,3352.8230,N,09831.7269,W,2,08,0.9,300.4,M,-23.7,M,0.8,0000*43
$GPGSA,A,3,30,23,16,32,25,01,31,14,,,,,1.7,0.9,1.4*3D
$GPRMC,205104.000,A,3352.8230,N,09831.7269,W,0.13,66.50,300312,,,D*48
$GPGGA,205105.000,3352.8230,N,09831.7269,W,2,08,0.9,300.3,M,-23.7,M,0.8,0000*45
$GPGSA,A,3,30,23,16,32,25,01,31,14,,,,,1.7,0.9,1.4*3D
$GPRMC,205105.000,A,3352.8230,N,09831.7269,W,0.10,63.71,300312,,,D*4C
$GPGGA,205106.000,3352.8230,N,09831.7270,W,2,08,0.9,300.3,M,-23.7,M,0.8,0000*4E
$GPGSA,A,3,30,23,16,32,25,01,31,14,,,,,1.7,0.9,1.4*3D
$GPGSV,3,1,12,32,69,298,26,31,56,031,30,30,52,150,36,20,41,308,*78
$GPGSV,3,2,12,16,29,171,32,14,25,082,24,01,23,251,26,23,15,294,30*74
$GPGSV,3,3,12,25,11,038,28,22,09,145,27,11,09,234,32,51,49,195,40*7D
$GPRMC,205106.000,A,3352.8230,N,09831.7270,W,0.08,331.16,300312,,,D*7B
$GPGGA,205107.000,3352.8230,N,09831.7270,W,2,08,0.9,300.3,M,-23.7,M,0.8,0000*4F
$GPGSA,A,3,30,23,16,32,25,01,31,14,,,,,1.7,0.9,1.4*3D
$GPRMC,205107.000,A,3352.8230,N,09831.7270,W,0.07,62.01,300312,,,D*46
$GPGGA,205108.000,3352.8230,N,09831.7270,W,2,08,0.9,300.2,M,-23.7,M,1.8,0000*40
$GPGSA,A,3,30,23,16,32,25,01,31,14,,,,,1.7,0.9,1.4*3D
$GPRMC,205108.000,A,3352.8230,N,09831.7270,W,0.17,73.60,300312,,,D*4F
$GPGGA,205109.000,3352.8230,N,09831.7270,W,2,08,0.9,300.3,M,-23.7,M,0.8,0000*41
$GPGSA,A,3,30,23,16,32,25,01,31,14,,,,,1.7,0.9,1.4*3D
$GPRMC,205109.000,A,3352.8230,N,09831.7270,W,0.08,314.66,300312,,,D*74
$GPGGA,205110.000,3352.8230,N,09831.7271,W,2,08,0.9,300.2,M,-23.7,M,0.8,0000*49
$GPGSA,A,3,30,23,16,32,25,01,31,14,,,,,1.7,0.9,1.4*3D
$GPRMC,205110.000,A,3352.8230,N,09831.7271,W,0.10,312.86,300312,,,D*7C
$GPGGA,205111.000,3352.8230,N,09831.7271,W,2,08,0.9,300.0,M,-23.7,M,0.8,0000*4A
$GPGSA,A,3,30,23,16,32,25,01,31,14,,,,,1.7,0.9,1.4*3D
$GPGSV,3,1,12,32,69,298,26,31,56,031,30,30,52,150,36,20,41,308,*78
$GPGSV,3,2,12,16,29,171,32,14,25,082,24,01,23,251,26,23,15,294,29*7C
$GPGSV,3,3,12,25,11,038,28,22,09,145,27,11,09,234,31,51,49,195,40*7E
$GPRMC,205111.000,A,3352.8230,N,09831.7271,W,0.10,46.76,300312,,,D*40
$GPGGA,205112.000,3352.8230,N,09831.7272,W,2,08,0.9,299.9,M,-23.7,M,1.8,0000*43
$GPGSA,A,3,30,23,16,32,25,01,31,14,,,,,1.7,0.9,1.4*3D
$GPRMC,205112.000,A,3352.8230,N,09831.7272,W,0.08,44.73,300312,,,D*4E
$GPGGA,205113.000,3352.8230,N,09831.7272,W,2,08,0.9,299.8,M,-23.7,M,2.8,0000*40
$GPGSA,A,3,30,23,16,32,25,01,31,14,,,,,1.7,0.9,1.4*3D
$GPRMC,205113.000,A,3352.8230,N,09831.7272,W,0.11,287.04,300312,,,D*7A
$GPGGA,205114.000,3352.8230,N,09831.7273,W,2,08,0.9,299.7,M,-23.7,M,3.8,0000*48
$GPGSA,A,3,30,23,16,32,25,01,31,14,,,,,1.7,0.9,1.4*3D
$GPRMC,205114.000,A,3352.8230,N,09831.7273,W,0.07,6.26,300312,,,D*70
$GPGGA,205115.000,3352.8229,N,09831.7273,W,2,08,0.9,299.5,M,-23.7,M,0.8,0000*40
$GPGSA,A,3,30,23,16,32,25,01,31,14,,,,,1.7,0.9,1.4*3D
$GPRMC,205115.000,A,3352.8229,N,09831.7273,W,0.02,50.99,300312,,,D*4B
$GPGGA,205116.000,3352.8229,N,09831.7274,W,2,08,0.9,299.4,M,-23.7,M,0.8,0000*45
$GPGSA,A,3,30,23,16,32,25,01,31,14,,,,,1.7,0.9,1.4*3D
$GPGSV,3,1,12,32,69,298,27,31,56,031,30,30,52,150,36,20,41,308,*79
$GPGSV,3,2,12,16,29,171,31,14,25,082,24,01,23,251,27,23,15,294,29*7E
$GPGSV,3,3,12,25,11,038,28,22,09,145,26,11,09,234,30,51,49,195,40*7E
$GPRMC,205116.000,A,3352.8229,N,09831.7274,W,0.07,65.15,300312,,,D*48
$GPGGA,205117.000,3352.8229,N,09831.7274,W,2,08,0.9,299.3,M,-23.7,M,0.8,0000*43
$GPGSA,A,3,30,23,16,32,25,01,31,14,,,,,1.7,0.9,1.4*3D
$GPRMC,205117.000,A,3352.8229,N,09831.7274,W,0.07,81.00,300312,,,D*47
$GPGGA,205118.000,3352.8229,N,09831.7274,W,2,08,0.9,299.2,M,-23.7,M,1.8,0000*4C
$GPGSA,A,3,30,23,16,32,25,01,31,14,,,,,1.7,0.9,1.4*3D
$GPRMC,205118.000,A,3352.8229,N,09831.7274,W,0.10,70.13,300312,,,D*42
$GPGGA,205119.000,3352.8229,N,09831.7274,W,2,08,0.9,299.1,M,-23.7,M,0.8,0000*4F
$GPGSA,A,3,30,23,16,32,25,01,31,14,,,,,1.7,0.9,1.4*3D
$GPRMC,205119.000,A,3352.8229,N,09831.7274,W,0.19,77.45,300312,,,D*4E
$GPGGA,205120.000,3352.8229,N,09831.7275,W,2,09,0.9,299.6,M,-23.7,M,1.8,0000*43
