$GPGGA,162557.000,3352.3760,N,09831.1645,W,2,10,1.2,287.3,M,-23.7,M,0.8,0000*4E
$GPGSA,A,3,18,22,15,14,06,19,27,21,03,09,,,2.1,1.2,1.7*3E
$GPRMC,162557.000,A,3352.3760,N,09831.1645,W,0.10,144.58,290312,,,D*7D
$GPGGA,162558.000,3352.3760,N,09831.1644,W,2,10,1.2,287.6,M,-23.7,M,1.8,0000*44
$GPGSA,A,3,18,22,15,14,06,19,27,21,03,09,,,2.1,1.2,1.7*3E
$GPGSV,3,1,11,18,58,047,37,21,54,147,34,22,54,317,40,14,49,234,38*79
$GPGSV,3,2,11,09,38,071,40,06,26,260,32,27,23,049,37,03,21,271,31*74
$GPGSV,3,3,11,15,16,047,35,19,15,309,32,51,49,195,37*48
$GPRMC,162558.000,A,3352.3760,N,09831.1644,W,0.10,146.08,290312,,,D*74
$GPGGA,162559.000,3352.3760,N,09831.1644,W,2,10,1.2,287.8,M,-23.7,M,2.8,0000*48
$GPGSA,A,3,18,22,15,14,06,19,27,21,03,09,,,2.1,1.2,1.7*3E
$GPRMC,162559.000,A,3352.3760,N,09831.1644,W,0.10,146.67,290312,,,D*7C
$GPGGA,162600.000,3352.3760,N,09831.1644,W,2,10,1.2,288.0,M,-23.7,M,3.8,0000*41
$GPGSA,A,3,18,22,15,14,06,19,27,21,03,09,,,2.1,1.2,1.7*3E
$GPRMC,162600.000,A,3352.3760,N,09831.1644,W,0.06,135.18,290312,,,D*78
$GPGGA,162601.000,3352.3760,N,09831.1644,W,2,10,1.2,288.2,M,-23.7,M,0.8,0000*41
$GPGSA,A,3,18,22,15,14,06,19,27,21,03,09,,,2.1,1.2,1.7*3E
$GPRMC,162601.000,A,3352.3760,N,09831.1644,W,0.06,122.70,290312,,,D*71
$GPGGA,162602.000,3352.3760,N,09831.1644,W,2,10,1.2,288.4,M,-23.7,M,0.8,0000*44
$GPGSA,A,3,18,22,15,14,06,19,27,21,03,09,,,2.1,1.2,1.7*3E
$GPRMC,162602.000,A,3352.3760,N,09831.1644,W,0.06,134.83,290312,,,D*79
$GPGGA,162603.000,3352.3760,N,09831.1644,W,2,10,1.2,288.5,M,-23.7,M,0.8,0000*44
$GPGSA,A,3,18,22,15,14,06,19,27,21,03,09,,,2.1,1.2,1.7*3E
$GPGSV,3,1,11,18,58,047,37,21,54,147,34,22,54,317,40,14,49,234,38*79
$GPGSV,3,2,11,09,38,071,40,06,26,260,32,27,23,049,37,03,21,271,30*75
$GPGSV,3,3,11,15,16,047,35,19,15,309,32,51,49,195,37*48
$GPRMC,162603.000,A,3352.3760,N,09831.1644,W,0.09,117.31,290312,,,D*7F
$GPGGA,162604.000,3352.3761,N,09831.1644,W,2,10,1.2,288.5,M,-23.7,M,0.8,0000*42
$GPGSA,A,3,18,22,15,14,06,19,27,21,03,09,,,2.1,1.2,1.7*3E
$GPRMC,162604.000,A,3352.3761,N,09831.1644,W,0.10,118.89,290312,,,D*7D
$GPGGA,162605.000,3352.3761,N,09831.1643,W,2,10,1.2,288.6,M,-23.7,M,0.8,0000*47
$GPGSA,A,3,18,22,15,14,06,19,27,21,03,09,,,2.1,1.2,1.7*3E
$GPRMC,162605.000,A,3352.3761,N,09831.1643,W,0.10,116.00,290312,,,D*74
$GPGGA,162606.000,3352.3761,N,09831.1643,W,2,10,1.2,288.6,M,-23.7,M,0.8,0000*44
$GPGSA,A,3,18,22,15,14,06,19,27,21,03,09,,,2.1,1.2,1.7*3E
$GPRMC,162606.000,A,3352.3761,N,09831.1643,W,0.07,118.28,290312,,,D*75
$GPGGA,162607.000,3352.3761,N,09831.1643,W,2,10,1.2,288.6,M,-23.7,M,0.8,0000*45
$GPGSA,A,3,18,22,15,14,06,19,27,21,03,09,,,2.1,1.2,1.7*3E
$GPRMC,162607.000,A,3352.3761,N,09831.1643,W,0.10,138.32,290312,,,D*7B
$GPGGA,162608.000,3352.3761,N,09831.1643,W,2,10,1.2,288.7,M,-23.7,M,0.8,0000*4B
$GPGSA,A,3,18,22,15,14,06,19,27,21,03,09,,,2.1,1.2,1.7*3E
$GPGSV,3,1,11,18,58,047,37,21,54,147,34,22,54,317,40,14,49,234,38*79
$GPGSV,3,2,11,09,38,071,40,06,26,260,32,27,23,049,37,03,21,271,30*75
$GPGSV,3,3,11,15,16,047,35,19,15,309,32,51,49,195,37*48
$GPRMC,162608.000,A,3352.3761,N,09831.1643,W,0.17,129.65,290312,,,D*71
$GPGGA,162609.000,3352.3760,N,09831.1642,W,2,10,1.2,288.8,M,-23.7,M,1.8,0000*44
$GPGSA,A,3,18,22,15,14,06,19,27,21,03,09,,,2.1,1.2,1.7*3E
$GPRMC,162609.000,A,3352.3760,N,09831.1642,W,0.17,132.95,290312,,,D*75
$GPGGA,162610.000,3352.3760,N,09831.1642,W,2,10,1.2,288.8,M,-23.7,M,2.8,0000*4F
$GPGSA,A,3,18,22,15,14,06,19,27,21,03,09,,,2.1,1.2,1.7*3E
$GPRMC,162610.000,A,3352.3760,N,09831.1642,W,0.18,131.58,290312,,,D*70
$GPGGA,162611.000,3352.3760,N,09831.1641,W,2,10,1.2,288.9,M,-23.7,M,0.8,0000*4E
$GPGSA,A,3,18,22,15,14,06,19,27,21,03,09,,,2.1,1.2,1.7*3E
$GPRMC,162611.000,A,3352.3760,N,09831.1641,W,0.15,128.59,290312,,,D*76
$GPGGA,162612.000,3352.3760,N,09831.1641,W,2,10,1.2,288.9,M,-23.7,M,1.8,0000*4C
$GPGSA,A,3,18,22,15,14,06,19,27,21,03,09,,,2.1,1.2,1.7*3E
$GPRMC,162612.000,A,3352.3760,N,09831.1641,W,0.24,138.91,290312,,,D*72
$GPGGA,162613.000,3352.3759,N,09831.1640,W,2,10,1.2,288.9,M,-23.7,M,0.8,0000*47
$GPGSA,A,3,18,22,15,14,06,19,27,21,03,09,,,2.1,1.2,1.7*3E
$GPGSV,3,1,11,18,58,047,38,21,54,147,35,22,54,317,40,14,49,234,38*77
$GPGSV,3,2,11,09,38,071,40,06,26,260,32,27,23,049,37,03,21,271,29*7D
$GPGSV,3,3,11,15,16,047,35,19,15,309,32,51,49,195,37*48
$GPRMC,162613.000,A,3352.3759,N,09831.1640,W,0.14,124.15,290312,,,D*7A
$GPGGA,162614.000,3352.3759,N,09831.1640,W,2,10,1.2,288.9,M,-23.7,M,0.8,0000*40
$GPGSA,A,3,18,22,15,14,06,19,27,21,03,09,,,2.1,1.2,1.7*3E
$GPRMC,162614.000,A,3352.3759,N,09831.1640,W,0.17,147.91,290312,,,D*77
$GPGGA,162615.000,3352.3759,N,09831.1640,W,2,10,1.2,289.0,M,-23.7,M,0.8,0000*49
$GPGSA,A,3,18,22,15,14,06,19,27,21,03,09,,,2.1,1.2,1.7*3E
$GPRMC,162615.000,A,3352.3759,N,09831.1640,W,0.06,161.91,290312,,,D*72
$GPGGA,162616.000,3352.3759,N,09831.1640,W,2,10,1.2,289.0,M,-23.7,M,1.8,0000*4B
$GPGSA,A,3,18,22,15,14,06,19,27,21,03,09,,,2.1,1.2,1.7*3E
$GPRMC,162616.000,A,3352.3759,N,09831.1640,W,0.09,152.88,290312,,,D*76
$GPGGA,162617.000,3352.3759,N,09831.1640,W,2,10,1.2,289.1,M,-23.7,M,2.8,0000*48
$GPGSA,A,3,18,22,15,14,06,19,27,21,03,09,,,2.1,1.2,1.7*3E
$GPRMC,162617.000,A,3352.3759,N,09831.1640,W,0.10,153.17,290312,,,D*78
$GPGGA,162618.000,3352.3759,N,09831.1640,W,2,10,1.2,289.2,M,-23.7,M,3.8,0000*45
$GPGSA,A,3,18,22,15,14,06,19,27,21,03,09,,,2.1,1.2,1.7*3E
$GPGSV,3,1,11,18,58,047,38,21,54,147,35,22,54,317,40,14,49,234,38*77
$GPGSV,3,2,11,09,38,071,40,06,26,260,32,27,23,049,37,03,21,271,29*7D
$GPGSV,3,3,11,15,16,047,35,19,15,309,33,51,49,195,37*49
$GPRMC,162618.000,A,3352.3759,N,09831.1640,W,0.08,150.63,290312,,,D*7E
$GPGGA,162619.000,3352.3759,N,09831.1640,W,2,10,1.2,289.3,M,-23.7,M,0.8,0000*46
$GPGSA,A,3,18,22,15,14,06,19,27,21,03,09,,,2.1,1.2,1.7*3E
$GPRMC,162619.000,A,3352.3759,N,09831.1640,W,0.08,157.12,290312,,,D*7E
$GPGGA,162620.000,3352.3760,N,09831.1640,W,2,10,1.2,289.4,M,-23.7,M,0.8,0000*41
$GPGSA,A,3,18,22,15,14,06,19,27,21,03,09,,,2.1,1.2,1.7*3E
$GPRMC,162620.000,A,3352.3760,N,09831.1640,W,0.10,140.27,290312,,,D*77
$GPGGA,162621.000,3352.3760,N,09831.1640,W,2,10,1.2,289.5,M,-23.7,M,0.8,0000*41
$GPGSA,A,3,18,22,15,14,06,19,27,21,03,09,,,2.1,1.2,1.7*3E
$GPRMC,162621.000,A,3352.3760,N,09831.1640,W,0.14,140.68,290312,,,D*79
$GPGGA,162622.000,3352.3760,N,09831.1640,W,2,10,1.2,289.7,M,-23.7,M,1.8,0000*41
$GPGSA,A,3,18,22,15,14,06,19,27,21,03,09,,,2.1,1.2,1.7*3E
$GPRMC,162622.000,A,3352.3760,N,09831.1640,W,0.14,147.06,290312,,,D*75
$GPGGA,162623.000,3352.3760,N,09831.1640,W,2,10,1.2,289.8,M,-23.7,M,2.8,0000*4C
$GPGSA,A,3,18,22,15,14,06,19,27,21,03,09,,,2.1,1.2,1.7*3E
$GPGSV,3,1,11,18,58,047,38,21,54,147,35,22,54,317,40,14,49,234,38*77
$GPGSV,3,2,11,09,38,071,40,06,26,260,33,27,23,049,37,03,21,271,28*7D
$GPGSV,3,3,11,15,16,047,35,19,15,309,32,51,49,195,37*48
$GPRMC,162623.000,A,3352.3760,N,09831.1640,W,0.15,147.62,290312,,,D*77
$GPGGA,162624.000,3352.3760,N,09831.1640,W,2,10,1.2,289.9,M,-23.7,M,0.8,0000*48
$GPGSA,A,3,18,22,15,14,06,19,27,21,03,09,,,2.1,1.2,1.7*3E
$GPRMC,162624.000,A,3352.3760,N,09831.1640,W,0.11,143.86,290312,,,D*7A
$GPGGA,162625.000,3352.3760,N,09831.1640,W,2,10,1.2,289.9,M,-23.7,M,0.8,0000*49
$GPGSA,A,3,18,22,15,14,06,19,27,21,03,09,,,2.1,1.2,1.7*3E
$GPRMC,162625.000,A,3352.3760,N,09831.1640,W,0.13,145.32,290312,,,D*70
$GPGGA,162626.000,3352.3760,N,09831.1640,W,2,10,1.2,290.0,M,-23.7,M,0.8,0000*4B
$GPGSA,A,3,18,22,15,14,06,19,27,21,03,09,,,2.1,1.2,1.7*3E
$GPRMC,162626.000,A,3352.3760,N,09831.1640,W,0.13,128.88,290312,,,D*79
$GPGGA,162627.000,3352.3760,N,09831.1640,W,2,10,1.2,290.1,M,-23.7,M,0.8,0000*4B
$GPGSA,A,3,18,22,15,14,06,19,27,21,03,09,,,2.1,1.2,1.7*3E
$GPRMC,162627.000,A,3352.3760,N,09831.1640,W,0.13,111.11,290312,,,D*72
$GPGGA,162628.000,3352.3760,N,09831.1640,W,2,10,1.2,290.1,M,-23.7,M,1.8,0000*45
$GPGSA,A,3,18,22,15,14,06,19,27,21,03,09,,,2.1,1.2,1.7*3E
$GPGSV,3,1,11,18,58,047,38,21,54,147,35,22,54,317,40,14,49,234,38*77
$GPGSV,3,2,11,09,38,071,40,06,26,260,33,27,23,049,37,03,21,271,23*76
$GPGSV,3,3,11,15,16,047,35,19,15,309,32,51,49,195,37*48
$GPRMC,162628.000,A,3352.3760,N,09831.1640,W,0.14,110.94,290312,,,D*76
$GPGGA,162629.000,3352.3760,N,09831.1640,W,2,10,1.2,290.1,M,-23.7,M,2.8,0000*47
$GPGSA,A,3,18,22,15,14,06,19,27,21,03,09,,,2.1,1.2,1.7*3E
$GPRMC,162629.000,A,3352.3760,N,09831.1640,W,0.07,150.99,290312,,,D*7C
$GPGGA,162630.000,3352.3761,N,09831.1640,W,2,10,1.2,290.1,M,-23.7,M,3.8,0000*4F
$GPGSA,A,3,18,22,15,14,06,19,27,21,03,09,,,2.1,1.2,1.7*3E
$GPRMC,162630.000,A,3352.3761,N,09831.1640,W,0.10,116.85,290312,,,D*7C
$GPGGA,162631.000,3352.3762,N,09831.1641,W,2,10,1.2,290.1,M,-23.7,M,0.8,0000*4F
$GPGSA,A,3,18,22,15,14,06,19,27,21,03,09,,,2.1,1.2,1.7*3E
$GPRMC,162631.000,A,3352.3762,N,09831.1641,W,0.09,147.75,290312,,,D*7C
$GPGGA,162632.000,3352.3763,N,09831.1641,W,2,10,1.2,290.0,M,-23.7,M,0.8,0000*4C
$GPGSA,A,3,18,22,15,14,06,19,27,21,03,09,,,2.1,1.2,1.7*3E
$GPRMC,162632.000,A,3352.3763,N,09831.1641,W,0.10,132.13,290312,,,D*74
$GPGGA,162633.000,3352.3764,N,09831.1641,W,2,10,1.2,290.1,M,-23.7,M,0.8,0000*4B
$GPGSA,A,3,18,22,15,14,06,19,27,21,03,09,,,2.1,1.2,1.7*3E
$GPGSV,3,1,11,18,58,047,38,21,54,147,35,22,54,317,40,14,49,234,38*77
$GPGSV,3,2,11,09,38,071,39,06,26,260,32,27,23,049,37,03,21,271,25*7F
$GPGSV,3,3,11,15,16,047,35,19,15,309,32,51,49,195,37*48
$GPRMC,162633.000,A,3352.3764,N,09831.1641,W,0.08,155.75,290312,,,D*7A
$GPGGA,162634.000,3352.3764,N,09831.1642,W,2,10,1.2,290.1,M,-23.7,M,0.8,0000*4F
$GPGSA,A,3,18,22,15,14,06,19,27,21,03,09,,,2.1,1.2,1.7*3E
$GPRMC,162634.000,A,3352.3764,N,09831.1642,W,0.09,153.77,290312,,,D*7B
$GPGGA,162635.000,3352.3765,N,09831.1642,W,2,10,1.2,290.2,M,-23.7,M,1.8,0000*4D
$GPGSA,A,3,18,22,15,14,06,19,27,21,03,09,,,2.1,1.2,1.7*3E
$GPRMC,162635.000,A,3352.3765,N,09831.1642,W,0.09,160.56,290312,,,D*78
$GPGGA,162636.000,3352.3766,N,09831.1642,W,2,10,1.2,290.2,M,-23.7,M,0.8,0000*4C
$GPGSA,A,3,18,22,15,14,06,19,27,21,03,09,,,2.1,1.2,1.7*3E
$GPRMC,162636.000,A,3352.3766,N,09831.1642,W,0.09,151.57,290312,,,D*7B
$GPGGA,162637.000,3352.3766,N,09831.1642,W,2,10,1.2,290.2,M,-23.7,M,0.8,0000*4D
$GPGSA,A,3,18,22,15,14,06,19,27,21,03,09,,,2.1,1.2,1.7*3E
$GPRMC,162637.000,A,3352.3766,N,09831.1642,W,0.15,140.45,290312,,,D*74
$GPGGA,162638.000,3352.3766,N,09831.1643,W,2,10,1.2,290.3,M,-23.7,M,0.8,0000*42
$GPGSA,A,3,18,22,15,14,06,19,27,21,03,09,,,2.1,1.2,1.7*3E
$GPGSV,3,1,11,18,58,047,38,21,54,147,35,22,54,317,40,14,49,234,38*77
$GPGSV,3,2,11,09,38,071,39,06,26,260,32,27,23,049,37,03,21,271,26*7C
$GPGSV,3,3,11,15,16,047,35,19,15,309,32,51,49,195,37*48
$GPRMC,162638.000,A,3352.3766,N,09831.1643,W,0.08,154.79,290312,,,D*7C
$GPGGA,162639.000,3352.3767,N,09831.1643,W,2,10,1.2,290.2,M,-23.7,M,0.8,0000*43
$GPGSA,A,3,18,22,15,14,06,19,27,21,03,09,,,2.1,1.2,1.7*3E
$GPRMC,162639.000,A,3352.3767,N,09831.1643,W,0.10,126.58,290312,,,D*73
$GPGGA,162640.000,3352.3767,N,09831.1642,W,2,10,1.2,290.1,M,-23.7,M,1.8,0000*4E
$GPGSA,A,3,18,22,15,14,06,19,27,21,03,09,,,2.1,1.2,1.7*3E
$GPRMC,162640.000,A,3352.3767,N,09831.1642,W,0.18,136.19,290312,,,D*70
$GPGGA,162641.000,3352.3767,N,09831.1642,W,2,10,1.2,290.0,M,-23.7,M,2.8,0000*4D
$GPGSA,A,3,18,22,15,14,06,19,27,21,03,09,,,2.1,1.2,1.7*3E
$GPRMC,162641.000,A,3352.3767,N,09831.1642,W,0.07,121.22,290312,,,D*71
$GPGGA,162642.000,3352.3767,N,09831.1642,W,2,10,1.2,289.7,M,-23.7,M,3.8,0000*40
$GPGSA,A,3,18,22,15,14,06,19,27,21,03,09,,,2.1,1.2,1.7*3E
$GPRMC,162642.000,A,3352.3767,N,09831.1642,W,0.19,137.39,290312,,,D*70
$GPGGA,162643.000,3352.3767,N,09831.1641,W,2,10,1.2,289.6,M,-23.7,M,0.8,0000*40
$GPGSA,A,3,18,22,15,14,06,19,27,21,03,09,,,2.1,1.2,1.7*3E
$GPGSV,3,1,11,18,58,047,38,21,54,147,35,22,54,317,40,14,49,234,38*77
$GPGSV,3,2,11,09,38,071,39,06,26,260,32,27,23,049,36,03,21,271,26*7D
$GPGSV,3,3,11,15,16,047,35,19,15,309,33,51,49,195,37*49
$GPRMC,162643.000,A,3352.3767,N,09831.1641,W,0.14,134.71,290312,,,D*70
$GPGGA,162644.000,3352.3767,N,09831.1641,W,2,10,1.2,289.5,M,-23.7,M,0.8,0000*44
$GPGSA,A,3,18,22,15,14,06,19,27,21,03,09,,,2.1,1.2,1.7*3E
$GPRMC,162644.000,A,3352.3767,N,09831.1641,W,0.05,147.31,290312,,,D*77
$GPGGA,162645.000,3352.3767,N,09831.1641,W,2,10,1.2,289.5,M,-23.7,M,0.8,0000*45
$GPGSA,A,3,18,22,15,14,06,19,27,21,03,09,,,2.1,1.2,1.7*3E
$GPRMC,162645.000,A,3352.3767,N,09831.1641,W,0.14,159.52,290312,,,D*7C
$GPGGA,162646.000,3352.3766,N,09831.1641,W,2,10,1.2,289.4,M,-23.7,M,1.8,0000*47
$GPGSA,A,3,18,22,15,14,06,19,27,21,03,09,,,2.1,1.2,1.7*3E
$GPRMC,162646.000,A,3352.3766,N,09831.1641,W,0.11,166.90,290312,,,D*79
$GPGGA,162647.000,3352.3766,N,09831.1641,W,2,10,1.2,289.4,M,-23.7,M,2.8,0000*45
$GPGSA,A,3,18,22,15,14,06,19,27,21,03,09,,,2.1,1.2,1.7*3E
$GPRMC,162647.000,A,3352.3766,N,09831.1641,W,0.11,163.93,290312,,,D*7E
$GPGGA,162648.000,3352.3766,N,09831.1641,W,2,10,1.2,289.4,M,-23.7,M,3.8,0000*4B
$GPGSA,A,3,18,22,15,14,06,19,27,21,03,09,,,2.1,1.2,1.7*3E
$GPGSV,3,1,11,18,58,047,38,21,54,147,35,22,54,317,41,14,49,234,38*76
$GPGSV,3,2,11,09,38,071,39,06,26,260,33,27,23,049,36,03,21,271,25*7F
$GPGSV,3,3,11,15,16,047,35,19,15,309,33,51,49,195,37*49
$GPRMC,162648.000,A,3352.3766,N,09831.1641,W,0.10,139.29,290312,,,D*7E
$GPGGA,162649.000,3352.3765,N,09831.1640,W,2,10,1.2,289.3,M,-23.7,M,0.8,0000*4C
$GPGSA,A,3,18,22,15,14,06,19,27,21,03,09,,,2.1,1.2,1.7*3E
$GPRMC,162649.000,A,3352.3765,N,09831.1640,W,0.11,171.69,290312,,,D*74
$GPGGA,162650.000,3352.3764,N,09831.1640,W,2,10,1.2,289.2,M,-23.7,M,0.8,0000*44
$GPGSA,A,3,18,22,15,14,06,19,27,21,03,09,,,2.1,1.2,1.7*3E
$GPRMC,162650.000,A,3352.3764,N,09831.1640,W,0.16,167.55,290312,,,D*72
$GPGGA,162651.000,3352.3763,N,09831.1639,W,2,10,1.2,289.1,M,-23.7,M,0.8,0000*4F
$GPGSA,A,3,18,22,15,14,06,19,27,21,03,09,,,2.1,1.2,1.7*3E
$GPRMC,162651.000,A,3352.3763,N,09831.1639,W,0.17,122.95,290312,,,D*76
$GPGGA,162652.000,3352.3763,N,09831.1639,W,2,10,1.2,289.0,M,-23.7,M,0.8,0000*4D
$GPGSA,A,3,18,22,15,14,06,19,27,21,03,09,,,2.1,1.2,1.7*3E
$GPRMC,162652.000,A,3352.3763,N,09831.1639,W,0.17,123.66,290312,,,D*78
$GPGGA,162653.000,3352.3762,N,09831.1638,W,2,10,1.2,288.9,M,-23.7,M,1.8,0000*45
$GPGSA,A,3,18,22,15,14,06,19,27,21,03,09,,,2.1,1.2,1.7*3E
$GPGSV,3,1,11,18,58,047,38,21,54,147,35,22,54,317,41,14,49,234,37*79
$GPGSV,3,2,11,09,38,071,39,06,26,260,33,27,23,049,36,03,21,271,24*7E
$GPGSV,3,3,11,15,16,047,35,19,15,309,33,51,49,195,37*49
$GPRMC,162653.000,A,3352.3762,N,09831.1638,W,0.16,134.29,290312,,,D*75
$GPGGA,162654.000,3352.3761,N,09831.1637,W,2,10,1.2,288.8,M,-23.7,M,2.8,0000*4C
$GPGSA,A,3,18,22,15,14,06,19,27,21,03,09,,,2.1,1.2,1.7*3E
$GPRMC,162654.000,A,3352.3761,N,09831.1637,W,0.16,128.54,290312,,,D*79
$GPGGA,162655.000,3352.3760,N,09831.1636,W,2,10,1.2,288.7,M,-23.7,M,0.8,0000*40
$GPGSA,A,3,18,22,15,14,06,19,27,21,03,09,,,2.1,1.2,1.7*3E
$GPRMC,162655.000,A,3352.3760,N,09831.1636,W,0.16,130.18,290312,,,D*79
$GPGGA,162656.000,3352.3759,N,09831.1636,W,2,10,1.1,288.6,M,-23.7,M,0.8,0000*4B
$GPGSA,A,3,18,22,15,14,06,19,27,21,03,09,,,2.1,1.1,1.7*3D
$GPRMC,162656.000,A,3352.3759,N,09831.1636,W,0.13,126.68,290312,,,D*75
$GPGGA,162657.000,3352.3759,N,09831.1635,W,2,10,1.1,288.5,M,-23.7,M,0.8,0000*4A
$GPGSA,A,3,18,22,15,14,06,19,27,21,03,09,,,2.1,1.1,1.7*3D
$GPRMC,162657.000,A,3352.3759,N,09831.1635,W,0.10,160.76,290312,,,D*79
$GPGGA,162658.000,3352.3758,N,09831.1635,W,2,10,1.1,288.5,M,-23.7,M,0.8,0000*44
$GPGSA,A,3,18,22,15,14,06,19,27,21,03,09,,,2.1,1.1,1.7*3D
$GPGSV,3,1,11,18,58,047,39,21,54,147,34,22,54,317,41,14,49,234,37*79
$GPGSV,3,2,11,09,38,071,39,06,26,260,33,27,23,049,36,03,21,271,24*7E
$GPGSV,3,3,11,15,16,047,35,19,15,309,33,51,49,195,37*49
$GPRMC,162658.000,A,3352.3758,N,09831.1635,W,0.12,173.09,290312,,,D*7F
$GPGGA,162659.000,3352.3757,N,09831.1635,W,2,10,1.1,288.4,M,-23.7,M,1.8,0000*4A
$GPGSA,A,3,18,22,15,14,06,19,27,21,03,09,,,2.1,1.1,1.7*3D
$GPRMC,162659.000,A,3352.3757,N,09831.1635,W,0.14,172.15,290312,,,D*7B
$GPGGA,162700.000,3352.3756,N,09831.1634,W,2,10,1.1,288.5,M,-23.7,M,0.8,0000*47
$GPGSA,A,3,18,22,15,14,06,19,27,21,03,09,,,2.1,1.1,1.7*3D
$GPRMC,162700.000,A,3352.3756,N,09831.1634,W,0.07,145.72,290312,,,D*71
$GPGGA,162701.000,3352.3756,N,09831.1634,W,2,10,1.1,288.5,M,-23.7,M,0.8,0000*46
$GPGSA,A,3,18,22,15,14,06,19,27,21,03,09,,,2.1,1.1,1.7*3D
$GPRMC,162701.000,A,3352.3756,N,09831.1634,W,0.10,154.61,290312,,,D*74
$GPGGA,162702.000,3352.3755,N,09831.1634,W,2,10,1.1,288.4,M,-23.7,M,0.8,0000*47
$GPGSA,A,3,18,22,15,14,06,19,27,21,03,09,,,2.1,1.1,1.7*3D
$GPRMC,162702.000,A,3352.3755,N,09831.1634,W,0.14,149.81,290312,,,D*72
$GPGGA,162703.000,3352.3754,N,09831.1633,W,2,10,1.1,288.3,M,-23.7,M,0.8,0000*47
$GPGSA,A,3,18,22,15,14,06,19,27,21,03,09,,,2.1,1.1,1.7*3D
$GPGSV,3,1,11,18,58,047,39,21,54,147,34,22,54,317,41,14,49,234,37*79
$GPGSV,3,2,11,09,38,071,39,06,26,260,33,27,23,049,36,03,21,271,24*7E
$GPGSV,3,3,11,15,16,047,35,19,15,309,33,51,49,195,37*49
$GPRMC,162703.000,A,3352.3754,N,09831.1633,W,0.16,133.96,290312,,,D*7C
$GPGGA,162704.000,3352.3754,N,09831.1633,W,2,10,1.1,288.2,M,-23.7,M,1.8,0000*40
$GPGSA,A,3,18,22,15,14,06,19,27,21,03,09,,,2.1,1.1,1.7*3D
$GPRMC,162704.000,A,3352.3754,N,09831.1633,W,0.15,132.35,290312,,,D*70
$GPGGA,162705.000,3352.3753,N,09831.1632,W,2,10,1.1,288.2,M,-23.7,M,0.8,0000*46
$GPGSA,A,3,18,22,15,14,06,19,27,21,03,09,,,2.1,1.1,1.7*3D
$GPRMC,162705.000,A,3352.3753,N,09831.1632,W,0.16,138.88,290312,,,D*78
$GPGGA,162706.000,3352.3752,N,09831.1632,W,2,10,1.1,288.1,M,-23.7,M,1.8,0000*46
$GPGSA,A,3,18,22,15,14,06,19,27,21,03,09,,,2.1,1.1,1.7*3D
$GPRMC,162706.000,A,3352.3752,N,09831.1632,W,0.14,135.43,290312,,,D*72
$GPGGA,162707.000,3352.3752,N,09831.1631,W,2,10,1.1,288.0,M,-23.7,M,0.8,0000*44
$GPGSA,A,3,18,22,15,14,06,19,27,21,03,09,,,2.1,1.1,1.7*3D
$GPRMC,162707.000,A,3352.3752,N,09831.1631,W,0.16,141.91,290312,,,D*7E
$GPGGA,162708.000,3352.3751,N,09831.1631,W,2,10,1.1,288.0,M,-23.7,M,0.8,0000*48
$GPGSA,A,3,18,22,15,14,06,19,27,21,03,09,,,2.1,1.1,1.7*3D
$GPGSV,3,1,11,18,58,047,39,21,54,147,34,22,54,317,41,14,49,234,37*79
$GPGSV,3,2,11,09,38,071,39,06,26,260,33,27,23,049,35,03,21,271,24*7D
$GPGSV,3,3,11,15,16,047,35,19,15,309,33,51,49,195,37*49
$GPRMC,162708.000,A,3352.3751,N,09831.1631,W,0.13,144.74,290312,,,D*79
$GPGGA,162709.000,3352.3751,N,09831.1631,W,2,10,1.1,288.0,M,-23.7,M,0.8,0000*49
$GPGSA,A,3,18,22,15,14,06,19,27,21,03,09,,,2.1,1.1,1.7*3D
$GPRMC,162709.000,A,3352.3751,N,09831.1631,W,0.10,163.73,290312,,,D*79
$GPGGA,162710.000,3352.3750,N,09831.1631,W,2,10,1.1,288.1,M,-23.7,M,1.8,0000*40
$GPGSA,A,3,18,22,15,14,06,19,27,21,03,09,,,2.1,1.1,1.7*3D
$GPRMC,162710.000,A,3352.3750,N,09831.1631,W,0.09,155.24,290312,,,D*7F
$GPGGA,162711.000,3352.3750,N,09831.1630,W,2,10,1.1,288.1,M,-23.7,M,2.8,0000*43
$GPGSA,A,3,18,22,15,14,06,19,27,21,03,09,,,2.1,1.1,1.7*3D
$GPRMC,162711.000,A,3352.3750,N,09831.1630,W,0.10,165.86,290312,,,D*7C
$GPGGA,162712.000,3352.3749,N,09831.1630,W,2,10,1.1,288.2,M,-23.7,M,0.8,0000*49
$GPGSA,A,3,18,22,15,14,06,19,27,21,03,09,,,2.1,1.1,1.7*3D
$GPRMC,162712.000,A,3352.3749,N,09831.1630,W,0.10,161.38,290312,,,D*76
$GPGGA,162713.000,3352.3749,N,09831.1630,W,2,10,1.1,288.2,M,-23.7,M,1.8,0000*49
$GPGSA,A,3,18,22,15,14,06,19,27,21,03,09,,,2.1,1.1,1.7*3D
$GPGSV,3,1,11,18,58,047,39,21,54,147,33,22,54,317,41,14,49,234,37*7E
$GPGSV,3,2,11,09,38,071,39,06,26,260,34,27,23,049,35,03,21,271,24*7A
$GPGSV,3,3,11,15,16,047,34,19,15,309,33,51,49,195,37*48
$GPRMC,162713.000,A,3352.3749,N,09831.1630,W,0.09,157.14,290312,,,D*74
$GPGGA,162714.000,3352.3748,N,09831.1630,W,2,10,1.1,288.2,M,-23.7,M,0.8,0000*4E
$GPGSA,A,3,18,22,15,14,06,19,27,21,03,09,,,2.1,1.1,1.7*3D
$GPRMC,162714.000,A,3352.3748,N,09831.1630,W,0.13,150.53,290312,,,D*7D
$GPGGA,162715.000,3352.3748,N,09831.1630,W,2,10,1.1,288.2,M,-23.7,M,0.8,0000*4F
$GPGSA,A,3,18,22,15,14,06,19,27,21,03,09,,,2.1,1.1,1.7*3D
$GPRMC,162715.000,A,3352.3748,N,09831.1630,W,0.15,139.07,290312,,,D*74
$GPGGA,162716.000,3352.3748,N,09831.1630,W,2,10,1.1,288.2,M,-23.7,M,1.8,0000*4D
$GPGSA,A,3,18,22,15,14,06,19,27,21,03,09,,,2.1,1.1,1.7*3D
$GPRMC,162716.000,A,3352.3748,N,09831.1630,W,0.15,135.72,290312,,,D*79
$GPGGA,162717.000,3352.3747,N,09831.1629,W,2,10,1.1,288.1,M,-23.7,M,2.8,0000*4B
$GPGSA,A,3,18,22,15,14,06,19,27,21,03,09,,,2.1,1.1,1.7*3D
$GPRMC,162717.000,A,3352.3747,N,09831.1629,W,0.17,139.45,290312,,,D*75
$GPGGA,162718.000,3352.3747,N,09831.1629,W,2,10,1.1,288.1,M,-23.7,M,3.8,0000*45
$GPGSA,A,3,18,22,15,14,06,19,27,21,03,09,,,2.1,1.1,1.7*3D
$GPGSV,3,1,11,18,57,049,39,22,54,318,41,21,53,148,33,14,50,235,37*71
$GPGSV,3,2,11,09,37,069,39,06,26,259,34,27,22,048,34,03,20,270,25*76
$GPGSV,3,3,11,19,15,308,33,15,15,047,34,51,49,195,37*4A
$GPRMC,162718.000,A,3352.3747,N,09831.1629,W,0.15,137.24,290312,,,D*71
$GPGGA,162719.000,3352.3746,N,09831.1629,W,2,10,1.1,288.0,M,-23.7,M,0.8,0000*47
$GPGSA,A,3,18,22,15,14,06,19,27,21,03,09,,,2.1,1.1,1.7*3D
$GPRMC,162719.000,A,3352.3746,N,09831.1629,W,0.15,138.00,290312,,,D*78
$GPGGA,162720.000,3352.3746,N,09831.1629,W,2,10,1.1,288.0,M,-23.7,M,0.8,0000*4D
$GPGSA,A,3,18,22,15,14,06,19,27,21,03,09,,,2.1,1.1,1.7*3D
$GPRMC,162720.000,A,3352.3746,N,09831.1629,W,0.11,144.83,290312,,,D*76
$GPGGA,162721.000,3352.3746,N,09831.1628,W,2,10,1.1,287.9,M,-23.7,M,0.8,0000*4B
$GPGSA,A,3,18,22,15,14,06,19,27,21,03,09,,,2.1,1.1,1.7*3D
$GPRMC,162721.000,A,3352.3746,N,09831.1628,W,0.10,144.22,290312,,,D*7C
$GPGGA,162722.000,3352.3746,N,09831.1628,W,2,10,1.1,287.9,M,-23.7,M,1.8,0000*49
$GPGSA,A,3,18,22,15,14,06,19,27,21,03,09,,,2.1,1.1,1.7*3D
$GPRMC,162722.000,A,3352.3746,N,09831.1628,W,0.10,140.42,290312,,,D*7D
$GPGGA,162723.000,3352.3746,N,09831.1628,W,2,10,1.1,287.9,M,-23.7,M,0.8,0000*49
$GPGSA,A,3,18,22,15,14,06,19,27,21,03,09,,,2.1,1.1,1.7*3D
$GPGSV,3,1,11,18,57,049,39,22,54,318,41,21,53,148,33,14,50,235,37*71
$GPGSV,3,2,11,09,37,069,38,06,26,259,34,27,22,048,34,03,20,270,25*77
$GPGSV,3,3,11,19,15,308,32,15,15,047,33,51,49,195,37*4C
$GPRMC,162723.000,A,3352.3746,N,09831.1628,W,0.10,140.54,290312,,,D*7B
$GPGGA,162724.000,3352.3746,N,09831.1628,W,2,10,1.1,287.9,M,-23.7,M,1.8,0000*4F
$GPGSA,A,3,18,22,15,14,06,19,27,21,03,09,,,2.1,1.1,1.7*3D
$GPRMC,162724.000,A,3352.3746,N,09831.1628,W,0.09,145.70,290312,,,D*77
$GPGGA,162725.000,3352.3746,N,09831.1628,W,2,10,1.1,287.9,M,-23.7,M,0.8,0000*4F
$GPGSA,A,3,18,22,15,14,06,19,27,21,03,09,,,2.1,1.1,1.7*3D
$GPRMC,162725.000,A,3352.3746,N,09831.1628,W,0.09,133.89,290312,,,D*71
$GPGGA,162726.000,3352.3746,N,09831.1628,W,2,10,1.1,287.9,M,-23.7,M,0.8,0000*4C
$GPGSA,A,3,18,22,15,14,06,19,27,21,03,09,,,2.1,1.1,1.7*3D
$GPRMC,162726.000,A,3352.3746,N,09831.1628,W,0.13,135.58,290312,,,D*73
$GPGGA,162727.000,3352.3745,N,09831.1628,W,2,10,1.1,287.8,M,-23.7,M,0.8,0000*4F
$GPGSA,A,3,18,22,15,14,06,19,27,21,03,09,,,2.1,1.1,1.7*3D
$GPRMC,162727.000,A,3352.3745,N,09831.1628,W,0.15,169.54,290312,,,D*72
$GPGGA,162728.000,3352.3745,N,09831.1628,W,2,10,1.1,287.8,M,-23.7,M,1.8,0000*41
$GPGSA,A,3,18,22,15,14,06,19,27,21,03,09,,,2.1,1.1,1.7*3D
$GPGSV,3,1,11,18,57,049,39,22,54,318,41,21,53,148,33,14,50,235,37*71
$GPGSV,3,2,11,09,37,069,38,06,26,259,33,27,22,048,34,03,20,270,24*71
$GPGSV,3,3,11,19,15,308,32,15,15,047,33,51,49,195,37*4C
$GPRMC,162728.000,A,3352.3745,N,09831.1628,W,0.11,128.68,290312,,,D*73
$GPGGA,162729.000,3352.3745,N,09831.1628,W,2,10,1.1,287.7,M,-23.7,M,0.8,0000*4E
$GPGSA,A,3,18,22,15,14,06,19,27,21,03,09,,,2.1,1.1,1.7*3D
$GPRMC,162729.000,A,3352.3745,N,09831.1628,W,0.13,163.47,290312,,,D*72
$GPGGA,162730.000,3352.3745,N,09831.1628,W,2,10,1.1,287.6,M,-23.7,M,1.8,0000*46
$GPGSA,A,3,18,22,15,14,06,19,27,21,03,09,,,2.1,1.1,1.7*3D
$GPRMC,162730.000,A,3352.3745,N,09831.1628,W,0.14,167.94,290312,,,D*77
$GPGGA,162731.000,3352.3745,N,09831.1628,W,2,10,1.1,287.5,M,-23.7,M,0.8,0000*45
$GPGSA,A,3,18,22,15,14,06,19,27,21,03,09,,,2.1,1.1,1.7*3D
$GPRMC,162731.000,A,3352.3745,N,09831.1628,W,0.15,174.31,290312,,,D*7A
$GPGGA,162732.000,3352.3744,N,09831.1628,W,2,10,1.1,287.5,M,-23.7,M,0.8,0000*47
$GPGSA,A,3,18,22,15,14,06,19,27,21,03,09,,,2.1,1.1,1.7*3D
$GPRMC,162732.000,A,3352.3744,N,09831.1628,W,0.09,143.59,290312,,,D*7F
$GPGGA,162733.000,3352.3744,N,09831.1628,W,2,10,1.1,287.6,M,-23.7,M,0.8,0000*45
$GPGSA,A,3,18,22,15,14,06,19,27,21,03,09,,,2.1,1.1,1.7*3D
$GPGSV,3,1,11,18,57,049,39,22,54,318,41,21,53,148,33,14,50,235,38*7E
$GPGSV,3,2,11,09,37,069,38,06,26,259,33,27,22,048,34,03,20,270,23*76
$GPGSV,3,3,11,19,15,308,32,15,15,047,32,51,49,195,37*4D
$GPRMC,162733.000,A,3352.3744,N,09831.1628,W,0.10,145.05,290312,,,D*79
$GPGGA,162734.000,3352.3744,N,09831.1627,W,2,10,1.1,287.6,M,-23.7,M,1.8,0000*4C
$GPGSA,A,3,18,22,15,14,06,19,27,21,03,09,,,2.1,1.1,1.7*3D
$GPRMC,162734.000,A,3352.3744,N,09831.1627,W,0.10,120.64,290312,,,D*75
$GPGGA,162735.000,3352.3744,N,09831.1627,W,2,10,1.1,287.7,M,-23.7,M,2.8,0000*4F
$GPGSA,A,3,18,22,15,14,06,19,27,21,03,09,,,2.1,1.1,1.7*3D
$GPRMC,162735.000,A,3352.3744,N,09831.1627,W,0.12,156.02,290312,,,D*77
$GPGGA,162736.000,3352.3744,N,09831.1627,W,2,10,1.1,287.7,M,-23.7,M,3.8,0000*4D
$GPGSA,A,3,18,22,15,14,06,19,27,21,03,09,,,2.1,1.1,1.7*3D
$GPRMC,162736.000,A,3352.3744,N,09831.1627,W,0.12,165.25,290312,,,D*71
$GPGGA,162737.000,3352.3744,N,09831.1627,W,2,10,1.1,287.6,M,-23.7,M,0.8,0000*4E
$GPGSA,A,3,18,22,15,14,06,19,27,21,03,09,,,2.1,1.1,1.7*3D
$GPRMC,162737.000,A,3352.3744,N,09831.1627,W,0.12,149.33,290312,,,D*79
$GPGGA,162738.000,3352.3744,N,09831.1627,W,2,10,1.1,287.6,M,-23.7,M,0.8,0000*41
$GPGSA,A,3,18,22,15,14,06,19,27,21,03,09,,,2.1,1.1,1.7*3D
$GPGSV,3,1,11,18,57,049,39,22,54,318,41,21,53,148,32,14,50,235,38*7F
$GPGSV,3,2,11,09,37,069,37,06,26,259,33,27,22,048,34,03,20,270,23*79
$GPGSV,3,3,11,19,15,308,33,15,15,047,32,51,49,195,37*4C
$GPRMC,162738.000,A,3352.3744,N,09831.1627,W,0.13,147.02,290312,,,D*7B
$GPGGA,162739.000,3352.3744,N,09831.1627,W,2,10,1.1,287.5,M,-23.7,M,0.8,0000*43
$GPGSA,A,3,18,22,15,14,06,19,27,21,03,09,,,2.1,1.1,1.7*3D
$GPRMC,162739.000,A,3352.3744,N,09831.1627,W,0.14,149.04,290312,,,D*75
$GPGGA,162740.000,3352.3744,N,09831.1627,W,2,10,1.1,287.4,M,-23.7,M,0.8,0000*4C
$GPGSA,A,3,18,22,15,14,06,19,27,21,03,09,,,2.1,1.1,1.7*3D
$GPRMC,162740.000,A,3352.3744,N,09831.1627,W,0.13,138.12,290312,,,D*7D
$GPGGA,162741.000,3352.3744,N,09831.1627,W,2,10,1.1,287.3,M,-23.7,M,0.8,0000*4A
$GPGSA,A,3,18,22,15,14,06,19,27,21,03,09,,,2.1,1.1,1.7*3D
$GPRMC,162741.000,A,3352.3744,N,09831.1627,W,0.13,146.01,290312,,,D*77
$GPGGA,162742.000,3352.3744,N,09831.1626,W,2,10,1.1,287.3,M,-23.7,M,1.8,0000*49
$GPGSA,A,3,18,22,15,14,06,19,27,21,03,09,,,2.1,1.1,1.7*3D
$GPRMC,162742.000,A,3352.3744,N,09831.1626,W,0.13,129.71,290312,,,D*7B
$GPGGA,162743.000,3352.3744,N,09831.1626,W,2,10,1.1,287.2,M,-23.7,M,0.8,0000*48
$GPGSA,A,3,18,22,15,14,06,19,27,21,03,09,,,2.1,1.1,1.7*3D
$GPGSV,3,1,11,18,57,049,39,22,54,318,41,21,53,148,31,14,50,235,38*7C
$GPGSV,3,2,11,09,37,069,37,06,26,259,33,27,22,048,34,03,20,270,23*79
$GPGSV,3,3,11,19,15,308,32,15,15,047,33,51,49,195,37*4C
$GPRMC,162743.000,A,3352.3744,N,09831.1626,W,0.14,161.00,290312,,,D*77
$GPGGA,162744.000,3352.3744,N,09831.1626,W,2,10,1.1,287.1,M,-23.7,M,0.8,0000*4C
$GPGSA,A,3,18,22,15,14,06,19,27,21,03,09,,,2.1,1.1,1.7*3D
$GPRMC,162744.000,A,3352.3744,N,09831.1626,W,0.11,131.35,290312,,,D*76
$GPGGA,162745.000,3352.3743,N,09831.1626,W,2,10,1.1,287.1,M,-23.7,M,1.8,0000*4B
$GPGSA,A,3,18,22,15,14,06,19,27,21,03,09,,,2.1,1.1,1.7*3D
$GPRMC,162745.000,A,3352.3743,N,09831.1626,W,0.13,161.67,290312,,,D*70
$GPGGA,162746.000,3352.3743,N,09831.1626,W,2,10,1.1,287.1,M,-23.7,M,2.8,0000*4B
$GPGSA,A,3,18,22,15,14,06,19,27,21,03,09,,,2.1,1.1,1.7*3D
$GPRMC,162746.000,A,3352.3743,N,09831.1626,W,0.11,120.26,290312,,,D*71
$GPGGA,162747.000,3352.3744,N,09831.1626,W,2,10,1.1,287.0,M,-23.7,M,0.8,0000*4E
$GPGSA,A,3,18,22,15,14,06,19,27,21,03,09,,,2.1,1.1,1.7*3D
$GPRMC,162747.000,A,3352.3744,N,09831.1626,W,0.10,131.62,290312,,,D*76
$GPGGA,162748.000,3352.3743,N,09831.1626,W,2,10,1.1,287.0,M,-23.7,M,1.8,0000*47
$GPGSA,A,3,18,22,15,14,06,19,27,21,03,09,,,2.1,1.1,1.7*3D
$GPGSV,3,1,11,18,57,049,39,22,54,318,41,21,53,148,31,14,50,235,37*73
$GPGSV,3,2,11,09,37,069,37,06,26,259,33,27,22,048,35,03,20,270,23*78
$GPGSV,3,3,11,19,15,308,32,15,15,047,33,51,49,195,37*4C
$GPRMC,162748.000,A,3352.3743,N,09831.1626,W,0.13,166.02,290312,,,D*79
$GPGGA,162749.000,3352.3743,N,09831.1626,W,2,10,1.1,286.9,M,-23.7,M,0.8,0000*4F
$GPGSA,A,3,18,22,15,14,06,19,27,21,03,09,,,2.1,1.1,1.7*3D
$GPRMC,162749.000,A,3352.3743,N,09831.1626,W,0.11,155.57,290312,,,D*7A
$GPGGA,162750.000,3352.3743,N,09831.1626,W,2,10,1.1,286.8,M,-23.7,M,0.8,0000*46
$GPGSA,A,3,18,22,15,14,06,19,27,21,03,09,,,2.1,1.1,1.7*3D
$GPRMC,162750.000,A,3352.3743,N,09831.1626,W,0.14,135.93,290312,,,D*79
$GPGGA,162751.000,3352.3743,N,09831.1626,W,2,10,1.1,286.7,M,-23.7,M,0.8,0000*48
$GPGSA,A,3,18,22,15,14,06,19,27,21,03,09,,,2.1,1.1,1.7*3D
$GPRMC,162751.000,A,3352.3743,N,09831.1626,W,0.12,155.03,290312,,,D*71
$GPGGA,162752.000,3352.3743,N,09831.1626,W,2,10,1.1,286.7,M,-23.7,M,1.8,0000*4A
$GPGSA,A,3,18,22,15,14,06,19,27,21,03,09,,,2.1,1.1,1.7*3D
$GPRMC,162752.000,A,3352.3743,N,09831.1626,W,0.13,149.76,290312,,,D*7C
$GPGGA,162753.000,3352.3743,N,09831.1626,W,2,10,1.1,286.7,M,-23.7,M,0.8,0000*4A
$GPGSA,A,3,18,22,15,14,06,19,27,21,03,09,,,2.1,1.1,1.7*3D
$GPGSV,3,1,11,18,57,049,40,22,54,318,41,21,53,148,31,14,50,235,37*7D
$GPGSV,3,2,11,09,37,069,38,06,26,259,33,27,22,048,35,03,20,270,23*77
$GPGSV,3,3,11,19,15,308,31,15,15,047,33,51,49,195,37*4F
$GPRMC,162753.000,A,3352.3743,N,09831.1626,W,0.13,138.77,290312,,,D*7A
$GPGGA,162754.000,3352.3743,N,09831.1626,W,2,10,1.1,286.7,M,-23.7,M,1.8,0000*4C
$GPGSA,A,3,18,22,15,14,06,19,27,21,03,09,,,2.1,1.1,1.7*3D
$GPRMC,162754.000,A,3352.3743,N,09831.1626,W,0.13,125.73,290312,,,D*75
$GPGGA,162755.000,3352.3743,N,09831.1626,W,2,10,1.1,286.8,M,-23.7,M,0.8,0000*43
$GPGSA,A,3,18,22,15,14,06,19,27,21,03,09,,,2.1,1.1,1.7*3D
$GPRMC,162755.000,A,3352.3743,N,09831.1626,W,0.13,133.80,290312,,,D*7F
$GPGGA,162756.000,3352.3743,N,09831.1626,W,2,10,1.1,286.7,M,-23.7,M,0.8,0000*4F
$GPGSA,A,3,18,22,15,14,06,19,27,21,03,09,,,2.1,1.1,1.7*3D
$GPRMC,162756.000,A,3352.3743,N,09831.1626,W,0.12,163.89,290312,,,D*71
$GPGGA,162757.000,3352.3743,N,09831.1626,W,2,10,1.1,286.8,M,-23.7,M,0.8,0000*41
$GPGSA,A,3,18,22,15,14,06,19,27,21,03,09,,,2.1,1.1,1.7*3D
$GPRMC,162757.000,A,3352.3743,N,09831.1626,W,0.09,174.55,290312,,,D*7D
$GPGGA,162758.000,3352.3743,N,09831.1626,W,2,10,1.1,286.9,M,-23.7,M,1.8,0000*4E
$GPGSA,A,3,18,22,15,14,06,19,27,21,03,09,,,2.1,1.1,1.7*3D
$GPGSV,3,1,11,18,57,049,40,22,54,318,41,21,53,148,31,14,50,235,37*7D
$GPGSV,3,2,11,09,37,069,38,06,26,259,33,27,22,048,36,03,20,270,23*74
$GPGSV,3,3,11,19,15,308,31,15,15,047,33,51,49,195,37*4F
$GPRMC,162758.000,A,3352.3743,N,09831.1626,W,0.06,137.62,290312,,,D*7E
$GPGGA,162759.000,3352.3743,N,09831.1626,W,2,10,1.1,286.9,M,-23.7,M,2.8,0000*4C
$GPGSA,A,3,18,22,15,14,06,19,27,21,03,09,,,2.1,1.1,1.7*3D
$GPRMC,162759.000,A,3352.3743,N,09831.1626,W,0.09,161.33,290312,,,D*77
$GPGGA,162800.000,3352.3743,N,09831.1626,W,2,10,1.1,287.1,M,-23.7,M,0.8,0000*44
$GPGSA,A,3,18,22,15,14,06,19,27,21,03,09,,,2.1,1.1,1.7*3D
$GPRMC,162800.000,A,3352.3743,N,09831.1626,W,0.07,109.26,290312,,,D*70
$GPGGA,162801.000,3352.3743,N,09831.1626,W,2,10,1.1,287.3,M,-23.7,M,0.8,0000*47
$GPGSA,A,3,18,22,15,14,06,19,27,21,03,09,,,2.1,1.1,1.7*3D
$GPRMC,162801.000,A,3352.3743,N,09831.1626,W,0.09,98.33,290312,,,D*42
$GPGGA,162802.000,3352.3743,N,09831.1626,W,2,10,1.1,287.3,M,-23.7,M,0.8,0000*44
$GPGSA,A,3,18,22,15,14,06,19,27,21,03,09,,,2.1,1.1,1.7*3D
$GPRMC,162802.000,A,3352.3743,N,09831.1626,W,0.11,108.53,290312,,,D*76
$GPGGA,162803.000,3352.3743,N,09831.1626,W,2,10,1.1,287.4,M,-23.7,M,0.8,0000*42
$GPGSA,A,3,18,22,15,14,06,19,27,21,03,09,,,2.1,1.1,1.7*3D
$GPGSV,3,1,11,18,57,049,40,22,54,318,41,21,53,148,31,14,50,235,37*7D
$GPGSV,3,2,11,09,37,069,38,06,26,259,33,27,22,048,36,03,20,270,23*74
$GPGSV,3,3,11,19,15,308,31,15,15,047,33,51,49,195,37*4F
$GPRMC,162803.000,A,3352.3743,N,09831.1626,W,0.17,123.72,290312,,,D*7B
$GPGGA,162804.000,3352.3743,N,09831.1626,W,2,10,1.1,287.3,M,-23.7,M,1.8,0000*43
$GPGSA,A,3,18,22,15,14,06,19,27,21,03,09,,,2.1,1.1,1.7*3D
$GPRMC,162804.000,A,3352.3743,N,09831.1626,W,0.16,148.13,290312,,,D*77
$GPGGA,162805.000,3352.3743,N,09831.1626,W,2,10,1.1,287.3,M,-23.7,M,2.8,0000*41
$GPGSA,A,3,18,22,15,14,06,19,27,21,03,09,,,2.1,1.1,1.7*3D
$GPRMC,162805.000,A,3352.3743,N,09831.1626,W,0.16,158.25,290312,,,D*72
$GPGGA,162806.000,3352.3743,N,09831.1626,W,2,10,1.1,287.2,M,-23.7,M,3.8,0000*42
$GPGSA,A,3,18,22,15,14,06,19,27,21,03,09,,,2.1,1.1,1.7*3D
$GPRMC,162806.000,A,3352.3743,N,09831.1626,W,0.15,134.97,290312,,,D*71
$GPGGA,162807.000,3352.3742,N,09831.1626,W,2,10,1.1,287.2,M,-23.7,M,0.8,0000*41
$GPGSA,A,3,18,22,15,14,06,19,27,21,03,09,,,2.1,1.1,1.7*3D
$GPRMC,162807.000,A,3352.3742,N,09831.1626,W,0.17,157.16,290312,,,D*7F
$GPGGA,162808.000,3352.3742,N,09831.1626,W,2,10,1.1,287.2,M,-23.7,M,0.8,0000*4E
$GPGSA,A,3,18,22,15,14,06,19,27,21,03,09,,,2.1,1.1,1.7*3D
$GPGSV,3,1,11,18,57,049,40,22,54,318,41,21,53,148,32,14,50,235,37*7E
$GPGSV,3,2,11,09,37,069,38,06,26,259,33,27,22,048,36,03,20,270,23*74
$GPGSV,3,3,11,19,15,308,31,15,15,047,33,51,49,195,37*4F
$GPRMC,162808.000,A,3352.3742,N,09831.1626,W,0.12,136.35,290312,,,D*73
$GPGGA,162809.000,3352.3742,N,09831.1626,W,2,10,1.1,287.3,M,-23.7,M,0.8,0000*4E
$GPGSA,A,3,18,22,15,14,06,19,27,21,03,09,,,2.1,1.1,1.7*3D
$GPRMC,162809.000,A,3352.3742,N,09831.1626,W,0.07,148.12,290312,,,D*7A
$GPGGA,162810.000,3352.3742,N,09831.1626,W,2,10,1.1,287.4,M,-23.7,M,1.8,0000*40
$GPGSA,A,3,18,22,15,14,06,19,27,21,03,09,,,2.0,1.1,1.7*3C
$GPRMC,162810.000,A,3352.3742,N,09831.1626,W,0.08,106.48,290312,,,D*78
$GPGGA,162811.000,3352.3742,N,09831.1626,W,2,10,1.1,287.5,M,-23.7,M,2.8,0000*43
$GPGSA,A,3,18,22,15,14,06,19,27,21,03,09,,,2.0,1.1,1.7*3C
$GPRMC,162811.000,A,3352.3742,N,09831.1626,W,0.06,152.25,290312,,,D*7D
$GPGGA,162812.000,3352.3743,N,09831.1626,W,2,10,1.1,287.5,M,-23.7,M,3.8,0000*40
$GPGSA,A,3,18,22,15,14,06,19,27,21,03,09,,,2.0,1.1,1.7*3C
$GPRMC,162812.000,A,3352.3743,N,09831.1626,W,0.07,168.78,290312,,,D*7F
$GPGGA,162813.000,3352.3743,N,09831.1626,W,2,10,1.1,287.6,M,-23.7,M,0.8,0000*41
$GPGSA,A,3,18,22,15,14,06,19,27,21,03,09,,,2.0,1.1,1.7*3C
$GPGSV,3,1,11,18,57,049,40,22,54,318,41,21,53,148,31,14,50,235,37*7D
$GPGSV,3,2,11,09,37,069,37,06,26,259,33,27,22,048,36,03,20,270,23*7B
$GPGSV,3,3,11,19,15,308,31,15,15,047,33,51,49,195,37*4F
$GPRMC,162813.000,A,3352.3743,N,09831.1626,W,0.05,149.83,290312,,,D*7B
$GPGGA,162814.000,3352.3743,N,09831.1626,W,2,10,1.1,287.6,M,-23.7,M,0.8,0000*46
$GPGSA,A,3,18,22,15,14,06,19,27,21,03,09,,,2.0,1.1,1.7*3C
$GPRMC,162814.000,A,3352.3743,N,09831.1626,W,0.09,106.13,290312,,,D*72
$GPGGA,162815.000,3352.3743,N,09831.1626,W,2,10,1.1,287.7,M,-23.7,M,0.8,0000*46
$GPGSA,A,3,18,22,15,14,06,19,27,21,03,09,,,2.0,1.1,1.7*3C
$GPRMC,162815.000,A,3352.3743,N,09831.1626,W,0.08,109.67,290312,,,D*7E
$GPGGA,162816.000,3352.3743,N,09831.1626,W,2,10,1.1,287.6,M,-23.7,M,1.8,0000*45
$GPGSA,A,3,18,22,15,14,06,19,27,21,03,09,,,2.0,1.1,1.7*3C
$GPRMC,162816.000,A,3352.3743,N,09831.1626,W,0.08,153.33,290312,,,D*73
$GPGGA,162817.000,3352.3743,N,09831.1626,W,2,10,1.1,287.6,M,-23.7,M,2.8,0000*47
$GPGSA,A,3,18,22,15,14,06,19,27,21,03,09,,,2.0,1.1,1.7*3C
$GPRMC,162817.000,A,3352.3743,N,09831.1626,W,0.08,110.03,290312,,,D*76
$GPGGA,162818.000,3352.3743,N,09831.1626,W,2,10,1.1,287.6,M,-23.7,M,0.8,0000*4A
$GPGSA,A,3,18,22,15,14,06,19,27,21,03,09,,,2.0,1.1,1.7*3C
$GPGSV,3,1,11,18,57,049,40,22,54,318,41,21,53,148,31,14,50,235,37*7D
$GPGSV,3,2,11,09,37,069,36,06,26,259,33,27,22,048,35,03,20,270,24*7E
$GPGSV,3,3,11,19,15,308,31,15,15,047,34,51,49,195,37*48
$GPRMC,162818.000,A,3352.3743,N,09831.1626,W,0.09,165.90,290312,,,D*70
$GPGGA,162819.000,3352.3743,N,09831.1627,W,2,10,1.1,287.6,M,-23.7,M,0.8,0000*4A
$GPGSA,A,3,18,22,15,14,06,19,27,21,03,09,,,2.0,1.1,1.7*3C
$GPRMC,162819.000,A,3352.3743,N,09831.1627,W,0.09,174.87,290312,,,D*76
$GPGGA,162820.000,3352.3743,N,09831.1627,W,2,10,1.1,287.6,M,-23.7,M,0.8,0000*40
$GPGSA,A,3,18,22,15,14,06,19,27,21,03,09,,,2.0,1.1,1.7*3C
$GPRMC,162820.000,A,3352.3743,N,09831.1627,W,0.05,156.35,290312,,,D*79
$GPGGA,162821.000,3352.3743,N,09831.1627,W,2,10,1.1,287.6,M,-23.7,M,0.8,0000*41
$GPGSA,A,3,18,22,15,14,06,19,27,21,03,09,,,2.0,1.1,1.7*3C
$GPRMC,162821.000,A,3352.3743,N,09831.1627,W,0.13,137.86,290312,,,D*70
$GPGGA,162822.000,3352.3743,N,09831.1627,W,2,10,1.1,287.5,M,-23.7,M,1.8,0000*40
$GPGSA,A,3,18,22,15,14,06,19,27,21,03,09,,,2.0,1.1,1.7*3C
$GPRMC,162822.000,A,3352.3743,N,09831.1627,W,0.14,147.83,290312,,,D*76
$GPGGA,162823.000,3352.3742,N,09831.1627,W,2,10,1.1,287.5,M,-23.7,M,2.8,0000*43
$GPGSA,A,3,18,22,15,14,06,19,27,21,03,09,,,2.0,1.1,1.7*3C
$GPGSV,3,1,11,18,57,049,40,22,54,318,41,21,53,148,31,14,50,235,36*7C
$GPGSV,3,2,11,09,37,069,35,06,26,259,33,27,22,048,35,03,20,270,25*7C
$GPGSV,3,3,11,19,15,308,31,15,15,047,34,51,49,195,37*48
$GPRMC,162823.000,A,3352.3742,N,09831.1627,W,0.15,147.29,290312,,,D*77
$GPGGA,162824.000,3352.3742,N,09831.1627,W,2,10,1.1,287.5,M,-23.7,M,3.8,0000*45
$GPGSA,A,3,18,22,15,14,06,19,27,21,03,09,,,2.0,1.1,1.7*3C
$GPRMC,162824.000,A,3352.3742,N,09831.1627,W,0.15,138.03,290312,,,D*70
$GPGGA,162825.000,3352.3742,N,09831.1626,W,2,10,1.1,287.5,M,-23.7,M,0.8,0000*46
$GPGSA,A,3,18,22,15,14,06,19,27,21,03,09,,,2.0,1.1,1.7*3C
$GPRMC,162825.000,A,3352.3742,N,09831.1626,W,0.15,136.04,290312,,,D*79
$GPGGA,162826.000,3352.3742,N,09831.1626,W,2,10,1.1,287.4,M,-23.7,M,0.8,0000*44
$GPGSA,A,3,18,22,15,14,06,19,27,21,03,09,,,2.0,1.1,1.7*3C
$GPRMC,162826.000,A,3352.3742,N,09831.1626,W,0.18,144.04,290312,,,D*72
$GPGGA,162827.000,3352.3742,N,09831.1626,W,2,10,1.1,287.3,M,-23.7,M,0.8,0000*42
$GPGSA,A,3,18,22,15,14,06,19,27,21,03,09,,,2.0,1.1,1.7*3C
$GPRMC,162827.000,A,3352.3742,N,09831.1626,W,0.04,169.43,290312,,,D*72
$GPGGA,162828.000,3352.3742,N,09831.1626,W,2,10,1.1,287.2,M,-23.7,M,0.8,0000*4C
$GPGSA,A,3,18,22,15,14,06,19,27,21,03,09,,,2.0,1.1,1.7*3C
$GPGSV,3,1,11,18,57,049,40,22,54,318,40,21,53,148,31,14,50,235,36*7D
$GPGSV,3,2,11,09,37,069,35,06,26,259,33,27,22,048,35,03,20,270,25*7C
$GPGSV,3,3,11,19,15,308,31,15,15,047,33,51,49,195,36*4E
$GPRMC,162828.000,A,3352.3742,N,09831.1626,W,0.04,172.07,290312,,,D*77
$GPGGA,162829.000,3352.3742,N,09831.1627,W,2,10,1.1,287.2,M,-23.7,M,0.8,0000*4C
$GPGSA,A,3,18,22,15,14,06,19,27,21,03,09,,,2.0,1.1,1.7*3C
$GPRMC,162829.000,A,3352.3742,N,09831.1627,W,0.04,173.75,290312,,,D*73
$GPGGA,162830.000,3352.3742,N,09831.1627,W,2,10,1.1,287.1,M,-23.7,M,1.8,0000*46
$GPGSA,A,3,18,22,15,14,06,19,27,21,03,09,,,2.0,1.1,1.7*3C
$GPRMC,162830.000,A,3352.3742,N,09831.1627,W,0.05,165.51,290312,,,D*7B
$GPGGA,162831.000,3352.3742,N,09831.1627,W,2,10,1.1,287.0,M,-23.7,M,0.8,0000*47
$GPGSA,A,3,18,22,15,14,06,19,27,21,03,09,,,2.0,1.1,1.7*3C
$GPRMC,162831.000,A,3352.3742,N,09831.1627,W,0.03,194.96,290312,,,D*79
$GPGGA,162832.000,3352.3743,N,09831.1627,W,2,10,1.1,286.9,M,-23.7,M,0.8,0000*4D
$GPGSA,A,3,18,22,15,14,06,19,27,21,03,09,,,2.0,1.1,1.7*3C
$GPRMC,162832.000,A,3352.3743,N,09831.1627,W,0.04,154.00,290312,,,D*7F
$GPGGA,162833.000,3352.3743,N,09831.1627,W,2,10,1.1,286.9,M,-23.7,M,0.8,0000*4C
$GPGSA,A,3,18,22,15,14,06,19,27,21,03,09,,,2.0,1.1,1.7*3C
$GPGSV,3,1,11,18,57,049,40,22,54,318,41,21,53,148,31,14,50,235,36*7C
$GPGSV,3,2,11,09,37,069,35,06,26,259,33,27,22,048,35,03,20,270,26*7F
$GPGSV,3,3,11,19,15,308,30,15,15,047,33,51,49,195,37*4E
$GPRMC,162833.000,A,3352.3743,N,09831.1627,W,0.15,139.25,290312,,,D*72
$GPGGA,162834.000,3352.3742,N,09831.1627,W,2,10,1.1,286.9,M,-23.7,M,0.8,0000*4A
$GPGSA,A,3,18,22,15,14,06,19,27,21,03,09,,,2.0,1.1,1.7*3C
$GPRMC,162834.000,A,3352.3742,N,09831.1627,W,0.20,143.78,290312,,,D*77
$GPGGA,162835.000,3352.3742,N,09831.1627,W,2,10,1.1,286.9,M,-23.7,M,1.8,0000*4A
$GPGSA,A,3,18,22,15,14,06,19,27,21,03,09,,,2.0,1.1,1.7*3C
$GPRMC,162835.000,A,3352.3742,N,09831.1627,W,0.17,144.92,290312,,,D*71
$GPGGA,162836.000,3352.3742,N,09831.1627,W,2,10,1.1,286.9,M,-23.7,M,2.8,0000*4A
$GPGSA,A,3,18,22,15,14,06,19,27,21,03,09,,,2.0,1.1,1.7*3C
$GPRMC,162836.000,A,3352.3742,N,09831.1627,W,0.18,143.46,290312,,,D*73
$GPGGA,162837.000,3352.3741,N,09831.1626,W,2,10,1.1,286.8,M,-23.7,M,0.8,0000*4A
$GPGSA,A,3,18,22,15,14,06,19,27,21,03,09,,,2.0,1.1,1.7*3C
$GPRMC,162837.000,A,3352.3741,N,09831.1626,W,0.18,138.73,290312,,,D*7A
$GPGGA,162838.000,3352.3741,N,09831.1626,W,2,10,1.1,286.8,M,-23.7,M,0.8,0000*45
$GPGSA,A,3,18,22,15,14,06,19,27,21,03,09,,,2.0,1.1,1.7*3C
$GPGSV,3,1,11,18,57,049,40,22,54,318,41,21,53,148,31,14,50,235,36*7C
$GPGSV,3,2,11,09,37,069,35,06,26,259,34,27,22,048,34,03,20,270,27*78
$GPGSV,3,3,11,19,15,308,29,15,15,047,34,51,49,195,37*41
$GPRMC,162838.000,A,3352.3741,N,09831.1626,W,0.20,147.44,290312,,,D*72
$GPGGA,162839.000,3352.3741,N,09831.1626,W,2,10,1.1,286.7,M,-23.7,M,0.8,0000*4B
$GPGSA,A,3,18,22,15,14,06,19,27,21,03,09,,,2.0,1.1,1.7*3C
$GPRMC,162839.000,A,3352.3741,N,09831.1626,W,0.06,163.09,290312,,,D*78
$GPGGA,162840.000,3352.3741,N,09831.1626,W,2,10,1.1,286.7,M,-23.7,M,1.8,0000*44
$GPGSA,A,3,18,22,15,14,06,19,27,21,03,09,,,2.0,1.1,1.7*3C
$GPRMC,162840.000,A,3352.3741,N,09831.1626,W,0.07,134.91,290312,,,D*74
$GPGGA,162841.000,3352.3741,N,09831.1626,W,2,10,1.1,286.6,M,-23.7,M,0.8,0000*45
$GPGSA,A,3,18,22,15,14,06,19,27,21,03,09,,,2.0,1.1,1.7*3C
$GPRMC,162841.000,A,3352.3741,N,09831.1626,W,0.08,147.82,290312,,,D*7C
$GPGGA,162842.000,3352.3741,N,09831.1626,W,2,10,1.1,286.6,M,-23.7,M,1.8,0000*47
$GPGSA,A,3,18,22,15,14,06,19,27,21,03,09,,,2.0,1.1,1.7*3C
$GPRMC,162842.000,A,3352.3741,N,09831.1626,W,0.07,140.48,290312,,,D*71
$GPGGA,162843.000,3352.3741,N,09831.1626,W,2,10,1.1,286.6,M,-23.7,M,0.8,0000*47
$GPGSA,A,3,18,22,15,14,06,19,27,21,03,09,,,2.0,1.1,1.7*3C
$GPGSV,3,1,11,18,57,049,40,22,54,318,41,21,53,148,31,14,50,235,36*7C
$GPGSV,3,2,11,09,37,069,36,06,26,259,34,27,22,048,34,03,20,270,27*7B
$GPGSV,3,3,11,19,15,308,29,15,15,047,34,51,49,195,36*40
$GPRMC,162843.000,A,3352.3741,N,09831.1626,W,0.09,156.59,290312,,,D*79
$GPGGA,162844.000,3352.3741,N,09831.1626,W,2,10,1.1,286.6,M,-23.7,M,0.8,0000*40
$GPGSA,A,3,18,22,15,14,06,19,27,21,03,09,,,2.0,1.1,1.7*3C
$GPRMC,162844.000,A,3352.3741,N,09831.1626,W,0.04,142.00,290312,,,D*7A
$GPGGA,162845.000,3352.3741,N,09831.1626,W,2,10,1.1,286.6,M,-23.7,M,0.8,0000*41
$GPGSA,A,3,18,22,15,14,06,19,27,21,03,09,,,2.0,1.1,1.7*3C
$GPRMC,162845.000,A,3352.3741,N,09831.1626,W,0.14,147.72,290312,,,D*7A
$GPGGA,162846.000,3352.3741,N,09831.1626,W,2,10,1.1,286.6,M,-23.7,M,1.8,0000*43
$GPGSA,A,3,18,22,15,14,06,19,27,21,03,09,,,2.0,1.1,1.7*3C
$GPRMC,162846.000,A,3352.3741,N,09831.1626,W,0.16,151.42,290312,,,D*7F
$GPGGA,162847.000,3352.3741,N,09831.1625,W,2,10,1.1,286.7,M,-23.7,M,0.8,0000*41
$GPGSA,A,3,18,22,15,14,06,19,27,21,03,09,,,2.0,1.1,1.7*3C
$GPRMC,162847.000,A,3352.3741,N,09831.1625,W,0.14,147.49,290312,,,D*73
$GPGGA,162848.000,3352.3741,N,09831.1625,W,2,10,1.1,286.8,M,-23.7,M,1.8,0000*40
$GPGSA,A,3,18,22,15,14,06,19,27,21,03,09,,,2.0,1.1,1.7*3C
$GPGSV,3,1,11,18,57,050,40,22,55,319,41,21,52,148,31,14,50,236,36*76
$GPGSV,3,2,11,09,37,068,36,06,25,258,35,27,22,047,34,03,20,269,27*7E
$GPGSV,3,3,11,19,16,308,28,15,15,048,34,51,49,195,36*4D
$GPRMC,162848.000,A,3352.3741,N,09831.1625,W,0.14,151.02,290312,,,D*74
$GPGGA,162849.000,3352.3741,N,09831.1625,W,2,10,1.1,287.0,M,-23.7,M,2.8,0000*4B
$GPGSA,A,3,18,22,15,14,06,19,27,21,03,09,,,2.0,1.1,1.7*3C
$GPRMC,162849.000,A,3352.3741,N,09831.1625,W,0.15,134.09,290312,,,D*7C
$GPGGA,162850.000,3352.3741,N,09831.1624,W,2,10,1.1,287.1,M,-23.7,M,0.8,0000*41
$GPGSA,A,3,18,22,15,14,06,19,27,21,03,09,,,2.0,1.1,1.7*3C
$GPRMC,162850.000,A,3352.3741,N,09831.1624,W,0.17,145.39,290312,,,D*72
$GPGGA,162851.000,3352.3741,N,09831.1624,W,2,10,1.1,287.1,M,-23.7,M,0.8,0000*40
$GPGSA,A,3,18,22,15,14,06,19,27,21,03,09,,,2.0,1.1,1.7*3C
$GPRMC,162851.000,A,3352.3741,N,09831.1624,W,0.06,139.28,290312,,,D*78
$GPGGA,162852.000,3352.3741,N,09831.1624,W,2,10,1.1,287.2,M,-23.7,M,0.8,0000*40
$GPGSA,A,3,18,22,15,14,06,19,27,21,03,09,,,2.0,1.1,1.7*3C
$GPRMC,162852.000,A,3352.3741,N,09831.1624,W,0.06,141.26,290312,,,D*7A
$GPGGA,162853.000,3352.3741,N,09831.1624,W,2,10,1.1,287.2,M,-23.7,M,1.8,0000*40
$GPGSA,A,3,18,22,15,14,06,19,27,21,03,09,,,2.0,1.1,1.7*3C
$GPGSV,3,1,11,18,57,050,40,22,55,319,41,21,52,148,30,14,50,236,37*76
$GPGSV,3,2,11,09,37,068,36,06,25,258,35,27,22,047,34,03,20,269,26*7F
$GPGSV,3,3,11,19,16,308,29,15,15,048,34,51,49,195,36*4C
$GPRMC,162853.000,A,3352.3741,N,09831.1624,W,0.05,122.23,290312,,,D*78
$GPGGA,162854.000,3352.3741,N,09831.1624,W,2,10,1.1,287.3,M,-23.7,M,2.8,0000*45
$GPGSA,A,3,18,22,15,14,06,19,27,21,03,09,,,2.0,1.1,1.7*3C
$GPRMC,162854.000,A,3352.3741,N,09831.1624,W,0.07,144.53,290312,,,D*7A
$GPGGA,162855.000,3352.3741,N,09831.1624,W,2,10,1.1,287.3,M,-23.7,M,0.8,0000*46
$GPGSA,A,3,18,22,15,14,06,19,27,21,03,09,,,2.0,1.1,1.7*3C
$GPRMC,162855.000,A,3352.3741,N,09831.1624,W,0.06,154.10,290312,,,D*7C
$GPGGA,162856.000,3352.3741,N,09831.1624,W,2,10,1.1,287.4,M,-23.7,M,0.8,0000*42
$GPGSA,A,3,18,22,15,14,06,19,27,21,03,09,,,2.0,1.1,1.7*3C
$GPRMC,162856.000,A,3352.3741,N,09831.1624,W,0.02,163.93,290312,,,D*74
$GPGGA,162857.000,3352.3741,N,09831.1624,W,2,10,1.1,287.5,M,-23.7,M,0.8,0000*42
$GPGSA,A,3,18,22,15,14,06,19,27,21,03,09,,,2.0,1.1,1.7*3C
$GPRMC,162857.000,A,3352.3741,N,09831.1624,W,0.18,143.88,290312,,,D*76
$GPGGA,162858.000,3352.3741,N,09831.1623,W,2,10,1.1,287.5,M,-23.7,M,0.8,0000*4A
$GPGSA,A,3,18,22,15,14,06,19,27,21,03,09,,,2.0,1.1,1.7*3C
$GPGSV,3,1,11,18,57,050,40,22,55,319,41,21,52,148,29,14,50,236,37*7E
$GPGSV,3,2,11,09,37,068,36,06,25,258,35,27,22,047,34,03,20,269,25*7C
$GPGSV,3,3,11,19,16,308,30,15,15,048,34,51,49,195,36*44
$GPRMC,162858.000,A,3352.3741,N,09831.1623,W,0.19,138.09,290312,,,D*7A
$GPGGA,162859.000,3352.3741,N,09831.1623,W,2,10,1.1,287.6,M,-23.7,M,1.8,0000*49
$GPGSA,A,3,18,22,15,14,06,19,27,21,03,09,,,2.0,1.1,1.7*3C
$GPRMC,162859.000,A,3352.3741,N,09831.1623,W,0.20,151.63,290312,,,D*72
$GPGGA,162900.000,3352.3741,N,09831.1623,W,2,10,1.1,287.6,M,-23.7,M,0.8,0000*45
$GPGSA,A,3,18,22,15,14,06,19,27,21,03,09,,,2.0,1.1,1.7*3C
$GPRMC,162900.000,A,3352.3741,N,09831.1623,W,0.20,157.27,290312,,,D*79
$GPGGA,162901.000,3352.3740,N,09831.1622,W,2,10,1.1,287.7,M,-23.7,M,0.8,0000*45
$GPGSA,A,3,18,22,15,14,06,19,27,21,03,09,,,2.0,1.1,1.7*3C
$GPRMC,162901.000,A,3352.3740,N,09831.1622,W,0.20,149.58,290312,,,D*7F
$GPGGA,162902.000,3352.3740,N,09831.1622,W,2,10,1.1,287.7,M,-23.7,M,0.8,0000*46
$GPGSA,A,3,18,22,15,14,06,19,27,21,03,09,,,2.0,1.1,1.7*3C
$GPRMC,162902.000,A,3352.3740,N,09831.1622,W,0.25,153.10,290312,,,D*7E
$GPGGA,162903.000,3352.3740,N,09831.1622,W,2,10,1.1,287.6,M,-23.7,M,0.8,0000*46
$GPGSA,A,3,18,22,15,14,06,19,27,21,03,09,,,2.0,1.1,1.7*3C
$GPGSV,3,1,11,18,57,050,40,22,55,319,40,21,52,148,28,14,50,236,37*7E
$GPGSV,3,2,11,09,37,068,35,06,25,258,36,27,22,047,34,03,20,269,24*7D
$GPGSV,3,3,11,19,16,308,31,15,15,048,34,51,49,195,37*44
$GPRMC,162903.000,A,3352.3740,N,09831.1622,W,0.04,192.59,290312,,,D*7C
$GPGGA,162904.000,3352.3740,N,09831.1622,W,2,10,1.1,287.6,M,-23.7,M,1.8,0000*40
$GPGSA,A,3,18,22,15,14,06,19,27,21,03,09,,,2.0,1.1,1.7*3C
$GPRMC,162904.000,A,3352.3740,N,09831.1622,W,0.04,148.97,290312,,,D*7E
$GPGGA,162905.000,3352.3740,N,09831.1622,W,2,10,1.1,287.6,M,-23.7,M,2.8,0000*42
$GPGSA,A,3,18,22,15,14,06,19,27,21,03,09,,,2.0,1.1,1.7*3C
$GPRMC,162905.000,A,3352.3740,N,09831.1622,W,0.04,177.33,290312,,,D*7D
$GPGGA,162906.000,3352.3741,N,09831.1622,W,2,10,1.1,287.6,M,-23.7,M,3.8,0000*41
$GPGSA,A,3,18,22,15,14,06,19,27,21,03,09,,,2.0,1.1,1.7*3C
$GPRMC,162906.000,A,3352.3741,N,09831.1622,W,0.04,182.47,290312,,,D*76
$GPGGA,162907.000,3352.3741,N,09831.1622,W,2,10,1.1,287.6,M,-23.7,M,0.8,0000*43
$GPGSA,A,3,18,22,15,14,06,19,27,21,03,09,,,2.0,1.1,1.7*3C
$GPRMC,162907.000,A,3352.3741,N,09831.1622,W,0.04,93.17,290312,,,D*43
$GPGGA,162908.000,3352.3741,N,09831.1622,W,2,10,1.1,287.6,M,-23.7,M,0.8,0000*4C
$GPGSA,A,3,18,22,15,14,06,19,27,21,03,09,,,2.0,1.1,1.7*3C
$GPGSV,3,1,11,18,57,050,40,22,55,319,40,21,52,148,28,14,50,236,38*71
$GPGSV,3,2,11,09,37,068,35,06,25,258,36,27,22,047,34,03,20,269,23*7A
$GPGSV,3,3,11,19,16,308,32,15,15,048,33,51,49,195,37*40
$GPRMC,162908.000,A,3352.3741,N,09831.1622,W,0.04,214.27,290312,,,D*72
$GPGGA,162909.000,3352.3741,N,09831.1622,W,2,10,1.1,287.6,M,-23.7,M,0.8,0000*4D
$GPGSA,A,3,18,22,15,14,06,19,27,21,03,09,,,2.0,1.1,1.7*3C
$GPRMC,162909.000,A,3352.3741,N,09831.1622,W,0.15,147.62,290312,,,D*77
$GPGGA,162910.000,3352.3741,N,09831.1622,W,2,10,1.1,287.7,M,-23.7,M,1.8,0000*45
$GPGSA,A,3,18,22,15,14,06,19,27,21,03,09,,,2.0,1.1,1.7*3C
$GPRMC,162910.000,A,3352.3741,N,09831.1622,W,0.18,138.77,290312,,,D*7E
$GPGGA,162911.000,3352.3741,N,09831.1622,W,2,10,1.1,287.8,M,-23.7,M,2.8,0000*48
$GPGSA,A,3,18,22,15,14,06,19,27,21,03,09,,,2.0,1.1,1.7*3C
$GPRMC,162911.000,A,3352.3741,N,09831.1622,W,0.18,155.47,290312,,,D*77
$GPGGA,162912.000,3352.3741,N,09831.1622,W,2,10,1.1,287.9,M,-23.7,M,3.8,0000*4B
$GPGSA,A,3,18,22,15,14,06,19,27,21,03,09,,,2.0,1.1,1.7*3C
$GPRMC,162912.000,A,3352.3741,N,09831.1622,W,0.18,139.71,290312,,,D*7B
$GPGGA,162913.000,3352.3740,N,09831.1621,W,2,10,1.1,287.9,M,-23.7,M,0.8,0000*4B
$GPGSA,A,3,18,22,15,14,06,19,27,21,03,09,,,2.0,1.1,1.7*3C
$GPGSV,3,1,11,18,57,050,40,22,55,319,40,21,52,148,28,14,50,236,38*71
$GPGSV,3,2,11,09,37,068,35,06,25,258,36,27,22,047,34,03,20,269,23*7A
$GPGSV,3,3,11,19,16,308,33,15,15,048,33,51,49,195,36*40
$GPRMC,162913.000,A,3352.3740,N,09831.1621,W,0.16,150.17,290312,,,D*79
$GPGGA,162914.000,3352.3740,N,09831.1621,W,2,10,1.1,287.9,M,-23.7,M,0.8,0000*4C
$GPGSA,A,3,18,22,15,14,06,19,27,21,03,09,,,2.0,1.1,1.7*3C
$GPRMC,162914.000,A,3352.3740,N,09831.1621,W,0.22,159.03,290312,,,D*75
$GPGGA,162915.000,3352.3740,N,09831.1621,W,2,10,1.1,287.9,M,-23.7,M,0.8,0000*4D
$GPGSA,A,3,18,22,15,14,06,19,27,21,03,09,,,2.0,1.1,1.7*3C
$GPRMC,162915.000,A,3352.3740,N,09831.1621,W,0.06,86.83,290312,,,D*49
$GPGGA,162916.000,3352.3741,N,09831.1621,W,2,10,1.1,288.0,M,-23.7,M,0.8,0000*49
$GPGSA,A,3,18,22,15,14,06,19,27,21,03,09,,,2.0,1.1,1.7*3C
$GPRMC,162916.000,A,3352.3741,N,09831.1621,W,0.05,79.17,290312,,,D*45
$GPGGA,162917.000,3352.3741,N,09831.1621,W,2,10,1.1,288.0,M,-23.7,M,1.8,0000*49
$GPGSA,A,3,18,22,15,14,06,19,27,21,03,09,,,2.0,1.1,1.7*3C
$GPRMC,162917.000,A,3352.3741,N,09831.1621,W,0.05,169.88,290312,,,D*72
$GPGGA,162918.000,3352.3741,N,09831.1621,W,2,10,1.1,288.0,M,-23.7,M,2.8,0000*45
$GPGSA,A,3,18,22,15,14,06,19,27,21,03,09,,,2.0,1.1,1.7*3C
$GPGSV,3,1,11,18,57,050,40,22,55,319,40,21,52,148,28,14,50,236,38*71
$GPGSV,3,2,11,09,37,068,35,06,25,258,35,27,22,047,34,03,20,269,23*79
$GPGSV,3,3,11,19,16,308,33,15,15,048,33,51,49,195,37*41
$GPRMC,162918.000,A,3352.3741,N,09831.1621,W,0.06,72.89,290312,,,D*44
$GPGGA,162919.000,3352.3741,N,09831.1621,W,2,10,1.1,288.1,M,-23.7,M,0.8,0000*47
$GPGSA,A,3,18,22,15,14,06,19,27,21,03,09,,,2.0,1.1,1.7*3C
$GPRMC,162919.000,A,3352.3741,N,09831.1621,W,0.05,92.47,290312,,,D*4A
$GPGGA,162920.000,3352.3742,N,09831.1621,W,2,10,1.1,288.1,M,-23.7,M,0.8,0000*4E
$GPGSA,A,3,18,22,15,14,06,19,27,21,03,09,,,2.0,1.1,1.7*3C
$GPRMC,162920.000,A,3352.3742,N,09831.1621,W,0.05,43.29,290312,,,D*47
$GPGGA,162921.000,3352.3742,N,09831.1621,W,2,10,1.1,288.2,M,-23.7,M,1.8,0000*4D
$GPGSA,A,3,18,22,15,14,06,19,27,21,03,09,,,2.0,1.1,1.7*3C
$GPRMC,162921.000,A,3352.3742,N,09831.1621,W,0.05,64.12,290312,,,D*4B
$GPGGA,162922.000,3352.3743,N,09831.1621,W,2,10,1.1,288.2,M,-23.7,M,0.8,0000*4E
$GPGSA,A,3,18,22,15,14,06,19,27,21,03,09,,,2.0,1.1,1.7*3C
$GPRMC,162922.000,A,3352.3743,N,09831.1621,W,0.02,174.97,290312,,,D*73
$GPGGA,162923.000,3352.3743,N,09831.1621,W,2,10,1.1,288.2,M,-23.7,M,1.8,0000*4E
$GPGSA,A,3,18,22,15,14,06,19,27,21,03,09,,,2.0,1.1,1.7*3C
$GPGSV,3,1,11,18,57,050,40,22,55,319,40,21,52,148,28,14,50,236,38*71
$GPGSV,3,2,11,09,37,068,34,06,25,258,35,27,22,047,33,03,20,269,23*7F
$GPGSV,3,3,11,19,16,308,33,15,15,048,33,51,49,195,37*41
$GPRMC,162923.000,A,3352.3743,N,09831.1621,W,0.03,230.99,290312,,,D*7E
$GPGGA,162924.000,3352.3743,N,09831.1621,W,2,10,1.1,288.2,M,-23.7,M,2.8,0000*4A
$GPGSA,A,3,18,22,15,14,06,19,27,21,03,09,,,2.0,1.1,1.7*3C
$GPRMC,162924.000,A,3352.3743,N,09831.1621,W,0.02,213.88,290312,,,D*79
$GPGGA,162925.000,3352.3743,N,09831.1621,W,2,10,1.1,288.3,M,-23.7,M,0.8,0000*48
$GPGSA,A,3,18,22,15,14,06,19,27,21,03,09,,,2.0,1.1,1.7*3C
$GPRMC,162925.000,A,3352.3743,N,09831.1621,W,0.07,63.95,290312,,,D*44
$GPGGA,162926.000,3352.3744,N,09831.1621,W,2,10,1.1,288.3,M,-23.7,M,0.8,0000*4C
$GPGSA,A,3,18,22,15,14,06,19,27,21,03,09,,,2.0,1.1,1.7*3C
$GPRMC,162926.000,A,3352.3744,N,09831.1621,W,0.08,62.52,290312,,,D*45
$GPGGA,162927.000,3352.3744,N,09831.1621,W,2,10,1.1,288.2,M,-23.7,M,0.8,0000*4C
$GPGSA,A,3,18,22,15,14,06,19,27,21,03,09,,,2.0,1.1,1.7*3C
$GPRMC,162927.000,A,3352.3744,N,09831.1621,W,0.10,156.92,290312,,,D*77
$GPGGA,162928.000,3352.3744,N,09831.1621,W,2,10,1.1,288.2,M,-23.7,M,1.8,0000*42
$GPGSA,A,3,18,22,15,14,06,19,27,21,03,09,,,2.0,1.1,1.7*3C
$GPGSV,3,1,11,18,57,050,40,22,55,319,40,21,52,148,29,14,50,236,38*70
$GPGSV,3,2,11,09,37,068,34,06,25,258,35,27,22,047,33,03,20,269,24*78
$GPGSV,3,3,11,19,16,308,33,15,15,048,33,51,49,195,37*41
$GPRMC,162928.000,A,3352.3744,N,09831.1621,W,0.10,130.75,290312,,,D*71
$GPGGA,162929.000,3352.3744,N,09831.1621,W,2,10,1.1,288.2,M,-23.7,M,0.8,0000*42
$GPGSA,A,3,18,22,15,14,06,19,27,21,03,09,,,2.0,1.1,1.7*3C
$GPRMC,162929.000,A,3352.3744,N,09831.1621,W,0.12,121.66,290312,,,D*70
$GPGGA,162930.000,3352.3744,N,09831.1621,W,2,10,1.1,288.2,M,-23.7,M,1.8,0000*4B
$GPGSA,A,3,18,22,15,14,06,19,27,21,03,09,,,2.0,1.1,1.7*3C
$GPRMC,162930.000,A,3352.3744,N,09831.1621,W,0.09,125.02,290312,,,D*74
$GPGGA,162931.000,3352.3744,N,09831.1620,W,2,10,1.1,288.1,M,-23.7,M,0.8,0000*49
$GPGSA,A,3,18,22,15,14,06,19,27,21,03,09,,,2.0,1.1,1.7*3C
$GPRMC,162931.000,A,3352.3744,N,09831.1620,W,0.12,169.29,290312,,,D*7F
$GPGGA,162932.000,3352.3744,N,09831.1620,W,2,10,1.1,288.0,M,-23.7,M,0.8,0000*4B
$GPGSA,A,3,18,22,15,14,06,19,27,21,03,09,,,2.0,1.1,1.7*3C
$GPRMC,162932.000,A,3352.3744,N,09831.1620,W,0.11,158.50,290312,,,D*73
$GPGGA,162933.000,3352.3743,N,09831.1620,W,2,10,1.1,287.9,M,-23.7,M,0.8,0000*4B
$GPGSA,A,3,18,22,15,14,06,19,27,21,03,09,,,2.0,1.1,1.7*3C
$GPGSV,3,1,11,18,57,050,40,22,55,319,40,21,52,148,29,14,50,236,38*70
$GPGSV,3,2,11,09,37,068,34,06,25,258,34,27,22,047,32,03,20,269,25*79
$GPGSV,3,3,11,19,16,308,32,15,15,048,33,51,49,195,37*40
$GPRMC,162933.000,A,3352.3743,N,09831.1620,W,0.16,148.96,290312,,,D*79
$GPGGA,162934.000,3352.3743,N,09831.1620,W,2,10,1.1,287.9,M,-23.7,M,1.8,0000*4D
$GPGSA,A,3,18,22,15,14,06,19,27,21,03,09,,,2.0,1.1,1.7*3C
$GPRMC,162934.000,A,3352.3743,N,09831.1620,W,0.19,149.79,290312,,,D*71
$GPGGA,162935.000,3352.3743,N,09831.1620,W,2,10,1.1,287.8,M,-23.7,M,2.8,0000*4E
$GPGSA,A,3,18,22,15,14,06,19,27,21,03,09,,,2.0,1.1,1.7*3C
$GPRMC,162935.000,A,3352.3743,N,09831.1620,W,0.17,148.41,290312,,,D*74
$GPGGA,162936.000,3352.3743,N,09831.1619,W,2,10,1.1,287.8,M,-23.7,M,3.8,0000*46
$GPGSA,A,3,18,22,15,14,06,19,27,21,03,09,,,2.0,1.1,1.7*3C
$GPRMC,162936.000,A,3352.3743,N,09831.1619,W,0.16,152.77,290312,,,D*72
$GPGGA,162937.000,3352.3742,N,09831.1619,W,2,10,1.1,287.7,M,-23.7,M,0.8,0000*4A
$GPGSA,A,3,18,22,15,14,06,19,27,21,03,09,,,2.0,1.1,1.7*3C
$GPRMC,162937.000,A,3352.3742,N,09831.1619,W,0.16,138.12,290312,,,D*7D
$GPGGA,162938.000,3352.3742,N,09831.1619,W,2,10,1.1,287.7,M,-23.7,M,0.8,0000*45
$GPGSA,A,3,18,22,15,14,06,19,27,21,03,09,,,2.0,1.1,1.7*3C
$GPGSV,3,1,11,18,57,050,40,22,55,319,40,21,52,148,29,14,50,236,38*70
$GPGSV,3,2,11,09,37,068,34,06,25,258,34,27,22,047,32,03,20,269,25*79
$GPGSV,3,3,11,19,16,308,32,15,15,048,33,51,49,195,37*40
$GPRMC,162938.000,A,3352.3742,N,09831.1619,W,0.18,147.33,290312,,,D*77
$GPGGA,162939.000,3352.3742,N,09831.1619,W,2,10,1.1,287.6,M,-23.7,M,0.8,0000*45
$GPGSA,A,3,18,22,15,14,06,19,27,21,03,09,,,2.0,1.1,1.7*3C
$GPRMC,162939.000,A,3352.3742,N,09831.1619,W,0.05,151.86,290312,,,D*73
$GPGGA,162940.000,3352.3742,N,09831.1619,W,2,10,1.1,287.5,M,-23.7,M,1.8,0000*49
$GPGSA,A,3,18,22,15,14,06,19,27,21,03,09,,,2.0,1.1,1.7*3C
$GPRMC,162940.000,A,3352.3742,N,09831.1619,W,0.04,149.17,290312,,,D*7D
$GPGGA,162941.000,3352.3743,N,09831.1619,W,2,10,1.1,287.4,M,-23.7,M,2.8,0000*4B
$GPGSA,A,3,18,22,15,14,06,19,27,21,03,09,,,2.0,1.1,1.7*3C
$GPRMC,162941.000,A,3352.3743,N,09831.1619,W,0.05,150.03,290312,,,D*71
$GPGGA,162942.000,3352.3743,N,09831.1619,W,2,10,1.1,287.3,M,-23.7,M,3.8,0000*4E
$GPGSA,A,3,18,22,15,14,06,19,27,21,03,09,,,2.0,1.1,1.7*3C
$GPRMC,162942.000,A,3352.3743,N,09831.1619,W,0.04,152.15,290312,,,D*76
$GPGGA,162943.000,3352.3743,N,09831.1619,W,2,10,1.1,287.2,M,-23.7,M,0.8,0000*4D
$GPGSA,A,3,18,22,15,14,06,19,27,21,03,09,,,2.0,1.1,1.7*3C
$GPGSV,3,1,11,18,57,050,40,22,55,319,40,21,52,148,29,14,50,236,38*70
$GPGSV,3,2,11,09,37,068,34,06,25,258,34,27,22,047,32,03,20,269,25*79
$GPGSV,3,3,11,19,16,308,32,15,15,048,33,51,49,195,37*40
$GPRMC,162943.000,A,3352.3743,N,09831.1619,W,0.05,156.57,290312,,,D*74
$GPGGA,162944.000,3352.3743,N,09831.1619,W,2,10,1.1,287.2,M,-23.7,M,0.8,0000*4A
$GPGSA,A,3,18,22,15,14,06,19,27,21,03,09,,,2.0,1.1,1.7*3C
$GPRMC,162944.000,A,3352.3743,N,09831.1619,W,0.04,150.60,290312,,,D*70
$GPGGA,162945.000,3352.3743,N,09831.1619,W,2,10,1.1,287.1,M,-23.7,M,0.8,0000*48
$GPGSA,A,3,18,22,15,14,06,19,27,21,03,09,,,2.0,1.1,1.7*3C
$GPRMC,162945.000,A,3352.3743,N,09831.1619,W,0.15,145.88,290312,,,D*73
$GPGGA,162946.000,3352.3743,N,09831.1619,W,2,10,1.1,287.1,M,-23.7,M,0.8,0000*4B
$GPGSA,A,3,18,22,15,14,06,19,27,21,03,09,,,2.0,1.1,1.7*3C
$GPRMC,162946.000,A,3352.3743,N,09831.1619,W,0.16,145.37,290312,,,D*77
$GPGGA,162947.000,3352.3743,N,09831.1618,W,2,10,1.1,287.1,M,-23.7,M,1.8,0000*4A
$GPGSA,A,3,18,22,15,14,06,19,27,21,03,09,,,2.0,1.1,1.7*3C
$GPRMC,162947.000,A,3352.3743,N,09831.1618,W,0.15,140.92,290312,,,D*7E
$GPGGA,162948.000,3352.3743,N,09831.1618,W,2,10,1.1,287.1,M,-23.7,M,0.8,0000*44
$GPGSA,A,3,18,22,15,14,06,19,27,21,03,09,,,2.0,1.1,1.7*3C
$GPGSV,3,1,11,18,57,050,41,22,55,319,40,21,52,148,29,14,50,236,37*7E
$GPGSV,3,2,11,09,37,068,35,06,25,258,34,27,22,047,32,03,20,269,26*7B
$GPGSV,3,3,11,19,16,308,31,15,15,048,33,51,49,195,37*43
$GPRMC,162948.000,A,3352.3743,N,09831.1618,W,0.15,145.47,290312,,,D*7C
$GPGGA,162949.000,3352.3743,N,09831.1618,W,2,10,1.1,287.0,M,-23.7,M,0.8,0000*44
$GPGSA,A,3,18,22,15,14,06,19,27,21,03,09,,,2.0,1.1,1.7*3C
$GPRMC,162949.000,A,3352.3743,N,09831.1618,W,0.15,144.20,290312,,,D*7D
$GPGGA,162950.000,3352.3743,N,09831.1618,W,2,10,1.1,287.0,M,-23.7,M,0.8,0000*4C
$GPGSA,A,3,18,22,15,14,06,19,27,21,03,09,,,2.0,1.1,1.7*3C
$GPRMC,162950.000,A,3352.3743,N,09831.1618,W,0.15,143.17,290312,,,D*76
$GPGGA,162951.000,3352.3743,N,09831.1618,W,2,10,1.1,286.9,M,-23.7,M,0.8,0000*45
$GPGSA,A,3,18,22,15,14,06,19,27,21,03,09,,,2.0,1.1,1.7*3C
$GPRMC,162951.000,A,3352.3743,N,09831.1618,W,0.05,153.36,290312,,,D*74
$GPGGA,162952.000,3352.3743,N,09831.1618,W,2,10,1.1,286.9,M,-23.7,M,1.8,0000*47
$GPGSA,A,3,18,22,15,14,06,19,27,21,03,09,,,2.0,1.1,1.7*3C
$GPRMC,162952.000,A,3352.3743,N,09831.1618,W,0.04,146.62,290312,,,D*73
$GPGGA,162953.000,3352.3743,N,09831.1618,W,2,10,1.1,286.8,M,-23.7,M,2.8,0000*44
$GPGSA,A,3,18,22,15,14,06,19,27,21,03,09,,,2.0,1.1,1.7*3C
$GPGSV,3,1,11,18,57,050,41,22,55,319,40,21,52,148,29,14,50,236,37*7E
$GPGSV,3,2,11,09,37,068,35,06,25,258,34,27,22,047,32,03,20,269,27*7A
$GPGSV,3,3,11,19,16,308,32,15,15,048,33,51,49,195,37*40
$GPRMC,162953.000,A,3352.3743,N,09831.1618,W,0.06,154.19,290312,,,D*7F
$GPGGA,162954.000,3352.3743,N,09831.1618,W,2,10,1.1,286.7,M,-23.7,M,0.8,0000*4E
$GPGSA,A,3,18,22,15,14,06,19,27,21,03,09,,,2.0,1.1,1.7*3C
$GPRMC,162954.000,A,3352.3743,N,09831.1618,W,0.03,121.37,290312,,,D*73
$GPGGA,162955.000,3352.3744,N,09831.1618,W,2,10,1.1,286.7,M,-23.7,M,0.8,0000*48
