$GPGGA,101850.000,3353.7679,N,09832.0408,W,2,05,3.7,316.7,M,-23.7,M,1.8,0000*4B
$GPGSA,A,3,04,05,10,12,02,,,,,,,,4.9,3.7,3.2*3B
$GPRMC,101850.000,A,3353.7679,N,09832.0408,W,0.19,317.75,010412,,,D*78
$GPGGA,101851.000,3353.7680,N,09832.0410,W,2,05,3.7,317.1,M,-23.7,M,0.8,0000*43
$GPGSA,A,3,04,05,10,12,02,,,,,,,,4.9,3.7,3.2*3B
$GPRMC,101851.000,A,3353.7680,N,09832.0410,W,0.17,321.54,010412,,,D*7E
$GPGGA,101852.000,3353.7681,N,09832.0410,W,2,05,3.7,317.2,M,-23.7,M,0.8,0000*42
$GPGSA,A,3,04,05,10,12,02,,,,,,,,4.9,3.7,3.2*3B
$GPRMC,101852.000,A,3353.7681,N,09832.0410,W,0.07,342.86,010412,,,D*77
$GPGGA,101853.000,3353.7681,N,09832.0409,W,2,05,3.7,317.2,M,-23.7,M,0.8,0000*4B
$GPGSA,A,3,04,05,10,12,02,,,,,,,,4.9,3.7,3.2*3B
$GPGSV,3,1,10,05,73,144,32,12,55,216,34,02,52,038,34,25,46,288,*74
$GPGSV,3,2,10,10,33,047,35,29,25,310,,04,20,061,28,26,05,150,*7D
$GPGSV,3,3,10,13,03,043,15,51,49,195,39*74
$GPRMC,101853.000,A,3353.7681,N,09832.0409,W,0.13,53.51,010412,,,D*42
$GPGGA,101854.000,3353.7681,N,09832.0408,W,2,05,3.7,317.1,M,-23.7,M,1.8,0000*4F
$GPGSA,A,3,04,05,10,12,02,,,,,,,,4.9,3.7,3.2*3B
$GPRMC,101854.000,A,3353.7681,N,09832.0408,W,0.15,56.06,010412,,,D*45
$GPGGA,101855.000,3353.7680,N,09832.0407,W,2,05,3.7,317.0,M,-23.7,M,2.8,0000*42
$GPGSA,A,3,04,05,10,12,02,,,,,,,,4.9,3.7,3.2*3B
$GPRMC,101855.000,A,3353.7680,N,09832.0407,W,0.12,44.36,010412,,,D*4D
$GPGGA,101856.000,3353.7680,N,09832.0406,W,2,05,3.7,316.9,M,-23.7,M,0.8,0000*4A
$GPGSA,A,3,04,05,10,12,02,,,,,,,,4.9,3.7,3.2*3B
$GPRMC,101856.000,A,3353.7680,N,09832.0406,W,0.10,49.96,010412,,,D*4A
$GPGGA,101857.000,3353.7680,N,09832.0405,W,2,05,3.7,316.7,M,-23.7,M,0.8,0000*46
$GPGSA,A,3,04,05,10,12,02,,,,,,,,4.9,3.7,3.2*3B
$GPRMC,101857.000,A,3353.7680,N,09832.0405,W,0.12,71.30,010412,,,D*4D
$GPGGA,101858.000,3353.7679,N,09832.0404,W,2,05,3.7,316.5,M,-23.7,M,0.8,0000*4C
$GPGSA,A,3,04,05,10,12,02,,,,,,,,4.9,3.7,3.2*3B
$GPGSV,3,1,10,05,73,144,32,12,55,216,35,02,52,038,34,25,46,288,*75
$GPGSV,3,2,10,10,33,047,35,29,25,310,,04,20,061,28,26,05,150,*7D
$GPGSV,3,3,10,13,03,043,17,51,49,195,39*76
$GPRMC,101858.000,A,3353.7679,N,09832.0404,W,0.10,60.72,010412,,,D*41
$GPGGA,101859.000,3353.7679,N,09832.0403,W,2,05,3.7,316.3,M,-23.7,M,0.8,0000*4C
$GPGSA,A,3,04,05,10,12,02,,,,,,,,4.9,3.7,3.2*3B
$GPRMC,101859.000,A,3353.7679,N,09832.0403,W,0.01,249.10,010412,,,D*7A
$GPGGA,101900.000,3353.7679,N,09832.0403,W,2,05,3.7,316.2,M,-23.7,M,1.8,0000*41
$GPGSA,A,3,04,05,10,12,02,,,,,,,,4.9,3.7,3.2*3B
$GPRMC,101900.000,A,3353.7679,N,09832.0403,W,0.04,218.85,010412,,,D*7A
$GPGGA,101901.000,3353.7678,N,09832.0403,W,2,05,3.7,316.0,M,-23.7,M,2.8,0000*40
$GPGSA,A,3,04,05,10,12,02,,,,,,,,4.9,3.7,3.2*3B
$GPRMC,101901.000,A,3353.7678,N,09832.0403,W,0.10,282.03,010412,,,D*72
$GPGGA,101902.000,3353.7676,N,09832.0399,W,2,06,1.8,316.1,M,-23.7,M,3.8,0000*47
$GPGSA,A,3,04,05,10,25,12,02,,,,,,,3.4,1.8,2.9*31
$GPRMC,101902.000,A,3353.7676,N,09832.0399,W,0.25,135.95,010412,,,D*7D
$GPGGA,101903.000,3353.7673,N,09832.0395,W,2,06,1.8,316.1,M,-23.7,M,0.8,0000*4C
$GPGSA,A,3,04,05,10,25,12,02,,,,,,,3.4,1.8,2.9*31
$GPGSV,3,1,10,05,73,144,32,12,55,216,35,02,52,038,33,25,46,288,23*73
$GPGSV,3,2,10,10,33,047,35,29,25,310,,04,20,061,28,26,05,150,*7D
$GPGSV,3,3,10,13,03,043,18,51,49,195,39*79
$GPRMC,101903.000,A,3353.7673,N,09832.0395,W,0.27,141.31,010412,,,D*7A
$GPGGA,101904.000,3353.7672,N,09832.0394,W,2,06,1.8,316.0,M,-23.7,M,0.8,0000*4A
$GPGSA,A,3,04,05,10,25,12,02,,,,,,,3.4,1.8,2.9*31
$GPRMC,101904.000,A,3353.7672,N,09832.0394,W,0.35,297.82,010412,,,D*7E
$GPGGA,101905.000,3353.7671,N,09832.0391,W,2,06,1.8,316.1,M,-23.7,M,0.8,0000*4C
$GPGSA,A,3,04,05,10,25,12,02,,,,,,,3.4,1.8,2.9*31
$GPRMC,101905.000,A,3353.7671,N,09832.0391,W,0.25,116.87,010412,,,D*77
$GPGGA,101906.000,3353.7669,N,09832.0387,W,2,06,1.8,316.2,M,-23.7,M,1.8,0000*43
$GPGSA,A,3,04,05,10,25,12,02,,,,,,,3.4,1.8,2.9*31
$GPRMC,101906.000,A,3353.7669,N,09832.0387,W,0.15,111.47,010412,,,D*72
$GPGGA,101907.000,3353.7668,N,09832.0385,W,2,06,1.8,316.3,M,-23.7,M,2.8,0000*43
$GPGSA,A,3,04,05,10,25,12,02,,,,,,,3.4,1.8,2.9*31
$GPRMC,101907.000,A,3353.7668,N,09832.0385,W,0.08,335.61,010412,,,D*7C
$GPGGA,101908.000,3353.7667,N,09832.0382,W,2,06,1.8,316.4,M,-23.7,M,3.8,0000*42
$GPGSA,A,3,04,05,10,25,12,02,,,,,,,3.4,1.8,2.9*31
$GPGSV,3,1,10,05,73,144,32,12,55,216,35,02,52,038,33,25,46,288,24*74
$GPGSV,3,2,10,10,33,047,35,29,25,310,,04,20,061,28,26,05,150,*7D
$GPGSV,3,3,10,13,03,043,19,51,49,195,39*78
$GPRMC,101908.000,A,3353.7667,N,09832.0382,W,0.30,116.37,010412,,,D*70
$GPGGA,101909.000,3353.7665,N,09832.0378,W,2,06,1.8,316.7,M,-23.7,M,0.8,0000*44
$GPGSA,A,3,04,05,10,25,12,02,,,,,,,3.4,1.8,2.9*31
$GPRMC,101909.000,A,3353.7665,N,09832.0378,W,0.62,124.45,010412,,,D*75
$GPGGA,101910.000,3353.7663,N,09832.0375,W,2,06,1.8,316.8,M,-23.7,M,0.8,0000*48
$GPGSA,A,3,04,05,10,25,12,02,,,,,,,3.4,1.8,2.9*31
$GPRMC,101910.000,A,3353.7663,N,09832.0375,W,0.06,330.01,010412,,,D*73
$GPGGA,101911.000,3353.7662,N,09832.0373,W,2,06,1.8,316.8,M,-23.7,M,0.8,0000*4E
$GPGSA,A,3,04,05,10,25,12,02,,,,,,,3.4,1.8,2.9*31
$GPRMC,101911.000,A,3353.7662,N,09832.0373,W,0.06,143.55,010412,,,D*72
$GPGGA,101912.000,3353.7660,N,09832.0370,W,2,06,1.8,317.0,M,-23.7,M,1.8,0000*44
$GPGSA,A,3,04,05,10,25,12,02,,,,,,,3.4,1.8,2.9*31
$GPRMC,101912.000,A,3353.7660,N,09832.0370,W,0.62,128.63,010412,,,D*7A
$GPGGA,101913.000,3353.7657,N,09832.0365,W,2,06,1.8,317.2,M,-23.7,M,2.8,0000*44
$GPGSA,A,3,04,05,10,25,12,02,,,,,,,3.4,1.8,2.9*31
$GPGSV,3,1,10,05,73,144,32,12,55,216,35,02,52,038,33,25,46,288,24*74
$GPGSV,3,2,10,10,33,047,36,29,25,310,,04,20,061,28,26,05,150,*7E
$GPGSV,3,3,10,13,03,043,19,51,49,195,39*78
$GPRMC,101913.000,A,3353.7657,N,09832.0365,W,0.08,191.32,010412,,,D*71
$GPGGA,101914.000,3353.7647,N,09832.0348,W,2,06,1.8,318.0,M,-23.7,M,0.8,0000*42
$GPGSA,A,3,04,05,10,25,12,02,,,,,,,3.4,1.8,2.9*31
$GPRMC,101914.000,A,3353.7647,N,09832.0348,W,0.64,128.79,010412,,,D*7F
$GPGGA,101915.000,3353.7643,N,09832.0342,W,2,06,1.8,318.3,M,-23.7,M,0.8,0000*4E
$GPGSA,A,3,04,05,10,25,12,02,,,,,,,3.4,1.8,2.9*31
$GPRMC,101915.000,A,3353.7643,N,09832.0342,W,0.08,152.49,010412,,,D*74
$GPGGA,101916.000,3353.7630,N,09832.0322,W,2,06,1.8,319.3,M,-23.7,M,0.8,0000*4E
$GPGSA,A,3,04,05,10,25,12,02,,,,,,,3.4,1.8,2.9*31
$GPRMC,101916.000,A,3353.7630,N,09832.0322,W,0.12,286.42,010412,,,D*7F
$GPGGA,101917.000,3353.7622,N,09832.0307,W,2,06,1.8,320.0,M,-23.7,M,0.8,0000*42
$GPGSA,A,3,04,05,10,25,12,02,,,,,,,3.4,1.8,2.9*31
$GPRMC,101917.000,A,3353.7622,N,09832.0307,W,0.55,120.91,010412,,,D*78
$GPGGA,101918.000,3353.7627,N,09832.0316,W,2,06,1.8,319.6,M,-23.7,M,1.8,0000*45
$GPGSA,A,3,04,05,10,25,12,02,,,,,,,3.4,1.8,2.9*31
$GPGSV,3,1,10,05,73,144,32,12,55,216,35,02,52,038,33,25,46,288,23*73
$GPGSV,3,2,10,10,33,047,36,29,25,310,,04,20,061,29,26,05,150,*7F
$GPGSV,3,3,10,13,03,043,19,51,49,195,39*78
$GPRMC,101918.000,A,3353.7627,N,09832.0316,W,0.70,122.68,010412,,,D*71
$GPGGA,101919.000,3353.7631,N,09832.0321,W,2,06,1.8,319.2,M,-23.7,M,2.8,0000*40
$GPGSA,A,3,04,05,10,25,12,02,,,,,,,3.4,1.8,2.9*31
$GPRMC,101919.000,A,3353.7631,N,09832.0321,W,0.40,313.56,010412,,,D*7D
$GPGGA,101920.000,3353.7629,N,09832.0319,W,2,06,1.8,319.3,M,-23.7,M,3.8,0000*48
$GPGSA,A,3,04,05,10,25,12,02,,,,,,,3.4,1.8,2.9*31
$GPRMC,101920.000,A,3353.7629,N,09832.0319,W,0.33,315.05,010412,,,D*71
$GPGGA,101921.000,3353.7626,N,09832.0314,W,2,06,1.8,319.5,M,-23.7,M,0.8,0000*4E
$GPGSA,A,3,04,05,10,25,12,02,,,,,,,3.4,1.8,2.9*31
$GPRMC,101921.000,A,3353.7626,N,09832.0314,W,0.25,118.95,010412,,,D*73
$GPGGA,101922.000,3353.7629,N,09832.0319,W,2,06,1.8,319.2,M,-23.7,M,0.8,0000*48
$GPGSA,A,3,04,05,10,25,12,02,,,,,,,3.4,1.8,2.9*31
$GPRMC,101922.000,A,3353.7629,N,09832.0319,W,0.46,313.32,010412,,,D*73
$GPGGA,101923.000,3353.7635,N,09832.0328,W,2,06,1.8,318.8,M,-23.7,M,0.8,0000*4D
$GPGSA,A,3,04,05,10,25,12,02,,,,,,,3.4,1.8,2.9*31
$GPGSV,3,1,10,05,73,144,32,12,55,216,35,02,52,038,33,25,46,288,18*7B
$GPGSV,3,2,10,10,33,047,36,29,25,310,,04,20,061,28,26,05,150,*7E
$GPGSV,3,3,10,13,03,043,19,51,49,195,39*78
$GPRMC,101923.000,A,3353.7635,N,09832.0328,W,0.30,306.38,010412,,,D*72
$GPGGA,101924.000,3353.7637,N,09832.0332,W,2,06,1.8,318.5,M,-23.7,M,0.8,0000*4E
$GPGSA,A,3,04,05,10,25,12,02,,,,,,,3.4,1.8,2.9*31
$GPRMC,101924.000,A,3353.7637,N,09832.0332,W,0.07,140.96,010412,,,D*7C
$GPGGA,101925.000,3353.7637,N,09832.0331,W,2,06,1.8,318.4,M,-23.7,M,1.8,0000*4C
$GPGSA,A,3,04,05,10,25,12,02,,,,,,,3.4,1.8,2.9*31
$GPRMC,101925.000,A,3353.7637,N,09832.0331,W,0.63,131.22,010412,,,D*75
$GPGGA,101926.000,3353.7637,N,09832.0331,W,2,06,1.8,318.3,M,-23.7,M,2.8,0000*4B
$GPGSA,A,3,04,05,10,25,12,02,,,,,,,3.4,1.8,2.9*31
$GPRMC,101926.000,A,3353.7637,N,09832.0331,W,0.06,214.37,010412,,,D*75
$GPGGA,101927.000,3353.7633,N,09832.0326,W,2,06,1.8,318.9,M,-23.7,M,0.8,0000*40
$GPGSA,A,3,04,05,10,25,12,02,,,,,,,3.4,1.8,2.9*31
$GPRMC,101927.000,A,3353.7633,N,09832.0326,W,0.36,291.34,010412,,,D*7B
$GPGGA,101928.000,3353.7634,N,09832.0326,W,2,06,1.8,319.2,M,-23.7,M,0.8,0000*42
$GPGSA,A,3,04,05,10,25,12,02,,,,,,,3.4,1.8,2.9*31
$GPGSV,3,1,10,05,73,144,33,12,55,216,35,02,52,038,33,25,46,288,18*7A
$GPGSV,3,2,10,10,33,047,36,29,25,310,,04,20,061,28,26,05,150,*7E
$GPGSV,3,3,10,13,03,043,19,51,49,195,39*78
$GPRMC,101928.000,A,3353.7634,N,09832.0326,W,1.02,304.05,010412,,,D*7A
$GPGGA,101929.000,3353.7631,N,09832.0322,W,2,06,1.8,319.7,M,-23.7,M,0.8,0000*47
$GPGSA,A,3,04,05,10,25,12,02,,,,,,,3.4,1.8,2.9*31
$GPRMC,101929.000,A,3353.7631,N,09832.0322,W,0.09,87.13,010412,,,D*4F
$GPGGA,101930.000,3353.7631,N,09832.0321,W,2,06,1.8,319.8,M,-23.7,M,1.8,0000*42
$GPGSA,A,3,04,05,10,25,12,02,,,,,,,3.4,1.8,2.9*31
$GPRMC,101930.000,A,3353.7631,N,09832.0321,W,0.50,118.85,010412,,,D*70
$GPGGA,101931.000,3353.7631,N,09832.0320,W,2,06,1.8,319.8,M,-23.7,M,0.8,0000*43
$GPGSA,A,3,04,05,10,25,12,02,,,,,,,3.4,1.8,2.9*31
$GPRMC,101931.000,A,3353.7631,N,09832.0320,W,0.59,121.48,010412,,,D*72
$GPGGA,101932.000,3353.7629,N,09832.0316,W,2,06,1.8,319.9,M,-23.7,M,1.8,0000*4C
$GPGSA,A,3,04,05,10,25,12,02,,,,,,,3.4,1.8,2.9*31
$GPRMC,101932.000,A,3353.7629,N,09832.0316,W,0.95,124.58,010412,,,D*79
$GPGGA,101933.000,3353.7631,N,09832.0318,W,2,06,1.8,319.8,M,-23.7,M,0.8,0000*4A
$GPGSA,A,3,04,05,10,25,12,02,,,,,,,3.4,1.8,2.9*31
$GPGSV,3,1,10,05,73,144,33,12,55,216,35,02,52,038,33,25,46,288,19*7B
$GPGSV,3,2,10,10,33,047,36,29,25,310,,04,20,061,28,26,05,150,*7E
$GPGSV,3,3,10,13,03,043,18,51,49,195,39*79
$GPRMC,101933.000,A,3353.7631,N,09832.0318,W,0.13,329.61,010412,,,D*74
$GPGGA,101934.000,3353.7627,N,09832.0312,W,2,06,1.8,320.2,M,-23.7,M,0.8,0000*40
$GPGSA,A,3,04,05,10,25,12,02,,,,,,,3.4,1.8,2.9*31
$GPRMC,101934.000,A,3353.7627,N,09832.0312,W,0.56,121.88,010412,,,D*72
$GPGGA,101935.000,3353.7627,N,09832.0311,W,2,06,1.8,320.3,M,-23.7,M,0.8,0000*43
$GPGSA,A,3,04,05,10,25,12,02,,,,,,,3.4,1.8,2.9*31
$GPRMC,101935.000,A,3353.7627,N,09832.0311,W,0.09,147.87,010412,,,D*75
$GPGGA,101936.000,3353.7628,N,09832.0313,W,2,06,1.8,320.2,M,-23.7,M,1.8,0000*4D
$GPGSA,A,3,04,05,10,25,12,02,,,,,,,3.4,1.8,2.9*31
$GPRMC,101936.000,A,3353.7628,N,09832.0313,W,0.03,271.54,010412,,,D*79
$GPGGA,101937.000,3353.7627,N,09832.0311,W,2,06,1.8,320.3,M,-23.7,M,0.8,0000*41
$GPGSA,A,3,04,05,10,25,12,02,,,,,,,3.4,1.8,2.9*31
$GPRMC,101937.000,A,3353.7627,N,09832.0311,W,0.16,297.48,010412,,,D*74
$GPGGA,101938.000,3353.7627,N,09832.0313,W,2,06,1.8,320.3,M,-23.7,M,0.8,0000*4C
$GPGSA,A,3,04,05,10,25,12,02,,,,,,,3.4,1.8,2.9*31
$GPGSV,3,1,10,05,73,144,32,12,55,216,35,02,52,038,32,25,46,288,22*73
$GPGSV,3,2,10,10,33,047,36,29,25,310,,04,20,061,28,26,05,150,20*7C
$GPGSV,3,3,10,13,03,043,17,51,49,195,39*76
$GPRMC,101938.000,A,3353.7627,N,09832.0313,W,0.23,297.96,010412,,,D*7C
$GPGGA,101939.000,3353.7625,N,09832.0308,W,2,06,1.8,320.7,M,-23.7,M,0.8,0000*41
$GPGSA,A,3,04,05,10,25,12,02,,,,,,,3.4,1.8,2.9*31
$GPRMC,101939.000,A,3353.7625,N,09832.0308,W,0.58,130.43,010412,,,D*7F
$GPGGA,101940.000,3353.7620,N,09832.0301,W,2,06,1.8,321.2,M,-23.7,M,0.8,0000*47
$GPGSA,A,3,04,05,10,25,12,02,,,,,,,3.4,1.8,2.9*31
$GPRMC,101940.000,A,3353.7620,N,09832.0301,W,0.67,130.01,010412,,,D*77
$GPGGA,101941.000,3353.7616,N,09832.0293,W,2,06,1.8,321.8,M,-23.7,M,0.8,0000*43
$GPGSA,A,3,04,05,10,25,12,02,,,,,,,3.4,1.8,2.9*31
$GPRMC,101941.000,A,3353.7616,N,09832.0293,W,0.50,124.33,010412,,,D*79
$GPGGA,101942.000,3353.7612,N,09832.0287,W,2,06,1.8,322.4,M,-23.7,M,1.8,0000*4F
$GPGSA,A,3,04,05,10,25,12,02,,,,,,,3.4,1.8,2.9*31
$GPRMC,101942.000,A,3353.7612,N,09832.0287,W,0.35,114.49,010412,,,D*76
$GPGGA,101943.000,3353.7609,N,09832.0280,W,2,06,1.8,322.9,M,-23.7,M,0.8,0000*4F
$GPGSA,A,3,04,05,10,25,12,02,,,,,,,3.4,1.8,2.9*31
$GPGSV,3,1,10,05,73,144,32,12,55,216,34,02,52,038,32,25,46,288,28*78
$GPGSV,3,2,10,10,33,047,36,29,25,310,,04,20,061,28,26,05,150,19*76
$GPGSV,3,3,10,13,03,043,16,51,49,195,39*77
$GPRMC,101943.000,A,3353.7609,N,09832.0280,W,0.28,108.83,010412,,,D*7D
$GPGGA,101944.000,3353.7606,N,09832.0274,W,2,06,1.8,323.5,M,-23.7,M,1.8,0000*40
$GPGSA,A,3,04,05,10,25,12,02,,,,,,,3.4,1.8,2.9*31
$GPRMC,101944.000,A,3353.7606,N,09832.0274,W,0.30,107.89,010412,,,D*72
$GPGGA,101945.000,3353.7603,N,09832.0268,W,2,06,1.8,324.0,M,-23.7,M,0.8,0000*4A
$GPGSA,A,3,04,05,10,25,12,02,,,,,,,3.4,1.8,2.9*31
$GPRMC,101945.000,A,3353.7603,N,09832.0268,W,0.24,98.11,010412,,,D*48
$GPGGA,101946.000,3353.7601,N,09832.0263,W,2,06,1.8,324.5,M,-23.7,M,0.8,0000*45
$GPGSA,A,3,04,05,10,25,12,02,,,,,,,3.4,1.8,2.8*30
$GPRMC,101946.000,A,3353.7601,N,09832.0263,W,0.23,93.67,010412,,,D*4F
$GPGGA,101947.000,3353.7599,N,09832.0259,W,2,06,1.8,324.9,M,-23.7,M,0.8,0000*43
$GPGSA,A,3,04,05,10,25,12,02,,,,,,,3.4,1.8,2.8*30
$GPRMC,101947.000,A,3353.7599,N,09832.0259,W,0.15,124.45,010412,,,D*7D
$GPGGA,101948.000,3353.7596,N,09832.0255,W,2,06,1.8,324.8,M,-23.7,M,0.8,0000*4E
$GPGSA,A,3,04,05,10,25,12,02,,,,,,,3.4,1.8,2.8*30
$GPGSV,3,1,10,05,73,144,33,12,55,216,34,02,52,038,32,25,46,288,28*79
$GPGSV,3,2,10,10,33,047,36,29,25,310,,04,20,061,28,26,05,150,19*76
$GPGSV,3,3,10,13,03,043,16,51,49,195,39*77
$GPRMC,101948.000,A,3353.7596,N,09832.0255,W,0.15,121.27,010412,,,D*70
$GPGGA,101949.000,3353.7593,N,09832.0252,W,2,06,1.8,324.5,M,-23.7,M,1.8,0000*41
$GPGSA,A,3,04,05,10,25,12,02,,,,,,,3.4,1.8,2.8*30
$GPRMC,101949.000,A,3353.7593,N,09832.0252,W,0.11,134.43,010412,,,D*71
$GPGGA,101950.000,3353.7590,N,09832.0248,W,2,06,1.8,324.3,M,-23.7,M,2.8,0000*44
$GPGSA,A,3,04,05,10,25,12,02,,,,,,,3.4,1.8,2.8*30
$GPRMC,101950.000,A,3353.7590,N,09832.0248,W,0.11,137.28,010412,,,D*7F
$GPGGA,101951.000,3353.7587,N,09832.0244,W,2,06,1.8,324.1,M,-23.7,M,0.8,0000*4F
$GPGSA,A,3,04,05,10,25,12,02,,,,,,,3.4,1.8,2.8*30
$GPRMC,101951.000,A,3353.7587,N,09832.0244,W,0.17,142.67,010412,,,D*7B
$GPGGA,101952.000,3353.7584,N,09832.0241,W,2,06,1.8,323.6,M,-23.7,M,0.8,0000*4A
$GPGSA,A,3,04,05,10,25,12,02,,,,,,,3.4,1.8,2.8*30
$GPRMC,101952.000,A,3353.7584,N,09832.0241,W,0.26,136.09,010412,,,D*77
$GPGGA,101953.000,3353.7582,N,09832.0238,W,2,06,1.8,323.0,M,-23.7,M,0.8,0000*45
$GPGSA,A,3,04,05,10,25,12,02,,,,,,,3.4,1.8,2.8*30
$GPGSV,3,1,10,05,73,144,33,12,55,216,34,02,52,038,32,25,46,288,28*79
$GPGSV,3,2,10,10,33,047,36,29,25,310,,04,20,061,27,26,05,150,19*79
$GPGSV,3,3,10,13,03,043,17,51,49,195,39*76
$GPRMC,101953.000,A,3353.7582,N,09832.0238,W,0.24,97.32,010412,,,D*4E
$GPGGA,101954.000,3353.7581,N,09832.0236,W,2,06,1.8,322.5,M,-23.7,M,1.8,0000*4A
$GPGSA,A,3,04,05,10,25,12,02,,,,,,,3.4,1.8,2.8*30
$GPRMC,101954.000,A,3353.7581,N,09832.0236,W,0.06,102.22,010412,,,D*78
$GPGGA,101955.000,3353.7580,N,09832.0235,W,2,06,1.8,321.7,M,-23.7,M,2.8,0000*4B
$GPGSA,A,3,04,05,10,25,12,02,,,,,,,3.4,1.8,2.8*30
$GPRMC,101955.000,A,3353.7580,N,09832.0235,W,0.19,100.33,010412,,,D*77
$GPGGA,101956.000,3353.7580,N,09832.0234,W,2,06,1.8,321.0,M,-23.7,M,3.8,0000*4F
$GPGSA,A,3,04,05,10,25,12,02,,,,,,,3.4,1.8,2.8*30
$GPRMC,101956.000,A,3353.7580,N,09832.0234,W,0.08,118.52,010412,,,D*7B
$GPGGA,101957.000,3353.7579,N,09832.0234,W,2,06,1.8,320.4,M,-23.7,M,0.8,0000*4E
$GPGSA,A,3,04,05,10,25,12,02,,,,,,,3.4,1.8,2.8*30
$GPRMC,101957.000,A,3353.7579,N,09832.0234,W,0.10,261.05,010412,,,D*7A
$GPGGA,101958.000,3353.7580,N,09832.0234,W,2,06,1.8,319.7,M,-23.7,M,0.8,0000*4E
$GPGSA,A,3,04,05,10,25,12,02,,,,,,,3.4,1.8,2.8*30
$GPGSV,3,1,10,05,73,144,34,12,55,216,34,02,52,038,32,25,46,288,29*7F
$GPGSV,3,2,10,10,33,047,36,29,25,310,,04,20,061,26,26,05,150,19*78
$GPGSV,3,3,10,13,03,043,17,51,49,195,39*76
$GPRMC,101958.000,A,3353.7580,N,09832.0234,W,0.12,293.54,010412,,,D*78
$GPGGA,101959.000,3353.7579,N,09832.0235,W,2,06,1.8,319.1,M,-23.7,M,0.8,0000*4E
$GPGSA,A,3,04,05,10,25,12,02,,,,,,,3.4,1.8,2.8*30
$GPRMC,101959.000,A,3353.7579,N,09832.0235,W,0.18,222.51,010412,,,D*7B
$GPGGA,102000.000,3353.7578,N,09832.0235,W,2,06,1.8,318.4,M,-23.7,M,0.8,0000*4D
$GPGSA,A,3,04,05,10,25,12,02,,,,,,,3.4,1.8,2.8*30
$GPRMC,102000.000,A,3353.7578,N,09832.0235,W,0.18,201.90,010412,,,D*70
$GPGGA,102001.000,3353.7578,N,09832.0235,W,2,06,1.8,317.9,M,-23.7,M,1.8,0000*4F
$GPGSA,A,3,04,05,10,25,12,02,,,,,,,3.4,1.8,2.8*30
$GPRMC,102001.000,A,3353.7578,N,09832.0235,W,0.22,223.29,010412,,,D*7A
$GPGGA,102002.000,3353.7577,N,09832.0236,W,2,06,1.8,317.2,M,-23.7,M,2.8,0000*48
$GPGSA,A,3,04,05,10,25,12,02,,,,,,,3.4,1.8,2.8*30
$GPRMC,102002.000,A,3353.7577,N,09832.0236,W,0.20,194.10,010412,,,D*72
$GPGGA,102003.000,3353.7577,N,09832.0236,W,2,06,1.8,316.7,M,-23.7,M,0.8,0000*4F
$GPGSA,A,3,04,05,10,25,12,02,,,,,,,3.4,1.8,2.8*30
$GPGSV,3,1,10,05,73,144,35,12,55,216,34,02,52,038,32,25,46,288,29*7E
$GPGSV,3,2,10,10,33,047,36,29,25,310,18,04,20,061,26,26,05,150,19*71
$GPGSV,3,3,10,13,03,043,17,51,49,195,39*76
$GPRMC,102003.000,A,3353.7577,N,09832.0236,W,0.27,194.58,010412,,,D*78
$GPGGA,102004.000,3353.7576,N,09832.0236,W,2,06,1.8,316.1,M,-23.7,M,0.8,0000*4F
$GPGSA,A,3,04,05,10,25,12,02,,,,,,,3.4,1.8,2.8*30
$GPRMC,102004.000,A,3353.7576,N,09832.0236,W,0.25,179.72,010412,,,D*77
$GPGGA,102005.000,3353.7576,N,09832.0236,W,2,06,1.8,315.7,M,-23.7,M,0.8,0000*4B
$GPGSA,A,3,04,05,10,25,12,02,,,,,,,3.4,1.8,2.8*30
$GPRMC,102005.000,A,3353.7576,N,09832.0236,W,0.12,182.54,010412,,,D*72
$GPGGA,102006.000,3353.7576,N,09832.0236,W,2,06,1.8,315.4,M,-23.7,M,1.8,0000*4A
$GPGSA,A,3,04,05,10,25,12,02,,,,,,,3.4,1.8,2.8*30
$GPRMC,102006.000,A,3353.7576,N,09832.0236,W,0.10,233.49,010412,,,D*76
$GPGGA,102007.000,3353.7576,N,09832.0236,W,2,06,1.8,315.0,M,-23.7,M,2.8,0000*4C
$GPGSA,A,3,04,05,10,25,12,02,,,,,,,3.4,1.8,2.8*30
$GPRMC,102007.000,A,3353.7576,N,09832.0236,W,0.13,253.11,010412,,,D*7F
$GPGGA,102008.000,3353.7576,N,09832.0236,W,2,06,1.8,314.4,M,-23.7,M,0.8,0000*44
$GPGSA,A,3,04,05,10,25,12,02,,,,,,,3.4,1.8,2.8*30
$GPGSV,3,1,10,05,73,144,35,12,55,216,34,02,52,038,32,25,46,288,30*76
$GPGSV,3,2,10,10,33,047,37,29,25,310,17,04,20,061,25,26,05,150,18*7D
$GPGSV,3,3,10,13,03,043,16,51,49,195,39*77
$GPRMC,102008.000,A,3353.7576,N,09832.0236,W,0.08,147.66,010412,,,D*7C
$GPGGA,102009.000,3353.7577,N,09832.0237,W,2,06,1.8,314.0,M,-23.7,M,0.8,0000*41
$GPGSA,A,3,04,05,10,25,12,02,,,,,,,3.4,1.8,2.8*30
$GPRMC,102009.000,A,3353.7577,N,09832.0237,W,0.09,234.08,010412,,,D*73
$GPGGA,102010.000,3353.7577,N,09832.0237,W,2,06,1.8,313.7,M,-23.7,M,0.8,0000*49
$GPGSA,A,3,04,05,10,25,12,02,,,,,,,3.4,1.8,2.8*30
$GPRMC,102010.000,A,3353.7577,N,09832.0237,W,0.16,266.31,010412,,,D*78
$GPGGA,102011.000,3353.7577,N,09832.0238,W,2,06,1.8,313.5,M,-23.7,M,0.8,0000*45
$GPGSA,A,3,04,05,10,25,12,02,,,,,,,3.4,1.8,2.8*30
$GPRMC,102011.000,A,3353.7577,N,09832.0238,W,0.19,239.05,010412,,,D*74
$GPGGA,102012.000,3353.7577,N,09832.0238,W,2,06,1.8,313.1,M,-23.7,M,1.8,0000*43
$GPGSA,A,3,04,05,10,25,12,02,,,,,,,3.4,1.8,2.8*30
$GPRMC,102012.000,A,3353.7577,N,09832.0238,W,0.17,229.07,010412,,,D*7A
$GPGGA,102013.000,3353.7577,N,09832.0239,W,2,06,1.8,312.7,M,-23.7,M,0.8,0000*45
$GPGSA,A,3,04,05,10,25,12,02,,,,,,,3.4,1.8,2.8*30
$GPGSV,3,1,10,05,73,144,35,12,55,216,34,02,52,038,33,25,46,288,30*77
$GPGSV,3,2,10,10,33,047,37,29,25,310,16,04,20,061,24,26,05,150,18*7D
$GPGSV,3,3,10,13,03,043,16,51,49,195,39*77
$GPRMC,102013.000,A,3353.7577,N,09832.0239,W,0.15,169.61,010412,,,D*7F
$GPGGA,102014.000,3353.7577,N,09832.0239,W,2,06,1.8,312.4,M,-23.7,M,1.8,0000*40
$GPGSA,A,3,04,05,10,25,12,02,,,,,,,3.4,1.8,2.8*30
$GPRMC,102014.000,A,3353.7577,N,09832.0239,W,0.17,205.61,010412,,,D*73
$GPGGA,102015.000,3353.7576,N,09832.0239,W,2,06,1.8,312.3,M,-23.7,M,0.8,0000*46
$GPGSA,A,3,04,05,10,25,12,02,,,,,,,3.4,1.8,2.8*30
$GPRMC,102015.000,A,3353.7576,N,09832.0239,W,0.19,204.31,010412,,,D*79
$GPGGA,102016.000,3353.7576,N,09832.0239,W,2,06,1.8,312.1,M,-23.7,M,0.8,0000*47
$GPGSA,A,3,04,05,10,25,12,02,,,,,,,3.4,1.8,2.8*30
$GPRMC,102016.000,A,3353.7576,N,09832.0239,W,0.16,193.06,010412,,,D*7C
$GPGGA,102017.000,3353.7576,N,09832.0239,W,2,06,1.8,312.0,M,-23.7,M,0.8,0000*47
$GPGSA,A,3,04,05,10,25,12,02,,,,,,,3.4,1.8,2.8*30
$GPRMC,102017.000,A,3353.7576,N,09832.0239,W,0.12,236.29,010412,,,D*78
$GPGGA,102018.000,3353.7576,N,09832.0239,W,2,06,1.8,311.8,M,-23.7,M,1.8,0000*42
$GPGSA,A,3,04,05,10,25,12,02,,,,,,,3.4,1.8,2.8*30
$GPGSV,3,1,10,05,73,144,35,12,55,216,34,02,52,038,34,25,46,288,31*71
$GPGSV,3,2,10,10,33,047,37,29,25,310,15,04,20,061,23,26,05,150,19*78
$GPGSV,3,3,10,13,03,043,16,51,49,195,39*77
$GPRMC,102018.000,A,3353.7576,N,09832.0239,W,0.06,182.49,010412,,,D*78
$GPGGA,102019.000,3353.7576,N,09832.0239,W,2,06,1.8,311.8,M,-23.7,M,2.8,0000*40
$GPGSA,A,3,04,05,10,25,12,02,,,,,,,3.4,1.8,2.8*30
$GPRMC,102019.000,A,3353.7576,N,09832.0239,W,0.13,272.32,010412,,,D*7D
$GPGGA,102020.000,3353.7576,N,09832.0239,W,2,06,1.8,311.7,M,-23.7,M,3.8,0000*44
$GPGSA,A,3,04,05,10,25,12,02,,,,,,,3.4,1.8,2.8*30
$GPRMC,102020.000,A,3353.7576,N,09832.0239,W,0.05,191.71,010412,,,D*79
$GPGGA,102021.000,3353.7577,N,09832.0239,W,2,06,1.8,311.6,M,-23.7,M,0.8,0000*46
$GPGSA,A,3,04,05,10,25,12,02,,,,,,,3.4,1.8,2.8*30
$GPRMC,102021.000,A,3353.7577,N,09832.0239,W,0.09,296.83,010412,,,D*7C
$GPGGA,102022.000,3353.7576,N,09832.0238,W,2,06,1.8,311.3,M,-23.7,M,0.8,0000*40
$GPGSA,A,3,04,05,10,25,12,02,,,,,,,3.4,1.8,2.8*30
$GPRMC,102022.000,A,3353.7576,N,09832.0238,W,0.07,116.75,010412,,,D*73
$GPGGA,102023.000,3353.7576,N,09832.0238,W,2,06,1.8,311.1,M,-23.7,M,0.8,0000*43
$GPGSA,A,3,04,05,10,25,12,02,,,,,,,3.4,1.8,2.8*30
$GPGSV,3,1,10,05,74,140,35,12,54,215,34,02,51,039,35,25,46,286,32*7E
$GPGSV,3,2,10,10,32,047,38,29,26,311,14,04,19,061,23,26,05,149,20*7D
$GPGSV,3,3,10,13,03,042,16,51,49,195,39*76
$GPRMC,102023.000,A,3353.7576,N,09832.0238,W,0.12,197.08,010412,,,D*75
$GPGGA,102024.000,3353.7575,N,09832.0238,W,2,06,1.8,310.8,M,-23.7,M,1.8,0000*4E
$GPGSA,A,3,04,05,10,25,12,02,,,,,,,3.4,1.8,2.8*30
$GPRMC,102024.000,A,3353.7575,N,09832.0238,W,0.18,147.84,010412,,,D*72
$GPGGA,102025.000,3353.7574,N,09832.0238,W,2,06,1.8,310.6,M,-23.7,M,0.8,0000*41
$GPGSA,A,3,04,05,10,25,12,02,,,,,,,3.4,1.8,2.8*30
$GPRMC,102025.000,A,3353.7574,N,09832.0238,W,0.16,220.13,010412,,,D*70
$GPGGA,102026.000,3353.7574,N,09832.0238,W,2,06,1.8,310.6,M,-23.7,M,1.8,0000*43
$GPGSA,A,3,04,05,10,25,12,02,,,,,,,3.4,1.8,2.8*30
$GPRMC,102026.000,A,3353.7574,N,09832.0238,W,0.16,238.00,010412,,,D*78
$GPGGA,102027.000,3353.7573,N,09832.0238,W,2,06,1.8,310.5,M,-23.7,M,0.8,0000*47
$GPGSA,A,3,04,05,10,25,12,02,,,,,,,3.4,1.8,2.8*30
$GPRMC,102027.000,A,3353.7573,N,09832.0238,W,0.16,196.21,010412,,,D*7A
$GPGGA,102028.000,3353.7572,N,09832.0237,W,2,06,1.8,310.1,M,-23.7,M,0.8,0000*42
$GPGSA,A,3,04,05,10,25,12,02,,,,,,,3.4,1.8,2.8*30
$GPGSV,3,1,10,05,74,140,35,12,54,215,34,02,51,039,35,25,46,286,32*7E
$GPGSV,3,2,10,10,32,047,38,29,26,311,13,04,19,061,23,26,06,149,20*79
$GPGSV,3,3,10,13,03,042,17,51,49,195,39*77
$GPRMC,102028.000,A,3353.7572,N,09832.0237,W,0.30,136.06,010412,,,D*70
$GPGGA,102029.000,3353.7572,N,09832.0236,W,2,06,1.8,309.9,M,-23.7,M,0.8,0000*42
$GPGSA,A,3,04,05,10,25,12,02,,,,,,,3.4,1.8,2.8*30
$GPRMC,102029.000,A,3353.7572,N,09832.0236,W,0.24,127.94,010412,,,D*7E
$GPGGA,102030.000,3353.7571,N,09832.0236,W,2,06,1.8,309.7,M,-23.7,M,1.8,0000*46
$GPGSA,A,3,04,05,10,25,12,02,,,,,,,3.4,1.8,2.8*30
$GPRMC,102030.000,A,3353.7571,N,09832.0236,W,0.20,138.74,010412,,,D*71
$GPGGA,102031.000,3353.7571,N,09832.0235,W,2,06,1.8,309.4,M,-23.7,M,2.8,0000*44
$GPGSA,A,3,04,05,10,25,12,02,,,,,,,3.4,1.8,2.8*30
$GPRMC,102031.000,A,3353.7571,N,09832.0235,W,0.22,128.42,010412,,,D*75
$GPGGA,102032.000,3353.7570,N,09832.0235,W,2,06,1.8,309.2,M,-23.7,M,3.8,0000*41
$GPGSA,A,3,04,05,10,25,12,02,,,,,,,3.4,1.8,2.8*30
$GPRMC,102032.000,A,3353.7570,N,09832.0235,W,0.23,133.63,010412,,,D*7F
$GPGGA,102033.000,3353.7571,N,09832.0235,W,2,06,1.8,309.3,M,-23.7,M,0.8,0000*43
$GPGSA,A,3,04,05,10,25,12,02,,,,,,,3.4,1.8,2.8*30
$GPGSV,3,1,10,05,74,140,35,12,54,215,33,02,51,039,35,25,46,286,32*79
$GPGSV,3,2,10,10,32,047,38,29,26,311,14,04,19,061,22,26,06,149,20*7F
$GPGSV,3,3,10,13,03,042,18,51,49,195,39*78
$GPRMC,102033.000,A,3353.7571,N,09832.0235,W,0.09,228.01,010412,,,D*7A
$GPGGA,102034.000,3353.7571,N,09832.0235,W,2,06,1.8,309.3,M,-23.7,M,0.8,0000*44
$GPGSA,A,3,04,05,10,25,12,02,,,,,,,3.4,1.8,2.8*30
$GPRMC,102034.000,A,3353.7571,N,09832.0235,W,0.08,269.01,010412,,,D*79
$GPGGA,102035.000,3353.7571,N,09832.0235,W,2,06,1.8,309.2,M,-23.7,M,0.8,0000*44
$GPGSA,A,3,04,05,10,25,12,02,,,,,,,3.4,1.8,2.8*30
$GPRMC,102035.000,A,3353.7571,N,09832.0235,W,0.13,207.72,010412,,,D*7E
$GPGGA,102036.000,3353.7570,N,09832.0236,W,2,06,1.8,309.2,M,-23.7,M,1.8,0000*44
$GPGSA,A,3,04,05,10,25,12,02,,,,,,,3.4,1.8,2.8*30
$GPRMC,102036.000,A,3353.7570,N,09832.0236,W,0.19,245.13,010412,,,D*74
$GPGGA,102037.000,3353.7570,N,09832.0236,W,2,06,1.8,309.3,M,-23.7,M,2.8,0000*47
$GPGSA,A,3,04,05,10,25,12,02,,,,,,,3.4,1.8,2.8*30
$GPRMC,102037.000,A,3353.7570,N,09832.0236,W,0.18,260.18,010412,,,D*78
$GPGGA,102038.000,3353.7570,N,09832.0237,W,2,06,1.8,309.2,M,-23.7,M,3.8,0000*49
$GPGSA,A,3,04,05,10,25,12,02,,,,,,,3.4,1.8,2.8*30
$GPGSV,3,1,10,05,74,140,35,12,54,215,33,02,51,039,35,25,46,286,33*78
$GPGSV,3,2,10,10,32,047,38,29,26,311,16,04,19,061,22,26,06,149,20*7D
$GPGSV,3,3,10,13,03,042,18,51,49,195,39*78
$GPRMC,102038.000,A,3353.7570,N,09832.0237,W,0.14,242.76,010412,,,D*72
$GPGGA,102039.000,3353.7570,N,09832.0237,W,2,06,1.8,309.3,M,-23.7,M,0.8,0000*4A
$GPGSA,A,3,04,05,10,25,12,02,,,,,,,3.4,1.8,2.8*30
$GPRMC,102039.000,A,3353.7570,N,09832.0237,W,0.11,199.56,010412,,,D*71
$GPGGA,102040.000,3353.7569,N,09832.0237,W,2,06,1.8,309.1,M,-23.7,M,0.8,0000*4E
$GPGSA,A,3,04,05,10,25,12,02,,,,,,,3.4,1.8,2.8*30
$GPRMC,102040.000,A,3353.7569,N,09832.0237,W,0.19,144.81,010412,,,D*75
$GPGGA,102041.000,3353.7569,N,09832.0236,W,2,06,1.8,309.0,M,-23.7,M,0.8,0000*4F
$GPGSA,A,3,04,05,10,25,12,02,,,,,,,3.4,1.8,2.8*30
$GPRMC,102041.000,A,3353.7569,N,09832.0236,W,0.18,123.55,010412,,,D*7C
$GPGGA,102042.000,3353.7570,N,09832.0236,W,2,06,1.8,309.2,M,-23.7,M,1.8,0000*47
$GPGSA,A,3,04,05,10,25,12,02,,,,,,,3.4,1.8,2.8*30
$GPRMC,102042.000,A,3353.7570,N,09832.0236,W,0.07,252.90,010412,,,D*75
$GPGGA,102043.000,3353.7570,N,09832.0237,W,2,06,1.8,309.2,M,-23.7,M,0.8,0000*46
$GPGSA,A,3,04,05,10,25,12,02,,,,,,,3.4,1.8,2.8*30
$GPGSV,3,1,10,05,74,140,35,12,54,215,33,02,51,039,35,25,46,286,32*79
$GPGSV,3,2,10,10,32,047,38,29,26,311,16,04,19,061,23,26,06,149,19*76
$GPGSV,3,3,10,13,03,042,18,51,49,195,39*78
$GPRMC,102043.000,A,3353.7570,N,09832.0237,W,0.01,233.81,010412,,,D*74
$GPGGA,102044.000,3353.7570,N,09832.0237,W,2,06,1.8,309.3,M,-23.7,M,1.8,0000*41
$GPGSA,A,3,04,05,10,25,12,02,,,,,,,3.4,1.8,2.8*30
$GPRMC,102044.000,A,3353.7570,N,09832.0237,W,0.04,270.02,010412,,,D*7A
$GPGGA,102045.000,3353.7571,N,09832.0237,W,2,06,1.8,309.5,M,-23.7,M,0.8,0000*46
$GPGSA,A,3,04,05,10,25,12,02,,,,,,,3.4,1.8,2.8*30
$GPRMC,102045.000,A,3353.7571,N,09832.0237,W,0.17,298.46,010412,,,D*7E
$GPGGA,102046.000,3353.7572,N,09832.0238,W,2,06,1.8,309.7,M,-23.7,M,0.8,0000*4B
$GPGSA,A,3,04,05,10,25,12,02,,,,,,,3.4,1.8,2.8*30
$GPRMC,102046.000,A,3353.7572,N,09832.0238,W,0.20,301.58,010412,,,D*7B
$GPGGA,102047.000,3353.7572,N,09832.0239,W,2,06,1.8,309.6,M,-23.7,M,0.8,0000*4A
$GPGSA,A,3,04,05,10,25,12,02,,,,,,,3.3,1.8,2.8*37
$GPRMC,102047.000,A,3353.7572,N,09832.0239,W,0.04,229.02,010412,,,D*79
$GPGGA,102048.000,3353.7572,N,09832.0239,W,2,06,1.8,309.5,M,-23.7,M,1.8,0000*47
$GPGSA,A,3,04,05,10,25,12,02,,,,,,,3.3,1.8,2.8*37
$GPGSV,3,1,10,05,74,140,35,12,54,215,34,02,51,039,35,25,46,286,32*7E
$GPGSV,3,2,10,10,32,047,38,29,26,311,16,04,19,061,23,26,06,149,19*76
$GPGSV,3,3,10,13,03,042,18,51,49,195,39*78
$GPRMC,102048.000,A,3353.7572,N,09832.0239,W,0.08,165.16,010412,,,D*74
$GPGGA,102049.000,3353.7572,N,09832.0239,W,2,06,1.8,309.7,M,-23.7,M,2.8,0000*47
$GPGSA,A,3,04,05,10,25,12,02,,,,,,,3.3,1.8,2.8*37
$GPRMC,102049.000,A,3353.7572,N,09832.0239,W,0.15,261.88,010412,,,D*79
$GPGGA,102050.000,3353.7571,N,09832.0239,W,2,06,1.8,309.5,M,-23.7,M,0.8,0000*4C
$GPGSA,A,3,04,05,10,25,12,02,,,,,,,3.3,1.8,2.8*37
$GPRMC,102050.000,A,3353.7571,N,09832.0239,W,0.15,145.74,010412,,,D*74
$GPGGA,102051.000,3353.7571,N,09832.0239,W,2,06,1.8,309.4,M,-23.7,M,0.8,0000*4C
$GPGSA,A,3,04,05,10,25,12,02,,,,,,,3.3,1.8,2.8*37
$GPRMC,102051.000,A,3353.7571,N,09832.0239,W,0.24,134.03,010412,,,D*71
$GPGGA,102052.000,3353.7570,N,09832.0239,W,2,06,1.8,309.2,M,-23.7,M,0.8,0000*48
$GPGSA,A,3,04,05,10,25,12,02,,,,,,,3.3,1.8,2.8*37
$GPRMC,102052.000,A,3353.7570,N,09832.0239,W,0.29,139.09,010412,,,D*79
$GPGGA,102053.000,3353.7571,N,09832.0239,W,2,06,1.8,309.3,M,-23.7,M,0.8,0000*49
$GPGSA,A,3,04,05,10,25,12,02,,,,,,,3.3,1.8,2.8*37
$GPGSV,3,1,10,05,74,140,35,12,54,215,34,02,51,039,35,25,46,286,32*7E
$GPGSV,3,2,10,10,32,047,38,29,26,311,14,04,19,061,23,26,06,149,19*74
$GPGSV,3,3,10,13,03,042,17,51,49,195,39*77
$GPRMC,102053.000,A,3353.7571,N,09832.0239,W,0.05,202.17,010412,,,D*73
$GPGGA,102054.000,3353.7571,N,09832.0239,W,2,06,1.8,309.3,M,-23.7,M,1.8,0000*4F
$GPGSA,A,3,04,05,10,25,12,02,,,,,,,3.3,1.8,2.8*37
$GPRMC,102054.000,A,3353.7571,N,09832.0239,W,0.06,109.93,010412,,,D*73
$GPGGA,102055.000,3353.7572,N,09832.0239,W,2,06,1.8,309.4,M,-23.7,M,2.8,0000*49
$GPGSA,A,3,04,05,10,25,12,02,,,,,,,3.3,1.8,2.8*37
$GPRMC,102055.000,A,3353.7572,N,09832.0239,W,0.10,275.09,010412,,,D*7D
$GPGGA,102056.000,3353.7572,N,09832.0239,W,2,06,1.8,309.3,M,-23.7,M,3.8,0000*4C
$GPGSA,A,3,04,05,10,25,12,02,,,,,,,3.3,1.8,2.8*37
$GPRMC,102056.000,A,3353.7572,N,09832.0239,W,0.11,106.49,010412,,,D*7C
$GPGGA,102057.000,3353.7572,N,09832.0240,W,2,06,1.8,309.3,M,-23.7,M,0.8,0000*40
$GPGSA,A,3,04,05,10,25,12,02,,,,,,,3.3,1.8,2.8*37
$GPRMC,102057.000,A,3353.7572,N,09832.0240,W,0.01,63.19,010412,,,D*45
$GPGGA,102058.000,3353.7573,N,09832.0240,W,2,06,1.8,309.3,M,-23.7,M,0.8,0000*4E
$GPGSA,A,3,04,05,10,25,12,02,,,,,,,3.3,1.8,2.8*37
$GPGSV,3,1,10,05,74,140,35,12,54,215,33,02,51,039,36,25,46,286,32*7A
$GPGSV,3,2,10,10,32,047,38,29,26,311,12,04,19,061,16,26,06,149,18*75
$GPGSV,3,3,10,13,03,042,16,51,49,195,39*76
$GPRMC,102058.000,A,3353.7573,N,09832.0240,W,0.03,279.25,010412,,,D*7F
$GPGGA,102059.000,3353.7573,N,09832.0241,W,2,06,1.8,309.5,M,-23.7,M,0.8,0000*48
$GPGSA,A,3,04,05,10,25,12,02,,,,,,,3.3,1.8,2.8*37
$GPRMC,102059.000,A,3353.7573,N,09832.0241,W,0.17,254.15,010412,,,D*76
$GPGGA,102100.000,3353.7574,N,09832.0242,W,2,06,1.8,309.6,M,-23.7,M,0.8,0000*42
$GPGSA,A,3,04,05,10,25,12,02,,,,,,,3.3,1.8,2.8*37
$GPRMC,102100.000,A,3353.7574,N,09832.0242,W,0.17,257.38,010412,,,D*73
$GPGGA,102101.000,3353.7574,N,09832.0243,W,2,06,1.8,309.8,M,-23.7,M,0.8,0000*4C
$GPGSA,A,3,04,05,10,25,12,02,,,,,,,3.3,1.8,2.8*37
$GPRMC,102101.000,A,3353.7574,N,09832.0243,W,0.15,238.95,010412,,,D*7F
$GPGGA,102102.000,3353.7574,N,09832.0243,W,2,06,1.8,309.9,M,-23.7,M,1.8,0000*4F
$GPGSA,A,3,04,05,10,25,12,02,,,,,,,3.3,1.8,2.8*37
$GPRMC,102102.000,A,3353.7574,N,09832.0243,W,0.14,261.53,010412,,,D*7B
$GPGGA,102103.000,3353.7574,N,09832.0244,W,2,06,1.8,310.1,M,-23.7,M,0.8,0000*48
$GPGSA,A,3,04,05,10,25,12,02,,,,,,,3.3,1.8,2.8*37
$GPGSV,3,1,10,05,74,140,35,12,54,215,33,02,51,039,36,25,46,286,32*7A
$GPGSV,3,2,10,10,32,047,38,29,26,311,12,04,19,061,15,26,06,149,17*79
$GPGSV,3,3,10,13,03,042,16,51,49,195,39*76
$GPRMC,102103.000,A,3353.7574,N,09832.0244,W,0.10,220.69,010412,,,D*75
$GPGGA,102104.000,3353.7574,N,09832.0244,W,2,06,1.8,310.3,M,-23.7,M,0.8,0000*4D
$GPGSA,A,3,04,05,10,25,12,02,,,,,,,3.3,1.8,2.8*37
$GPRMC,102104.000,A,3353.7574,N,09832.0244,W,0.12,236.44,010412,,,D*78
$GPGGA,102105.000,3353.7575,N,09832.0244,W,2,06,1.8,310.6,M,-23.7,M,0.8,0000*48
$GPGSA,A,3,04,05,10,25,12,02,,,,,,,3.3,1.8,2.8*37
$GPRMC,102105.000,A,3353.7575,N,09832.0244,W,0.14,298.45,010412,,,D*7B
$GPGGA,102106.000,3353.7575,N,09832.0245,W,2,06,1.8,311.0,M,-23.7,M,1.8,0000*4C
$GPGSA,A,3,04,05,10,25,12,02,,,,,,,3.3,1.8,2.8*37
$GPRMC,102106.000,A,3353.7575,N,09832.0245,W,0.19,311.07,010412,,,D*72
$GPGGA,102107.000,3353.7576,N,09832.0245,W,2,06,1.8,311.3,M,-23.7,M,0.8,0000*4C
$GPGSA,A,3,04,05,10,25,12,02,,,,,,,3.3,1.8,2.8*37
$GPRMC,102107.000,A,3353.7576,N,09832.0245,W,0.17,319.96,010412,,,D*7E
$GPGGA,102108.000,3353.7577,N,09832.0246,W,2,06,1.8,311.6,M,-23.7,M,1.8,0000*45
$GPGSA,A,3,04,05,10,25,12,02,,,,,,,3.3,1.8,2.8*37
$GPGSV,3,1,10,05,74,140,35,12,54,215,33,02,51,039,36,25,46,286,33*7B
$GPGSV,3,2,10,10,32,047,38,29,26,311,,04,19,061,16,26,06,149,16*78
$GPGSV,3,3,10,13,03,042,15,51,49,195,39*75
$GPRMC,102108.000,A,3353.7577,N,09832.0246,W,0.20,313.90,010412,,,D*7B
$GPGGA,102109.000,3353.7578,N,09832.0246,W,2,06,1.8,311.6,M,-23.7,M,0.8,0000*4A
$GPGSA,A,3,04,05,10,25,12,02,,,,,,,3.3,1.8,2.8*37
$GPRMC,102109.000,A,3353.7578,N,09832.0246,W,0.16,349.98,010412,,,D*77
$GPGGA,102110.000,3353.7578,N,09832.0247,W,2,06,1.8,311.7,M,-23.7,M,0.8,0000*42
$GPGSA,A,3,04,05,10,25,12,02,,,,,,,3.3,1.8,2.8*37
$GPRMC,102110.000,A,3353.7578,N,09832.0247,W,0.16,338.16,010412,,,D*7E
$GPGGA,102111.000,3353.7578,N,09832.0247,W,2,06,1.8,311.7,M,-23.7,M,0.8,0000*43
$GPGSA,A,3,04,05,10,25,12,02,,,,,,,3.3,1.8,2.8*37
$GPRMC,102111.000,A,3353.7578,N,09832.0247,W,0.05,312.95,010412,,,D*7E
$GPGGA,102112.000,3353.7578,N,09832.0247,W,2,06,1.8,311.7,M,-23.7,M,1.8,0000*41
$GPGSA,A,3,04,05,10,25,12,02,,,,,,,3.3,1.8,2.8*37
$GPRMC,102112.000,A,3353.7578,N,09832.0247,W,0.08,279.33,010412,,,D*70
$GPGGA,102113.000,3353.7578,N,09832.0247,W,2,06,1.8,311.6,M,-23.7,M,0.8,0000*40
$GPGSA,A,3,04,05,10,25,12,02,,,,,,,3.3,1.8,2.8*37
$GPGSV,3,1,10,05,74,140,35,12,54,215,33,02,51,039,36,25,46,286,33*7B
$GPGSV,3,2,10,10,32,047,38,29,26,311,,04,19,061,18,26,06,149,14*74
$GPGSV,3,3,10,13,03,042,14,51,49,195,39*74
$GPRMC,102113.000,A,3353.7578,N,09832.0247,W,0.03,134.21,010412,,,D*73
$GPGGA,102114.000,3353.7578,N,09832.0247,W,2,06,1.8,311.5,M,-23.7,M,0.8,0000*44
$GPGSA,A,3,04,05,10,25,12,02,,,,,,,3.3,1.8,2.8*37
$GPRMC,102114.000,A,3353.7578,N,09832.0247,W,0.01,248.15,010412,,,D*79
$GPGGA,102115.000,3353.7577,N,09832.0247,W,2,06,1.8,311.6,M,-23.7,M,0.8,0000*49
$GPGSA,A,3,04,05,10,25,12,02,,,,,,,3.3,1.8,2.8*37
$GPRMC,102115.000,A,3353.7577,N,09832.0247,W,0.08,242.72,010412,,,D*75
$GPGGA,102116.000,3353.7577,N,09832.0247,W,2,06,1.8,311.7,M,-23.7,M,0.8,0000*4B
$GPGSA,A,3,04,05,10,25,12,02,,,,,,,3.3,1.8,2.8*37
$GPRMC,102116.000,A,3353.7577,N,09832.0247,W,0.10,247.51,010412,,,D*7B
$GPGGA,102117.000,3353.7578,N,09832.0248,W,2,06,1.8,311.9,M,-23.7,M,0.8,0000*44
$GPGSA,A,3,04,05,10,25,12,02,,,,,,,3.3,1.8,2.8*37
$GPRMC,102117.000,A,3353.7578,N,09832.0248,W,0.14,311.50,010412,,,D*7D
$GPGGA,102118.000,3353.7578,N,09832.0248,W,2,06,1.8,312.1,M,-23.7,M,1.8,0000*41
$GPGSA,A,3,04,05,10,25,12,02,,,,,,,3.3,1.8,2.8*37
$GPGSV,3,1,10,05,74,140,35,12,54,215,33,02,51,039,37,25,46,286,33*7A
$GPGSV,3,2,10,10,32,047,38,29,26,311,,04,19,061,20,26,06,149,*7A
$GPGSV,3,3,10,13,03,042,13,51,49,195,39*73
$GPRMC,102118.000,A,3353.7578,N,09832.0248,W,0.19,313.56,010412,,,D*7B
$GPGGA,102119.000,3353.7579,N,09832.0248,W,2,06,1.8,312.2,M,-23.7,M,2.8,0000*41
$GPGSA,A,3,04,05,10,25,12,02,,,,,,,3.3,1.8,2.8*37
$GPRMC,102119.000,A,3353.7579,N,09832.0248,W,0.13,338.04,010412,,,D*7F
$GPGGA,102120.000,3353.7579,N,09832.0248,W,2,06,1.8,312.2,M,-23.7,M,3.8,0000*4A
$GPGSA,A,3,04,05,10,25,12,02,,,,,,,3.3,1.8,2.8*37
$GPRMC,102120.000,A,3353.7579,N,09832.0248,W,0.10,21.76,010412,,,D*48
$GPGGA,102121.000,3353.7579,N,09832.0248,W,2,06,1.8,312.2,M,-23.7,M,0.8,0000*48
$GPGSA,A,3,04,05,10,25,12,02,,,,,,,3.3,1.8,2.8*37
$GPRMC,102121.000,A,3353.7579,N,09832.0248,W,0.20,329.18,010412,,,D*79
$GPGGA,102122.000,3353.7580,N,09832.0248,W,2,06,1.8,312.2,M,-23.7,M,0.8,0000*4D
$GPGSA,A,3,04,05,10,25,12,02,,,,,,,3.3,1.8,2.8*37
$GPRMC,102122.000,A,3353.7580,N,09832.0248,W,0.15,351.53,010412,,,D*7A
$GPGGA,102123.000,3353.7580,N,09832.0248,W,2,06,1.8,312.2,M,-23.7,M,0.8,0000*4C
$GPGSA,A,3,04,05,10,25,12,02,,,,,,,3.3,1.8,2.8*37
$GPGSV,3,1,10,05,74,140,35,12,54,215,33,02,51,039,37,25,46,286,34*7D
$GPGSV,3,2,10,10,32,047,38,29,26,311,,04,19,061,25,26,06,149,*7F
$GPGSV,3,3,10,13,03,042,12,51,49,195,39*72
$GPRMC,102123.000,A,3353.7580,N,09832.0248,W,0.11,260.48,010412,,,D*76
$GPGGA,102124.000,3353.7579,N,09832.0249,W,2,06,1.8,312.3,M,-23.7,M,1.8,0000*4C
$GPGSA,A,3,04,05,10,25,12,02,,,,,,,3.3,1.8,2.8*37
$GPRMC,102124.000,A,3353.7579,N,09832.0249,W,0.13,279.50,010412,,,D*75
$GPGGA,102125.000,3353.7579,N,09832.0249,W,2,06,1.8,312.2,M,-23.7,M,2.8,0000*4F
$GPGSA,A,3,04,05,10,25,12,02,,,,,,,3.3,1.8,2.8*37
$GPRMC,102125.000,A,3353.7579,N,09832.0249,W,0.05,240.48,010412,,,D*70
$GPGGA,102126.000,3353.7579,N,09832.0249,W,2,06,1.8,312.2,M,-23.7,M,3.8,0000*4D
$GPGSA,A,3,04,05,10,25,12,02,,,,,,,3.3,1.8,2.8*37
$GPRMC,102126.000,A,3353.7579,N,09832.0249,W,0.03,219.22,010412,,,D*75
$GPGGA,102127.000,3353.7578,N,09832.0249,W,2,06,1.8,312.2,M,-23.7,M,0.8,0000*4E
$GPGSA,A,3,04,05,10,25,12,02,,,,,,,3.3,1.8,2.8*37
$GPRMC,102127.000,A,3353.7578,N,09832.0249,W,0.09,164.84,010412,,,D*7A
$GPGGA,102128.000,3353.7578,N,09832.0248,W,2,06,1.8,312.2,M,-23.7,M,0.8,0000*40
$GPGSA,A,3,04,05,10,25,12,02,,,,,,,3.3,1.8,2.8*37
$GPGSV,3,1,10,05,74,140,36,12,54,215,33,02,51,039,37,25,46,286,34*7E
$GPGSV,3,2,10,10,32,047,38,29,26,311,,04,19,061,26,26,06,149,*7C
$GPGSV,3,3,10,13,03,042,,51,49,195,39*71
$GPRMC,102128.000,A,3353.7578,N,09832.0248,W,0.10,164.96,010412,,,D*7F
$GPGGA,102129.000,3353.7578,N,09832.0248,W,2,06,1.8,312.2,M,-23.7,M,0.8,0000*41
$GPGSA,A,3,04,05,10,25,12,02,,,,,,,3.3,1.8,2.8*37
$GPRMC,102129.000,A,3353.7578,N,09832.0248,W,0.07,31.89,010412,,,D*47
$GPGGA,102130.000,3353.7578,N,09832.0248,W,2,06,1.8,312.2,M,-23.7,M,0.8,0000*49
$GPGSA,A,3,04,05,10,25,12,02,,,,,,,3.3,1.8,2.8*37
$GPRMC,102130.000,A,3353.7578,N,09832.0248,W,0.07,46.48,010412,,,D*42
$GPGGA,102131.000,3353.7579,N,09832.0248,W,2,06,1.8,312.3,M,-23.7,M,1.8,0000*49
$GPGSA,A,3,04,05,10,25,12,02,,,,,,,3.3,1.8,2.8*37
$GPRMC,102131.000,A,3353.7579,N,09832.0248,W,0.10,14.06,010412,,,D*49
$GPGGA,102132.000,3353.7579,N,09832.0248,W,2,06,1.8,312.3,M,-23.7,M,2.8,0000*49
$GPGSA,A,3,04,05,10,25,12,02,,,,,,,3.3,1.8,2.8*37
$GPRMC,102132.000,A,3353.7579,N,09832.0248,W,0.10,21.27,010412,,,D*4F
$GPGGA,102133.000,3353.7580,N,09832.0248,W,2,06,1.8,312.3,M,-23.7,M,0.8,0000*4C
$GPGSA,A,3,04,05,10,25,12,02,,,,,,,3.3,1.8,2.8*37
$GPGSV,3,1,10,05,74,140,36,12,54,215,33,02,51,039,37,25,46,286,34*7E
$GPGSV,3,2,10,10,32,047,38,29,26,311,,04,19,061,26,26,06,149,*7C
$GPGSV,3,3,10,13,03,042,,51,49,195,39*71
$GPRMC,102133.000,A,3353.7580,N,09832.0248,W,0.10,340.79,010412,,,D*77
$GPGGA,102134.000,3353.7580,N,09832.0248,W,2,06,1.8,312.4,M,-23.7,M,0.8,0000*4C
$GPGSA,A,3,04,05,10,25,12,02,,,,,,,3.3,1.8,2.8*37
$GPRMC,102134.000,A,3353.7580,N,09832.0248,W,0.14,341.80,010412,,,D*73
$GPGGA,102135.000,3353.7580,N,09832.0248,W,2,06,1.8,312.4,M,-23.7,M,0.8,0000*4D
$GPGSA,A,3,04,05,10,25,12,02,,,,,,,3.3,1.8,2.8*37
$GPRMC,102135.000,A,3353.7580,N,09832.0248,W,0.09,254.94,010412,,,D*7E
$GPGGA,102136.000,3353.7580,N,09832.0248,W,2,06,1.8,312.4,M,-23.7,M,1.8,0000*4F
$GPGSA,A,3,04,05,10,25,12,02,,,,,,,3.3,1.8,2.8*37
$GPRMC,102136.000,A,3353.7580,N,09832.0248,W,0.08,203.41,010412,,,D*76
$GPGGA,102137.000,3353.7580,N,09832.0249,W,2,06,1.8,312.4,M,-23.7,M,2.8,0000*4C
$GPGSA,A,3,04,05,10,25,12,02,,,,,,,3.3,1.8,2.8*37
$GPRMC,102137.000,A,3353.7580,N,09832.0249,W,0.09,211.22,010412,,,D*71
$GPGGA,102138.000,3353.7579,N,09832.0249,W,2,06,1.8,312.5,M,-23.7,M,3.8,0000*45
$GPGSA,A,3,04,05,10,25,12,02,,,,,,,3.3,1.8,2.8*37
$GPGSV,3,1,10,05,74,140,36,12,54,215,33,02,51,039,37,25,46,286,34*7E
$GPGSV,3,2,10,10,32,047,38,29,26,311,,04,19,061,27,26,06,149,*7D
$GPGSV,3,3,10,13,03,042,,51,49,195,39*71
$GPRMC,102138.000,A,3353.7579,N,09832.0249,W,0.09,219.52,010412,,,D*77
$GPGGA,102139.000,3353.7579,N,09832.0249,W,2,06,1.8,312.5,M,-23.7,M,0.8,0000*47
$GPGSA,A,3,04,05,10,25,12,02,,,,,,,3.3,1.8,2.8*37
$GPRMC,102139.000,A,3353.7579,N,09832.0249,W,0.09,172.85,010412,,,D*72
$GPGGA,102140.000,3353.7578,N,09832.0249,W,2,06,1.8,312.6,M,-23.7,M,0.8,0000*4B
$GPGSA,A,3,04,05,10,25,12,02,,,,,,,3.3,1.8,2.8*37
$GPRMC,102140.000,A,3353.7578,N,09832.0249,W,0.16,168.02,010412,,,D*77
$GPGGA,102141.000,3353.7578,N,09832.0248,W,2,06,1.8,312.6,M,-23.7,M,0.8,0000*4B
$GPGSA,A,3,04,05,10,25,12,02,,,,,,,3.3,1.8,2.8*37
$GPRMC,102141.000,A,3353.7578,N,09832.0248,W,0.05,40.20,010412,,,D*4E
$GPGGA,102142.000,3353.7578,N,09832.0248,W,2,06,1.8,312.7,M,-23.7,M,1.8,0000*48
$GPGSA,A,3,04,05,10,25,12,02,,,,,,,3.3,1.8,2.8*37
$GPRMC,102142.000,A,3353.7578,N,09832.0248,W,0.06,15.21,010412,,,D*4F
$GPGGA,102143.000,3353.7579,N,09832.0248,W,2,06,1.8,312.8,M,-23.7,M,2.8,0000*44
$GPGSA,A,3,04,05,10,25,12,02,,,,,,,3.3,1.8,2.8*37
$GPGSV,3,1,10,05,74,140,36,12,54,215,33,02,51,039,37,25,46,286,35*7F
$GPGSV,3,2,10,10,32,047,38,29,26,311,,04,19,061,27,26,06,149,*7D
$GPGSV,3,3,10,13,03,042,,51,49,195,39*71
$GPRMC,102143.000,A,3353.7579,N,09832.0248,W,0.04,31.17,010412,,,D*4E
$GPGGA,102144.000,3353.7579,N,09832.0248,W,2,06,1.8,312.9,M,-23.7,M,3.8,0000*43
$GPGSA,A,3,04,05,10,25,12,02,,,,,,,3.3,1.8,2.8*37
$GPRMC,102144.000,A,3353.7579,N,09832.0248,W,0.06,18.43,010412,,,D*41
$GPGGA,102145.000,3353.7579,N,09832.0248,W,2,06,1.8,312.9,M,-23.7,M,0.8,0000*41
$GPGSA,A,3,04,05,10,25,12,02,,,,,,,3.3,1.8,2.8*37
$GPRMC,102145.000,A,3353.7579,N,09832.0248,W,0.10,344.80,010412,,,D*72
$GPGGA,102146.000,3353.7580,N,09832.0248,W,2,06,1.8,313.0,M,-23.7,M,0.8,0000*4C
$GPGSA,A,3,04,05,10,25,12,02,,,,,,,3.3,1.8,2.8*37
$GPRMC,102146.000,A,3353.7580,N,09832.0248,W,0.14,329.75,010412,,,D*72
$GPGGA,102147.000,3353.7580,N,09832.0248,W,2,06,1.8,313.1,M,-23.7,M,0.8,0000*4C
$GPGSA,A,3,04,05,10,25,12,02,,,,,,,3.3,1.8,2.8*37
$GPRMC,102147.000,A,3353.7580,N,09832.0248,W,0.06,244.72,010412,,,D*7D
$GPGGA,102148.000,3353.7580,N,09832.0249,W,2,06,1.8,313.1,M,-23.7,M,0.8,0000*42
$GPGSA,A,3,04,05,10,25,12,02,,,,,,,3.3,1.8,2.8*37
$GPGSV,3,1,10,05,74,140,36,12,54,215,33,02,51,039,37,25,46,286,34*7E
$GPGSV,3,2,10,10,32,047,38,29,26,311,,04,19,061,28,26,06,149,*72
$GPGSV,3,3,10,13,03,042,,51,49,195,39*71
$GPRMC,102148.000,A,3353.7580,N,09832.0249,W,0.06,209.85,010412,,,D*72
$GPGGA,102149.000,3353.7580,N,09832.0249,W,2,06,1.8,313.1,M,-23.7,M,0.8,0000*43
$GPGSA,A,3,04,05,10,25,12,02,,,,,,,3.3,1.8,2.8*37
$GPRMC,102149.000,A,3353.7580,N,09832.0249,W,0.07,217.34,010412,,,D*77
$GPGGA,102150.000,3353.7580,N,09832.0249,W,2,06,1.8,313.2,M,-23.7,M,1.8,0000*49
$GPGSA,A,3,04,05,10,25,12,02,,,,,,,3.3,1.8,2.8*37
$GPRMC,102150.000,A,3353.7580,N,09832.0249,W,0.07,236.34,010412,,,D*7C
$GPGGA,102151.000,3353.7579,N,09832.0249,W,2,06,1.8,313.3,M,-23.7,M,0.8,0000*4E
$GPGSA,A,3,04,05,10,25,12,02,,,,,,,3.3,1.8,2.8*37
$GPRMC,102151.000,A,3353.7579,N,09832.0249,W,0.08,179.41,010412,,,D*7E
$GPGGA,102152.000,3353.7579,N,09832.0249,W,2,06,1.8,313.3,M,-23.7,M,0.8,0000*4D
$GPGSA,A,3,04,05,10,25,12,02,,,,,,,3.3,1.8,2.8*37
$GPRMC,102152.000,A,3353.7579,N,09832.0249,W,0.11,161.89,010412,,,D*78
$GPGGA,102153.000,3353.7579,N,09832.0249,W,2,06,1.8,313.4,M,-23.7,M,0.8,0000*4B
$GPGSA,A,3,04,05,10,25,12,02,,,,,,,3.3,1.8,2.8*37
$GPGSV,3,1,10,05,74,140,36,12,54,215,33,02,51,039,36,25,46,286,34*7F
$GPGSV,3,2,10,10,32,047,38,29,26,311,,04,19,061,29,26,06,149,*73
$GPGSV,3,3,10,13,03,042,19,51,49,195,39*79
$GPRMC,102153.000,A,3353.7579,N,09832.0249,W,0.04,70.72,010412,,,D*48
$GPGGA,102154.000,3353.7580,N,09832.0249,W,2,06,1.8,313.5,M,-23.7,M,1.8,0000*4A
$GPGSA,A,3,04,05,10,25,12,02,,,,,,,3.3,1.8,2.8*37
$GPRMC,102154.000,A,3353.7580,N,09832.0249,W,0.08,5.95,010412,,,D*7E
$GPGGA,102155.000,3353.7580,N,09832.0249,W,2,06,1.8,313.6,M,-23.7,M,0.8,0000*49
$GPGSA,A,3,04,05,10,25,12,02,,,,,,,3.3,1.8,2.8*37
$GPRMC,102155.000,A,3353.7580,N,09832.0249,W,0.06,14.28,010412,,,D*47
$GPGGA,102156.000,3353.7581,N,09832.0249,W,2,06,1.8,313.7,M,-23.7,M,1.8,0000*4B
$GPGSA,A,3,04,05,10,25,12,02,,,,,,,3.3,1.8,2.8*37
$GPRMC,102156.000,A,3353.7581,N,09832.0249,W,0.07,4.48,010412,,,D*73
$GPGGA,102157.000,3353.7581,N,09832.0249,W,2,06,1.8,313.8,M,-23.7,M,0.8,0000*44
$GPGSA,A,3,04,05,10,25,12,02,,,,,,,3.3,1.8,2.8*37
$GPRMC,102157.000,A,3353.7581,N,09832.0249,W,0.10,338.87,010412,,,D*7B
$GPGGA,102158.000,3353.7582,N,09832.0249,W,2,06,1.8,313.9,M,-23.7,M,0.8,0000*49
$GPGSA,A,3,04,05,10,25,12,02,,,,,,,3.3,1.8,2.8*37
$GPGSV,3,1,10,05,74,140,36,12,54,215,32,02,51,039,36,25,46,286,34*7E
$GPGSV,3,2,10,10,32,047,38,29,26,311,,04,19,061,29,26,06,149,*73
$GPGSV,3,3,10,13,03,042,20,51,49,195,39*73
$GPRMC,102158.000,A,3353.7582,N,09832.0249,W,0.16,328.36,010412,,,D*7A
$GPGGA,102159.000,3353.7582,N,09832.0250,W,2,06,1.8,313.9,M,-23.7,M,0.8,0000*40
$GPGSA,A,3,04,05,10,25,12,02,,,,,,,3.3,1.8,2.8*37
$GPRMC,102159.000,A,3353.7582,N,09832.0250,W,0.05,256.00,010412,,,D*7C
$GPGGA,102200.000,3353.7582,N,09832.0250,W,2,06,1.8,313.9,M,-23.7,M,1.8,0000*4E
$GPGSA,A,3,04,05,10,25,12,02,,,,,,,3.3,1.8,2.8*37
$GPRMC,102200.000,A,3353.7582,N,09832.0250,W,0.04,219.42,010412,,,D*7F
$GPGGA,102201.000,3353.7582,N,09832.0250,W,2,06,1.8,314.0,M,-23.7,M,2.8,0000*42
$GPGSA,A,3,04,05,10,25,12,02,,,,,,,3.3,1.8,2.7*38
$GPRMC,102201.000,A,3353.7582,N,09832.0250,W,0.05,252.11,010412,,,D*76
$GPGGA,102202.000,3353.7582,N,09832.0251,W,2,06,1.8,314.0,M,-23.7,M,3.8,0000*41
$GPGSA,A,3,04,05,10,25,12,02,,,,,,,3.3,1.8,2.7*38
$GPRMC,102202.000,A,3353.7582,N,09832.0251,W,0.06,267.66,010412,,,D*71
$GPGGA,102203.000,3353.7582,N,09832.0251,W,2,06,1.8,314.1,M,-23.7,M,0.8,0000*42
$GPGSA,A,3,04,05,10,25,12,02,,,,,,,3.3,1.8,2.7*38
$GPGSV,3,1,10,05,74,140,36,12,54,215,32,02,51,039,36,25,46,286,33*79
$GPGSV,3,2,10,10,32,047,37,29,26,311,,04,19,061,30,26,06,149,*74
$GPGSV,3,3,10,13,03,042,20,51,49,195,39*73
$GPRMC,102203.000,A,3353.7582,N,09832.0251,W,0.09,161.79,010412,,,D*74
$GPGGA,102204.000,3353.7582,N,09832.0250,W,2,06,1.8,314.2,M,-23.7,M,0.8,0000*47
$GPGSA,A,3,04,05,10,25,12,02,,,,,,,3.3,1.8,2.7*38
$GPRMC,102204.000,A,3353.7582,N,09832.0250,W,0.06,167.27,010412,,,D*70
$GPGGA,102205.000,3353.7582,N,09832.0250,W,2,06,1.8,314.3,M,-23.7,M,0.8,0000*47
$GPGSA,A,3,04,05,10,25,12,02,,,,,,,3.3,1.8,2.7*38
$GPRMC,102205.000,A,3353.7582,N,09832.0250,W,0.03,59.22,010412,,,D*4D
$GPGGA,102206.000,3353.7583,N,09832.0251,W,2,06,1.8,314.4,M,-23.7,M,1.8,0000*42
$GPGSA,A,3,04,05,10,25,12,02,,,,,,,3.3,1.8,2.7*38
$GPRMC,102206.000,A,3353.7583,N,09832.0251,W,0.04,8.80,010412,,,D*75
$GPGGA,102207.000,3353.7583,N,09832.0251,W,2,06,1.8,314.5,M,-23.7,M,2.8,0000*41
$GPGSA,A,3,04,05,10,25,12,02,,,,,,,3.3,1.8,2.7*38
$GPRMC,102207.000,A,3353.7583,N,09832.0251,W,0.06,358.34,010412,,,D*7F
$GPGGA,102208.000,3353.7584,N,09832.0251,W,2,06,1.8,314.7,M,-23.7,M,3.8,0000*4A
$GPGSA,A,3,04,05,10,25,12,02,,,,,,,3.3,1.8,2.7*38
$GPGSV,3,1,10,05,74,140,36,12,54,215,32,02,51,039,36,25,46,286,33*79
$GPGSV,3,2,10,10,32,047,37,29,26,311,,04,19,061,30,26,06,149,22*74
$GPGSV,3,3,10,13,03,042,19,51,49,195,39*79
$GPRMC,102208.000,A,3353.7584,N,09832.0251,W,0.03,30.42,010412,,,D*4E
$GPGGA,102209.000,3353.7584,N,09832.0251,W,2,06,1.8,314.8,M,-23.7,M,0.8,0000*47
$GPGSA,A,3,04,05,10,25,12,02,,,,,,,3.3,1.8,2.7*38
$GPRMC,102209.000,A,3353.7584,N,09832.0251,W,0.13,328.68,010412,,,D*7C
$GPGGA,102210.000,3353.7585,N,09832.0252,W,2,06,1.8,314.9,M,-23.7,M,0.8,0000*4C
$GPGSA,A,3,04,05,10,25,12,02,,,,,,,3.3,1.8,2.7*38
$GPRMC,102210.000,A,3353.7585,N,09832.0252,W,0.11,333.12,010412,,,D*73
$GPGGA,102211.000,3353.7585,N,09832.0252,W,2,06,1.8,315.0,M,-23.7,M,0.8,0000*45
$GPGSA,A,3,04,05,10,25,12,02,,,,,,,3.3,1.8,2.7*38
$GPRMC,102211.000,A,3353.7585,N,09832.0252,W,0.06,297.47,010412,,,D*7B
$GPGGA,102212.000,3353.7585,N,09832.0252,W,2,06,1.8,315.1,M,-23.7,M,0.8,0000*47
$GPGSA,A,3,04,05,10,25,12,02,,,,,,,3.3,1.8,2.7*38
$GPRMC,102212.000,A,3353.7585,N,09832.0252,W,0.05,277.42,010412,,,D*70
$GPGGA,102213.000,3353.7585,N,09832.0253,W,2,06,1.8,315.1,M,-23.7,M,1.8,0000*46
$GPGSA,A,3,04,05,10,25,12,02,,,,,,,3.3,1.8,2.7*38
$GPGSV,3,1,10,05,74,140,37,12,54,215,31,02,51,039,36,25,46,286,33*7B
$GPGSV,3,2,10,10,32,047,37,29,26,311,11,04,19,061,29,26,06,149,21*7F
$GPGSV,3,3,10,13,03,042,18,51,49,195,39*78
$GPRMC,102213.000,A,3353.7585,N,09832.0253,W,0.05,263.45,010412,,,D*72
$GPGGA,102214.000,3353.7585,N,09832.0253,W,2,06,1.8,315.2,M,-23.7,M,2.8,0000*41
$GPGSA,A,3,04,05,10,25,12,02,,,,,,,3.3,1.8,2.7*38
$GPRMC,102214.000,A,3353.7585,N,09832.0253,W,0.02,235.94,010412,,,D*7D
$GPGGA,102215.000,3353.7585,N,09832.0253,W,2,06,1.8,315.2,M,-23.7,M,0.8,0000*42
$GPGSA,A,3,04,05,10,25,12,02,,,,,,,3.3,1.8,2.7*38
$GPRMC,102215.000,A,3353.7585,N,09832.0253,W,0.04,167.57,010412,,,D*71
$GPGGA,102216.000,3353.7585,N,09832.0253,W,2,06,1.8,315.3,M,-23.7,M,0.8,0000*40
$GPGSA,A,3,04,05,10,25,12,02,,,,,,,3.3,1.8,2.7*38
$GPRMC,102216.000,A,3353.7585,N,09832.0253,W,0.06,151.02,010412,,,D*75
$GPGGA,102217.000,3353.7585,N,09832.0253,W,2,06,1.8,315.2,M,-23.7,M,0.8,0000*40
$GPGSA,A,3,04,05,10,25,12,02,,,,,,,3.3,1.8,2.7*38
$GPRMC,102217.000,A,3353.7585,N,09832.0253,W,0.02,129.20,010412,,,D*7F
$GPGGA,102218.000,3353.7585,N,09832.0253,W,2,06,1.8,315.3,M,-23.7,M,0.8,0000*4E
$GPGSA,A,3,04,05,10,25,12,02,,,,,,,3.3,1.8,2.7*38
$GPGSV,3,1,10,05,74,140,36,12,54,215,31,02,51,039,36,25,46,286,32*7B
$GPGSV,3,2,10,10,32,047,37,29,26,311,,04,19,061,29,26,06,149,21*7F
$GPGSV,3,3,10,13,03,042,,51,49,195,39*71
$GPRMC,102218.000,A,3353.7585,N,09832.0253,W,0.02,120.79,010412,,,D*75
$GPGGA,102219.000,3353.7585,N,09832.0253,W,2,06,1.8,315.2,M,-23.7,M,0.8,0000*4E
$GPGSA,A,3,04,05,10,25,12,02,,,,,,,3.3,1.8,2.7*38
$GPRMC,102219.000,A,3353.7585,N,09832.0253,W,0.02,161.28,010412,,,D*75
$GPGGA,102220.000,3353.7584,N,09832.0253,W,2,06,1.8,315.2,M,-23.7,M,1.8,0000*44
$GPGSA,A,3,04,05,10,25,12,02,,,,,,,3.3,1.8,2.7*38
$GPRMC,102220.000,A,3353.7584,N,09832.0253,W,0.03,99.95,010412,,,D*4F
$GPGGA,102221.000,3353.7585,N,09832.0253,W,2,06,1.8,315.2,M,-23.7,M,0.8,0000*45
$GPGSA,A,3,04,05,10,25,12,02,,,,,,,3.3,1.8,2.7*38
$GPRMC,102221.000,A,3353.7585,N,09832.0253,W,0.07,296.73,010412,,,D*7E
$GPGGA,102222.000,3353.7585,N,09832.0254,W,2,06,1.8,315.1,M,-23.7,M,0.8,0000*42
$GPGSA,A,3,04,05,10,25,12,02,,,,,,,3.3,1.8,2.7*38
$GPRMC,102222.000,A,3353.7585,N,09832.0254,W,0.06,284.01,010412,,,D*7D
$GPGGA,102223.000,3353.7585,N,09832.0254,W,2,06,1.8,315.2,M,-23.7,M,0.8,0000*40
$GPGSA,A,3,04,05,10,25,12,02,,,,,,,3.3,1.8,2.7*38
$GPGSV,3,1,10,05,74,140,36,12,54,215,30,02,51,039,36,25,46,286,32*7A
$GPGSV,3,2,10,10,32,047,37,29,26,311,,04,19,061,28,26,06,149,22*7D
$GPGSV,3,3,10,13,03,042,,51,49,195,39*71
$GPRMC,102223.000,A,3353.7585,N,09832.0254,W,0.03,239.17,010412,,,D*78
$GPGGA,102224.000,3353.7585,N,09832.0254,W,2,06,1.8,315.2,M,-23.7,M,1.8,0000*46
$GPGSA,A,3,04,05,10,25,12,02,,,,,,,3.3,1.8,2.7*38
$GPRMC,102224.000,A,3353.7585,N,09832.0254,W,0.05,253.36,010412,,,D*76
$GPGGA,102225.000,3353.7585,N,09832.0254,W,2,06,1.8,315.2,M,-23.7,M,2.8,0000*44
$GPGSA,A,3,04,05,10,25,12,02,,,,,,,3.3,1.8,2.7*38
$GPRMC,102225.000,A,3353.7585,N,09832.0254,W,0.03,244.54,010412,,,D*73
$GPGGA,102226.000,3353.7584,N,09832.0254,W,2,06,1.8,315.2,M,-23.7,M,0.8,0000*44
$GPGSA,A,3,04,05,10,25,12,02,,,,,,,3.3,1.8,2.7*38
$GPRMC,102226.000,A,3353.7584,N,09832.0254,W,0.03,268.78,010412,,,D*71
$GPGGA,102227.000,3353.7584,N,09832.0254,W,2,06,1.8,315.3,M,-23.7,M,0.8,0000*44
$GPGSA,A,3,04,05,10,25,12,02,,,,,,,3.3,1.8,2.7*38
$GPRMC,102227.000,A,3353.7584,N,09832.0254,W,0.07,162.34,010412,,,D*75
$GPGGA,102228.000,3353.7584,N,09832.0254,W,2,06,1.8,315.3,M,-23.7,M,0.8,0000*4B
$GPGSA,A,3,04,05,10,25,12,02,,,,,,,3.3,1.8,2.7*38
$GPGSV,3,1,10,05,74,140,36,12,54,215,30,02,51,039,36,25,46,286,32*7A
$GPGSV,3,2,10,10,32,047,37,29,26,311,,04,19,061,28,26,06,149,23*7C
$GPGSV,3,3,10,13,03,042,,51,49,195,39*71
$GPRMC,102228.000,A,3353.7584,N,09832.0254,W,0.05,147.58,010412,,,D*75
$GPGGA,102229.000,3353.7583,N,09832.0254,W,2,06,1.8,315.3,M,-23.7,M,0.8,0000*4D
$GPGSA,A,3,04,05,10,25,12,02,,,,,,,3.3,1.8,2.7*38
$GPRMC,102229.000,A,3353.7583,N,09832.0254,W,0.06,176.60,010412,,,D*79
$GPGGA,102230.000,3353.7583,N,09832.0253,W,2,06,1.8,315.2,M,-23.7,M,1.8,0000*42
$GPGSA,A,3,04,05,10,25,12,02,,,,,,,3.3,1.8,2.7*38
$GPRMC,102230.000,A,3353.7583,N,09832.0253,W,0.08,161.97,010412,,,D*76
$GPGGA,102231.000,3353.7582,N,09832.0253,W,2,06,1.8,315.1,M,-23.7,M,2.8,0000*42
$GPGSA,A,3,04,05,10,25,12,02,,,,,,,3.3,1.8,2.7*38
$GPRMC,102231.000,A,3353.7582,N,09832.0253,W,0.10,180.62,010412,,,D*7A
$GPGGA,102232.000,3353.7582,N,09832.0253,W,2,06,1.8,315.1,M,-23.7,M,3.8,0000*40
$GPGSA,A,3,04,05,10,25,12,02,,,,,,,3.3,1.8,2.7*38
$GPRMC,102232.000,A,3353.7582,N,09832.0253,W,0.09,181.17,010412,,,D*72
$GPGGA,102233.000,3353.7582,N,09832.0254,W,2,06,1.8,315.0,M,-23.7,M,0.8,0000*44
$GPGSA,A,3,04,05,10,25,12,02,,,,,,,3.3,1.8,2.7*38
$GPGSV,3,1,10,05,74,140,37,12,54,215,31,02,51,039,35,25,46,286,32*79
$GPGSV,3,2,10,10,32,047,37,29,26,311,,04,19,061,28,26,06,149,24*7B
$GPGSV,3,3,10,13,03,042,,51,49,195,39*71
$GPRMC,102233.000,A,3353.7582,N,09832.0254,W,0.07,253.15,010412,,,D*74
$GPGGA,102234.000,3353.7582,N,09832.0254,W,2,06,1.8,314.8,M,-23.7,M,0.8,0000*4A
$GPGSA,A,3,04,05,10,25,12,02,,,,,,,3.3,1.8,2.7*38
$GPRMC,102234.000,A,3353.7582,N,09832.0254,W,0.09,237.87,010412,,,D*74
$GPGGA,102235.000,3353.7582,N,09832.0254,W,2,06,1.8,314.9,M,-23.7,M,0.8,0000*4A
$GPGSA,A,3,04,05,10,25,12,02,,,,,,,3.3,1.8,2.7*38
$GPRMC,102235.000,A,3353.7582,N,09832.0254,W,0.08,327.64,010412,,,D*79
$GPGGA,102236.000,3353.7582,N,09832.0254,W,2,06,1.8,314.9,M,-23.7,M,1.8,0000*48
$GPGSA,A,3,04,05,10,25,12,02,,,,,,,3.3,1.8,2.7*38
$GPRMC,102236.000,A,3353.7582,N,09832.0254,W,0.11,327.12,010412,,,D*73
$GPGGA,102237.000,3353.7583,N,09832.0255,W,2,06,1.8,314.9,M,-23.7,M,0.8,0000*48
$GPGSA,A,3,04,05,10,25,12,02,,,,,,,3.3,1.8,2.7*38
$GPRMC,102237.000,A,3353.7583,N,09832.0255,W,0.10,319.26,010412,,,D*79
$GPGGA,102238.000,3353.7583,N,09832.0255,W,2,06,1.8,314.9,M,-23.7,M,1.8,0000*46
$GPGSA,A,3,04,05,10,25,12,02,,,,,,,3.3,1.8,2.7*38
$GPGSV,3,1,10,05,74,140,37,12,54,215,31,02,51,039,35,25,46,286,32*79
$GPGSV,3,2,10,10,32,047,37,29,26,311,,04,19,061,28,26,06,149,26*79
$GPGSV,3,3,10,13,03,042,,51,49,195,39*71
$GPRMC,102238.000,A,3353.7583,N,09832.0255,W,0.16,329.95,010412,,,D*7B
$GPGGA,102239.000,3353.7584,N,09832.0255,W,2,06,1.8,314.9,M,-23.7,M,0.8,0000*41
$GPGSA,A,3,04,05,10,25,12,02,,,,,,,3.3,1.8,2.7*38
$GPRMC,102239.000,A,3353.7584,N,09832.0255,W,0.05,13.16,010412,,,D*4E
$GPGGA,102240.000,3353.7584,N,09832.0255,W,2,06,1.8,314.9,M,-23.7,M,0.8,0000*4F
$GPGSA,A,3,04,05,10,25,12,02,,,,,,,3.3,1.8,2.7*38
$GPRMC,102240.000,A,3353.7584,N,09832.0255,W,0.06,344.88,010412,,,D*75
$GPGGA,102241.000,3353.7584,N,09832.0254,W,2,06,1.8,314.9,M,-23.7,M,0.8,0000*4F
$GPGSA,A,3,04,05,10,25,12,02,,,,,,,3.3,1.8,2.7*38
$GPRMC,102241.000,A,3353.7584,N,09832.0254,W,0.08,178.79,010412,,,D*78
$GPGGA,102242.000,3353.7583,N,09832.0254,W,2,06,1.8,315.0,M,-23.7,M,1.8,0000*42
$GPGSA,A,3,04,05,10,25,12,02,,,,,,,3.3,1.8,2.7*38
$GPRMC,102242.000,A,3353.7583,N,09832.0254,W,0.13,171.38,010412,,,D*7A
$GPGGA,102243.000,3353.7583,N,09832.0254,W,2,06,1.8,315.1,M,-23.7,M,2.8,0000*41
$GPGSA,A,3,04,05,10,25,12,02,,,,,,,3.3,1.8,2.7*38
$GPGSV,3,1,10,05,74,140,37,12,54,215,32,02,51,039,35,25,46,286,32*7A
$GPGSV,3,2,10,10,32,047,37,29,26,311,,04,19,061,29,26,06,149,27*79
$GPGSV,3,3,10,13,03,042,,51,49,195,39*71
$GPRMC,102243.000,A,3353.7583,N,09832.0254,W,0.11,175.83,010412,,,D*7D
$GPGGA,102244.000,3353.7583,N,09832.0253,W,2,06,1.8,315.1,M,-23.7,M,0.8,0000*43
$GPGSA,A,3,04,05,10,25,12,02,,,,,,,3.3,1.8,2.7*38
$GPRMC,102244.000,A,3353.7583,N,09832.0253,W,0.11,162.55,010412,,,D*70
$GPGGA,102245.000,3353.7583,N,09832.0253,W,2,06,1.8,315.2,M,-23.7,M,0.8,0000*41
$GPGSA,A,3,04,05,10,25,12,02,,,,,,,3.3,1.8,2.7*38
$GPRMC,102245.000,A,3353.7583,N,09832.0253,W,0.08,224.89,010412,,,D*79
$GPGGA,102246.000,3353.7583,N,09832.0253,W,2,06,1.8,315.2,M,-23.7,M,0.8,0000*42
$GPGSA,A,3,04,05,10,25,12,02,,,,,,,3.3,1.8,2.7*38
$GPRMC,102246.000,A,3353.7583,N,09832.0253,W,0.05,238.31,010412,,,D*79
$GPGGA,102247.000,3353.7583,N,09832.0253,W,2,06,1.8,315.3,M,-23.7,M,0.8,0000*42
$GPGSA,A,3,04,05,10,25,12,02,,,,,,,3.3,1.8,2.7*38
$GPRMC,102247.000,A,3353.7583,N,09832.0253,W,0.05,327.62,010412,,,D*71
$GPGGA,102248.000,3353.7583,N,09832.0253,W,2,06,1.8,315.3,M,-23.7,M,1.8,0000*4C
$GPGSA,A,3,04,05,10,25,12,02,,,,,,,3.3,1.8,2.7*38
$GPGSV,3,1,10,05,74,140,38,12,54,215,32,02,51,039,35,25,46,286,32*75
$GPGSV,3,2,10,10,32,047,37,29,26,311,,04,19,061,29,26,06,149,27*79
$GPGSV,3,3,10,13,03,042,,51,49,195,39*71
$GPRMC,102248.000,A,3353.7583,N,09832.0253,W,0.07,342.85,010412,,,D*76
$GPGGA,102249.000,3353.7583,N,09832.0253,W,2,06,1.8,315.4,M,-23.7,M,0.8,0000*4B
$GPGSA,A,3,04,05,10,25,12,02,,,,,,,3.3,1.8,2.7*38
$GPRMC,102249.000,A,3353.7583,N,09832.0253,W,0.06,343.24,010412,,,D*7C
$GPGGA,102250.000,3353.7584,N,09832.0253,W,2,06,1.8,315.5,M,-23.7,M,0.8,0000*45
$GPGSA,A,3,04,05,10,25,12,02,,,,,,,3.3,1.8,2.7*38
$GPRMC,102250.000,A,3353.7584,N,09832.0253,W,0.08,337.80,010412,,,D*70
$GPGGA,102251.000,3353.7584,N,09832.0252,W,2,06,1.8,315.6,M,-23.7,M,0.8,0000*46
$GPGSA,A,3,04,05,10,25,12,02,,,,,,,3.3,1.8,2.7*38
$GPRMC,102251.000,A,3353.7584,N,09832.0252,W,0.05,40.71,010412,,,D*40
$GPGGA,102252.000,3353.7584,N,09832.0252,W,2,06,1.8,315.6,M,-23.7,M,0.8,0000*45
$GPGSA,A,3,04,05,10,25,12,02,,,,,,,3.3,1.8,2.7*38
$GPRMC,102252.000,A,3353.7584,N,09832.0252,W,0.05,88.67,010412,,,D*40
$GPGGA,102253.000,3353.7584,N,09832.0251,W,2,06,1.8,315.7,M,-23.7,M,0.8,0000*46
$GPGSA,A,3,04,05,10,25,12,02,,,,,,,3.3,1.8,2.7*38
$GPGSV,3,1,10,05,74,140,38,12,54,215,33,02,51,039,35,25,46,286,32*74
$GPGSV,3,2,10,10,32,047,37,29,26,311,12,04,19,061,29,26,06,149,27*7A
$GPGSV,3,3,10,13,03,042,,51,49,195,39*71
$GPRMC,102253.000,A,3353.7584,N,09832.0251,W,0.03,162.46,010412,,,D*72
$GPGGA,102254.000,3353.7584,N,09832.0251,W,2,06,1.8,315.8,M,-23.7,M,1.8,0000*4F
$GPGSA,A,3,04,05,10,25,12,02,,,,,,,3.3,1.8,2.7*38
$GPRMC,102254.000,A,3353.7584,N,09832.0251,W,0.03,171.32,010412,,,D*74
$GPGGA,102255.000,3353.7584,N,09832.0251,W,2,06,1.8,315.9,M,-23.7,M,2.8,0000*4C
$GPGSA,A,3,04,05,10,25,12,02,,,,,,,3.3,1.8,2.7*38
$GPRMC,102255.000,A,3353.7584,N,09832.0251,W,0.03,208.07,010412,,,D*7E
$GPGGA,102256.000,3353.7584,N,09832.0250,W,2,06,1.8,316.0,M,-23.7,M,3.8,0000*45
$GPGSA,A,3,04,05,10,25,12,02,,,,,,,3.3,1.8,2.7*38
$GPRMC,102256.000,A,3353.7584,N,09832.0250,W,0.03,134.02,010412,,,D*75
$GPGGA,102257.000,3353.7584,N,09832.0250,W,2,06,1.8,316.0,M,-23.7,M,0.8,0000*47
$GPGSA,A,3,04,05,10,25,12,02,,,,,,,3.3,1.8,2.7*38
$GPRMC,102257.000,A,3353.7584,N,09832.0250,W,0.08,306.67,010412,,,D*7F
$GPGGA,102258.000,3353.7584,N,09832.0250,W,2,06,1.8,316.1,M,-23.7,M,0.8,0000*49
$GPGSA,A,3,04,05,10,25,12,02,,,,,,,3.3,1.8,2.7*38
$GPGSV,3,1,10,05,74,140,38,12,54,215,33,02,51,039,35,25,46,286,32*74
$GPGSV,3,2,10,10,32,047,37,29,26,311,13,04,19,061,29,26,06,149,26*7A
$GPGSV,3,3,10,13,03,042,,51,49,195,39*71
$GPRMC,102258.000,A,3353.7584,N,09832.0250,W,0.07,271.52,010412,,,D*78
$GPGGA,102259.000,3353.7585,N,09832.0250,W,2,06,1.8,316.2,M,-23.7,M,0.8,0000*4A
$GPGSA,A,3,04,05,10,25,12,02,,,,,,,3.3,1.8,2.7*38
