$GPGGA,203649.000,3352.2971,N,09832.4181,W,2,10,0.8,302.3,M,-23.7,M,2.8,0000*45
$GPGSA,A,3,22,11,20,16,30,01,31,23,25,32,,,1.5,0.8,1.2*3F
$GPGSV,3,1,12,32,66,306,31,31,60,029,24,30,48,154,40,20,37,311,28*73
$GPGSV,3,2,12,14,28,078,,01,25,256,20,16,24,173,37,25,14,041,30*7A
$GPGSV,3,3,12,22,13,144,36,23,12,291,29,11,11,237,26,48,36,230,36*70
$GPRMC,203649.000,A,3352.2971,N,09832.4181,W,0.09,318.21,310312,,,D*77
$GPGGA,203650.000,3352.2971,N,09832.4182,W,2,10,0.8,302.6,M,-23.7,M,3.8,0000*4A
$GPGSA,A,3,22,11,20,16,30,01,31,23,25,32,,,1.5,0.8,1.2*3F
$GPRMC,203650.000,A,3352.2971,N,09832.4182,W,0.21,46.80,310312,,,D*45
$GPGGA,203651.000,3352.2972,N,09832.4182,W,2,10,0.8,302.5,M,-23.7,M,0.8,0000*48
$GPGSA,A,3,22,11,20,16,30,01,31,23,25,32,,,1.5,0.8,1.2*3F
$GPRMC,203651.000,A,3352.2972,N,09832.4182,W,0.13,47.23,310312,,,D*4E
$GPGGA,203652.000,3352.2973,N,09832.4183,W,2,10,0.8,302.5,M,-23.7,M,0.8,0000*4B
$GPGSA,A,3,22,11,20,16,30,01,31,23,25,32,,,1.5,0.8,1.2*3F
$GPRMC,203652.000,A,3352.2973,N,09832.4183,W,0.10,44.41,310312,,,D*49
$GPGGA,203653.000,3352.2974,N,09832.4183,W,2,10,0.8,302.4,M,-23.7,M,0.8,0000*4C
$GPGSA,A,3,22,11,20,16,30,01,31,23,25,32,,,1.5,0.8,1.2*3F
$GPRMC,203653.000,A,3352.2974,N,09832.4183,W,0.22,64.57,310312,,,D*4B
$GPGGA,203654.000,3352.2975,N,09832.4183,W,2,10,0.8,302.2,M,-23.7,M,1.8,0000*4D
$GPGSA,A,3,22,11,20,16,30,01,31,23,25,32,,,1.5,0.8,1.2*3F
$GPGSV,3,1,12,32,66,306,31,31,60,029,25,30,48,154,42,20,37,311,30*79
$GPGSV,3,2,12,14,28,078,,01,25,256,23,16,24,173,38,25,14,041,30*76
$GPGSV,3,3,12,22,13,144,38,23,12,291,30,11,11,237,27,48,36,230,36*77
$GPRMC,203654.000,A,3352.2975,N,09832.4183,W,0.14,47.94,310312,,,D*46
$GPGGA,203655.000,3352.2976,N,09832.4183,W,2,10,0.8,302.0,M,-23.7,M,2.8,0000*4E
$GPGSA,A,3,22,11,20,16,30,01,31,23,25,32,,,1.5,0.8,1.2*3F
$GPRMC,203655.000,A,3352.2976,N,09832.4183,W,0.14,61.67,310312,,,D*4C
$GPGGA,203656.000,3352.2977,N,09832.4183,W,2,10,0.8,301.9,M,-23.7,M,3.8,0000*47
$GPGSA,A,3,22,11,20,16,30,01,31,23,25,32,,,1.5,0.8,1.2*3F
$GPRMC,203656.000,A,3352.2977,N,09832.4183,W,0.09,43.12,310312,,,D*40
$GPGGA,203657.000,3352.2977,N,09832.4183,W,2,10,0.8,301.8,M,-23.7,M,0.8,0000*44
$GPGSA,A,3,22,11,20,16,30,01,31,23,25,32,,,1.5,0.8,1.2*3F
$GPRMC,203657.000,A,3352.2977,N,09832.4183,W,0.13,43.06,310312,,,D*4F
$GPGGA,203658.000,3352.2978,N,09832.4183,W,2,10,0.8,301.7,M,-23.7,M,0.8,0000*4B
$GPGSA,A,3,22,11,20,16,30,01,31,23,25,32,,,1.5,0.8,1.2*3F
$GPRMC,203658.000,A,3352.2978,N,09832.4183,W,0.15,66.30,310312,,,D*4B
$GPGGA,203659.000,3352.2979,N,09832.4182,W,2,10,0.8,301.7,M,-23.7,M,0.8,0000*4A
$GPGSA,A,3,22,11,20,16,30,01,31,23,25,32,,,1.5,0.8,1.2*3F
$GPGSV,3,1,12,32,66,306,31,31,60,029,24,30,48,154,42,20,37,311,30*78
$GPGSV,3,2,12,14,28,078,,01,25,256,23,16,24,173,38,25,14,041,29*7E
$GPGSV,3,3,12,22,13,144,38,23,12,291,30,11,11,237,27,48,36,230,36*77
$GPRMC,203659.000,A,3352.2979,N,09832.4182,W,0.17,66.55,310312,,,D*4B
$GPGGA,203700.000,3352.2979,N,09832.4182,W,2,10,0.8,301.7,M,-23.7,M,0.8,0000*47
$GPGSA,A,3,22,11,20,16,30,01,31,23,25,32,,,1.5,0.8,1.2*3F
$GPRMC,203700.000,A,3352.2979,N,09832.4182,W,0.22,53.41,310312,,,D*43
$GPGGA,203701.000,3352.2980,N,09832.4181,W,2,10,0.8,301.8,M,-23.7,M,1.8,0000*4D
$GPGSA,A,3,22,11,20,16,30,01,31,23,25,32,,,1.5,0.8,1.2*3F
$GPRMC,203701.000,A,3352.2980,N,09832.4181,W,0.24,48.50,310312,,,D*4B
$GPGGA,203702.000,3352.2981,N,09832.4181,W,2,10,0.8,301.8,M,-23.7,M,2.8,0000*4C
$GPGSA,A,3,22,11,20,16,30,01,31,23,25,32,,,1.5,0.8,1.2*3F
$GPRMC,203702.000,A,3352.2981,N,09832.4181,W,0.06,11.92,310312,,,D*4B
$GPGGA,203703.000,3352.2981,N,09832.4180,W,2,10,0.8,301.8,M,-23.7,M,0.8,0000*4E
$GPGSA,A,3,22,11,20,16,30,01,31,23,25,32,,,1.5,0.8,1.2*3F
$GPRMC,203703.000,A,3352.2981,N,09832.4180,W,0.20,79.59,310312,,,D*46
$GPGGA,203704.000,3352.2981,N,09832.4179,W,2,10,0.8,301.8,M,-23.7,M,0.8,0000*4F
$GPGSA,A,3,22,11,20,16,30,01,31,23,25,32,,,1.5,0.8,1.2*3F
$GPGSV,3,1,12,32,66,306,31,31,60,029,23,30,48,154,42,20,37,311,30*7F
$GPGSV,3,2,12,14,28,078,,01,25,256,23,16,24,173,38,25,14,041,29*7E
$GPGSV,3,3,12,22,13,144,38,23,12,291,30,11,11,237,27,48,36,230,36*77
$GPRMC,203704.000,A,3352.2981,N,09832.4179,W,0.25,55.85,310312,,,D*4D
$GPGGA,203705.000,3352.2982,N,09832.4179,W,2,10,0.8,301.7,M,-23.7,M,0.8,0000*42
$GPGSA,A,3,22,11,20,16,30,01,31,23,25,32,,,1.5,0.8,1.2*3F
$GPRMC,203705.000,A,3352.2982,N,09832.4179,W,0.18,43.26,310312,,,D*4F
$GPGGA,203706.000,3352.2982,N,09832.4178,W,2,10,0.8,301.5,M,-23.7,M,1.8,0000*43
$GPGSA,A,3,22,11,20,16,30,01,31,23,25,32,,,1.5,0.8,1.2*3F
$GPRMC,203706.000,A,3352.2982,N,09832.4178,W,0.15,80.83,310312,,,D*40
$GPGGA,203707.000,3352.2983,N,09832.4177,W,2,10,0.8,301.4,M,-23.7,M,0.8,0000*4C
$GPGSA,A,3,22,11,20,16,30,01,31,23,25,32,,,1.5,0.8,1.2*3F
$GPRMC,203707.000,A,3352.2983,N,09832.4177,W,0.05,53.08,310312,,,D*43
$GPGGA,203708.000,3352.2983,N,09832.4177,W,2,10,0.8,301.3,M,-23.7,M,1.8,0000*45
$GPGSA,A,3,22,11,20,16,30,01,31,23,25,32,,,1.5,0.8,1.2*3F
$GPRMC,203708.000,A,3352.2983,N,09832.4177,W,0.20,54.77,310312,,,D*44
$GPGGA,203709.000,3352.2983,N,09832.4176,W,2,10,0.8,301.1,M,-23.7,M,0.8,0000*46
$GPGSA,A,3,22,11,20,16,30,01,31,23,25,32,,,1.5,0.8,1.2*3F
$GPGSV,3,1,12,32,66,306,31,31,60,029,23,30,48,154,42,20,37,311,30*7F
$GPGSV,3,2,12,14,28,078,,01,25,256,23,16,24,173,38,25,14,041,29*7E
$GPGSV,3,3,12,22,13,144,38,23,12,291,29,11,11,237,27,48,36,230,36*7F
$GPRMC,203709.000,A,3352.2983,N,09832.4176,W,0.09,63.44,310312,,,D*4B
$GPGGA,203710.000,3352.2984,N,09832.4176,W,2,10,0.8,301.0,M,-23.7,M,0.8,0000*48
$GPGSA,A,3,22,11,20,16,30,01,31,23,25,32,,,1.5,0.8,1.2*3F
$GPRMC,203710.000,A,3352.2984,N,09832.4176,W,0.12,22.52,310312,,,D*4C
$GPGGA,203711.000,3352.2984,N,09832.4176,W,2,10,0.8,301.0,M,-23.7,M,0.8,0000*49
$GPGSA,A,3,22,11,20,16,30,01,31,23,25,32,,,1.5,0.8,1.2*3F
$GPRMC,203711.000,A,3352.2984,N,09832.4176,W,0.14,47.65,310312,,,D*4C
$GPGGA,203712.000,3352.2984,N,09832.4176,W,2,10,0.8,300.9,M,-23.7,M,0.8,0000*42
$GPGSA,A,3,22,11,20,16,30,01,31,23,25,32,,,1.5,0.8,1.2*3F
$GPRMC,203712.000,A,3352.2984,N,09832.4176,W,0.03,152.59,310312,,,D*73
$GPGGA,203713.000,3352.2985,N,09832.4176,W,2,10,0.8,300.9,M,-23.7,M,0.8,0000*42
$GPGSA,A,3,22,11,20,16,30,01,31,23,25,32,,,1.5,0.8,1.2*3F
$GPRMC,203713.000,A,3352.2985,N,09832.4176,W,0.04,328.39,310312,,,D*7D
$GPGGA,203714.000,3352.2985,N,09832.4176,W,2,10,0.8,300.9,M,-23.7,M,1.8,0000*44
$GPGSA,A,3,22,11,20,16,30,01,31,23,25,32,,,1.5,0.8,1.2*3F
$GPGSV,3,1,12,32,66,306,31,31,60,029,23,30,48,154,42,20,37,311,30*7F
$GPGSV,3,2,12,14,28,078,,01,25,256,23,16,24,173,38,25,14,041,29*7E
$GPGSV,3,3,12,22,13,144,38,23,12,291,29,11,11,237,27,48,36,230,36*7F
$GPRMC,203714.000,A,3352.2985,N,09832.4176,W,0.07,22.20,310312,,,D*48
$GPGGA,203715.000,3352.2985,N,09832.4175,W,2,10,0.8,300.8,M,-23.7,M,0.8,0000*46
$GPGSA,A,3,22,11,20,16,30,01,31,23,25,32,,,1.5,0.8,1.2*3F
$GPRMC,203715.000,A,3352.2985,N,09832.4175,W,0.25,65.33,310312,,,D*4B
$GPGGA,203716.000,3352.2986,N,09832.4175,W,2,10,0.8,300.8,M,-23.7,M,0.8,0000*46
$GPGSA,A,3,22,11,20,16,30,01,31,23,25,32,,,1.5,0.8,1.2*3F
$GPRMC,203716.000,A,3352.2986,N,09832.4175,W,0.05,133.68,310312,,,D*75
$GPGGA,203717.000,3352.2986,N,09832.4174,W,2,10,0.8,300.7,M,-23.7,M,0.8,0000*49
$GPGSA,A,3,22,11,20,16,30,01,31,23,25,32,,,1.5,0.8,1.2*3F
$GPRMC,203717.000,A,3352.2986,N,09832.4174,W,0.04,72.87,310312,,,D*41
$GPGGA,203718.000,3352.2986,N,09832.4174,W,2,10,0.8,300.5,M,-23.7,M,1.8,0000*45
$GPGSA,A,3,22,11,20,16,30,01,31,23,25,32,,,1.5,0.8,1.2*3F
$GPRMC,203718.000,A,3352.2986,N,09832.4174,W,0.04,234.80,310312,,,D*79
$GPGGA,203719.000,3352.2986,N,09832.4174,W,2,10,0.8,300.4,M,-23.7,M,0.8,0000*44
$GPGSA,A,3,22,11,20,16,30,01,31,23,25,32,,,1.5,0.8,1.2*3F
$GPGSV,3,1,12,32,66,306,32,31,60,029,23,30,48,154,42,20,37,311,30*7C
$GPGSV,3,2,12,14,28,078,,01,25,256,24,16,24,173,38,25,14,041,28*78
$GPGSV,3,3,12,22,13,144,38,23,12,291,30,11,11,237,28,48,36,230,36*78
$GPRMC,203719.000,A,3352.2986,N,09832.4174,W,0.08,41.64,310312,,,D*4E
$GPGGA,203720.000,3352.2987,N,09832.4173,W,2,10,0.8,300.2,M,-23.7,M,1.8,0000*4F
$GPGSA,A,3,22,11,20,16,30,01,31,23,25,32,,,1.5,0.8,1.2*3F
$GPRMC,203720.000,A,3352.2987,N,09832.4173,W,0.05,81.89,310312,,,D*40
$GPGGA,203721.000,3352.2987,N,09832.4173,W,2,10,0.8,300.2,M,-23.7,M,0.8,0000*4F
$GPGSA,A,3,22,11,20,16,30,01,31,23,25,32,,,1.5,0.8,1.2*3F
$GPRMC,203721.000,A,3352.2987,N,09832.4173,W,0.10,20.30,310312,,,D*4C
$GPGGA,203722.000,3352.2987,N,09832.4173,W,2,10,0.8,300.1,M,-23.7,M,0.8,0000*4F
$GPGSA,A,3,22,11,20,16,30,01,31,23,25,32,,,1.5,0.8,1.2*3F
$GPRMC,203722.000,A,3352.2987,N,09832.4173,W,0.05,249.28,310312,,,D*7F
$GPGGA,203723.000,3352.2987,N,09832.4173,W,2,10,0.8,300.0,M,-23.7,M,0.8,0000*4F
$GPGSA,A,3,22,11,20,16,30,01,31,23,25,32,,,1.5,0.8,1.2*3F
$GPRMC,203723.000,A,3352.2987,N,09832.4173,W,0.06,216.25,310312,,,D*7A
$GPGGA,203724.000,3352.2988,N,09832.4173,W,2,10,0.8,300.0,M,-23.7,M,1.8,0000*46
$GPGSA,A,3,22,11,20,16,30,01,31,23,25,32,,,1.5,0.8,1.2*3F
$GPGSV,3,1,12,32,66,306,32,31,60,029,22,30,48,154,42,20,37,311,30*7D
$GPGSV,3,2,12,14,28,078,,01,25,256,24,16,24,173,38,25,14,041,28*78
$GPGSV,3,3,12,22,13,144,38,23,12,291,31,11,11,237,28,48,36,230,37*78
$GPRMC,203724.000,A,3352.2988,N,09832.4173,W,0.07,36.59,310312,,,D*48
$GPGGA,203725.000,3352.2988,N,09832.4173,W,2,10,0.8,300.2,M,-23.7,M,2.8,0000*46
$GPGSA,A,3,22,11,20,16,30,01,31,23,25,32,,,1.5,0.8,1.2*3F
$GPRMC,203725.000,A,3352.2988,N,09832.4173,W,0.12,17.70,310312,,,D*45
$GPGGA,203726.000,3352.2988,N,09832.4173,W,2,10,0.8,300.2,M,-23.7,M,3.8,0000*44
$GPGSA,A,3,22,11,20,16,30,01,31,23,25,32,,,1.5,0.8,1.2*3F
$GPRMC,203726.000,A,3352.2988,N,09832.4173,W,0.06,357.62,310312,,,D*77
$GPGGA,203727.000,3352.2988,N,09832.4173,W,2,10,0.8,300.3,M,-23.7,M,0.8,0000*47
$GPGSA,A,3,22,11,20,16,30,01,31,23,25,32,,,1.5,0.8,1.2*3F
$GPRMC,203727.000,A,3352.2988,N,09832.4173,W,0.06,167.81,310312,,,D*7A
$GPGGA,203728.000,3352.2988,N,09832.4172,W,2,10,0.8,300.3,M,-23.7,M,0.8,0000*49
$GPGSA,A,3,22,11,20,16,30,01,31,23,25,32,,,1.5,0.8,1.2*3F
$GPRMC,203728.000,A,3352.2988,N,09832.4172,W,0.04,160.60,310312,,,D*7E
$GPGGA,203729.000,3352.2988,N,09832.4172,W,2,10,0.8,300.3,M,-23.7,M,0.8,0000*48
$GPGSA,A,3,22,11,20,16,30,01,31,23,25,32,,,1.5,0.8,1.2*3F
$GPGSV,3,1,12,32,66,306,32,31,60,029,22,30,48,154,42,20,37,311,31*7C
$GPGSV,3,2,12,14,28,078,,01,25,256,24,16,24,173,38,25,14,041,28*78
$GPGSV,3,3,12,22,13,144,38,23,12,291,31,11,11,237,28,48,36,230,40*78
$GPRMC,203729.000,A,3352.2988,N,09832.4172,W,0.07,43.00,310312,,,D*4A
$GPGGA,203730.000,3352.2988,N,09832.4172,W,2,10,0.8,300.3,M,-23.7,M,1.8,0000*41
$GPGSA,A,3,22,11,20,16,30,01,31,23,25,32,,,1.5,0.8,1.2*3F
$GPRMC,203730.000,A,3352.2988,N,09832.4172,W,0.16,52.15,310312,,,D*46
$GPGGA,203731.000,3352.2989,N,09832.4171,W,2,10,0.8,300.2,M,-23.7,M,2.8,0000*40
$GPGSA,A,3,22,11,20,16,30,01,31,23,25,32,,,1.5,0.8,1.2*3F
$GPRMC,203731.000,A,3352.2989,N,09832.4171,W,0.19,52.98,310312,,,D*4F
$GPGGA,203732.000,3352.2989,N,09832.4171,W,2,10,0.8,300.2,M,-23.7,M,0.8,0000*41
$GPGSA,A,3,22,11,20,16,30,01,31,23,25,32,,,1.5,0.8,1.2*3F
$GPRMC,203732.000,A,3352.2989,N,09832.4171,W,0.03,221.41,310312,,,D*75
$GPGGA,203733.000,3352.2988,N,09832.4171,W,2,10,0.8,300.2,M,-23.7,M,0.8,0000*41
$GPGSA,A,3,22,11,20,16,30,01,31,23,25,32,,,1.5,0.8,1.2*3F
$GPRMC,203733.000,A,3352.2988,N,09832.4171,W,0.03,351.24,310312,,,D*70
$GPGGA,203734.000,3352.2989,N,09832.4171,W,2,10,0.8,300.2,M,-23.7,M,0.8,0000*47
$GPGSA,A,3,22,11,20,16,30,01,31,23,25,32,,,1.5,0.8,1.2*3F
$GPGSV,3,1,12,32,66,306,32,31,60,029,23,30,48,154,42,20,37,311,31*7D
$GPGSV,3,2,12,14,28,078,,01,25,256,25,16,24,173,38,25,14,041,28*79
$GPGSV,3,3,12,22,13,144,38,23,12,291,31,11,11,237,28,48,36,230,36*79
$GPRMC,203734.000,A,3352.2989,N,09832.4171,W,0.07,34.89,310312,,,D*45
$GPGGA,203735.000,3352.2989,N,09832.4170,W,2,10,0.8,300.2,M,-23.7,M,1.8,0000*46
$GPGSA,A,3,22,11,20,16,30,01,31,23,25,32,,,1.5,0.8,1.2*3F
$GPRMC,203735.000,A,3352.2989,N,09832.4170,W,0.14,26.06,310312,,,D*43
$GPGGA,203736.000,3352.2989,N,09832.4170,W,2,10,0.8,300.2,M,-23.7,M,2.8,0000*46
$GPGSA,A,3,22,11,20,16,30,01,31,23,25,32,,,1.5,0.8,1.2*3F
$GPRMC,203736.000,A,3352.2989,N,09832.4170,W,0.05,42.28,310312,,,D*4E
$GPGGA,203737.000,3352.2989,N,09832.4170,W,2,10,0.8,300.3,M,-23.7,M,3.8,0000*47
$GPGSA,A,3,22,11,20,16,30,01,31,23,25,32,,,1.5,0.8,1.2*3F
$GPRMC,203737.000,A,3352.2989,N,09832.4170,W,0.12,34.70,310312,,,D*45
$GPGGA,203738.000,3352.2989,N,09832.4169,W,2,10,0.8,300.3,M,-23.7,M,4.8,0000*47
$GPGSA,A,3,22,11,20,16,30,01,31,23,25,32,,,1.5,0.8,1.2*3F
$GPRMC,203738.000,A,3352.2989,N,09832.4169,W,0.04,31.59,310312,,,D*4B
$GPGGA,203739.000,3352.2989,N,09832.4169,W,2,10,0.8,300.3,M,-23.7,M,0.8,0000*42
$GPGSA,A,3,22,11,20,16,30,01,31,23,25,32,,,1.5,0.8,1.2*3F
$GPGSV,3,1,12,32,66,306,32,31,60,029,24,30,48,154,42,20,37,311,32*79
$GPGSV,3,2,12,14,28,078,,01,25,256,26,16,24,173,38,25,14,041,27*75
$GPGSV,3,3,12,22,13,144,38,23,12,291,31,11,11,237,28,48,36,230,36*79
$GPRMC,203739.000,A,3352.2989,N,09832.4169,W,0.10,68.73,310312,,,D*4B
$GPGGA,203740.000,3352.2989,N,09832.4168,W,2,10,0.8,300.2,M,-23.7,M,0.8,0000*4C
$GPGSA,A,3,22,11,20,16,30,01,31,23,25,32,,,1.5,0.8,1.2*3F
$GPRMC,203740.000,A,3352.2989,N,09832.4168,W,0.10,58.92,310312,,,D*48
$GPGGA,203741.000,3352.2989,N,09832.4168,W,2,10,0.8,300.2,M,-23.7,M,0.8,0000*4D
$GPGSA,A,3,22,11,20,16,30,01,31,23,25,32,,,1.5,0.8,1.2*3F
$GPRMC,203741.000,A,3352.2989,N,09832.4168,W,0.10,58.63,310312,,,D*47
$GPGGA,203742.000,3352.2989,N,09832.4167,W,2,10,0.8,300.3,M,-23.7,M,1.8,0000*41
$GPGSA,A,3,22,11,20,16,30,01,31,23,25,32,,,1.5,0.8,1.2*3F
$GPRMC,203742.000,A,3352.2989,N,09832.4167,W,0.15,54.11,310312,,,D*47
$GPGGA,203743.000,3352.2989,N,09832.4167,W,2,10,0.8,300.3,M,-23.7,M,2.8,0000*43
$GPGSA,A,3,22,11,20,16,30,01,31,23,25,32,,,1.5,0.8,1.2*3F
$GPRMC,203743.000,A,3352.2989,N,09832.4167,W,0.12,59.08,310312,,,D*44
$GPGGA,203744.000,3352.2989,N,09832.4166,W,2,10,0.8,300.3,M,-23.7,M,0.8,0000*47
$GPGSA,A,3,22,11,20,16,30,01,31,23,25,32,,,1.5,0.8,1.2*3F
$GPGSV,3,1,12,32,66,306,32,31,60,029,24,30,48,154,42,20,37,311,32*79
$GPGSV,3,2,12,14,28,078,,01,25,256,27,16,24,173,38,25,14,041,26*75
$GPGSV,3,3,12,22,13,144,38,23,12,291,31,11,11,237,28,48,36,230,36*79
$GPRMC,203744.000,A,3352.2989,N,09832.4166,W,0.09,65.69,310312,,,D*40
$GPGGA,203745.000,3352.2989,N,09832.4166,W,2,10,0.8,300.4,M,-23.7,M,0.8,0000*41
$GPGSA,A,3,22,11,20,16,30,01,31,23,25,32,,,1.5,0.8,1.2*3F
$GPRMC,203745.000,A,3352.2989,N,09832.4166,W,0.07,27.44,310312,,,D*46
$GPGGA,203746.000,3352.2989,N,09832.4166,W,2,10,0.8,300.4,M,-23.7,M,0.8,0000*42
$GPGSA,A,3,22,11,20,16,30,01,31,23,25,32,,,1.5,0.8,1.2*3F
$GPRMC,203746.000,A,3352.2989,N,09832.4166,W,0.08,37.38,310312,,,D*40
$GPGGA,203747.000,3352.2989,N,09832.4165,W,2,10,0.8,300.5,M,-23.7,M,0.8,0000*41
$GPGSA,A,3,22,11,20,16,30,01,31,23,25,32,,,1.5,0.8,1.2*3F
$GPRMC,203747.000,A,3352.2989,N,09832.4165,W,0.07,53.51,310312,,,D*40
$GPGGA,203748.000,3352.2989,N,09832.4165,W,2,10,0.8,300.6,M,-23.7,M,0.8,0000*4D
$GPGSA,A,3,22,11,20,16,30,01,31,23,25,32,,,1.5,0.8,1.2*3F
$GPRMC,203748.000,A,3352.2989,N,09832.4165,W,0.12,46.44,310312,,,D*4B
$GPGGA,203749.000,3352.2989,N,09832.4165,W,2,10,0.8,300.7,M,-23.7,M,0.8,0000*4D
$GPGSA,A,3,22,11,20,16,30,01,31,23,25,32,,,1.5,0.8,1.2*3F
$GPGSV,3,1,12,32,66,306,32,31,60,029,25,30,48,154,42,20,37,311,32*78
$GPGSV,3,2,12,14,28,078,,01,25,256,28,16,24,173,38,25,14,041,26*7A
$GPGSV,3,3,12,22,13,144,38,23,12,291,31,11,11,237,29,48,36,230,36*78
$GPRMC,203749.000,A,3352.2989,N,09832.4165,W,0.07,42.81,310312,,,D*43
$GPGGA,203750.000,3352.2989,N,09832.4164,W,2,10,0.8,300.9,M,-23.7,M,1.8,0000*4B
$GPGSA,A,3,22,11,20,16,30,01,31,23,25,32,,,1.5,0.8,1.2*3F
$GPRMC,203750.000,A,3352.2989,N,09832.4164,W,0.06,46.25,310312,,,D*41
$GPGGA,203751.000,3352.2989,N,09832.4164,W,2,10,0.8,300.9,M,-23.7,M,0.8,0000*4B
$GPGSA,A,3,22,11,20,16,30,01,31,23,25,32,,,1.5,0.8,1.2*3F
$GPRMC,203751.000,A,3352.2989,N,09832.4164,W,0.12,78.18,310312,,,D*46
$GPGGA,203752.000,3352.2989,N,09832.4163,W,2,10,0.8,301.0,M,-23.7,M,0.8,0000*47
$GPGSA,A,3,22,11,20,16,30,01,31,23,25,32,,,1.5,0.8,1.2*3F
$GPRMC,203752.000,A,3352.2989,N,09832.4163,W,0.07,79.40,310312,,,D*4A
$GPGGA,203753.000,3352.2988,N,09832.4163,W,2,10,0.8,301.0,M,-23.7,M,0.8,0000*47
$GPGSA,A,3,22,11,20,16,30,01,31,23,25,32,,,1.5,0.8,1.2*3F
$GPRMC,203753.000,A,3352.2988,N,09832.4163,W,0.05,66.38,310312,,,D*49
$GPGGA,203754.000,3352.2988,N,09832.4162,W,2,10,0.8,301.0,M,-23.7,M,1.8,0000*40
$GPGSA,A,3,22,11,20,16,30,01,31,23,25,32,,,1.5,0.8,1.2*3F
$GPGSV,3,1,12,32,66,306,32,31,60,029,26,30,48,154,42,20,37,311,33*7A
$GPGSV,3,2,12,14,28,078,,01,25,256,28,16,24,173,38,25,14,041,26*7A
$GPGSV,3,3,12,22,13,144,38,23,12,291,31,11,11,237,30,48,36,230,36*70
$GPRMC,203754.000,A,3352.2988,N,09832.4162,W,0.04,70.89,310312,,,D*43
$GPGGA,203755.000,3352.2988,N,09832.4162,W,2,10,0.8,301.0,M,-23.7,M,0.8,0000*40
$GPGSA,A,3,22,11,20,16,30,01,31,23,25,32,,,1.5,0.8,1.2*3F
$GPRMC,203755.000,A,3352.2988,N,09832.4162,W,0.11,43.35,310312,,,D*41
$GPGGA,203756.000,3352.2988,N,09832.4162,W,2,10,0.8,301.0,M,-23.7,M,1.8,0000*42
$GPGSA,A,3,22,11,20,16,30,01,31,23,25,32,,,1.5,0.8,1.2*3F
$GPRMC,203756.000,A,3352.2988,N,09832.4162,W,0.09,54.54,310312,,,D*4A
$GPGGA,203757.000,3352.2988,N,09832.4162,W,2,10,0.8,301.0,M,-23.7,M,0.8,0000*42
$GPGSA,A,3,22,11,20,16,30,01,31,23,25,32,,,1.5,0.8,1.2*3F
$GPRMC,203757.000,A,3352.2988,N,09832.4162,W,0.05,359.39,310312,,,D*72
$GPGGA,203758.000,3352.2988,N,09832.4162,W,2,10,0.8,301.0,M,-23.7,M,0.8,0000*4D
$GPGSA,A,3,22,11,20,16,30,01,31,23,25,32,,,1.5,0.8,1.2*3F
$GPRMC,203758.000,A,3352.2988,N,09832.4162,W,0.03,15.42,310312,,,D*4C
$GPGGA,203759.000,3352.2988,N,09832.4162,W,2,10,0.8,301.1,M,-23.7,M,0.8,0000*4D
$GPGSA,A,3,22,11,20,16,30,01,31,23,25,32,,,1.5,0.8,1.2*3F
$GPGSV,3,1,12,32,66,306,32,31,60,029,27,30,48,154,42,20,37,311,33*7B
$GPGSV,3,2,12,14,28,078,,01,25,256,29,16,24,173,38,25,14,041,26*7B
$GPGSV,3,3,12,22,13,144,38,23,12,291,31,11,11,237,30,48,36,230,36*70
$GPRMC,203759.000,A,3352.2988,N,09832.4162,W,0.07,45.84,310312,,,D*46
$GPGGA,203800.000,3352.2988,N,09832.4161,W,2,10,0.8,301.2,M,-23.7,M,1.8,0000*4F
$GPGSA,A,3,22,11,20,16,30,01,31,23,25,32,,,1.5,0.8,1.2*3F
$GPRMC,203800.000,A,3352.2988,N,09832.4161,W,0.10,52.33,310312,,,D*4A
$GPGGA,203801.000,3352.2988,N,09832.4161,W,2,10,0.8,301.4,M,-23.7,M,2.8,0000*4B
$GPGSA,A,3,22,11,20,16,30,01,31,23,25,32,,,1.5,0.8,1.2*3F
$GPRMC,203801.000,A,3352.2988,N,09832.4161,W,0.02,168.07,310312,,,D*77
$GPGGA,203802.000,3352.2988,N,09832.4161,W,2,10,0.8,301.5,M,-23.7,M,3.8,0000*48
$GPGSA,A,3,22,11,20,16,30,01,31,23,25,32,,,1.5,0.8,1.2*3F
$GPRMC,203802.000,A,3352.2988,N,09832.4161,W,0.13,36.57,310312,,,D*4B
$GPGGA,203803.000,3352.2987,N,09832.4161,W,2,10,0.8,301.6,M,-23.7,M,0.8,0000*46
$GPGSA,A,3,22,11,20,16,30,01,31,23,25,32,,,1.5,0.8,1.2*3F
$GPRMC,203803.000,A,3352.2987,N,09832.4161,W,0.11,63.83,310312,,,D*4E
$GPGGA,203804.000,3352.2988,N,09832.4160,W,2,10,0.8,301.6,M,-23.7,M,0.8,0000*4F
$GPGSA,A,3,22,11,20,16,30,01,31,23,25,32,,,1.5,0.8,1.2*3F
$GPGSV,3,1,12,32,67,304,32,31,59,029,28,30,49,153,42,20,38,310,33*75
$GPGSV,3,2,12,14,27,079,,16,25,172,38,01,24,255,29,23,13,292,31*7C
$GPGSV,3,3,12,25,13,040,25,22,12,144,38,11,10,236,30,48,36,230,36*7D
$GPRMC,203804.000,A,3352.2988,N,09832.4160,W,0.15,57.07,310312,,,D*48
$GPGGA,203805.000,3352.2988,N,09832.4159,W,2,10,0.8,301.5,M,-23.7,M,0.8,0000*47
$GPGSA,A,3,22,11,20,16,30,01,31,23,25,32,,,1.5,0.8,1.2*3F
$GPRMC,203805.000,A,3352.2988,N,09832.4159,W,0.23,41.00,310312,,,D*46
$GPGGA,203806.000,3352.2988,N,09832.4159,W,2,10,0.8,301.5,M,-23.7,M,0.8,0000*44
$GPGSA,A,3,22,11,20,16,30,01,31,23,25,32,,,1.5,0.8,1.2*3F
$GPRMC,203806.000,A,3352.2988,N,09832.4159,W,0.03,116.73,310312,,,D*70
$GPGGA,203807.000,3352.2988,N,09832.4159,W,2,10,0.8,301.5,M,-23.7,M,1.8,0000*44
$GPGSA,A,3,22,11,20,16,30,01,31,23,25,32,,,1.5,0.8,1.2*3F
$GPRMC,203807.000,A,3352.2988,N,09832.4159,W,0.03,104.12,310312,,,D*75
$GPGGA,203808.000,3352.2987,N,09832.4158,W,2,10,0.8,301.5,M,-23.7,M,2.8,0000*46
$GPGSA,A,3,22,11,20,16,30,01,31,23,25,32,,,1.5,0.8,1.2*3F
$GPRMC,203808.000,A,3352.2987,N,09832.4158,W,0.06,60.36,310312,,,D*44
$GPGGA,203809.000,3352.2987,N,09832.4158,W,2,10,0.8,301.5,M,-23.7,M,0.8,0000*45
$GPGSA,A,3,22,11,20,16,30,01,31,23,25,32,,,1.5,0.8,1.2*3F
$GPGSV,3,1,12,32,67,304,32,31,59,029,28,30,49,153,42,20,38,310,33*75
$GPGSV,3,2,12,14,27,079,,16,25,172,38,01,24,255,29,23,13,292,31*7C
$GPGSV,3,3,12,25,13,040,24,22,12,144,38,11,10,236,30,48,36,230,36*7C
$GPRMC,203809.000,A,3352.2987,N,09832.4158,W,0.10,230.26,310312,,,D*74
$GPGGA,203810.000,3352.2987,N,09832.4158,W,2,10,0.8,301.6,M,-23.7,M,1.8,0000*4F
$GPGSA,A,3,22,11,20,16,30,01,31,23,25,32,,,1.5,0.8,1.2*3F
$GPRMC,203810.000,A,3352.2987,N,09832.4158,W,0.08,11.21,310312,,,D*43
$GPGGA,203811.000,3352.2988,N,09832.4158,W,2,10,0.8,301.6,M,-23.7,M,0.8,0000*40
$GPGSA,A,3,22,11,20,16,30,01,31,23,25,32,,,1.5,0.8,1.2*3F
$GPRMC,203811.000,A,3352.2988,N,09832.4158,W,0.28,36.10,310312,,,D*48
$GPGGA,203812.000,3352.2988,N,09832.4158,W,2,10,0.8,301.8,M,-23.7,M,1.8,0000*4C
$GPGSA,A,3,22,11,20,16,30,01,31,23,25,32,,,1.5,0.8,1.2*3F
$GPRMC,203812.000,A,3352.2988,N,09832.4158,W,0.07,227.66,310312,,,D*75
$GPGGA,203813.000,3352.2988,N,09832.4158,W,2,10,0.8,301.8,M,-23.7,M,2.8,0000*4E
$GPGSA,A,3,22,11,20,16,30,01,31,23,25,32,,,1.5,0.8,1.2*3F
$GPRMC,203813.000,A,3352.2988,N,09832.4158,W,0.06,29.07,310312,,,D*4E
$GPGGA,203814.000,3352.2988,N,09832.4158,W,2,10,0.8,301.9,M,-23.7,M,3.8,0000*49
$GPGSA,A,3,22,11,20,16,30,01,31,23,25,32,,,1.5,0.8,1.2*3F
$GPGSV,3,1,12,32,67,304,32,31,59,029,28,30,49,153,42,20,38,310,34*72
$GPGSV,3,2,12,14,27,079,,16,25,172,38,01,24,255,29,23,13,292,31*7C
$GPGSV,3,3,12,25,13,040,17,22,12,144,39,11,10,236,30,48,36,230,36*7D
$GPRMC,203814.000,A,3352.2988,N,09832.4158,W,0.08,27.77,310312,,,D*4E
$GPGGA,203815.000,3352.2988,N,09832.4157,W,2,10,0.8,302.0,M,-23.7,M,0.8,0000*4E
$GPGSA,A,3,22,11,20,16,30,01,31,23,25,32,,,1.5,0.8,1.2*3F
$GPRMC,203815.000,A,3352.2988,N,09832.4157,W,0.24,46.43,310312,,,D*4E
$GPGGA,203816.000,3352.2988,N,09832.4156,W,2,10,0.8,302.0,M,-23.7,M,0.8,0000*4C
$GPGSA,A,3,22,11,20,16,30,01,31,23,25,32,,,1.5,0.8,1.2*3F
$GPRMC,203816.000,A,3352.2988,N,09832.4156,W,0.29,48.58,310312,,,D*45
$GPGGA,203817.000,3352.2989,N,09832.4155,W,2,10,0.8,302.0,M,-23.7,M,0.8,0000*4F
$GPGSA,A,3,22,11,20,16,30,01,31,23,25,32,,,1.5,0.8,1.2*3F
$GPRMC,203817.000,A,3352.2989,N,09832.4155,W,0.30,43.08,310312,,,D*40
$GPGGA,203818.000,3352.2989,N,09832.4154,W,2,10,0.8,301.9,M,-23.7,M,1.8,0000*4A
$GPGSA,A,3,22,11,20,16,30,01,31,23,25,32,,,1.5,0.8,1.2*3F
$GPRMC,203818.000,A,3352.2989,N,09832.4154,W,0.33,43.95,310312,,,D*49
$GPGGA,203819.000,3352.2989,N,09832.4154,W,2,10,0.8,301.8,M,-23.7,M,2.8,0000*49
$GPGSA,A,3,22,11,20,16,30,01,31,23,25,32,,,1.5,0.8,1.2*3F
$GPGSV,3,1,12,32,67,304,33,31,59,029,28,30,49,153,42,20,38,310,34*73
$GPGSV,3,2,12,14,27,079,,16,25,172,38,01,24,255,30,23,13,292,31*74
$GPGSV,3,3,12,25,13,040,18,22,12,144,38,11,10,236,29,48,36,230,36*7B
$GPRMC,203819.000,A,3352.2989,N,09832.4154,W,0.22,48.33,310312,,,D*4F
$GPGGA,203820.000,3352.2989,N,09832.4153,W,2,10,0.8,301.8,M,-23.7,M,3.8,0000*45
$GPGSA,A,3,22,11,20,16,30,01,31,23,25,32,,,1.5,0.8,1.2*3F
$GPRMC,203820.000,A,3352.2989,N,09832.4153,W,0.05,84.81,310312,,,D*4E
$GPGGA,203821.000,3352.2989,N,09832.4153,W,2,10,0.8,301.9,M,-23.7,M,0.8,0000*46
$GPGSA,A,3,22,11,20,16,30,01,31,23,25,32,,,1.5,0.8,1.2*3F
$GPRMC,203821.000,A,3352.2989,N,09832.4153,W,0.04,230.05,310312,,,D*7F
$GPGGA,203822.000,3352.2989,N,09832.4153,W,2,10,0.8,301.9,M,-23.7,M,0.8,0000*45
$GPGSA,A,3,22,11,20,16,30,01,31,23,25,32,,,1.5,0.8,1.2*3F
$GPRMC,203822.000,A,3352.2989,N,09832.4153,W,0.03,353.96,310312,,,D*75
$GPGGA,203823.000,3352.2989,N,09832.4153,W,2,10,0.8,302.0,M,-23.7,M,0.8,0000*4E
$GPGSA,A,3,22,11,20,16,30,01,31,23,25,32,,,1.5,0.8,1.2*3F
$GPRMC,203823.000,A,3352.2989,N,09832.4153,W,0.12,204.49,310312,,,D*75
$GPGGA,203824.000,3352.2988,N,09832.4154,W,2,10,0.8,302.1,M,-23.7,M,1.8,0000*4F
$GPGSA,A,3,22,11,20,16,30,01,31,23,25,32,,,1.5,0.8,1.2*3F
$GPGSV,3,1,12,32,67,304,33,31,59,029,28,30,49,153,42,20,38,310,34*73
$GPGSV,3,2,12,14,27,079,,16,25,172,38,01,24,255,30,23,13,292,31*74
$GPGSV,3,3,12,25,13,040,17,22,12,144,38,11,10,236,28,48,36,230,36*75
$GPRMC,203824.000,A,3352.2988,N,09832.4154,W,0.14,210.06,310312,,,D*7C
$GPGGA,203825.000,3352.2988,N,09832.4154,W,2,10,0.8,302.3,M,-23.7,M,2.8,0000*4F
$GPGSA,A,3,22,11,20,16,30,01,31,23,25,32,,,1.5,0.8,1.2*3F
$GPRMC,203825.000,A,3352.2988,N,09832.4154,W,0.12,218.51,310312,,,D*71
$GPGGA,203826.000,3352.2987,N,09832.4154,W,2,10,0.8,302.4,M,-23.7,M,3.8,0000*45
$GPGSA,A,3,22,11,20,16,30,01,31,23,25,32,,,1.5,0.8,1.2*3F
$GPRMC,203826.000,A,3352.2987,N,09832.4154,W,0.11,211.22,310312,,,D*73
$GPGGA,203827.000,3352.2987,N,09832.4154,W,2,10,0.8,302.5,M,-23.7,M,0.8,0000*46
$GPGSA,A,3,22,11,20,16,30,01,31,23,25,32,,,1.5,0.8,1.2*3F
$GPRMC,203827.000,A,3352.2987,N,09832.4154,W,0.11,187.27,310312,,,D*7B
$GPGGA,203828.000,3352.2986,N,09832.4154,W,2,10,0.8,302.7,M,-23.7,M,0.8,0000*4A
$GPGSA,A,3,22,11,20,16,30,01,31,23,25,32,,,1.5,0.8,1.2*3F
$GPRMC,203828.000,A,3352.2986,N,09832.4154,W,0.20,207.73,310312,,,D*7D
$GPGGA,203829.000,3352.2986,N,09832.4155,W,2,10,0.8,302.7,M,-23.7,M,0.8,0000*4A
$GPGSA,A,3,22,11,20,16,30,01,31,23,25,32,,,1.5,0.8,1.2*3F
$GPGSV,3,1,12,32,67,304,33,31,59,029,28,30,49,153,42,20,38,310,33*74
$GPGSV,3,2,12,14,27,079,,16,25,172,38,01,24,255,30,23,13,292,31*74
$GPGSV,3,3,12,25,13,040,16,22,12,144,38,11,10,236,28,48,36,230,42*77
$GPRMC,203829.000,A,3352.2986,N,09832.4155,W,0.28,214.16,310312,,,D*74
$GPGGA,203830.000,3352.2985,N,09832.4155,W,2,10,0.8,302.8,M,-23.7,M,1.8,0000*4F
$GPGSA,A,3,22,11,20,16,30,01,31,23,25,32,,,1.5,0.8,1.2*3F
$GPRMC,203830.000,A,3352.2985,N,09832.4155,W,0.30,212.15,310312,,,D*73
$GPGGA,203831.000,3352.2984,N,09832.4156,W,2,10,0.8,302.9,M,-23.7,M,2.8,0000*4E
$GPGSA,A,3,22,11,20,16,30,01,31,23,25,32,,,1.5,0.8,1.2*3F
$GPRMC,203831.000,A,3352.2984,N,09832.4156,W,0.30,216.19,310312,,,D*78
$GPGGA,203832.000,3352.2984,N,09832.4156,W,2,10,0.8,302.9,M,-23.7,M,0.8,0000*4F
$GPGSA,A,3,22,11,20,16,30,01,31,23,25,32,,,1.5,0.8,1.2*3F
$GPRMC,203832.000,A,3352.2984,N,09832.4156,W,0.29,213.57,310312,,,D*7C
$GPGGA,203833.000,3352.2983,N,09832.4157,W,2,10,0.8,303.0,M,-23.7,M,0.8,0000*40
$GPGSA,A,3,22,11,20,16,30,01,31,23,25,32,,,1.5,0.8,1.2*3F
$GPRMC,203833.000,A,3352.2983,N,09832.4157,W,0.35,224.56,310312,,,D*73
$GPGGA,203834.000,3352.2983,N,09832.4157,W,2,10,0.8,303.0,M,-23.7,M,0.8,0000*47
$GPGSA,A,3,22,11,20,16,30,01,31,23,25,32,,,1.5,0.8,1.2*3F
$GPGSV,3,1,12,32,67,304,34,31,59,029,28,30,49,153,42,20,38,310,33*73
$GPGSV,3,2,12,14,27,079,,16,25,172,37,01,24,255,30,23,13,292,31*7B
$GPGSV,3,3,12,25,13,040,16,22,12,144,38,11,10,236,27,48,36,230,36*7B
$GPRMC,203834.000,A,3352.2983,N,09832.4157,W,0.08,35.45,310312,,,D*4A
$GPGGA,203835.000,3352.2983,N,09832.4157,W,2,10,0.8,303.0,M,-23.7,M,0.8,0000*46
$GPGSA,A,3,22,11,20,16,30,01,31,23,25,32,,,1.5,0.8,1.2*3F
$GPRMC,203835.000,A,3352.2983,N,09832.4157,W,0.10,39.83,310312,,,D*44
$GPGGA,203836.000,3352.2983,N,09832.4157,W,2,10,0.8,303.1,M,-23.7,M,0.8,0000*44
$GPGSA,A,3,22,11,20,16,30,01,31,23,25,32,,,1.5,0.8,1.2*3F
$GPRMC,203836.000,A,3352.2983,N,09832.4157,W,0.14,42.81,310312,,,D*4D
$GPGGA,203837.000,3352.2984,N,09832.4156,W,2,10,0.8,303.1,M,-23.7,M,0.8,0000*43
$GPGSA,A,3,22,11,20,16,30,01,31,23,25,32,,,1.5,0.8,1.2*3F
$GPRMC,203837.000,A,3352.2984,N,09832.4156,W,0.21,41.55,310312,,,D*46
$GPGGA,203838.000,3352.2984,N,09832.4156,W,2,10,0.8,303.2,M,-23.7,M,1.8,0000*4E
$GPGSA,A,3,22,11,20,16,30,01,31,23,25,32,,,1.5,0.8,1.2*3F
$GPRMC,203838.000,A,3352.2984,N,09832.4156,W,0.02,39.39,310312,,,D*4D
$GPGGA,203839.000,3352.2984,N,09832.4156,W,2,10,0.8,303.2,M,-23.7,M,0.8,0000*4E
$GPGSA,A,3,22,11,20,16,30,01,31,23,25,32,,,1.5,0.8,1.2*3F
$GPGSV,3,1,12,32,67,304,34,31,59,029,28,30,49,153,43,20,38,310,34*75
$GPGSV,3,2,12,14,27,079,,16,25,172,37,01,24,255,30,23,13,292,30*7A
$GPGSV,3,3,12,25,13,040,22,22,12,144,38,11,10,236,27,48,36,230,35*7F
$GPRMC,203839.000,A,3352.2984,N,09832.4156,W,0.11,71.38,310312,,,D*43
$GPGGA,203840.000,3352.2984,N,09832.4156,W,2,10,0.8,303.3,M,-23.7,M,0.8,0000*41
$GPGSA,A,3,22,11,20,16,30,01,31,23,25,32,,,1.5,0.8,1.2*3F
$GPRMC,203840.000,A,3352.2984,N,09832.4156,W,0.04,143.99,310312,,,D*72
$GPGGA,203841.000,3352.2984,N,09832.4156,W,2,10,0.8,303.3,M,-23.7,M,0.8,0000*40
$GPGSA,A,3,22,11,20,16,30,01,31,23,25,32,,,1.5,0.8,1.2*3F
$GPRMC,203841.000,A,3352.2984,N,09832.4156,W,0.02,159.40,310312,,,D*7A
$GPGGA,203842.000,3352.2984,N,09832.4155,W,2,10,0.8,303.2,M,-23.7,M,1.8,0000*40
$GPGSA,A,3,22,11,20,16,30,01,31,23,25,32,,,1.5,0.8,1.2*3F
$GPRMC,203842.000,A,3352.2984,N,09832.4155,W,0.02,139.75,310312,,,D*7A
$GPGGA,203843.000,3352.2984,N,09832.4155,W,2,10,0.8,303.2,M,-23.7,M,0.8,0000*40
$GPGSA,A,3,22,11,20,16,30,01,31,23,25,32,,,1.5,0.8,1.2*3F
$GPRMC,203843.000,A,3352.2984,N,09832.4155,W,0.05,169.53,310312,,,D*7D
$GPGGA,203844.000,3352.2984,N,09832.4155,W,2,10,0.8,303.1,M,-23.7,M,1.8,0000*45
$GPGSA,A,3,22,11,20,16,30,01,31,23,25,32,,,1.5,0.8,1.2*3F
$GPGSV,3,1,12,32,67,304,34,31,59,029,29,30,49,153,43,20,38,310,34*74
$GPGSV,3,2,12,14,27,079,,16,25,172,37,01,24,255,31,23,13,292,31*7A
$GPGSV,3,3,12,25,13,040,24,22,12,144,38,11,10,236,27,48,36,230,36*7A
$GPRMC,203844.000,A,3352.2984,N,09832.4155,W,0.07,48.57,310312,,,D*4E
$GPGGA,203845.000,3352.2984,N,09832.4155,W,2,10,0.8,303.1,M,-23.7,M,0.8,0000*45
$GPGSA,A,3,22,11,20,16,30,01,31,23,25,32,,,1.5,0.8,1.2*3F
$GPRMC,203845.000,A,3352.2984,N,09832.4155,W,0.06,342.05,310312,,,D*70
$GPGGA,203846.000,3352.2985,N,09832.4154,W,2,10,0.8,303.0,M,-23.7,M,0.8,0000*47
$GPGSA,A,3,22,11,20,16,30,01,31,23,25,32,,,1.5,0.8,1.2*3F
$GPRMC,203846.000,A,3352.2985,N,09832.4154,W,0.04,294.64,310312,,,D*7C
$GPGGA,203847.000,3352.2985,N,09832.4154,W,2,10,0.8,303.0,M,-23.7,M,0.8,0000*46
$GPGSA,A,3,22,11,20,16,30,01,31,23,25,32,,,1.5,0.8,1.2*3F
$GPRMC,203847.000,A,3352.2985,N,09832.4154,W,0.10,54.41,310312,,,D*41
$GPGGA,203848.000,3352.2985,N,09832.4153,W,2,10,0.8,303.1,M,-23.7,M,1.8,0000*4E
$GPGSA,A,3,22,11,20,16,30,01,31,23,25,32,,,1.5,0.8,1.2*3F
$GPRMC,203848.000,A,3352.2985,N,09832.4153,W,0.18,57.73,310312,,,D*43
$GPGGA,203849.000,3352.2985,N,09832.4153,W,2,10,0.8,303.1,M,-23.7,M,2.8,0000*4C
$GPGSA,A,3,22,11,20,16,30,01,31,23,25,32,,,1.5,0.8,1.2*3F
$GPGSV,3,1,12,32,67,304,34,31,59,029,29,30,49,153,43,20,38,310,34*74
$GPGSV,3,2,12,14,27,079,,16,25,172,36,01,24,255,31,23,13,292,31*7B
$GPGSV,3,3,12,25,13,040,25,22,12,144,38,11,10,236,26,48,36,230,36*7A
$GPRMC,203849.000,A,3352.2985,N,09832.4153,W,0.08,46.18,310312,,,D*4E
$GPGGA,203850.000,3352.2986,N,09832.4152,W,2,10,0.8,303.1,M,-23.7,M,3.8,0000*47
$GPGSA,A,3,22,11,20,16,30,01,31,23,25,32,,,1.5,0.8,1.2*3F
$GPRMC,203850.000,A,3352.2986,N,09832.4152,W,0.07,43.96,310312,,,D*48
$GPGGA,203851.000,3352.2986,N,09832.4152,W,2,10,0.8,303.1,M,-23.7,M,0.8,0000*45
$GPGSA,A,3,22,11,20,16,30,01,31,23,25,32,,,1.5,0.8,1.2*3F
$GPRMC,203851.000,A,3352.2986,N,09832.4152,W,0.13,64.23,310312,,,D*47
$GPGGA,203852.000,3352.2986,N,09832.4152,W,2,10,0.8,303.1,M,-23.7,M,0.8,0000*46
$GPGSA,A,3,22,11,20,16,30,01,31,23,25,32,,,1.5,0.8,1.2*3F
$GPRMC,203852.000,A,3352.2986,N,09832.4152,W,0.04,80.58,310312,,,D*44
$GPGGA,203853.000,3352.2986,N,09832.4151,W,2,10,0.8,303.1,M,-23.7,M,0.8,0000*44
$GPGSA,A,3,22,11,20,16,30,01,31,23,25,32,,,1.5,0.8,1.2*3F
$GPRMC,203853.000,A,3352.2986,N,09832.4151,W,0.14,59.68,310312,,,D*40
$GPGGA,203854.000,3352.2986,N,09832.4151,W,2,10,0.8,303.1,M,-23.7,M,1.8,0000*42
$GPGSA,A,3,22,11,20,16,30,01,31,23,25,32,,,1.5,0.8,1.2*3F
$GPGSV,3,1,12,32,67,304,34,31,59,029,29,30,49,153,43,20,38,310,34*74
$GPGSV,3,2,12,14,27,079,,16,25,172,36,01,24,255,31,23,13,292,31*7B
$GPGSV,3,3,12,25,13,040,25,22,12,144,38,11,10,236,25,48,36,230,36*79
$GPRMC,203854.000,A,3352.2986,N,09832.4151,W,0.17,54.30,310312,,,D*44
$GPGGA,203855.000,3352.2986,N,09832.4151,W,2,10,0.8,303.0,M,-23.7,M,0.8,0000*43
$GPGSA,A,3,22,11,20,16,30,01,31,23,25,32,,,1.5,0.8,1.2*3F
$GPRMC,203855.000,A,3352.2986,N,09832.4151,W,0.07,42.91,310312,,,D*48
$GPGGA,203856.000,3352.2986,N,09832.4150,W,2,10,0.8,303.0,M,-23.7,M,1.8,0000*40
$GPGSA,A,3,22,11,20,16,30,01,31,23,25,32,,,1.5,0.8,1.2*3F
$GPRMC,203856.000,A,3352.2986,N,09832.4150,W,0.07,35.42,310312,,,D*44
$GPGGA,203857.000,3352.2986,N,09832.4150,W,2,10,0.8,303.0,M,-23.7,M,0.8,0000*40
$GPGSA,A,3,22,11,20,16,30,01,31,23,25,32,,,1.5,0.8,1.2*3F
$GPRMC,203857.000,A,3352.2986,N,09832.4150,W,0.04,350.69,310312,,,D*7F
$GPGGA,203858.000,3352.2987,N,09832.4150,W,2,10,0.8,302.9,M,-23.7,M,0.8,0000*46
$GPGSA,A,3,22,11,20,16,30,01,31,23,25,32,,,1.5,0.8,1.2*3F
$GPRMC,203858.000,A,3352.2987,N,09832.4150,W,0.05,3.97,310312,,,D*74
$GPGGA,203859.000,3352.2987,N,09832.4150,W,2,10,0.8,302.9,M,-23.7,M,0.8,0000*47
$GPGSA,A,3,22,11,20,16,30,01,31,23,25,32,,,1.5,0.8,1.2*3F
$GPGSV,3,1,12,32,67,304,34,31,59,029,30,30,49,153,43,20,38,310,34*7C
$GPGSV,3,2,12,14,27,079,,16,25,172,35,01,24,255,31,23,13,292,31*78
$GPGSV,3,3,12,25,13,040,26,22,12,144,38,11,10,236,26,48,36,230,36*79
$GPRMC,203859.000,A,3352.2987,N,09832.4150,W,0.08,51.02,310312,,,D*43
$GPGGA,203900.000,3352.2987,N,09832.4150,W,2,10,0.8,302.9,M,-23.7,M,0.8,0000*4A
$GPGSA,A,3,22,11,20,16,30,01,31,23,25,32,,,1.5,0.8,1.2*3F
$GPRMC,203900.000,A,3352.2987,N,09832.4150,W,0.07,49.12,310312,,,D*49
$GPGGA,203901.000,3352.2987,N,09832.4150,W,2,10,0.8,302.9,M,-23.7,M,1.8,0000*4A
$GPGSA,A,3,22,11,20,16,30,01,31,23,25,32,,,1.5,0.8,1.2*3F
$GPRMC,203901.000,A,3352.2987,N,09832.4150,W,0.07,49.61,310312,,,D*4C
$GPGGA,203902.000,3352.2987,N,09832.4150,W,2,10,0.8,302.9,M,-23.7,M,2.8,0000*4A
$GPGSA,A,3,22,11,20,16,30,01,31,23,25,32,,,1.5,0.8,1.2*3F
$GPRMC,203902.000,A,3352.2987,N,09832.4150,W,0.07,53.93,310312,,,D*49
$GPGGA,203903.000,3352.2987,N,09832.4150,W,2,10,0.8,303.0,M,-23.7,M,0.8,0000*41
$GPGSA,A,3,22,11,20,16,30,01,31,23,25,32,,,1.5,0.8,1.2*3F
$GPRMC,203903.000,A,3352.2987,N,09832.4150,W,0.11,68.11,310312,,,D*4D
$GPGGA,203904.000,3352.2987,N,09832.4150,W,2,10,0.8,303.0,M,-23.7,M,0.8,0000*46
$GPGSA,A,3,22,11,20,16,30,01,31,23,25,32,,,1.5,0.8,1.2*3F
$GPGSV,3,1,12,32,67,304,35,31,59,029,29,30,49,153,43,20,38,310,34*75
$GPGSV,3,2,12,14,27,079,,16,25,172,35,01,24,255,31,23,13,292,32*7B
$GPGSV,3,3,12,25,13,040,26,22,12,144,38,11,10,236,28,48,36,230,36*77
$GPRMC,203904.000,A,3352.2987,N,09832.4150,W,0.05,54.43,310312,,,D*47
$GPGGA,203905.000,3352.2987,N,09832.4150,W,2,10,0.8,302.9,M,-23.7,M,0.8,0000*4F
$GPGSA,A,3,22,11,20,16,30,01,31,23,25,32,,,1.5,0.8,1.2*3F
$GPRMC,203905.000,A,3352.2987,N,09832.4150,W,0.06,39.81,310312,,,D*40
$GPGGA,203906.000,3352.2987,N,09832.4149,W,2,10,0.8,302.8,M,-23.7,M,0.8,0000*45
$GPGSA,A,3,22,11,20,16,30,01,31,23,25,32,,,1.5,0.8,1.2*3F
$GPRMC,203906.000,A,3352.2987,N,09832.4149,W,0.03,21.12,310312,,,D*4D
$GPGGA,203907.000,3352.2987,N,09832.4149,W,2,10,0.8,302.7,M,-23.7,M,1.8,0000*4A
$GPGSA,A,3,22,11,20,16,30,01,31,23,25,32,,,1.5,0.8,1.2*3F
$GPRMC,203907.000,A,3352.2987,N,09832.4149,W,0.04,37.70,310312,,,D*48
$GPGGA,203908.000,3352.2987,N,09832.4149,W,2,10,0.8,302.7,M,-23.7,M,2.8,0000*46
$GPGSA,A,3,22,11,20,16,30,01,31,23,25,32,,,1.5,0.8,1.2*3F
$GPRMC,203908.000,A,3352.2987,N,09832.4149,W,0.06,40.90,310312,,,D*4B
$GPGGA,203909.000,3352.2987,N,09832.4149,W,2,10,0.8,302.6,M,-23.7,M,0.8,0000*44
$GPGSA,A,3,22,11,20,16,30,01,31,23,25,32,,,1.5,0.8,1.2*3F
$GPGSV,3,1,12,32,67,304,35,31,59,029,29,30,49,153,43,20,38,310,34*75
$GPGSV,3,2,12,14,27,079,,16,25,172,34,01,24,255,31,23,13,292,32*7A
$GPGSV,3,3,12,25,13,040,27,22,12,144,38,11,10,236,30,48,36,230,36*7F
$GPRMC,203909.000,A,3352.2987,N,09832.4149,W,0.03,326.75,310312,,,D*77
$GPGGA,203910.000,3352.2987,N,09832.4149,W,2,10,0.8,302.5,M,-23.7,M,0.8,0000*4F
$GPGSA,A,3,22,11,20,16,30,01,31,23,25,32,,,1.5,0.8,1.2*3F
$GPRMC,203910.000,A,3352.2987,N,09832.4149,W,0.06,26.09,310312,,,D*42
$GPGGA,203911.000,3352.2986,N,09832.4149,W,2,10,0.8,302.5,M,-23.7,M,0.8,0000*4F
$GPGSA,A,3,22,11,20,16,30,01,31,23,25,32,,,1.5,0.8,1.2*3F
$GPRMC,203911.000,A,3352.2986,N,09832.4149,W,0.06,58.68,310312,,,D*4C
$GPGGA,203912.000,3352.2986,N,09832.4149,W,2,10,0.8,302.5,M,-23.7,M,1.8,0000*4D
$GPGSA,A,3,22,11,20,16,30,01,31,23,25,32,,,1.5,0.8,1.2*3F
$GPRMC,203912.000,A,3352.2986,N,09832.4149,W,0.08,54.23,310312,,,D*42
$GPGGA,203913.000,3352.2986,N,09832.4149,W,2,10,0.8,302.5,M,-23.7,M,2.8,0000*4F
$GPGSA,A,3,22,11,20,16,30,01,31,23,25,32,,,1.5,0.8,1.2*3F
$GPRMC,203913.000,A,3352.2986,N,09832.4149,W,0.07,56.29,310312,,,D*44
$GPGGA,203914.000,3352.2986,N,09832.4149,W,2,10,0.8,302.5,M,-23.7,M,3.8,0000*49
$GPGSA,A,3,22,11,20,16,30,01,31,23,25,32,,,1.5,0.8,1.2*3F
$GPGSV,3,1,12,32,67,304,35,31,59,029,29,30,49,153,43,20,38,310,34*75
$GPGSV,3,2,12,14,27,079,,16,25,172,34,01,24,255,31,23,13,292,32*7A
$GPGSV,3,3,12,25,13,040,27,22,12,144,38,11,10,236,31,48,36,230,36*7E
$GPRMC,203914.000,A,3352.2986,N,09832.4149,W,0.06,45.75,310312,,,D*49
$GPGGA,203915.000,3352.2986,N,09832.4149,W,2,10,0.8,302.5,M,-23.7,M,0.8,0000*4B
$GPGSA,A,3,22,11,20,16,30,01,31,23,25,32,,,1.5,0.8,1.2*3F
$GPRMC,203915.000,A,3352.2986,N,09832.4149,W,0.11,69.72,310312,,,D*47
$GPGGA,203916.000,3352.2986,N,09832.4149,W,2,10,0.8,302.5,M,-23.7,M,0.8,0000*48
$GPGSA,A,3,22,11,20,16,30,01,31,23,25,32,,,1.5,0.8,1.2*3F
$GPRMC,203916.000,A,3352.2986,N,09832.4149,W,0.07,65.65,310312,,,D*49
$GPGGA,203917.000,3352.2986,N,09832.4149,W,2,10,0.8,302.4,M,-23.7,M,0.8,0000*48
$GPGSA,A,3,22,11,20,16,30,01,31,23,25,32,,,1.5,0.8,1.2*3F
$GPRMC,203917.000,A,3352.2986,N,09832.4149,W,0.04,32.99,310312,,,D*4A
$GPGGA,203918.000,3352.2986,N,09832.4149,W,2,10,0.8,302.3,M,-23.7,M,1.8,0000*41
$GPGSA,A,3,22,11,20,16,30,01,31,23,25,32,,,1.5,0.8,1.2*3F
$GPRMC,203918.000,A,3352.2986,N,09832.4149,W,0.05,49.42,310312,,,D*4E
$GPGGA,203919.000,3352.2986,N,09832.4149,W,2,10,0.8,302.2,M,-23.7,M,2.8,0000*42
$GPGSA,A,3,22,11,20,16,30,01,31,23,25,32,,,1.5,0.8,1.2*3F
$GPGSV,3,1,12,32,67,304,34,31,59,029,28,30,49,153,43,20,38,310,34*75
$GPGSV,3,2,12,14,27,079,,16,25,172,34,01,24,255,31,23,13,292,32*7A
$GPGSV,3,3,12,25,13,040,28,22,12,144,38,11,10,236,31,48,36,230,35*72
$GPRMC,203919.000,A,3352.2986,N,09832.4149,W,0.06,61.58,310312,,,D*4D
$GPGGA,203920.000,3352.2986,N,09832.4149,W,2,10,0.8,302.1,M,-23.7,M,3.8,0000*4A
$GPGSA,A,3,22,11,20,16,30,01,31,23,25,32,,,1.5,0.8,1.2*3F
$GPRMC,203920.000,A,3352.2986,N,09832.4149,W,0.04,56.79,310312,,,D*42
$GPGGA,203921.000,3352.2986,N,09832.4149,W,2,10,0.8,302.0,M,-23.7,M,0.8,0000*49
$GPGSA,A,3,22,11,20,16,30,01,31,23,25,32,,,1.5,0.8,1.2*3F
$GPRMC,203921.000,A,3352.2986,N,09832.4149,W,0.04,349.45,310312,,,D*71
$GPGGA,203922.000,3352.2986,N,09832.4149,W,2,10,0.8,301.9,M,-23.7,M,0.8,0000*40
$GPGSA,A,3,22,11,20,16,30,01,31,23,25,32,,,1.5,0.8,1.2*3F
$GPRMC,203922.000,A,3352.2986,N,09832.4149,W,0.05,35.37,310312,,,D*4E
$GPGGA,203923.000,3352.2986,N,09832.4149,W,2,10,0.8,301.9,M,-23.7,M,0.8,0000*41
$GPGSA,A,3,22,11,20,16,30,01,31,23,25,32,,,1.5,0.8,1.2*3F
$GPRMC,203923.000,A,3352.2986,N,09832.4149,W,0.05,63.04,310312,,,D*4C
$GPGGA,203924.000,3352.2986,N,09832.4149,W,2,10,0.8,301.9,M,-23.7,M,0.8,0000*46
$GPGSA,A,3,22,11,20,16,30,01,31,23,25,32,,,1.5,0.8,1.2*3F
$GPGSV,3,1,12,32,67,304,34,31,59,029,27,30,49,153,43,20,38,310,34*7A
$GPGSV,3,2,12,14,27,079,,16,25,172,33,01,24,255,31,23,13,292,32*7D
$GPGSV,3,3,12,25,13,040,29,22,12,144,38,11,10,236,31,48,36,230,36*70
$GPRMC,203924.000,A,3352.2986,N,09832.4149,W,0.04,66.71,310312,,,D*4D
$GPGGA,203925.000,3352.2986,N,09832.4149,W,2,10,0.8,301.9,M,-23.7,M,1.8,0000*46
$GPGSA,A,3,22,11,20,16,30,01,31,23,25,32,,,1.5,0.8,1.2*3F
$GPRMC,203925.000,A,3352.2986,N,09832.4149,W,0.04,60.45,310312,,,D*4D
$GPGGA,203926.000,3352.2986,N,09832.4149,W,2,10,0.8,301.9,M,-23.7,M,2.8,0000*46
$GPGSA,A,3,22,11,20,16,30,01,31,23,25,32,,,1.5,0.8,1.2*3F
$GPRMC,203926.000,A,3352.2986,N,09832.4149,W,0.07,47.58,310312,,,D*44
$GPGGA,203927.000,3352.2986,N,09832.4149,W,2,10,0.8,301.9,M,-23.7,M,0.8,0000*45
$GPGSA,A,3,22,11,20,16,30,01,31,23,25,32,,,1.5,0.8,1.2*3F
$GPRMC,203927.000,A,3352.2986,N,09832.4149,W,0.09,68.17,310312,,,D*4D
$GPGGA,203928.000,3352.2986,N,09832.4149,W,2,10,0.8,301.9,M,-23.7,M,0.8,0000*4A
$GPGSA,A,3,22,11,20,16,30,01,31,23,25,32,,,1.5,0.8,1.2*3F
$GPRMC,203928.000,A,3352.2986,N,09832.4149,W,0.09,71.49,310312,,,D*41
$GPGGA,203929.000,3352.2986,N,09832.4148,W,2,10,0.8,301.8,M,-23.7,M,0.8,0000*4B
$GPGSA,A,3,22,11,20,16,30,01,31,23,25,32,,,1.5,0.8,1.2*3F
$GPGSV,3,1,12,32,67,304,34,31,59,029,27,30,49,153,43,20,38,310,34*7A
$GPGSV,3,2,12,14,27,079,,16,25,172,33,01,24,255,31,23,13,292,33*7C
$GPGSV,3,3,12,25,13,040,30,22,12,144,37,11,10,236,31,48,36,230,36*77
$GPRMC,203929.000,A,3352.2986,N,09832.4148,W,0.08,53.38,310312,,,D*46
$GPGGA,203930.000,3352.2986,N,09832.4148,W,2,10,0.8,301.8,M,-23.7,M,1.8,0000*42
$GPGSA,A,3,22,11,20,16,30,01,31,23,25,32,,,1.5,0.8,1.2*3F
$GPRMC,203930.000,A,3352.2986,N,09832.4148,W,0.08,47.28,310312,,,D*4A
$GPGGA,203931.000,3352.2986,N,09832.4148,W,2,10,0.8,301.7,M,-23.7,M,0.8,0000*4D
$GPGSA,A,3,22,11,20,16,30,01,31,23,25,32,,,1.5,0.8,1.2*3F
$GPRMC,203931.000,A,3352.2986,N,09832.4148,W,0.08,48.64,310312,,,D*4C
$GPGGA,203932.000,3352.2986,N,09832.4148,W,2,10,0.8,301.6,M,-23.7,M,0.8,0000*4F
$GPGSA,A,3,22,11,20,16,30,01,31,23,25,32,,,1.5,0.8,1.2*3F
$GPRMC,203932.000,A,3352.2986,N,09832.4148,W,0.09,60.71,310312,,,D*40
$GPGGA,203933.000,3352.2986,N,09832.4148,W,2,10,0.8,301.6,M,-23.7,M,0.8,0000*4E
$GPGSA,A,3,22,11,20,16,30,01,31,23,25,32,,,1.5,0.8,1.2*3F
$GPRMC,203933.000,A,3352.2986,N,09832.4148,W,0.04,359.18,310312,,,D*7A
$GPGGA,203934.000,3352.2986,N,09832.4148,W,2,10,0.8,301.5,M,-23.7,M,0.8,0000*4A
$GPGSA,A,3,22,11,20,16,30,01,31,23,25,32,,,1.5,0.8,1.2*3F
$GPGSV,3,1,12,32,67,304,34,31,59,029,27,30,49,153,43,20,38,310,34*7A
$GPGSV,3,2,12,14,27,079,,16,25,172,33,01,24,255,31,23,13,292,33*7C
$GPGSV,3,3,12,25,13,040,30,22,12,144,37,11,10,236,31,48,36,230,36*77
$GPRMC,203934.000,A,3352.2986,N,09832.4148,W,0.03,2.63,310312,,,D*7B
$GPGGA,203935.000,3352.2986,N,09832.4148,W,2,10,0.8,301.5,M,-23.7,M,0.8,0000*4B
$GPGSA,A,3,22,11,20,16,30,01,31,23,25,32,,,1.5,0.8,1.2*3F
$GPRMC,203935.000,A,3352.2986,N,09832.4148,W,0.06,27.58,310312,,,D*40
$GPGGA,203936.000,3352.2986,N,09832.4149,W,2,10,0.8,301.5,M,-23.7,M,1.8,0000*48
$GPGSA,A,3,22,11,20,16,30,01,31,23,25,32,,,1.5,0.8,1.2*3F
$GPRMC,203936.000,A,3352.2986,N,09832.4149,W,0.05,41.31,310312,,,D*4E
$GPGGA,203937.000,3352.2986,N,09832.4149,W,2,10,0.8,301.5,M,-23.7,M,2.8,0000*4A
$GPGSA,A,3,22,11,20,16,30,01,31,23,25,32,,,1.5,0.8,1.2*3F
$GPRMC,203937.000,A,3352.2986,N,09832.4149,W,0.03,10.55,310312,,,D*4F
$GPGGA,203938.000,3352.2986,N,09832.4149,W,2,10,0.8,301.5,M,-23.7,M,3.8,0000*44
$GPGSA,A,3,22,11,20,16,30,01,31,23,25,32,,,1.5,0.8,1.2*3F
$GPRMC,203938.000,A,3352.2986,N,09832.4149,W,0.04,19.72,310312,,,D*4B
$GPGGA,203939.000,3352.2986,N,09832.4149,W,2,10,0.8,301.5,M,-23.7,M,0.8,0000*46
$GPGSA,A,3,22,11,20,16,30,01,31,23,25,32,,,1.5,0.8,1.2*3F
$GPGSV,3,1,12,32,67,304,34,31,59,029,28,30,49,153,43,20,38,310,34*75
$GPGSV,3,2,12,14,27,079,,16,25,172,33,01,24,255,32,23,13,292,34*78
$GPGSV,3,3,12,25,13,040,29,22,12,144,37,11,10,236,32,48,36,230,36*7C
$GPRMC,203939.000,A,3352.2986,N,09832.4149,W,0.09,52.56,310312,,,D*4E
$GPGGA,203940.000,3352.2986,N,09832.4149,W,2,10,0.8,301.5,M,-23.7,M,0.8,0000*48
$GPGSA,A,3,22,11,20,16,30,01,31,23,25,32,,,1.5,0.8,1.2*3F
$GPRMC,203940.000,A,3352.2986,N,09832.4149,W,0.11,52.07,310312,,,D*4D
$GPGGA,203941.000,3352.2986,N,09832.4149,W,2,10,0.8,301.5,M,-23.7,M,0.8,0000*49
$GPGSA,A,3,22,11,20,16,30,01,31,23,25,32,,,1.5,0.8,1.2*3F
$GPRMC,203941.000,A,3352.2986,N,09832.4149,W,0.07,59.67,310312,,,D*46
$GPGGA,203942.000,3352.2986,N,09832.4148,W,2,10,0.8,301.4,M,-23.7,M,1.8,0000*4B
$GPGSA,A,3,22,11,20,16,30,01,31,23,25,32,,,1.5,0.8,1.2*3F
$GPRMC,203942.000,A,3352.2986,N,09832.4148,W,0.09,64.86,310312,,,D*4B
$GPGGA,203943.000,3352.2986,N,09832.4148,W,2,10,0.8,301.4,M,-23.7,M,2.8,0000*49
$GPGSA,A,3,22,11,20,16,30,01,31,23,25,32,,,1.5,0.8,1.2*3F
$GPRMC,203943.000,A,3352.2986,N,09832.4148,W,0.08,69.31,310312,,,D*4A
$GPGGA,203944.000,3352.2986,N,09832.4148,W,2,10,0.8,301.4,M,-23.7,M,3.8,0000*4F
$GPGSA,A,3,22,11,20,16,30,01,31,23,25,32,,,1.5,0.8,1.2*3F
$GPGSV,3,1,12,32,67,304,34,31,59,029,29,30,49,153,43,20,38,310,34*74
$GPGSV,3,2,12,14,27,079,,16,25,172,33,01,24,255,31,23,13,292,34*7B
$GPGSV,3,3,12,25,13,040,29,22,12,144,36,11,10,236,32,48,36,230,36*7D
$GPRMC,203944.000,A,3352.2986,N,09832.4148,W,0.08,70.13,310312,,,D*45
$GPGGA,203945.000,3352.2985,N,09832.4148,W,2,10,0.8,301.4,M,-23.7,M,0.8,0000*4E
$GPGSA,A,3,22,11,20,16,30,01,31,23,25,32,,,1.5,0.8,1.2*3F
$GPRMC,203945.000,A,3352.2985,N,09832.4148,W,0.03,54.37,310312,,,D*4C
$GPGGA,203946.000,3352.2985,N,09832.4148,W,2,10,0.8,301.3,M,-23.7,M,1.8,0000*4B
$GPGSA,A,3,22,11,20,16,30,01,31,23,25,32,,,1.5,0.8,1.2*3F
$GPRMC,203946.000,A,3352.2985,N,09832.4148,W,0.03,43.42,310312,,,D*4B
$GPGGA,203947.000,3352.2985,N,09832.4148,W,2,10,0.8,301.3,M,-23.7,M,0.8,0000*4B
$GPGSA,A,3,22,11,20,16,30,01,31,23,25,32,,,1.5,0.8,1.2*3F
$GPRMC,203947.000,A,3352.2985,N,09832.4148,W,0.07,7.44,310312,,,D*78
$GPGGA,203948.000,3352.2986,N,09832.4148,W,2,10,0.8,301.4,M,-23.7,M,1.8,0000*41
$GPGSA,A,3,22,11,20,16,30,01,31,23,25,32,,,1.5,0.8,1.2*3F
$GPRMC,203948.000,A,3352.2986,N,09832.4148,W,0.08,9.77,310312,,,D*75
$GPGGA,203949.000,3352.2986,N,09832.4148,W,2,10,0.8,301.4,M,-23.7,M,2.8,0000*43
$GPGSA,A,3,22,11,20,16,30,01,31,23,25,32,,,1.5,0.8,1.2*3F
$GPGSV,3,1,12,32,67,304,34,31,59,029,29,30,49,153,43,20,38,310,34*74
$GPGSV,3,2,12,14,27,079,,16,25,172,33,01,24,255,31,23,13,292,35*7A
$GPGSV,3,3,12,25,13,040,29,22,12,144,36,11,10,236,32,48,36,230,36*7D
$GPRMC,203949.000,A,3352.2986,N,09832.4148,W,0.05,14.84,310312,,,D*49
$GPGGA,203950.000,3352.2986,N,09832.4148,W,2,10,0.8,301.4,M,-23.7,M,3.8,0000*4A
$GPGSA,A,3,22,11,20,16,30,01,31,23,25,32,,,1.5,0.8,1.2*3F
$GPRMC,203950.000,A,3352.2986,N,09832.4148,W,0.07,8.64,310312,,,D*70
$GPGGA,203951.000,3352.2986,N,09832.4148,W,2,10,0.8,301.3,M,-23.7,M,0.8,0000*4F
$GPGSA,A,3,22,11,20,16,30,01,31,23,25,32,,,1.5,0.8,1.2*3F
$GPRMC,203951.000,A,3352.2986,N,09832.4148,W,0.11,29.11,310312,,,D*47
$GPGGA,203952.000,3352.2986,N,09832.4148,W,2,10,0.8,301.3,M,-23.7,M,0.8,0000*4C
$GPGSA,A,3,22,11,20,16,30,01,31,23,25,32,,,1.5,0.8,1.2*3F
$GPRMC,203952.000,A,3352.2986,N,09832.4148,W,0.10,34.87,310312,,,D*46
$GPGGA,203953.000,3352.2986,N,09832.4148,W,2,10,0.8,301.3,M,-23.7,M,0.8,0000*4D
$GPGSA,A,3,22,11,20,16,30,01,31,23,25,32,,,1.5,0.8,1.2*3F
$GPRMC,203953.000,A,3352.2986,N,09832.4148,W,0.07,82.63,310312,,,D*46
$GPGGA,203954.000,3352.2986,N,09832.4147,W,2,10,0.8,301.3,M,-23.7,M,0.8,0000*45
$GPGSA,A,3,22,11,20,16,30,01,31,23,25,32,,,1.5,0.8,1.2*3F
$GPGSV,3,1,12,32,67,304,34,31,59,029,29,30,49,153,43,20,38,310,34*74
$GPGSV,3,2,12,14,27,079,,16,25,172,33,01,24,255,31,23,13,292,35*7A
$GPGSV,3,3,12,25,13,040,29,22,12,144,35,11,10,236,32,48,36,230,36*7E
$GPRMC,203954.000,A,3352.2986,N,09832.4147,W,0.10,74.22,310312,,,D*44
$GPGGA,203955.000,3352.2986,N,09832.4147,W,2,10,0.8,301.3,M,-23.7,M,1.8,0000*45
$GPGSA,A,3,22,11,20,16,30,01,31,23,25,32,,,1.5,0.8,1.2*3F
$GPRMC,203955.000,A,3352.2986,N,09832.4147,W,0.09,90.43,310312,,,D*40
$GPGGA,203956.000,3352.2986,N,09832.4147,W,2,10,0.8,301.3,M,-23.7,M,2.8,0000*45
$GPGSA,A,3,22,11,20,16,30,01,31,23,25,32,,,1.5,0.8,1.2*3F
$GPRMC,203956.000,A,3352.2986,N,09832.4147,W,0.08,84.92,310312,,,D*4B
$GPGGA,203957.000,3352.2986,N,09832.4146,W,2,10,0.8,301.3,M,-23.7,M,0.8,0000*47
$GPGSA,A,3,22,11,20,16,30,01,31,23,25,32,,,1.5,0.8,1.2*3F
$GPRMC,203957.000,A,3352.2986,N,09832.4146,W,0.05,89.02,310312,,,D*42
$GPGGA,203958.000,3352.2986,N,09832.4146,W,2,10,0.8,301.3,M,-23.7,M,0.8,0000*48
$GPGSA,A,3,22,11,20,16,30,01,31,23,25,32,,,1.5,0.8,1.2*3F
$GPRMC,203958.000,A,3352.2986,N,09832.4146,W,0.05,93.86,310312,,,D*4A
$GPGGA,203959.000,3352.2986,N,09832.4146,W,2,10,0.8,301.3,M,-23.7,M,0.8,0000*49
$GPGSA,A,3,22,11,20,16,30,01,31,23,25,32,,,1.5,0.8,1.2*3F
$GPGSV,3,1,12,32,67,304,34,31,59,029,29,30,49,153,43,20,38,310,34*74
$GPGSV,3,2,12,14,27,079,,16,25,172,33,01,24,255,31,23,13,292,35*7A
$GPGSV,3,3,12,25,13,040,29,22,12,144,35,11,10,236,33,48,36,230,36*7F
$GPRMC,203959.000,A,3352.2986,N,09832.4146,W,0.06,19.75,310312,,,D*46
$GPGGA,204000.000,3352.2986,N,09832.4146,W,2,10,0.8,301.3,M,-23.7,M,1.8,0000*4A
$GPGSA,A,3,22,11,20,16,30,01,31,23,25,32,,,1.4,0.8,1.2*3E
$GPRMC,204000.000,A,3352.2986,N,09832.4146,W,0.05,29.77,310312,,,D*46
$GPGGA,204001.000,3352.2986,N,09832.4146,W,2,10,0.8,301.3,M,-23.7,M,0.8,0000*4A
$GPGSA,A,3,22,11,20,16,30,01,31,23,25,32,,,1.4,0.8,1.2*3E
$GPRMC,204001.000,A,3352.2986,N,09832.4146,W,0.06,12.90,310312,,,D*45
$GPGGA,204002.000,3352.2987,N,09832.4146,W,2,10,0.8,301.4,M,-23.7,M,1.8,0000*4E
$GPGSA,A,3,22,11,20,16,30,01,31,23,25,32,,,1.4,0.8,1.2*3E
$GPRMC,204002.000,A,3352.2987,N,09832.4146,W,0.05,6.84,310312,,,D*74
$GPGGA,204003.000,3352.2987,N,09832.4146,W,2,10,0.8,301.3,M,-23.7,M,0.8,0000*49
$GPGSA,A,3,22,11,20,16,30,01,31,23,25,32,,,1.4,0.8,1.2*3E
$GPRMC,204003.000,A,3352.2987,N,09832.4146,W,0.10,35.44,310312,,,D*4D
$GPGGA,204004.000,3352.2987,N,09832.4146,W,2,10,0.8,301.4,M,-23.7,M,0.8,0000*49
$GPGSA,A,3,22,11,20,16,30,01,31,23,25,32,,,1.4,0.8,1.2*3E
$GPGSV,3,1,12,32,67,304,35,31,59,029,30,30,49,153,43,20,38,310,34*7D
$GPGSV,3,2,12,14,27,079,,16,25,172,33,01,24,255,31,23,13,292,35*7A
$GPGSV,3,3,12,25,13,040,28,22,12,144,34,11,10,236,33,48,36,230,36*7F
$GPRMC,204004.000,A,3352.2987,N,09832.4146,W,0.09,53.34,310312,,,D*45
$GPGGA,204005.000,3352.2987,N,09832.4146,W,2,10,0.8,301.3,M,-23.7,M,0.8,0000*4F
$GPGSA,A,3,22,11,20,16,30,01,31,23,25,32,,,1.4,0.8,1.2*3E
$GPRMC,204005.000,A,3352.2987,N,09832.4146,W,0.09,73.55,310312,,,D*41
$GPGGA,204006.000,3352.2987,N,09832.4145,W,2,10,0.8,301.3,M,-23.7,M,1.8,0000*4E
$GPGSA,A,3,22,11,20,16,30,01,31,23,25,32,,,1.4,0.8,1.2*3E
$GPRMC,204006.000,A,3352.2987,N,09832.4145,W,0.09,99.48,310312,,,D*49
$GPGGA,204007.000,3352.2987,N,09832.4145,W,2,10,0.8,301.3,M,-23.7,M,2.8,0000*4C
$GPGSA,A,3,22,11,20,16,30,01,31,23,25,32,,,1.4,0.8,1.2*3E
$GPRMC,204007.000,A,3352.2987,N,09832.4145,W,0.09,95.36,310312,,,D*4D
$GPGGA,204008.000,3352.2986,N,09832.4145,W,2,10,0.8,301.3,M,-23.7,M,3.8,0000*43
$GPGSA,A,3,22,11,20,16,30,01,31,23,25,32,,,1.4,0.8,1.2*3E
$GPRMC,204008.000,A,3352.2986,N,09832.4145,W,0.09,83.08,310312,,,D*49
$GPGGA,204009.000,3352.2986,N,09832.4145,W,2,10,0.8,301.3,M,-23.7,M,0.8,0000*41
$GPGSA,A,3,22,11,20,16,30,01,31,23,25,32,,,1.4,0.8,1.2*3E
$GPGSV,3,1,12,32,67,304,35,31,59,029,29,30,49,153,43,20,38,310,34*75
$GPGSV,3,2,12,14,27,079,,16,25,172,34,01,24,255,31,23,13,292,35*7D
$GPGSV,3,3,12,25,13,040,28,22,12,144,35,11,10,236,34,48,36,230,36*79
$GPRMC,204009.000,A,3352.2986,N,09832.4145,W,0.04,81.84,310312,,,D*43
$GPGGA,204010.000,3352.2986,N,09832.4145,W,2,10,0.8,301.3,M,-23.7,M,0.8,0000*49
$GPGSA,A,3,22,11,20,16,30,01,31,23,25,32,,,1.4,0.8,1.2*3E
$GPRMC,204010.000,A,3352.2986,N,09832.4145,W,0.04,99.82,310312,,,D*44
$GPGGA,204011.000,3352.2986,N,09832.4145,W,2,10,0.8,301.3,M,-23.7,M,0.8,0000*48
$GPGSA,A,3,22,11,20,16,30,01,31,23,25,32,,,1.4,0.8,1.2*3E
$GPRMC,204011.000,A,3352.2986,N,09832.4145,W,0.05,13.23,310312,,,D*4D
$GPGGA,204012.000,3352.2986,N,09832.4146,W,2,10,0.8,301.3,M,-23.7,M,0.8,0000*48
$GPGSA,A,3,22,11,20,16,30,01,31,23,25,32,,,1.4,0.8,1.2*3E
$GPRMC,204012.000,A,3352.2986,N,09832.4146,W,0.05,22.48,310312,,,D*42
$GPGGA,204013.000,3352.2986,N,09832.4146,W,2,10,0.8,301.3,M,-23.7,M,0.8,0000*49
$GPGSA,A,3,22,11,20,16,30,01,31,23,25,32,,,1.4,0.8,1.2*3E
$GPRMC,204013.000,A,3352.2986,N,09832.4146,W,0.05,30.98,310312,,,D*4D
$GPGGA,204014.000,3352.2986,N,09832.4146,W,2,10,0.8,301.3,M,-23.7,M,1.8,0000*4F
$GPGSA,A,3,22,11,20,16,30,01,31,23,25,32,,,1.4,0.8,1.2*3E
$GPGSV,3,1,12,32,67,304,35,31,59,029,29,30,49,153,43,20,38,310,34*75
$GPGSV,3,2,12,14,27,079,,16,25,172,34,01,24,255,31,23,13,292,36*7E
$GPGSV,3,3,12,25,13,040,29,22,12,144,35,11,10,236,34,48,36,230,36*78
$GPRMC,204014.000,A,3352.2986,N,09832.4146,W,0.06,11.16,310312,,,D*4C
$GPGGA,204015.000,3352.2986,N,09832.4146,W,2,10,0.8,301.3,M,-23.7,M,0.8,0000*4F
$GPGSA,A,3,22,11,20,16,30,01,31,23,25,32,,,1.4,0.8,1.2*3E
$GPRMC,204015.000,A,3352.2986,N,09832.4146,W,0.07,63.57,310312,,,D*4C
$GPGGA,204016.000,3352.2986,N,09832.4146,W,2,10,0.8,301.3,M,-23.7,M,0.8,0000*4C
$GPGSA,A,3,22,11,20,16,30,01,31,23,25,32,,,1.4,0.8,1.2*3E
$GPRMC,204016.000,A,3352.2986,N,09832.4146,W,0.05,52.32,310312,,,D*4C
$GPGGA,204017.000,3352.2986,N,09832.4146,W,2,10,0.8,301.3,M,-23.7,M,0.8,0000*4D
$GPGSA,A,3,22,11,20,16,30,01,31,23,25,32,,,1.4,0.8,1.2*3E
$GPRMC,204017.000,A,3352.2986,N,09832.4146,W,0.05,43.95,310312,,,D*40
$GPGGA,204018.000,3352.2986,N,09832.4146,W,2,10,0.8,301.2,M,-23.7,M,1.8,0000*42
$GPGSA,A,3,22,11,20,16,30,01,31,23,25,32,,,1.4,0.8,1.2*3E
$GPRMC,204018.000,A,3352.2986,N,09832.4146,W,0.06,46.97,310312,,,D*4B
$GPGGA,204019.000,3352.2986,N,09832.4146,W,2,10,0.8,301.2,M,-23.7,M,0.8,0000*42
$GPGSA,A,3,22,11,20,16,30,01,31,23,25,32,,,1.4,0.8,1.2*3E
$GPGSV,3,1,12,32,67,304,35,31,59,029,29,30,49,153,43,20,38,310,33*72
$GPGSV,3,2,12,14,27,079,,16,25,172,33,01,24,255,32,23,13,292,36*7A
$GPGSV,3,3,12,25,13,040,30,22,12,144,35,11,10,236,34,48,36,230,36*70
$GPRMC,204019.000,A,3352.2986,N,09832.4146,W,0.05,62.27,310312,,,D*44
$GPGGA,204020.000,3352.2986,N,09832.4146,W,2,10,0.8,301.2,M,-23.7,M,1.8,0000*49
$GPGSA,A,3,22,11,20,16,30,01,31,23,25,32,,,1.4,0.8,1.2*3E
$GPRMC,204020.000,A,3352.2986,N,09832.4146,W,0.06,55.83,310312,,,D*47
$GPGGA,204021.000,3352.2987,N,09832.4146,W,2,10,0.8,301.1,M,-23.7,M,0.8,0000*4B
$GPGSA,A,3,22,11,20,16,30,01,31,23,25,32,,,1.4,0.8,1.2*3E
$GPRMC,204021.000,A,3352.2987,N,09832.4146,W,0.06,33.07,310312,,,D*4B
$GPGGA,204022.000,3352.2987,N,09832.4146,W,2,10,0.8,301.1,M,-23.7,M,0.8,0000*48
$GPGSA,A,3,22,11,20,16,30,01,31,23,25,32,,,1.4,0.8,1.2*3E
$GPRMC,204022.000,A,3352.2987,N,09832.4146,W,0.07,43.61,310312,,,D*4E
$GPGGA,204023.000,3352.2987,N,09832.4146,W,2,10,0.8,301.1,M,-23.7,M,0.8,0000*49
$GPGSA,A,3,22,11,20,16,30,01,31,23,25,32,,,1.4,0.8,1.2*3E
$GPRMC,204023.000,A,3352.2987,N,09832.4146,W,0.07,70.70,310312,,,D*4F
$GPGGA,204024.000,3352.2987,N,09832.4146,W,2,10,0.8,301.2,M,-23.7,M,1.8,0000*4C
$GPGSA,A,3,22,11,20,16,30,01,31,23,25,32,,,1.4,0.8,1.2*3E
$GPGSV,3,1,12,32,67,304,35,31,59,029,29,30,49,153,43,20,38,310,33*72
$GPGSV,3,2,12,14,27,079,,16,25,172,33,01,24,255,31,23,13,292,36*79
$GPGSV,3,3,12,25,13,040,30,22,12,144,35,11,10,236,34,48,36,230,35*73
$GPRMC,204024.000,A,3352.2987,N,09832.4146,W,0.07,76.12,310312,,,D*4A
$GPGGA,204025.000,3352.2987,N,09832.4146,W,2,10,0.8,301.2,M,-23.7,M,0.8,0000*4C
$GPGSA,A,3,22,11,20,16,30,01,31,23,25,32,,,1.4,0.8,1.2*3E
$GPRMC,204025.000,A,3352.2987,N,09832.4146,W,0.07,57.93,310312,,,D*41
$GPGGA,204026.000,3352.2987,N,09832.4146,W,2,10,0.8,301.3,M,-23.7,M,0.8,0000*4E
$GPGSA,A,3,22,11,20,16,30,01,31,23,25,32,,,1.4,0.8,1.2*3E
$GPRMC,204026.000,A,3352.2987,N,09832.4146,W,0.07,63.07,310312,,,D*48
$GPGGA,204027.000,3352.2987,N,09832.4146,W,2,10,0.8,301.3,M,-23.7,M,0.8,0000*4F
$GPGSA,A,3,22,11,20,16,30,01,31,23,25,32,,,1.4,0.8,1.2*3E
$GPRMC,204027.000,A,3352.2987,N,09832.4146,W,0.08,56.76,310312,,,D*46
$GPGGA,204028.000,3352.2987,N,09832.4146,W,2,10,0.8,301.3,M,-23.7,M,0.8,0000*40
$GPGSA,A,3,22,11,20,16,30,01,31,23,25,32,,,1.4,0.8,1.2*3E
$GPRMC,204028.000,A,3352.2987,N,09832.4146,W,0.07,70.17,310312,,,D*45
$GPGGA,204029.000,3352.2987,N,09832.4145,W,2,10,0.8,301.3,M,-23.7,M,0.8,0000*42
$GPGSA,A,3,22,11,20,16,30,01,31,23,25,32,,,1.4,0.8,1.2*3E
$GPGSV,3,1,12,32,67,304,35,31,59,029,29,30,49,153,43,20,38,310,34*75
$GPGSV,3,2,12,14,27,079,,16,25,172,33,01,24,255,31,23,13,292,36*79
$GPGSV,3,3,12,25,13,040,30,22,12,144,35,11,10,236,34,48,36,230,36*70
$GPRMC,204029.000,A,3352.2987,N,09832.4145,W,0.06,21.00,310312,,,D*44
$GPGGA,204030.000,3352.2987,N,09832.4145,W,2,10,0.8,301.3,M,-23.7,M,1.8,0000*4B
$GPGSA,A,3,22,11,20,16,30,01,31,23,25,32,,,1.4,0.8,1.2*3E
$GPRMC,204030.000,A,3352.2987,N,09832.4145,W,0.05,30.66,310312,,,D*4F
$GPGGA,204031.000,3352.2987,N,09832.4145,W,2,10,0.8,301.2,M,-23.7,M,2.8,0000*48
$GPGSA,A,3,22,11,20,16,30,01,31,23,25,32,,,1.4,0.8,1.2*3E
$GPRMC,204031.000,A,3352.2987,N,09832.4145,W,0.06,33.77,310312,,,D*4E
$GPGGA,204032.000,3352.2987,N,09832.4145,W,2,10,0.8,301.2,M,-23.7,M,3.8,0000*4A
$GPGSA,A,3,22,11,20,16,30,01,31,23,25,32,,,1.4,0.8,1.2*3E
$GPRMC,204032.000,A,3352.2987,N,09832.4145,W,0.04,29.92,310312,,,D*4F
$GPGGA,204033.000,3352.2987,N,09832.4145,W,2,10,0.8,301.1,M,-23.7,M,0.8,0000*4B
$GPGSA,A,3,22,11,20,16,30,01,31,23,25,32,,,1.4,0.8,1.2*3E
$GPRMC,204033.000,A,3352.2987,N,09832.4145,W,0.08,40.63,310312,,,D*43
$GPGGA,204034.000,3352.2987,N,09832.4145,W,2,10,0.8,301.1,M,-23.7,M,0.8,0000*4C
$GPGSA,A,3,22,11,20,16,30,01,31,23,25,32,,,1.4,0.8,1.2*3E
$GPGSV,3,1,12,32,67,304,35,31,59,029,29,30,49,153,43,20,38,310,34*75
$GPGSV,3,2,12,14,27,079,,16,25,172,33,01,24,255,31,23,13,292,36*79
$GPGSV,3,3,12,25,13,040,30,22,12,144,35,11,10,236,34,48,36,230,36*70
$GPRMC,204034.000,A,3352.2987,N,09832.4145,W,0.05,52.35,310312,,,D*49
$GPGGA,204035.000,3352.2987,N,09832.4145,W,2,10,0.8,301.2,M,-23.7,M,0.8,0000*4E
$GPGSA,A,3,22,11,20,16,30,01,31,23,25,32,,,1.4,0.8,1.2*3E
$GPRMC,204035.000,A,3352.2987,N,09832.4145,W,0.07,73.44,310312,,,D*4F
$GPGGA,204036.000,3352.2987,N,09832.4145,W,2,10,0.8,301.2,M,-23.7,M,1.8,0000*4C
$GPGSA,A,3,22,11,20,16,30,01,31,23,25,32,,,1.4,0.8,1.2*3E
$GPRMC,204036.000,A,3352.2987,N,09832.4145,W,0.08,77.91,310312,,,D*4F
$GPGGA,204037.000,3352.2987,N,09832.4145,W,2,10,0.8,301.3,M,-23.7,M,2.8,0000*4F
$GPGSA,A,3,22,11,20,16,30,01,31,23,25,32,,,1.4,0.8,1.2*3E
$GPRMC,204037.000,A,3352.2987,N,09832.4145,W,0.06,68.73,310312,,,D*42
$GPGGA,204038.000,3352.2987,N,09832.4145,W,2,10,0.8,301.3,M,-23.7,M,3.8,0000*41
$GPGSA,A,3,22,11,20,16,30,01,31,23,25,32,,,1.4,0.8,1.2*3E
$GPRMC,204038.000,A,3352.2987,N,09832.4145,W,0.09,71.73,310312,,,D*4A
$GPGGA,204039.000,3352.2987,N,09832.4144,W,2,10,0.8,301.4,M,-23.7,M,0.8,0000*45
$GPGSA,A,3,22,11,20,16,30,01,31,23,25,32,,,1.4,0.8,1.2*3E
$GPGSV,3,1,12,32,67,304,35,31,59,029,29,30,49,153,43,20,38,310,34*75
$GPGSV,3,2,12,14,27,079,,16,25,172,33,01,24,255,31,23,13,292,36*79
$GPGSV,3,3,12,25,13,040,30,22,12,144,34,11,10,236,34,48,36,230,36*71
$GPRMC,204039.000,A,3352.2987,N,09832.4144,W,0.05,64.21,310312,,,D*45
$GPGGA,204040.000,3352.2987,N,09832.4144,W,2,10,0.8,301.4,M,-23.7,M,0.8,0000*4B
$GPGSA,A,3,22,11,20,16,30,01,31,23,25,32,,,1.4,0.8,1.2*3E
$GPRMC,204040.000,A,3352.2987,N,09832.4144,W,0.04,55.86,310312,,,D*45
$GPGGA,204041.000,3352.2987,N,09832.4144,W,2,10,0.8,301.4,M,-23.7,M,0.8,0000*4A
$GPGSA,A,3,22,11,20,16,30,01,31,23,25,32,,,1.4,0.8,1.2*3E
$GPRMC,204041.000,A,3352.2987,N,09832.4144,W,0.03,36.32,310312,,,D*49
$GPGGA,204042.000,3352.2987,N,09832.4144,W,2,10,0.8,301.4,M,-23.7,M,1.8,0000*48
$GPGSA,A,3,22,11,20,16,30,01,31,23,25,32,,,1.4,0.8,1.2*3E
$GPRMC,204042.000,A,3352.2987,N,09832.4144,W,0.05,29.06,310312,,,D*45
$GPGGA,204043.000,3352.2987,N,09832.4144,W,2,10,0.8,301.4,M,-23.7,M,0.8,0000*48
$GPGSA,A,3,22,11,20,16,30,01,31,23,25,32,,,1.4,0.8,1.2*3E
$GPRMC,204043.000,A,3352.2987,N,09832.4144,W,0.03,2.46,310312,,,D*7F
$GPGGA,204044.000,3352.2987,N,09832.4144,W,2,10,0.8,301.4,M,-23.7,M,1.8,0000*4E
$GPGSA,A,3,22,11,20,16,30,01,31,23,25,32,,,1.4,0.8,1.2*3E
$GPGSV,3,1,12,32,67,304,35,31,59,029,29,30,49,153,43,20,38,310,34*75
$GPGSV,3,2,12,14,27,079,,16,25,172,32,01,24,255,31,23,13,292,36*78
$GPGSV,3,3,12,25,13,040,31,22,12,144,34,11,10,236,35,48,36,230,36*71
$GPRMC,204044.000,A,3352.2987,N,09832.4144,W,0.05,37.30,310312,,,D*49
$GPGGA,204045.000,3352.2987,N,09832.4144,W,2,10,0.8,301.4,M,-23.7,M,0.8,0000*4E
$GPGSA,A,3,22,11,20,16,30,01,31,23,25,32,,,1.4,0.8,1.2*3E
