$GPGGA,113453.000,3353.7330,N,09832.0194,W,2,07,1.8,409.9,M,-23.7,M,0.8,0000*46
$GPGSA,A,3,12,25,05,15,02,29,26,,,,,,4.7,1.8,4.3*37
$GPRMC,113453.000,A,3353.7330,N,09832.0194,W,0.42,156.46,310312,,,D*71
$GPGGA,113454.000,3353.7342,N,09832.0199,W,2,06,2.1,407.1,M,-23.7,M,1.8,0000*45
$GPGSA,A,3,12,25,05,15,02,26,,,,,,,4.9,2.1,4.4*3F
$GPRMC,113454.000,A,3353.7342,N,09832.0199,W,0.26,227.86,310312,,,D*75
$GPGGA,113455.000,3353.7348,N,09832.0197,W,2,06,2.1,404.5,M,-23.7,M,2.8,0000*44
$GPGSA,A,3,12,25,05,15,02,26,,,,,,,4.9,2.1,4.4*3F
$GPGSV,3,1,12,05,60,045,32,29,54,320,16,25,39,240,29,02,30,069,16*7E
$GPGSV,3,2,12,26,28,127,22,12,23,196,26,21,15,279,20,15,15,169,38*75
$GPGSV,3,3,12,18,07,223,,10,05,043,17,30,00,327,,51,49,195,33*73
$GPRMC,113455.000,A,3353.7348,N,09832.0197,W,0.35,196.88,310312,,,D*75
$GPGGA,113456.000,3353.7341,N,09832.0189,W,2,07,1.8,406.2,M,-23.7,M,3.8,0000*4E
$GPGSA,A,3,12,25,05,15,02,29,26,,,,,,4.7,1.8,4.3*37
$GPRMC,113456.000,A,3353.7341,N,09832.0189,W,0.53,163.20,310312,,,D*78
$GPGGA,113457.000,3353.7342,N,09832.0187,W,2,07,1.8,405.1,M,-23.7,M,0.8,0000*41
$GPGSA,A,3,12,25,05,15,02,29,26,,,,,,4.7,1.8,4.3*37
$GPRMC,113457.000,A,3353.7342,N,09832.0187,W,0.14,245.90,310312,,,D*7B
$GPGGA,113458.000,3353.7336,N,09832.0183,W,2,07,1.8,406.5,M,-23.7,M,0.8,0000*4E
$GPGSA,A,3,12,25,05,15,02,29,26,,,,,,4.7,1.8,4.3*37
$GPRMC,113458.000,A,3353.7336,N,09832.0183,W,0.30,206.34,310312,,,D*7C
$GPGGA,113459.000,3353.7338,N,09832.0184,W,2,07,1.8,405.6,M,-23.7,M,0.8,0000*46
$GPGSA,A,3,12,25,05,15,02,29,26,,,,,,4.7,1.8,4.3*37
$GPRMC,113459.000,A,3353.7338,N,09832.0184,W,0.35,240.81,310312,,,D*7D
$GPGGA,113500.000,3353.7341,N,09832.0184,W,2,06,2.1,404.4,M,-23.7,M,1.8,0000*4C
$GPGSA,A,3,12,25,05,15,02,26,,,,,,,4.9,2.1,4.4*3F
$GPGSV,3,1,12,05,60,045,32,29,54,320,17,25,39,240,30,02,30,069,21*73
$GPGSV,3,2,12,26,28,127,22,12,23,196,26,21,15,279,20,15,15,169,38*75
$GPGSV,3,3,12,18,07,223,,10,05,043,17,30,00,327,,51,49,195,32*72
$GPRMC,113500.000,A,3353.7341,N,09832.0184,W,0.08,238.15,310312,,,D*72
$GPGGA,113501.000,3353.7346,N,09832.0183,W,2,07,1.8,403.0,M,-23.7,M,2.8,0000*46
$GPGSA,A,3,12,25,05,15,02,29,26,,,,,,4.7,1.8,4.3*37
$GPRMC,113501.000,A,3353.7346,N,09832.0183,W,0.22,353.18,310312,,,D*7A
$GPGGA,113502.000,3353.7349,N,09832.0179,W,2,07,1.8,401.4,M,-23.7,M,3.8,0000*48
$GPGSA,A,3,12,25,05,15,02,29,26,,,,,,4.7,1.8,4.3*37
$GPRMC,113502.000,A,3353.7349,N,09832.0179,W,0.38,356.91,310312,,,D*7C
$GPGGA,113503.000,3353.7347,N,09832.0178,W,2,07,1.8,402.1,M,-23.7,M,0.8,0000*43
$GPGSA,A,3,12,25,05,15,02,29,26,,,,,,4.7,1.8,4.3*37
$GPRMC,113503.000,A,3353.7347,N,09832.0178,W,0.43,326.53,310312,,,D*77
$GPGGA,113504.000,3353.7355,N,09832.0182,W,2,07,1.8,399.4,M,-23.7,M,0.8,0000*42
$GPGSA,A,3,12,25,05,15,02,29,26,,,,,,4.7,1.8,4.3*37
$GPRMC,113504.000,A,3353.7355,N,09832.0182,W,0.44,312.32,310312,,,D*71
$GPGGA,113505.000,3353.7364,N,09832.0184,W,2,06,2.1,396.1,M,-23.7,M,0.8,0000*46
$GPGSA,A,3,12,25,05,15,02,26,,,,,,,4.9,2.1,4.4*3F
$GPGSV,3,1,12,05,60,045,33,29,54,320,18,25,39,240,30,02,30,069,21*7D
$GPGSV,3,2,12,26,28,127,22,12,23,196,26,21,15,279,20,15,15,169,38*75
$GPGSV,3,3,12,18,07,223,,10,05,043,16,30,00,327,,51,49,195,33*72
$GPRMC,113505.000,A,3353.7364,N,09832.0184,W,0.67,324.94,310312,,,D*7C
$GPGGA,113506.000,3353.7373,N,09832.0188,W,2,06,2.1,392.7,M,-23.7,M,0.8,0000*4D
$GPGSA,A,3,12,25,05,15,02,26,,,,,,,4.9,2.1,4.4*3F
$GPRMC,113506.000,A,3353.7373,N,09832.0188,W,1.00,338.32,310312,,,D*74
$GPGGA,113507.000,3353.7381,N,09832.0191,W,2,06,2.1,389.6,M,-23.7,M,1.8,0000*43
$GPGSA,A,3,12,25,05,15,02,26,,,,,,,4.9,2.1,4.4*3F
$GPRMC,113507.000,A,3353.7381,N,09832.0191,W,1.12,329.16,310312,,,D*75
$GPGGA,113508.000,3353.7390,N,09832.0194,W,2,06,2.1,386.3,M,-23.7,M,0.8,0000*42
$GPGSA,A,3,12,25,05,15,02,26,,,,,,,4.9,2.1,4.4*3F
$GPRMC,113508.000,A,3353.7390,N,09832.0194,W,0.93,330.88,310312,,,D*78
$GPGGA,113509.000,3353.7402,N,09832.0200,W,2,07,1.8,382.1,M,-23.7,M,0.8,0000*4C
$GPGSA,A,3,12,25,05,15,02,29,26,,,,,,4.7,1.8,4.3*37
$GPRMC,113509.000,A,3353.7402,N,09832.0200,W,1.08,340.20,310312,,,D*7D
$GPGGA,113510.000,3353.7418,N,09832.0204,W,2,07,1.8,375.9,M,-23.7,M,0.8,0000*4B
$GPGSA,A,3,12,25,05,15,02,29,26,,,,,,4.7,1.8,4.3*37
$GPGSV,3,1,12,05,60,045,33,29,54,320,18,25,39,240,29,02,30,069,22*76
$GPGSV,3,2,12,26,28,127,22,12,23,196,25,21,15,279,20,15,15,169,38*76
$GPGSV,3,3,12,18,07,223,19,10,05,043,15,30,00,327,,51,49,195,33*79
$GPRMC,113510.000,A,3353.7418,N,09832.0204,W,1.10,338.03,310312,,,D*7D
$GPGGA,113511.000,3353.7428,N,09832.0210,W,2,07,1.8,372.3,M,-23.7,M,0.8,0000*41
$GPGSA,A,3,12,25,05,15,02,29,26,,,,,,4.7,1.8,4.3*37
$GPRMC,113511.000,A,3353.7428,N,09832.0210,W,1.08,339.87,310312,,,D*7E
$GPGGA,113512.000,3353.7442,N,09832.0213,W,2,07,1.8,364.8,M,-23.7,M,1.8,0000*40
$GPGSA,A,3,12,25,05,15,02,29,26,,,,,,4.7,1.8,4.3*37
$GPRMC,113512.000,A,3353.7442,N,09832.0213,W,1.27,342.30,310312,,,D*7F
$GPGGA,113513.000,3353.7455,N,09832.0216,W,2,07,1.8,359.0,M,-23.7,M,2.8,0000*47
$GPGSA,A,3,12,25,05,15,02,29,26,,,,,,4.7,1.8,4.3*37
$GPRMC,113513.000,A,3353.7455,N,09832.0216,W,1.42,346.34,310312,,,D*7E
$GPGGA,113514.000,3353.7464,N,09832.0219,W,2,07,1.8,355.1,M,-23.7,M,3.8,0000*41
$GPGSA,A,3,12,25,05,15,02,29,26,,,,,,4.7,1.8,4.3*37
$GPRMC,113514.000,A,3353.7464,N,09832.0219,W,1.89,343.13,310312,,,D*73
$GPGGA,113515.000,3353.7476,N,09832.0222,W,2,07,1.8,349.6,M,-23.7,M,0.8,0000*42
$GPGSA,A,3,12,25,05,15,02,29,26,,,,,,4.7,1.8,4.3*37
$GPGSV,3,1,12,05,60,045,32,29,54,320,19,25,39,240,29,02,30,069,23*77
$GPGSV,3,2,12,26,28,127,23,12,23,196,18,21,15,279,19,15,15,169,37*7C
$GPGSV,3,3,12,18,07,223,19,10,05,043,14,30,00,327,,51,49,195,33*78
$GPRMC,113515.000,A,3353.7476,N,09832.0222,W,2.04,341.88,310312,,,D*7F
$GPGGA,113516.000,3353.7479,N,09832.0222,W,2,07,1.8,348.2,M,-23.7,M,0.8,0000*4B
$GPGSA,A,3,12,25,05,15,02,29,26,,,,,,4.7,1.8,4.3*37
$GPRMC,113516.000,A,3353.7479,N,09832.0222,W,1.82,340.96,310312,,,D*70
$GPGGA,113517.000,3353.7489,N,09832.0224,W,2,07,1.8,343.5,M,-23.7,M,0.8,0000*4F
$GPGSA,A,3,12,25,05,15,02,29,26,,,,,,4.7,1.8,4.3*37
$GPRMC,113517.000,A,3353.7489,N,09832.0224,W,1.90,345.69,310312,,,D*7E
$GPGGA,113518.000,3353.7494,N,09832.0223,W,2,07,1.8,340.6,M,-23.7,M,1.8,0000*4A
$GPGSA,A,3,12,25,05,15,02,29,26,,,,,,4.7,1.8,4.3*37
$GPRMC,113518.000,A,3353.7494,N,09832.0223,W,1.90,342.79,310312,,,D*7C
$GPGGA,113519.000,3353.7501,N,09832.0224,W,2,07,1.8,337.1,M,-23.7,M,2.8,0000*45
$GPGSA,A,3,12,25,05,15,02,29,26,,,,,,4.7,1.8,4.3*37
$GPRMC,113519.000,A,3353.7501,N,09832.0224,W,1.96,344.86,310312,,,D*77
$GPGGA,113520.000,3353.7506,N,09832.0224,W,2,07,1.8,334.2,M,-23.7,M,3.8,0000*49
$GPGSA,A,3,12,25,05,15,02,29,26,,,,,,4.7,1.8,4.3*37
$GPGSV,3,1,12,05,60,045,33,29,54,320,19,25,39,240,29,02,30,069,24*71
$GPGSV,3,2,12,26,28,127,23,12,23,196,16,21,15,279,19,15,15,169,37*72
$GPGSV,3,3,12,18,07,223,19,10,05,043,13,30,00,327,,51,49,195,33*7F
$GPRMC,113520.000,A,3353.7506,N,09832.0224,W,2.29,336.02,310312,,,D*74
$GPGGA,113521.000,3353.7510,N,09832.0224,W,2,07,1.8,332.2,M,-23.7,M,0.8,0000*4A
$GPGSA,A,3,12,25,05,15,02,29,26,,,,,,4.7,1.8,4.3*37
$GPRMC,113521.000,A,3353.7510,N,09832.0224,W,1.71,345.47,310312,,,D*79
$GPGGA,113522.000,3353.7511,N,09832.0223,W,2,07,1.8,330.1,M,-23.7,M,0.8,0000*4E
$GPGSA,A,3,12,25,05,15,02,29,26,,,,,,4.7,1.8,4.3*37
$GPRMC,113522.000,A,3353.7511,N,09832.0223,W,1.65,340.90,310312,,,D*76
$GPGGA,113523.000,3353.7511,N,09832.0222,W,2,07,1.8,329.4,M,-23.7,M,0.8,0000*43
$GPGSA,A,3,12,25,05,15,02,29,26,,,,,,4.7,1.8,4.3*37
$GPRMC,113523.000,A,3353.7511,N,09832.0222,W,1.64,346.89,310312,,,D*79
$GPGGA,113524.000,3353.7511,N,09832.0221,W,2,07,1.8,328.7,M,-23.7,M,0.8,0000*45
$GPGSA,A,3,12,25,05,15,02,29,26,,,,,,4.7,1.8,4.3*37
$GPRMC,113524.000,A,3353.7511,N,09832.0221,W,1.41,351.49,310312,,,D*70
$GPGGA,113525.000,3353.7510,N,09832.0219,W,2,07,1.8,328.4,M,-23.7,M,1.8,0000*4C
$GPGSA,A,3,12,25,05,15,02,29,26,,,,,,4.7,1.8,4.3*37
$GPGSV,3,1,12,05,60,045,33,29,54,320,21,25,39,240,29,02,30,069,25*7B
$GPGSV,3,2,12,26,28,127,22,12,23,196,15,21,15,279,19,15,15,169,37*70
$GPGSV,3,3,12,18,07,223,18,10,05,043,12,30,00,327,,51,49,195,33*7F
$GPRMC,113525.000,A,3353.7510,N,09832.0219,W,1.33,345.77,310312,,,D*76
$GPGGA,113526.000,3353.7511,N,09832.0219,W,2,07,1.8,327.6,M,-23.7,M,2.8,0000*40
$GPGSA,A,3,12,25,05,15,02,29,26,,,,,,4.7,1.8,4.3*37
$GPRMC,113526.000,A,3353.7511,N,09832.0219,W,1.64,338.55,310312,,,D*7C
$GPGGA,113527.000,3353.7514,N,09832.0222,W,2,07,1.8,326.2,M,-23.7,M,0.8,0000*4B
$GPGSA,A,3,12,25,05,15,02,29,26,,,,,,4.7,1.8,4.3*37
$GPRMC,113527.000,A,3353.7514,N,09832.0222,W,1.78,333.68,310312,,,D*78
$GPGGA,113528.000,3353.7520,N,09832.0226,W,2,07,1.8,324.2,M,-23.7,M,0.8,0000*45
$GPGSA,A,3,12,25,05,15,02,29,26,,,,,,4.7,1.8,4.3*37
$GPRMC,113528.000,A,3353.7520,N,09832.0226,W,1.69,330.78,310312,,,D*76
$GPGGA,113529.000,3353.7525,N,09832.0231,W,2,07,1.8,322.2,M,-23.7,M,0.8,0000*41
$GPGSA,A,3,12,25,05,15,02,29,26,,,,,,4.7,1.8,4.3*37
$GPRMC,113529.000,A,3353.7525,N,09832.0231,W,1.38,332.47,310312,,,D*7E
$GPGGA,113530.000,3353.7527,N,09832.0232,W,2,07,1.8,321.0,M,-23.7,M,0.8,0000*49
$GPGSA,A,3,12,25,05,15,02,29,26,,,,,,4.7,1.8,4.3*37
$GPGSV,3,1,12,05,60,045,33,29,54,320,22,25,39,240,30,02,30,069,26*73
$GPGSV,3,2,12,26,28,127,23,12,23,196,21,21,15,279,18,15,15,169,37*77
$GPGSV,3,3,12,18,07,223,16,10,05,043,,30,00,327,,51,49,195,33*72
$GPRMC,113530.000,A,3353.7527,N,09832.0232,W,1.39,332.35,310312,,,D*73
$GPGGA,113531.000,3353.7536,N,09832.0240,W,2,07,1.8,317.8,M,-23.7,M,1.8,0000*41
$GPGSA,A,3,12,25,05,15,02,29,26,,,,,,4.7,1.8,4.3*37
$GPRMC,113531.000,A,3353.7536,N,09832.0240,W,1.36,336.91,310312,,,D*72
$GPGGA,113532.000,3353.7544,N,09832.0245,W,2,07,1.8,315.3,M,-23.7,M,0.8,0000*4A
$GPGSA,A,3,12,25,05,15,02,29,26,,,,,,4.7,1.8,4.3*37
$GPRMC,113532.000,A,3353.7544,N,09832.0245,W,1.67,331.89,310312,,,D*7B
$GPGGA,113533.000,3353.7550,N,09832.0249,W,2,07,1.8,312.9,M,-23.7,M,0.8,0000*4F
$GPGSA,A,3,12,25,05,15,02,29,26,,,,,,4.7,1.8,4.3*37
$GPRMC,113533.000,A,3353.7550,N,09832.0249,W,1.51,331.78,310312,,,D*78
$GPGGA,113534.000,3353.7557,N,09832.0254,W,2,07,1.8,310.6,M,-23.7,M,0.8,0000*4E
$GPGSA,A,3,12,25,05,15,02,29,26,,,,,,4.7,1.8,4.3*37
$GPRMC,113534.000,A,3353.7557,N,09832.0254,W,1.70,338.48,310312,,,D*7D
$GPGGA,113535.000,3353.7557,N,09832.0253,W,2,07,1.8,310.0,M,-23.7,M,0.8,0000*4E
$GPGSA,A,3,12,25,05,15,02,29,26,,,,,,4.7,1.8,4.3*37
$GPGSV,3,1,12,05,60,045,32,29,54,320,22,25,39,240,30,02,30,069,27*73
$GPGSV,3,2,12,26,28,127,25,12,23,196,23,21,15,279,17,15,15,169,37*7C
$GPGSV,3,3,12,18,07,223,,10,05,043,,30,00,327,,51,49,195,33*75
$GPRMC,113535.000,A,3353.7557,N,09832.0253,W,1.34,338.00,310312,,,D*77
$GPGGA,113536.000,3353.7563,N,09832.0256,W,2,07,1.8,308.0,M,-23.7,M,1.8,0000*47
$GPGSA,A,3,12,25,05,15,02,29,26,,,,,,4.7,1.8,4.3*37
$GPRMC,113536.000,A,3353.7563,N,09832.0256,W,1.33,339.85,310312,,,D*7D
$GPGGA,113537.000,3353.7568,N,09832.0259,W,2,07,1.8,306.1,M,-23.7,M,2.8,0000*4E
$GPGSA,A,3,12,25,05,15,02,29,26,,,,,,4.7,1.8,4.3*37
$GPRMC,113537.000,A,3353.7568,N,09832.0259,W,1.34,340.59,310312,,,D*70
$GPGGA,113538.000,3353.7573,N,09832.0262,W,2,07,1.8,304.4,M,-23.7,M,3.8,0000*45
$GPGSA,A,3,12,25,05,15,02,29,26,,,,,,4.7,1.8,4.3*37
$GPRMC,113538.000,A,3353.7573,N,09832.0262,W,1.53,334.22,310312,,,D*73
$GPGGA,113539.000,3353.7577,N,09832.0265,W,2,07,1.8,303.0,M,-23.7,M,0.8,0000*47
$GPGSA,A,3,12,25,05,15,02,29,26,,,,,,4.7,1.8,4.3*37
$GPRMC,113539.000,A,3353.7577,N,09832.0265,W,1.29,330.85,310312,,,D*75
$GPGGA,113540.000,3353.7580,N,09832.0267,W,2,07,1.8,301.8,M,-23.7,M,0.8,0000*49
$GPGSA,A,3,12,25,05,15,02,29,26,,,,,,4.7,1.8,4.3*37
$GPGSV,3,1,12,05,60,045,32,29,54,320,23,25,39,240,30,02,30,069,28*7D
$GPGSV,3,2,12,26,28,127,26,12,23,196,24,21,15,279,18,15,15,169,37*77
$GPGSV,3,3,12,18,07,223,,10,05,043,,30,00,327,,51,49,195,33*75
$GPRMC,113540.000,A,3353.7580,N,09832.0267,W,1.23,334.58,310312,,,D*7F
$GPGGA,113541.000,3353.7583,N,09832.0270,W,2,07,1.8,300.8,M,-23.7,M,0.8,0000*4C
$GPGSA,A,3,12,25,05,15,02,29,26,,,,,,4.7,1.8,4.3*37
$GPRMC,113541.000,A,3353.7583,N,09832.0270,W,1.25,330.79,310312,,,D*7A
$GPGGA,113542.000,3353.7585,N,09832.0272,W,2,07,1.8,300.0,M,-23.7,M,1.8,0000*42
$GPGSA,A,3,12,25,05,15,02,29,26,,,,,,4.7,1.8,4.3*37
$GPRMC,113542.000,A,3353.7585,N,09832.0272,W,1.23,331.39,310312,,,D*7E
$GPGGA,113543.000,3353.7587,N,09832.0273,W,2,07,1.8,299.4,M,-23.7,M,2.8,0000*46
$GPGSA,A,3,12,25,05,15,02,29,26,,,,,,4.7,1.8,4.3*37
$GPRMC,113543.000,A,3353.7587,N,09832.0273,W,1.25,329.76,310312,,,D*78
$GPGGA,113544.000,3353.7588,N,09832.0275,W,2,07,1.8,299.2,M,-23.7,M,3.8,0000*4F
$GPGSA,A,3,12,25,05,15,02,29,26,,,,,,4.7,1.8,4.3*37
$GPRMC,113544.000,A,3353.7588,N,09832.0275,W,0.99,330.95,310312,,,D*75
$GPGGA,113545.000,3353.7589,N,09832.0275,W,2,07,1.8,298.9,M,-23.7,M,0.8,0000*46
$GPGSA,A,3,12,25,05,15,02,29,26,,,,,,4.7,1.8,4.3*37
$GPGSV,3,1,12,05,60,045,32,29,54,320,24,25,39,240,30,02,30,069,30*73
$GPGSV,3,2,12,26,28,127,28,12,23,196,24,21,15,279,19,15,15,169,37*78
$GPGSV,3,3,12,18,07,223,,10,05,043,,30,00,327,,51,49,195,33*75
$GPRMC,113545.000,A,3353.7589,N,09832.0275,W,0.91,331.49,310312,,,D*7D
$GPGGA,113546.000,3353.7589,N,09832.0276,W,2,07,1.8,298.8,M,-23.7,M,0.8,0000*47
$GPGSA,A,3,12,25,05,15,02,29,26,,,,,,4.7,1.8,4.3*37
$GPRMC,113546.000,A,3353.7589,N,09832.0276,W,0.74,336.96,310312,,,D*73
$GPGGA,113547.000,3353.7589,N,09832.0276,W,2,07,1.8,298.8,M,-23.7,M,0.8,0000*46
$GPGSA,A,3,12,25,05,15,02,29,26,,,,,,4.7,1.8,4.3*37
$GPRMC,113547.000,A,3353.7589,N,09832.0276,W,0.69,342.25,310312,,,D*75
$GPGGA,113548.000,3353.7589,N,09832.0275,W,2,07,1.8,298.9,M,-23.7,M,0.8,0000*4B
$GPGSA,A,3,12,25,05,15,02,29,26,,,,,,4.7,1.8,4.3*37
$GPRMC,113548.000,A,3353.7589,N,09832.0275,W,0.82,335.03,310312,,,D*78
$GPGGA,113549.000,3353.7589,N,09832.0275,W,2,07,1.8,299.3,M,-23.7,M,1.8,0000*40
$GPGSA,A,3,12,25,05,15,02,29,26,,,,,,4.7,1.8,4.3*37
$GPRMC,113549.000,A,3353.7589,N,09832.0275,W,0.60,343.43,310312,,,D*70
$GPGGA,113550.000,3353.7588,N,09832.0274,W,2,07,1.8,299.7,M,-23.7,M,2.8,0000*4F
$GPGSA,A,3,12,25,05,15,02,29,26,,,,,,4.7,1.8,4.3*37
$GPGSV,3,1,12,05,60,045,31,29,54,320,24,25,39,240,29,02,30,069,31*79
$GPGSV,3,2,12,26,28,127,28,12,23,196,24,21,15,279,20,15,15,169,37*72
$GPGSV,3,3,12,18,07,223,,10,05,043,,30,00,327,,51,49,195,33*75
$GPRMC,113550.000,A,3353.7588,N,09832.0274,W,0.49,331.88,310312,,,D*71
$GPGGA,113551.000,3353.7587,N,09832.0274,W,2,07,1.8,300.2,M,-23.7,M,0.8,0000*47
$GPGSA,A,3,12,25,05,15,02,29,26,,,,,,4.7,1.8,4.3*37
$GPRMC,113551.000,A,3353.7587,N,09832.0274,W,0.59,335.00,310312,,,D*7A
$GPGGA,113552.000,3353.7586,N,09832.0273,W,2,07,1.8,300.7,M,-23.7,M,0.8,0000*47
$GPGSA,A,3,12,25,05,15,02,29,26,,,,,,4.7,1.8,4.3*37
$GPRMC,113552.000,A,3353.7586,N,09832.0273,W,0.46,332.99,310312,,,D*76
$GPGGA,113553.000,3353.7585,N,09832.0272,W,2,07,1.8,301.3,M,-23.7,M,0.8,0000*41
$GPGSA,A,3,12,25,05,15,02,29,26,,,,,,4.7,1.8,4.3*37
$GPRMC,113553.000,A,3353.7585,N,09832.0272,W,0.36,320.21,310312,,,D*72
$GPGGA,113554.000,3353.7584,N,09832.0274,W,2,07,1.8,301.7,M,-23.7,M,0.8,0000*45
$GPGSA,A,3,12,25,05,15,02,29,26,,,,,,4.7,1.8,4.3*37
$GPRMC,113554.000,A,3353.7584,N,09832.0274,W,0.28,335.48,310312,,,D*76
$GPGGA,113555.000,3353.7583,N,09832.0275,W,2,07,1.8,302.1,M,-23.7,M,0.8,0000*47
$GPGSA,A,3,12,25,05,15,02,29,26,,,,,,4.7,1.8,4.3*37
$GPGSV,3,1,12,05,60,045,30,29,54,320,24,25,39,240,22,02,30,069,31*73
$GPGSV,3,2,12,26,28,127,28,12,23,196,23,21,15,279,20,15,15,169,37*75
$GPGSV,3,3,12,18,07,223,20,10,05,043,,30,00,327,,51,49,195,33*77
$GPRMC,113555.000,A,3353.7583,N,09832.0275,W,0.40,307.50,310312,,,D*77
$GPGGA,113556.000,3353.7581,N,09832.0274,W,2,07,1.8,302.9,M,-23.7,M,1.8,0000*4E
$GPGSA,A,3,12,25,05,15,02,29,26,,,,,,4.7,1.8,4.3*37
$GPRMC,113556.000,A,3353.7581,N,09832.0274,W,0.32,2.91,310312,,,D*79
$GPGGA,113557.000,3353.7581,N,09832.0275,W,2,07,1.8,303.2,M,-23.7,M,0.8,0000*45
$GPGSA,A,3,12,25,05,15,02,29,26,,,,,,4.7,1.8,4.3*37
$GPRMC,113557.000,A,3353.7581,N,09832.0275,W,0.21,355.68,310312,,,D*7C
$GPGGA,113558.000,3353.7581,N,09832.0278,W,2,07,1.8,303.4,M,-23.7,M,0.8,0000*41
$GPGSA,A,3,12,25,05,15,02,29,26,,,,,,4.7,1.8,4.3*37
$GPRMC,113558.000,A,3353.7581,N,09832.0278,W,0.49,282.96,310312,,,D*7A
$GPGGA,113559.000,3353.7580,N,09832.0280,W,2,07,1.8,303.7,M,-23.7,M,0.8,0000*45
$GPGSA,A,3,12,25,05,15,02,29,26,,,,,,4.7,1.8,4.3*37
$GPRMC,113559.000,A,3353.7580,N,09832.0280,W,0.35,291.85,310312,,,D*76
$GPGGA,113600.000,3353.7579,N,09832.0281,W,2,07,1.8,304.2,M,-23.7,M,1.8,0000*4E
$GPGSA,A,3,12,25,05,15,02,29,26,,,,,,4.7,1.8,4.3*37
$GPGSV,3,1,12,05,60,045,30,29,54,320,24,25,39,240,21,02,30,069,31*70
$GPGSV,3,2,12,26,28,127,28,12,23,196,23,21,15,279,20,15,15,169,37*75
$GPGSV,3,3,12,18,07,223,19,10,05,043,,30,00,327,,51,49,195,33*7D
$GPRMC,113600.000,A,3353.7579,N,09832.0281,W,0.28,4.07,310312,,,D*76
$GPGGA,113601.000,3353.7578,N,09832.0280,W,2,07,1.8,304.7,M,-23.7,M,2.8,0000*49
$GPGSA,A,3,12,25,05,15,02,29,26,,,,,,4.7,1.8,4.3*37
$GPRMC,113601.000,A,3353.7578,N,09832.0280,W,0.19,333.58,310312,,,D*78
$GPGGA,113602.000,3353.7574,N,09832.0276,W,2,07,1.8,305.6,M,-23.7,M,3.8,0000*4E
$GPGSA,A,3,12,25,05,15,02,29,26,,,,,,4.7,1.8,4.3*37
$GPRMC,113602.000,A,3353.7574,N,09832.0276,W,0.19,287.53,310312,,,D*7B
$GPGGA,113603.000,3353.7570,N,09832.0272,W,2,07,1.8,306.7,M,-23.7,M,0.8,0000*4E
$GPGSA,A,3,12,25,05,15,02,29,26,,,,,,4.7,1.8,4.3*37
$GPRMC,113603.000,A,3353.7570,N,09832.0272,W,0.12,259.21,310312,,,D*77
$GPGGA,113604.000,3353.7567,N,09832.0269,W,2,07,1.8,307.6,M,-23.7,M,0.8,0000*45
$GPGSA,A,3,12,25,05,15,02,29,26,,,,,,4.7,1.8,4.3*37
$GPRMC,113604.000,A,3353.7567,N,09832.0269,W,0.15,217.76,310312,,,D*73
$GPGGA,113605.000,3353.7564,N,09832.0266,W,2,07,1.8,308.5,M,-23.7,M,0.8,0000*44
$GPGSA,A,3,12,25,05,15,02,29,26,,,,,,4.7,1.8,4.3*37
$GPGSV,3,1,12,05,60,045,29,29,54,320,25,25,39,240,21,02,30,069,30*78
$GPGSV,3,2,12,26,28,127,28,12,23,196,17,21,15,279,20,15,15,169,37*72
$GPGSV,3,3,12,18,07,223,18,10,05,043,,30,00,327,,51,49,195,33*7C
$GPRMC,113605.000,A,3353.7564,N,09832.0266,W,0.19,129.22,310312,,,D*7D
$GPGGA,113606.000,3353.7564,N,09832.0269,W,2,07,1.8,308.8,M,-23.7,M,1.8,0000*44
$GPGSA,A,3,12,25,05,15,02,29,26,,,,,,4.7,1.8,4.3*37
$GPRMC,113606.000,A,3353.7564,N,09832.0269,W,0.30,254.96,310312,,,D*7C
$GPGGA,113607.000,3353.7563,N,09832.0270,W,2,07,1.8,309.3,M,-23.7,M,2.8,0000*43
$GPGSA,A,3,12,25,05,15,02,29,26,,,,,,4.7,1.8,4.4*30
$GPRMC,113607.000,A,3353.7563,N,09832.0270,W,0.16,190.80,310312,,,D*7A
$GPGGA,113608.000,3353.7561,N,09832.0269,W,2,07,1.8,310.0,M,-23.7,M,0.8,0000*4F
$GPGSA,A,3,12,25,05,15,02,29,26,,,,,,4.7,1.8,4.4*30
$GPRMC,113608.000,A,3353.7561,N,09832.0269,W,0.24,230.26,310312,,,D*7B
$GPGGA,113609.000,3353.7559,N,09832.0267,W,2,07,1.8,310.7,M,-23.7,M,0.8,0000*4C
$GPGSA,A,3,12,25,05,15,02,29,26,,,,,,4.7,1.8,4.4*30
$GPRMC,113609.000,A,3353.7559,N,09832.0267,W,0.23,142.17,310312,,,D*7C
$GPGGA,113610.000,3353.7558,N,09832.0266,W,2,07,1.8,311.3,M,-23.7,M,0.8,0000*41
$GPGSA,A,3,12,25,05,15,02,29,26,,,,,,4.7,1.8,4.4*30
$GPGSV,3,1,12,05,60,045,28,29,54,320,25,25,39,240,22,02,30,069,30*7A
$GPGSV,3,2,12,26,28,127,28,12,23,196,15,21,15,279,21,15,15,169,37*71
$GPGSV,3,3,12,18,07,223,18,10,05,043,,30,00,327,,51,49,195,33*7C
$GPRMC,113610.000,A,3353.7558,N,09832.0266,W,0.15,118.55,310312,,,D*78
$GPGGA,113611.000,3353.7556,N,09832.0265,W,2,07,1.8,311.9,M,-23.7,M,0.8,0000*47
$GPGSA,A,3,12,25,05,15,02,29,26,,,,,,4.7,1.8,4.4*30
$GPRMC,113611.000,A,3353.7556,N,09832.0265,W,0.12,124.44,310312,,,D*7C
$GPGGA,113612.000,3353.7555,N,09832.0263,W,2,07,1.8,312.4,M,-23.7,M,1.8,0000*4E
$GPGSA,A,3,12,25,05,15,02,29,26,,,,,,4.7,1.8,4.4*30
$GPRMC,113612.000,A,3353.7555,N,09832.0263,W,0.23,80.77,310312,,,D*47
$GPGGA,113613.000,3353.7556,N,09832.0264,W,2,07,1.8,312.6,M,-23.7,M,0.8,0000*48
$GPGSA,A,3,12,25,05,15,02,29,26,,,,,,4.7,1.8,4.4*30
$GPRMC,113613.000,A,3353.7556,N,09832.0264,W,0.16,64.86,310312,,,D*40
$GPGGA,113614.000,3353.7556,N,09832.0265,W,2,07,1.8,312.8,M,-23.7,M,1.8,0000*41
$GPGSA,A,3,12,25,05,15,02,29,26,,,,,,4.7,1.8,4.4*30
$GPRMC,113614.000,A,3353.7556,N,09832.0265,W,0.12,84.96,310312,,,D*4D
$GPGGA,113615.000,3353.7556,N,09832.0266,W,2,07,1.8,313.1,M,-23.7,M,0.8,0000*4A
$GPGSA,A,3,12,25,05,15,02,29,26,,,,,,4.7,1.8,4.4*30
$GPGSV,3,1,12,05,60,045,28,29,54,320,26,25,39,240,22,02,30,069,31*78
$GPGSV,3,2,12,26,28,127,28,12,23,196,14,21,15,279,21,15,15,169,36*71
$GPGSV,3,3,12,18,07,223,19,10,05,043,,30,00,327,,51,49,195,33*7D
$GPRMC,113615.000,A,3353.7556,N,09832.0266,W,0.14,286.25,310312,,,D*71
$GPGGA,113616.000,3353.7555,N,09832.0266,W,2,07,1.8,313.5,M,-23.7,M,0.8,0000*4E
$GPGSA,A,3,12,25,05,15,02,29,26,,,,,,4.7,1.8,4.4*30
$GPRMC,113616.000,A,3353.7555,N,09832.0266,W,0.17,270.22,310312,,,D*7C
$GPGGA,113617.000,3353.7554,N,09832.0266,W,2,07,1.8,314.0,M,-23.7,M,0.8,0000*4C
$GPGSA,A,3,12,25,05,15,02,29,26,,,,,,4.7,1.8,4.4*30
$GPRMC,113617.000,A,3353.7554,N,09832.0266,W,0.20,265.87,310312,,,D*73
$GPGGA,113618.000,3353.7553,N,09832.0265,W,2,07,1.8,314.5,M,-23.7,M,1.8,0000*43
$GPGSA,A,3,12,25,05,15,02,29,26,,,,,,4.7,1.8,4.4*30
$GPRMC,113618.000,A,3353.7553,N,09832.0265,W,0.17,251.84,310312,,,D*78
$GPGGA,113619.000,3353.7551,N,09832.0264,W,2,07,1.8,315.0,M,-23.7,M,0.8,0000*44
$GPGSA,A,3,12,25,05,15,02,29,26,,,,,,4.7,1.8,4.4*30
$GPRMC,113619.000,A,3353.7551,N,09832.0264,W,0.23,98.12,310312,,,D*45
$GPGGA,113620.000,3353.7550,N,09832.0261,W,2,07,1.8,315.6,M,-23.7,M,1.8,0000*4D
$GPGSA,A,3,12,25,05,15,02,29,26,,,,,,4.7,1.8,4.4*30
$GPGSV,3,1,12,05,59,044,28,29,55,320,26,25,38,239,23,02,29,070,31*7C
$GPGSV,3,2,12,26,29,126,28,12,22,195,14,15,16,168,36,21,16,279,20*73
$GPGSV,3,3,12,18,08,224,19,10,04,044,18,30,00,326,,51,49,195,33*7B
$GPRMC,113620.000,A,3353.7550,N,09832.0261,W,0.50,98.09,310312,,,D*45
$GPGGA,113621.000,3353.7549,N,09832.0259,W,2,07,1.8,316.1,M,-23.7,M,0.8,0000*4A
$GPGSA,A,3,12,25,05,15,02,29,26,,,,,,4.7,1.8,4.4*30
$GPRMC,113621.000,A,3353.7549,N,09832.0259,W,0.43,96.96,310312,,,D*4D
$GPGGA,113622.000,3353.7549,N,09832.0258,W,2,07,1.8,316.5,M,-23.7,M,0.8,0000*4C
$GPGSA,A,3,12,25,05,15,02,29,26,,,,,,4.7,1.8,4.4*30
$GPRMC,113622.000,A,3353.7549,N,09832.0258,W,0.19,99.92,310312,,,D*4B
$GPGGA,113623.000,3353.7548,N,09832.0258,W,2,07,1.8,316.7,M,-23.7,M,0.8,0000*4E
$GPGSA,A,3,12,25,05,15,02,29,26,,,,,,4.7,1.8,4.4*30
$GPRMC,113623.000,A,3353.7548,N,09832.0258,W,0.18,101.89,310312,,,D*70
$GPGGA,113624.000,3353.7548,N,09832.0258,W,2,07,1.8,316.9,M,-23.7,M,1.8,0000*46
$GPGSA,A,3,12,25,05,15,02,29,26,,,,,,4.7,1.8,4.4*30
$GPRMC,113624.000,A,3353.7548,N,09832.0258,W,0.05,212.04,310312,,,D*7F
$GPGGA,113625.000,3353.7548,N,09832.0258,W,2,07,1.8,317.1,M,-23.7,M,0.8,0000*4F
$GPGSA,A,3,12,25,05,15,02,29,26,,,,,,4.7,1.8,4.4*30
$GPGSV,3,1,12,05,59,044,27,29,55,320,27,25,38,239,23,02,29,070,31*72
$GPGSV,3,2,12,26,29,126,28,12,22,195,22,15,16,168,36,21,16,279,20*76
$GPGSV,3,3,12,18,08,224,20,10,04,044,19,30,00,326,,51,49,195,33*70
$GPRMC,113625.000,A,3353.7548,N,09832.0258,W,0.16,195.16,310312,,,D*73
$GPGGA,113626.000,3353.7548,N,09832.0259,W,2,07,1.8,317.2,M,-23.7,M,1.8,0000*4F
$GPGSA,A,3,12,25,05,15,02,29,26,,,,,,4.7,1.8,4.4*30
$GPRMC,113626.000,A,3353.7548,N,09832.0259,W,0.16,246.14,310312,,,D*7E
$GPGGA,113627.000,3353.7547,N,09832.0260,W,2,07,1.8,317.3,M,-23.7,M,0.8,0000*4B
$GPGSA,A,3,12,25,05,15,02,29,26,,,,,,4.7,1.8,4.4*30
$GPRMC,113627.000,A,3353.7547,N,09832.0260,W,0.11,170.56,310312,,,D*7D
$GPGGA,113628.000,3353.7547,N,09832.0259,W,2,07,1.8,317.5,M,-23.7,M,0.8,0000*48
$GPGSA,A,3,12,25,05,15,02,29,26,,,,,,4.7,1.8,4.4*30
$GPRMC,113628.000,A,3353.7547,N,09832.0259,W,0.27,114.55,310312,,,D*7C
$GPGGA,113629.000,3353.7546,N,09832.0258,W,2,07,1.8,317.9,M,-23.7,M,0.8,0000*45
$GPGSA,A,3,12,25,05,15,02,29,26,,,,,,4.7,1.8,4.4*30
$GPRMC,113629.000,A,3353.7546,N,09832.0258,W,0.10,88.93,310312,,,D*47
$GPGGA,113630.000,3353.7544,N,09832.0257,W,2,07,1.8,319.3,M,-23.7,M,1.8,0000*45
$GPGSA,A,3,12,25,05,15,02,29,26,,,,,,4.7,1.8,4.4*30
$GPGSV,3,1,12,05,59,044,27,29,55,320,27,25,38,239,23,02,29,070,31*72
$GPGSV,3,2,12,26,29,126,28,12,22,195,23,15,16,168,36,21,16,279,20*77
$GPGSV,3,3,12,18,08,224,20,10,04,044,19,30,00,326,,51,49,195,33*70
$GPRMC,113630.000,A,3353.7544,N,09832.0257,W,0.18,223.99,310312,,,D*73
$GPGGA,113631.000,3353.7541,N,09832.0256,W,2,07,1.8,321.6,M,-23.7,M,2.8,0000*4D
$GPGSA,A,3,12,25,05,15,02,29,26,,,,,,4.7,1.8,4.4*30
$GPRMC,113631.000,A,3353.7541,N,09832.0256,W,0.32,233.86,310312,,,D*71
$GPGGA,113632.000,3353.7539,N,09832.0255,W,2,07,1.8,323.3,M,-23.7,M,3.8,0000*44
$GPGSA,A,3,12,25,05,15,02,29,26,,,,,,4.7,1.8,4.4*30
$GPRMC,113632.000,A,3353.7539,N,09832.0255,W,0.27,230.90,310312,,,D*7E
$GPGGA,113633.000,3353.7537,N,09832.0254,W,2,07,1.8,324.9,M,-23.7,M,0.8,0000*44
$GPGSA,A,3,12,25,05,15,02,29,26,,,,,,4.7,1.8,4.4*30
$GPRMC,113633.000,A,3353.7537,N,09832.0254,W,0.29,198.28,310312,,,D*7C
$GPGGA,113634.000,3353.7533,N,09832.0250,W,2,07,1.8,328.4,M,-23.7,M,0.8,0000*42
$GPGSA,A,3,12,25,05,15,02,29,26,,,,,,4.7,1.8,4.4*30
$GPRMC,113634.000,A,3353.7533,N,09832.0250,W,0.59,126.18,310312,,,D*7A
$GPGGA,113635.000,3353.7529,N,09832.0246,W,2,07,1.8,331.5,M,-23.7,M,0.8,0000*46
$GPGSA,A,3,12,25,05,15,02,29,26,,,,,,4.7,1.8,4.4*30
$GPGSV,3,1,12,05,59,044,26,29,55,320,27,25,38,239,22,02,29,070,31*72
$GPGSV,3,2,12,26,29,126,28,12,22,195,23,15,16,168,35,21,16,279,20*74
$GPGSV,3,3,12,18,08,224,21,10,04,044,20,30,00,326,,51,49,195,33*7B
$GPRMC,113635.000,A,3353.7529,N,09832.0246,W,0.51,154.05,310312,,,D*76
$GPGGA,113636.000,3353.7527,N,09832.0244,W,2,07,1.8,332.8,M,-23.7,M,1.8,0000*46
$GPGSA,A,3,12,25,05,15,02,29,26,,,,,,4.7,1.8,4.4*30
$GPRMC,113636.000,A,3353.7527,N,09832.0244,W,0.59,156.07,310312,,,D*71
$GPGGA,113637.000,3353.7525,N,09832.0242,W,2,07,1.8,334.7,M,-23.7,M,2.8,0000*49
$GPGSA,A,3,12,25,05,15,02,29,26,,,,,,4.7,1.8,4.4*30
$GPRMC,113637.000,A,3353.7525,N,09832.0242,W,0.55,166.26,310312,,,D*78
$GPGGA,113638.000,3353.7522,N,09832.0239,W,2,07,1.8,337.7,M,-23.7,M,3.8,0000*4F
$GPGSA,A,3,12,25,05,15,02,29,26,,,,,,4.7,1.8,4.4*30
$GPRMC,113638.000,A,3353.7522,N,09832.0239,W,0.60,172.20,310312,,,D*79
$GPGGA,113639.000,3353.7518,N,09832.0236,W,2,07,1.8,341.1,M,-23.7,M,0.8,0000*4C
$GPGSA,A,3,12,25,05,15,02,29,26,,,,,,4.7,1.8,4.4*30
$GPRMC,113639.000,A,3353.7518,N,09832.0236,W,0.68,174.90,310312,,,D*7B
$GPGGA,113640.000,3353.7514,N,09832.0232,W,2,07,1.8,344.2,M,-23.7,M,0.8,0000*4C
$GPGSA,A,3,12,25,05,15,02,29,26,,,,,,4.7,1.8,4.4*30
$GPGSV,3,1,12,05,59,044,25,29,55,320,27,25,38,239,23,02,29,070,31*70
$GPGSV,3,2,12,26,29,126,28,12,22,195,23,15,16,168,35,21,16,279,19*7E
$GPGSV,3,3,12,18,08,224,21,10,04,044,20,30,00,326,,51,49,195,33*7B
$GPRMC,113640.000,A,3353.7514,N,09832.0232,W,0.84,130.71,310312,,,D*70
$GPGGA,113641.000,3353.7511,N,09832.0228,W,2,07,1.8,347.2,M,-23.7,M,0.8,0000*40
$GPGSA,A,3,12,25,05,15,02,29,26,,,,,,4.7,1.8,4.4*30
$GPRMC,113641.000,A,3353.7511,N,09832.0228,W,0.79,145.94,310312,,,D*74
$GPGGA,113642.000,3353.7508,N,09832.0225,W,2,07,1.8,349.7,M,-23.7,M,1.8,0000*4C
$GPGSA,A,3,12,25,05,15,02,29,26,,,,,,4.7,1.8,4.4*30
$GPRMC,113642.000,A,3353.7508,N,09832.0225,W,0.86,158.58,310312,,,D*7E
$GPGGA,113643.000,3353.7505,N,09832.0222,W,2,07,1.8,352.3,M,-23.7,M,0.8,0000*48
$GPGSA,A,3,12,25,05,15,02,29,26,,,,,,4.8,1.8,4.4*3F
$GPRMC,113643.000,A,3353.7505,N,09832.0222,W,0.83,161.80,310312,,,D*7F
$GPGGA,113644.000,3353.7502,N,09832.0219,W,2,07,1.8,354.5,M,-23.7,M,1.8,0000*41
$GPGSA,A,3,12,25,05,15,02,29,26,,,,,,4.8,1.8,4.4*3F
$GPRMC,113644.000,A,3353.7502,N,09832.0219,W,0.87,152.38,310312,,,D*70
$GPGGA,113645.000,3353.7503,N,09832.0215,W,2,07,1.8,354.9,M,-23.7,M,0.8,0000*40
$GPGSA,A,3,12,25,05,15,02,29,26,,,,,,4.8,1.8,4.4*3F
$GPGSV,3,1,12,05,59,044,24,29,55,320,26,25,38,239,24,02,29,070,31*77
$GPGSV,3,2,12,26,29,126,27,12,22,195,22,15,16,168,35,21,16,279,19*70
$GPGSV,3,3,12,18,08,224,21,10,04,044,21,30,00,326,,51,49,195,33*7A
$GPRMC,113645.000,A,3353.7503,N,09832.0215,W,0.85,154.79,310312,,,D*7D
$GPGGA,113646.000,3353.7503,N,09832.0211,W,2,07,1.8,355.0,M,-23.7,M,0.8,0000*4F
$GPGSA,A,3,12,25,05,15,02,29,26,,,,,,4.8,1.8,4.4*3F
$GPRMC,113646.000,A,3353.7503,N,09832.0211,W,0.75,138.80,310312,,,D*79
$GPGGA,113647.000,3353.7504,N,09832.0208,W,2,07,1.8,355.0,M,-23.7,M,0.8,0000*41
$GPGSA,A,3,12,25,05,15,02,29,26,,,,,,4.8,1.8,4.4*3F
$GPRMC,113647.000,A,3353.7504,N,09832.0208,W,0.79,153.94,310312,,,D*73
$GPGGA,113648.000,3353.7503,N,09832.0202,W,2,07,1.8,357.1,M,-23.7,M,1.8,0000*41
$GPGSA,A,3,12,25,05,15,02,29,26,,,,,,4.8,1.8,4.4*3F
$GPRMC,113648.000,A,3353.7503,N,09832.0202,W,0.70,147.24,310312,,,D*76
$GPGGA,113649.000,3353.7499,N,09832.0194,W,2,07,1.8,361.1,M,-23.7,M,2.8,0000*48
$GPGSA,A,3,12,25,05,15,02,29,26,,,,,,4.8,1.8,4.4*3F
$GPRMC,113649.000,A,3353.7499,N,09832.0194,W,0.78,151.80,310312,,,D*78
$GPGGA,113650.000,3353.7496,N,09832.0189,W,2,07,1.8,363.4,M,-23.7,M,0.8,0000*46
$GPGSA,A,3,12,25,05,15,02,29,26,,,,,,4.8,1.8,4.4*3F
$GPGSV,3,1,12,05,59,044,24,29,55,320,26,25,38,239,25,02,29,070,31*76
$GPGSV,3,2,12,26,29,126,21,12,22,195,22,15,16,168,35,21,16,279,18*77
$GPGSV,3,3,12,18,08,224,21,10,04,044,21,30,00,326,,51,49,195,33*7A
$GPRMC,113650.000,A,3353.7496,N,09832.0189,W,0.76,144.43,310312,,,D*76
$GPGGA,113651.000,3353.7495,N,09832.0188,W,2,07,1.8,364.5,M,-23.7,M,0.8,0000*43
$GPGSA,A,3,12,25,05,15,02,29,26,,,,,,4.8,1.8,4.4*3F
$GPRMC,113651.000,A,3353.7495,N,09832.0188,W,0.65,144.72,310312,,,D*75
$GPGGA,113652.000,3353.7492,N,09832.0186,W,2,07,1.8,365.1,M,-23.7,M,0.8,0000*4C
$GPGSA,A,3,12,25,05,15,02,29,26,,,,,,4.8,1.8,4.4*3F
$GPRMC,113652.000,A,3353.7492,N,09832.0186,W,0.67,143.02,310312,,,D*7D
$GPGGA,113653.000,3353.7491,N,09832.0186,W,2,07,1.8,365.2,M,-23.7,M,0.8,0000*4D
$GPGSA,A,3,12,25,05,15,02,29,26,,,,,,4.8,1.8,4.4*3F
$GPRMC,113653.000,A,3353.7491,N,09832.0186,W,0.60,133.63,310312,,,D*78
$GPGGA,113654.000,3353.7491,N,09832.0186,W,2,07,1.8,364.7,M,-23.7,M,1.8,0000*4F
$GPGSA,A,3,12,25,05,15,02,29,26,,,,,,4.8,1.8,4.4*3F
$GPRMC,113654.000,A,3353.7491,N,09832.0186,W,0.79,152.03,310312,,,D*76
$GPGGA,113655.000,3353.7487,N,09832.0183,W,2,07,1.8,365.1,M,-23.7,M,2.8,0000*48
$GPGSA,A,3,12,25,05,15,02,29,26,,,,,,4.8,1.8,4.4*3F
$GPGSV,3,1,12,05,59,044,25,29,55,320,26,25,38,239,26,02,29,070,31*74
$GPGSV,3,2,12,26,29,126,21,12,22,195,21,15,16,168,35,21,16,279,18*74
$GPGSV,3,3,12,18,08,224,21,10,04,044,21,30,00,326,,51,49,195,33*7A
$GPRMC,113655.000,A,3353.7487,N,09832.0183,W,0.70,157.42,310312,,,D*7C
$GPGGA,113656.000,3353.7490,N,09832.0185,W,2,07,1.9,364.1,M,-23.7,M,3.8,0000*4A
$GPGSA,A,3,12,25,05,15,02,29,26,,,,,,4.8,1.9,4.4*3E
$GPRMC,113656.000,A,3353.7490,N,09832.0185,W,0.45,166.88,310312,,,D*7D
$GPGGA,113657.000,3353.7488,N,09832.0184,W,2,07,1.9,363.9,M,-23.7,M,0.8,0000*4F
$GPGSA,A,3,12,25,05,15,02,29,26,,,,,,4.8,1.9,4.4*3E
$GPRMC,113657.000,A,3353.7488,N,09832.0184,W,0.56,138.38,310312,,,D*76
$GPGGA,113658.000,3353.7491,N,09832.0185,W,2,07,1.9,362.5,M,-23.7,M,0.8,0000*44
$GPGSA,A,3,12,25,05,15,02,29,26,,,,,,4.8,1.9,4.4*3E
$GPRMC,113658.000,A,3353.7491,N,09832.0185,W,0.28,115.30,310312,,,D*7E
$GPGGA,113659.000,3353.7489,N,09832.0184,W,2,07,1.9,362.2,M,-23.7,M,0.8,0000*4A
$GPGSA,A,3,12,25,05,15,02,29,26,,,,,,4.8,1.9,4.4*3E
$GPRMC,113659.000,A,3353.7489,N,09832.0184,W,0.26,141.38,310312,,,D*70
$GPGGA,113700.000,3353.7491,N,09832.0187,W,2,07,1.9,360.6,M,-23.7,M,0.8,0000*4B
$GPGSA,A,3,12,25,05,15,02,29,26,,,,,,4.8,1.9,4.4*3E
$GPGSV,3,1,12,05,59,044,26,29,55,320,26,25,38,239,26,02,29,070,32*74
$GPGSV,3,2,12,26,29,126,23,12,22,195,21,15,16,168,34,21,16,279,18*77
$GPGSV,3,3,12,18,08,224,21,10,04,044,21,30,00,326,,51,49,195,33*7A
$GPRMC,113700.000,A,3353.7491,N,09832.0187,W,0.31,180.12,310312,,,D*74
$GPGGA,113701.000,3353.7492,N,09832.0190,W,2,07,1.9,359.1,M,-23.7,M,1.8,0000*43
$GPGSA,A,3,12,25,05,15,02,29,26,,,,,,4.8,1.9,4.4*3E
$GPRMC,113701.000,A,3353.7492,N,09832.0190,W,0.01,90.24,310312,,,D*46
$GPGGA,113702.000,3353.7494,N,09832.0192,W,2,07,1.9,357.4,M,-23.7,M,2.8,0000*4C
$GPGSA,A,3,12,25,05,15,02,29,26,,,,,,4.8,1.9,4.4*3E
$GPRMC,113702.000,A,3353.7494,N,09832.0192,W,0.15,117.28,310312,,,D*76
$GPGGA,113703.000,3353.7497,N,09832.0196,W,2,07,1.9,355.8,M,-23.7,M,0.8,0000*46
$GPGSA,A,3,12,25,05,15,02,29,26,,,,,,4.8,1.9,4.4*3E
$GPRMC,113703.000,A,3353.7497,N,09832.0196,W,0.12,341.67,310312,,,D*7D
$GPGGA,113704.000,3353.7497,N,09832.0197,W,2,07,1.9,354.9,M,-23.7,M,0.8,0000*40
$GPGSA,A,3,12,25,05,15,02,29,26,,,,,,4.8,1.9,4.4*3E
$GPRMC,113704.000,A,3353.7497,N,09832.0197,W,0.21,332.40,310312,,,D*7A
$GPGGA,113705.000,3353.7498,N,09832.0198,W,2,07,1.9,353.7,M,-23.7,M,0.8,0000*48
$GPGSA,A,3,12,25,05,15,02,29,26,,,,,,4.8,1.9,4.4*3E
$GPGSV,3,1,12,05,59,044,27,29,55,320,25,25,38,239,26,02,29,070,33*77
$GPGSV,3,2,12,26,29,126,25,12,22,195,20,15,16,168,34,21,16,279,18*70
$GPGSV,3,3,12,18,08,224,20,10,04,044,21,30,00,326,,51,49,195,33*7B
$GPRMC,113705.000,A,3353.7498,N,09832.0198,W,0.20,35.37,310312,,,D*4E
$GPGGA,113706.000,3353.7499,N,09832.0198,W,2,07,1.9,352.5,M,-23.7,M,1.8,0000*48
$GPGSA,A,3,12,25,05,15,02,29,26,,,,,,4.8,1.9,4.4*3E
$GPRMC,113706.000,A,3353.7499,N,09832.0198,W,0.22,62.85,310312,,,D*45
$GPGGA,113707.000,3353.7500,N,09832.0199,W,2,07,1.9,351.3,M,-23.7,M,0.8,0000*4D
$GPGSA,A,3,12,25,05,15,02,29,26,,,,,,4.8,1.9,4.4*3E
$GPRMC,113707.000,A,3353.7500,N,09832.0199,W,0.38,354.64,310312,,,D*76
$GPGGA,113708.000,3353.7501,N,09832.0201,W,2,07,1.9,350.2,M,-23.7,M,0.8,0000*41
$GPGSA,A,3,12,25,05,15,02,29,26,,,,,,4.8,1.9,4.4*3E
$GPRMC,113708.000,A,3353.7501,N,09832.0201,W,0.39,331.91,310312,,,D*72
$GPGGA,113709.000,3353.7502,N,09832.0202,W,2,07,1.9,349.0,M,-23.7,M,0.8,0000*4A
$GPGSA,A,3,12,25,05,15,02,29,26,,,,,,4.8,1.9,4.4*3E
$GPRMC,113709.000,A,3353.7502,N,09832.0202,W,0.28,348.24,310312,,,D*73
$GPGGA,113710.000,3353.7504,N,09832.0207,W,2,07,1.9,347.5,M,-23.7,M,0.8,0000*4A
$GPGSA,A,3,12,25,05,15,02,29,26,,,,,,4.8,1.9,4.4*3E
$GPGSV,3,1,12,05,59,044,28,29,55,320,24,25,38,239,26,02,29,070,33*79
$GPGSV,3,2,12,26,29,126,27,12,22,195,14,15,16,168,34,21,16,279,18*75
$GPGSV,3,3,12,18,08,224,19,10,04,044,21,30,00,326,,51,49,195,33*71
$GPRMC,113710.000,A,3353.7504,N,09832.0207,W,0.59,333.03,310312,,,D*77
$GPGGA,113711.000,3353.7506,N,09832.0211,W,2,07,1.9,346.1,M,-23.7,M,0.8,0000*4B
$GPGSA,A,3,12,25,05,15,02,29,26,,,,,,4.8,1.9,4.4*3E
$GPRMC,113711.000,A,3353.7506,N,09832.0211,W,0.53,335.98,310312,,,D*7D
$GPGGA,113712.000,3353.7507,N,09832.0213,W,2,07,1.9,345.0,M,-23.7,M,1.8,0000*48
$GPGSA,A,3,12,25,05,15,02,29,26,,,,,,4.8,1.9,4.4*3E
$GPRMC,113712.000,A,3353.7507,N,09832.0213,W,0.34,352.36,310312,,,D*79
$GPGGA,113713.000,3353.7508,N,09832.0216,W,2,07,1.9,343.8,M,-23.7,M,2.8,0000*4E
$GPGSA,A,3,12,25,05,15,02,29,26,,,,,,4.8,1.9,4.4*3E
$GPRMC,113713.000,A,3353.7508,N,09832.0216,W,0.60,329.11,310312,,,D*7A
$GPGGA,113714.000,3353.7509,N,09832.0216,W,2,07,1.9,343.0,M,-23.7,M,3.8,0000*41
$GPGSA,A,3,12,25,05,15,02,29,26,,,,,,4.8,1.9,4.4*3E
$GPRMC,113714.000,A,3353.7509,N,09832.0216,W,0.45,345.51,310312,,,D*75
$GPGGA,113715.000,3353.7510,N,09832.0217,W,2,07,1.9,342.2,M,-23.7,M,0.8,0000*49
$GPGSA,A,3,12,25,05,15,02,29,26,,,,,,4.8,1.9,4.4*3E
$GPGSV,3,1,12,05,59,044,28,29,55,320,24,25,38,239,26,02,29,070,34*7E
$GPGSV,3,2,12,26,29,126,28,12,22,195,13,15,16,168,34,21,16,279,18*7D
$GPGSV,3,3,12,18,08,224,18,10,04,044,21,30,00,326,,51,49,195,33*70
$GPRMC,113715.000,A,3353.7510,N,09832.0217,W,0.69,326.43,310312,,,D*75
$GPGGA,113716.000,3353.7511,N,09832.0218,W,2,07,1.9,341.5,M,-23.7,M,0.8,0000*40
$GPGSA,A,3,12,25,05,15,02,29,26,,,,,,4.8,1.9,4.4*3E
$GPRMC,113716.000,A,3353.7511,N,09832.0218,W,0.33,326.71,310312,,,D*76
$GPGGA,113717.000,3353.7511,N,09832.0219,W,2,07,1.9,340.7,M,-23.7,M,0.8,0000*43
$GPGSA,A,3,12,25,05,15,02,29,26,,,,,,4.8,1.9,4.4*3E
$GPRMC,113717.000,A,3353.7511,N,09832.0219,W,0.41,323.62,310312,,,D*74
$GPGGA,113718.000,3353.7512,N,09832.0219,W,2,07,1.9,340.0,M,-23.7,M,0.8,0000*48
$GPGSA,A,3,12,25,05,15,02,29,26,,,,,,4.8,1.9,4.4*3E
$GPRMC,113718.000,A,3353.7512,N,09832.0219,W,0.40,320.51,310312,,,D*7A
$GPGGA,113719.000,3353.7512,N,09832.0219,W,2,07,1.9,339.4,M,-23.7,M,1.8,0000*42
$GPGSA,A,3,12,25,05,15,02,29,26,,,,,,4.8,1.9,4.4*3E
$GPRMC,113719.000,A,3353.7512,N,09832.0219,W,0.39,321.26,310312,,,D*74
$GPGGA,113720.000,3353.7513,N,09832.0219,W,2,07,1.9,338.8,M,-23.7,M,2.8,0000*47
$GPGSA,A,3,12,25,05,15,02,29,26,,,,,,4.8,1.9,4.4*3E
$GPGSV,3,1,12,05,59,044,29,29,55,320,24,25,38,239,27,02,29,070,35*7F
$GPGSV,3,2,12,26,29,126,29,12,22,195,15,15,16,168,34,21,16,279,18*7A
$GPGSV,3,3,12,18,08,224,17,10,04,044,21,30,00,326,,51,49,195,33*7F
$GPRMC,113720.000,A,3353.7513,N,09832.0219,W,0.73,325.48,310312,,,D*7D
$GPGGA,113721.000,3353.7514,N,09832.0219,W,2,07,1.9,338.4,M,-23.7,M,0.8,0000*4F
$GPGSA,A,3,12,25,05,15,02,29,26,,,,,,4.8,1.9,4.4*3E
$GPRMC,113721.000,A,3353.7514,N,09832.0219,W,0.65,334.62,310312,,,D*74
$GPGGA,113722.000,3353.7514,N,09832.0217,W,2,07,1.9,338.2,M,-23.7,M,0.8,0000*44
$GPGSA,A,3,12,25,05,15,02,29,26,,,,,,4.8,1.9,4.4*3E
$GPRMC,113722.000,A,3353.7514,N,09832.0217,W,0.48,351.44,310312,,,D*71
$GPGGA,113723.000,3353.7514,N,09832.0216,W,2,07,1.9,338.1,M,-23.7,M,0.8,0000*47
$GPGSA,A,3,12,25,05,15,02,29,26,,,,,,4.8,1.9,4.4*3E
$GPRMC,113723.000,A,3353.7514,N,09832.0216,W,0.57,338.58,310312,,,D*7D
$GPGGA,113724.000,3353.7514,N,09832.0214,W,2,07,1.9,338.2,M,-23.7,M,1.8,0000*40
$GPGSA,A,3,12,25,05,15,02,29,26,,,,,,4.8,1.9,4.4*3E
$GPRMC,113724.000,A,3353.7514,N,09832.0214,W,0.30,0.23,310312,,,D*7D
$GPGGA,113725.000,3353.7513,N,09832.0212,W,2,07,1.9,338.3,M,-23.7,M,2.8,0000*42
$GPGSA,A,3,12,25,05,15,02,29,26,,,,,,4.8,1.9,4.4*3E
$GPGSV,3,1,12,05,59,044,29,29,55,320,23,25,38,239,28,02,29,070,35*77
$GPGSV,3,2,12,26,29,126,29,12,22,195,15,15,16,168,33,21,16,279,19*7C
$GPGSV,3,3,12,18,08,224,17,10,04,044,21,30,00,326,,51,49,195,33*7F
$GPRMC,113725.000,A,3353.7513,N,09832.0212,W,0.51,334.27,310312,,,D*7A
$GPGGA,113726.000,3353.7513,N,09832.0211,W,2,07,1.9,338.5,M,-23.7,M,3.8,0000*45
$GPGSA,A,3,12,25,05,15,02,29,26,,,,,,4.8,1.9,4.4*3E
$GPRMC,113726.000,A,3353.7513,N,09832.0211,W,0.53,332.49,310312,,,D*76
$GPGGA,113727.000,3353.7512,N,09832.0210,W,2,07,1.9,338.6,M,-23.7,M,0.8,0000*44
$GPGSA,A,3,12,25,05,15,02,29,26,,,,,,4.8,1.9,4.4*3E
$GPRMC,113727.000,A,3353.7512,N,09832.0210,W,0.28,343.41,310312,,,D*75
$GPGGA,113728.000,3353.7511,N,09832.0208,W,2,07,1.9,338.8,M,-23.7,M,0.8,0000*4F
$GPGSA,A,3,12,25,05,15,02,29,26,,,,,,4.8,1.9,4.4*3E
$GPRMC,113728.000,A,3353.7511,N,09832.0208,W,0.37,346.71,310312,,,D*78
$GPGGA,113729.000,3353.7511,N,09832.0207,W,2,07,1.9,338.8,M,-23.7,M,0.8,0000*41
$GPGSA,A,3,12,25,05,15,02,29,26,,,,,,4.8,1.9,4.4*3E
$GPRMC,113729.000,A,3353.7511,N,09832.0207,W,0.49,341.67,310312,,,D*7F
$GPGGA,113730.000,3353.7511,N,09832.0206,W,2,07,1.9,339.0,M,-23.7,M,0.8,0000*41
$GPGSA,A,3,12,25,05,15,02,29,26,,,,,,4.8,1.9,4.4*3E
$GPGSV,3,1,12,05,59,044,30,29,55,320,23,25,38,239,29,02,29,070,35*7E
$GPGSV,3,2,12,26,29,126,29,12,22,195,16,15,16,168,33,21,16,279,19*7F
$GPGSV,3,3,12,18,08,224,17,10,04,044,21,30,00,326,,51,49,195,33*7F
$GPRMC,113730.000,A,3353.7511,N,09832.0206,W,0.43,345.48,310312,,,D*75
$GPGGA,113731.000,3353.7510,N,09832.0205,W,2,07,1.9,339.0,M,-23.7,M,1.8,0000*43
$GPGSA,A,3,12,25,05,15,02,29,26,,,,,,4.8,1.9,4.4*3E
$GPRMC,113731.000,A,3353.7510,N,09832.0205,W,0.41,327.77,310312,,,D*7C
$GPGGA,113732.000,3353.7510,N,09832.0204,W,2,07,1.9,338.9,M,-23.7,M,2.8,0000*4A
$GPGSA,A,3,12,25,05,15,02,29,26,,,,,,4.8,1.9,4.4*3E
$GPRMC,113732.000,A,3353.7510,N,09832.0204,W,0.27,328.79,310312,,,D*7F
$GPGGA,113733.000,3353.7509,N,09832.0202,W,2,07,1.9,339.0,M,-23.7,M,0.8,0000*4F
$GPGSA,A,3,12,25,05,15,02,29,26,,,,,,4.8,1.9,4.4*3E
$GPRMC,113733.000,A,3353.7509,N,09832.0202,W,0.11,37.72,310312,,,D*43
$GPGGA,113734.000,3353.7508,N,09832.0200,W,2,07,1.9,339.0,M,-23.7,M,0.8,0000*4B
$GPGSA,A,3,12,25,05,15,02,29,26,,,,,,4.8,1.9,4.4*3E
$GPRMC,113734.000,A,3353.7508,N,09832.0200,W,0.11,133.92,310312,,,D*7C
$GPGGA,113735.000,3353.7506,N,09832.0199,W,2,07,1.9,339.2,M,-23.7,M,0.8,0000*45
$GPGSA,A,3,12,25,05,15,02,29,26,,,,,,4.8,1.9,4.4*3E
$GPGSV,3,1,12,05,59,044,31,29,55,320,22,25,38,239,31,02,29,070,35*77
$GPGSV,3,2,12,26,29,126,29,12,22,195,16,15,16,168,33,21,16,279,19*7F
$GPGSV,3,3,12,18,08,224,16,10,04,044,21,30,00,326,,51,49,195,33*7E
$GPRMC,113735.000,A,3353.7506,N,09832.0199,W,0.28,305.44,310312,,,D*76
$GPGGA,113736.000,3353.7505,N,09832.0198,W,2,07,1.9,339.3,M,-23.7,M,1.8,0000*44
$GPGSA,A,3,12,25,05,15,02,29,26,,,,,,4.8,1.9,4.4*3E
$GPRMC,113736.000,A,3353.7505,N,09832.0198,W,0.12,220.97,310312,,,D*76
$GPGGA,113737.000,3353.7503,N,09832.0197,W,2,07,1.9,339.4,M,-23.7,M,2.8,0000*48
$GPGSA,A,3,12,25,05,15,02,29,26,,,,,,4.8,1.9,4.4*3E
$GPRMC,113737.000,A,3353.7503,N,09832.0197,W,0.10,212.98,310312,,,D*72
$GPGGA,113738.000,3353.7502,N,09832.0196,W,2,07,1.9,339.5,M,-23.7,M,3.8,0000*47
$GPGSA,A,3,12,25,05,15,02,29,26,,,,,,4.8,1.9,4.4*3E
$GPRMC,113738.000,A,3353.7502,N,09832.0196,W,0.17,285.19,310312,,,D*7D
$GPGGA,113739.000,3353.7501,N,09832.0195,W,2,07,1.9,339.7,M,-23.7,M,0.8,0000*47
$GPGSA,A,3,12,25,05,15,02,29,26,,,,,,4.8,1.9,4.4*3E
$GPRMC,113739.000,A,3353.7501,N,09832.0195,W,0.11,213.64,310312,,,D*7F
$GPGGA,113740.000,3353.7500,N,09832.0194,W,2,07,1.9,339.9,M,-23.7,M,0.8,0000*47
$GPGSA,A,3,12,25,05,15,02,29,26,,,,,,4.8,1.9,4.4*3E
$GPGSV,3,1,12,05,59,044,31,29,55,320,22,25,38,239,31,02,29,070,35*77
$GPGSV,3,2,12,26,29,126,29,12,22,195,15,15,16,168,32,21,16,279,20*77
$GPGSV,3,3,12,18,08,224,15,10,04,044,21,30,00,326,,51,49,195,33*7D
$GPRMC,113740.000,A,3353.7500,N,09832.0194,W,0.24,291.83,310312,,,D*74
$GPGGA,113741.000,3353.7499,N,09832.0194,W,2,07,1.9,339.9,M,-23.7,M,0.8,0000*47
$GPGSA,A,3,12,25,05,15,02,29,26,,,,,,4.8,1.9,4.4*3E
$GPRMC,113741.000,A,3353.7499,N,09832.0194,W,0.37,311.09,310312,,,D*7D
$GPGGA,113742.000,3353.7498,N,09832.0193,W,2,07,1.9,340.0,M,-23.7,M,1.8,0000*44
$GPGSA,A,3,12,25,05,15,02,29,26,,,,,,4.8,1.9,4.4*3E
$GPRMC,113742.000,A,3353.7498,N,09832.0193,W,0.07,237.23,310312,,,D*76
$GPGGA,113743.000,3353.7497,N,09832.0192,W,2,07,1.9,340.2,M,-23.7,M,2.8,0000*4A
$GPGSA,A,3,12,25,05,15,02,29,26,,,,,,4.8,1.9,4.4*3E
$GPRMC,113743.000,A,3353.7497,N,09832.0192,W,0.08,211.34,310312,,,D*74
$GPGGA,113744.000,3353.7496,N,09832.0191,W,2,07,1.9,340.2,M,-23.7,M,3.8,0000*4E
$GPGSA,A,3,12,25,05,15,02,29,26,,,,,,4.8,1.9,4.4*3E
$GPRMC,113744.000,A,3353.7496,N,09832.0191,W,0.10,204.32,310312,,,D*7A
$GPGGA,113745.000,3353.7495,N,09832.0190,W,2,07,1.9,340.2,M,-23.7,M,0.8,0000*4E
$GPGSA,A,3,12,25,05,15,02,29,26,,,,,,4.8,1.9,4.4*3E
$GPGSV,3,1,12,05,59,044,32,29,55,320,23,25,38,239,32,02,29,070,35*76
$GPGSV,3,2,12,26,29,126,29,12,22,195,17,15,16,168,32,21,16,279,20*75
$GPGSV,3,3,12,18,08,224,,10,04,044,20,30,00,326,,51,49,195,33*78
$GPRMC,113745.000,A,3353.7495,N,09832.0190,W,0.17,306.40,310312,,,D*78
$GPGGA,113746.000,3353.7495,N,09832.0190,W,2,07,1.9,340.2,M,-23.7,M,0.8,0000*4D
$GPGSA,A,3,12,25,05,15,02,29,26,,,,,,4.8,1.9,4.4*3E
$GPRMC,113746.000,A,3353.7495,N,09832.0190,W,0.29,306.97,310312,,,D*7C
$GPGGA,113747.000,3353.7494,N,09832.0189,W,2,07,1.9,340.3,M,-23.7,M,0.8,0000*44
$GPGSA,A,3,12,25,05,15,02,29,26,,,,,,4.8,1.9,4.4*3E
$GPRMC,113747.000,A,3353.7494,N,09832.0189,W,0.13,192.28,310312,,,D*76
$GPGGA,113748.000,3353.7493,N,09832.0188,W,2,07,1.9,340.4,M,-23.7,M,0.8,0000*4A
$GPGSA,A,3,12,25,05,15,02,29,26,,,,,,4.8,1.9,4.4*3E
$GPRMC,113748.000,A,3353.7493,N,09832.0188,W,0.11,261.08,310312,,,D*70
$GPGGA,113749.000,3353.7493,N,09832.0188,W,2,07,1.9,340.4,M,-23.7,M,0.8,0000*4B
$GPGSA,A,3,12,25,05,15,02,29,26,,,,,,4.8,1.9,4.4*3E
$GPRMC,113749.000,A,3353.7493,N,09832.0188,W,0.05,308.62,310312,,,D*76
$GPGGA,113750.000,3353.7492,N,09832.0187,W,2,07,1.9,340.5,M,-23.7,M,1.8,0000*4D
$GPGSA,A,3,12,25,05,15,02,29,26,,,,,,4.8,1.9,4.4*3E
$GPGSV,3,1,12,05,59,044,32,29,56,320,23,25,37,238,31,26,30,125,30*72
$GPGSV,3,2,12,02,29,070,35,12,22,195,19,15,17,168,32,21,17,280,19*7E
$GPGSV,3,3,12,18,09,224,,10,03,044,19,30,01,326,,51,49,195,33*75
$GPRMC,113750.000,A,3353.7492,N,09832.0187,W,0.10,48.78,310312,,,D*48
$GPGGA,113751.000,3353.7492,N,09832.0186,W,2,07,1.9,340.7,M,-23.7,M,0.8,0000*4E
$GPGSA,A,3,12,25,05,15,02,29,26,,,,,,4.8,1.9,4.4*3E
$GPRMC,113751.000,A,3353.7492,N,09832.0186,W,0.11,341.88,310312,,,D*7C
$GPGGA,113752.000,3353.7491,N,09832.0186,W,2,07,1.9,340.8,M,-23.7,M,0.8,0000*41
$GPGSA,A,3,12,25,05,15,02,29,26,,,,,,4.8,1.9,4.4*3E
$GPRMC,113752.000,A,3353.7491,N,09832.0186,W,0.03,83.81,310312,,,D*4B
$GPGGA,113753.000,3353.7491,N,09832.0186,W,2,07,1.9,340.7,M,-23.7,M,0.8,0000*4F
$GPGSA,A,3,12,25,05,15,02,29,26,,,,,,4.8,1.9,4.4*3E
$GPRMC,113753.000,A,3353.7491,N,09832.0186,W,0.10,259.48,310312,,,D*78
$GPGGA,113754.000,3353.7491,N,09832.0186,W,2,07,1.9,340.7,M,-23.7,M,0.8,0000*48
$GPGSA,A,3,12,25,05,15,02,29,26,,,,,,4.8,1.9,4.4*3E
$GPRMC,113754.000,A,3353.7491,N,09832.0186,W,0.21,304.26,310312,,,D*7C
$GPGGA,113755.000,3353.7491,N,09832.0187,W,2,07,1.9,340.7,M,-23.7,M,1.8,0000*49
$GPGSA,A,3,12,25,05,15,02,29,26,,,,,,4.8,1.9,4.4*3E
$GPGSV,3,1,12,05,59,044,32,29,56,320,23,25,37,238,30,26,30,125,31*72
$GPGSV,3,2,12,02,29,070,35,12,22,195,20,15,17,168,31,21,17,280,18*76
$GPGSV,3,3,12,18,09,224,,10,03,044,18,30,01,326,,51,49,195,33*74
$GPRMC,113755.000,A,3353.7491,N,09832.0187,W,0.22,324.15,310312,,,D*7D
$GPGGA,113756.000,3353.7492,N,09832.0187,W,2,07,1.9,340.6,M,-23.7,M,2.8,0000*4B
$GPGSA,A,3,12,25,05,15,02,29,26,,,,,,4.8,1.9,4.4*3E
$GPRMC,113756.000,A,3353.7492,N,09832.0187,W,0.37,325.28,310312,,,D*76
$GPGGA,113757.000,3353.7493,N,09832.0188,W,2,07,1.9,340.5,M,-23.7,M,0.8,0000*45
$GPGSA,A,3,12,25,05,15,02,29,26,,,,,,4.8,1.9,4.4*3E
$GPRMC,113757.000,A,3353.7493,N,09832.0188,W,0.52,332.87,310312,,,D*79
$GPGGA,113758.000,3353.7494,N,09832.0188,W,2,07,1.9,340.3,M,-23.7,M,0.8,0000*4B
$GPGSA,A,3,12,25,05,15,02,29,26,,,,,,4.8,1.9,4.4*3E
$GPRMC,113758.000,A,3353.7494,N,09832.0188,W,0.45,334.44,310312,,,D*7E
$GPGGA,113759.000,3353.7494,N,09832.0189,W,2,07,1.9,340.1,M,-23.7,M,0.8,0000*49
$GPGSA,A,3,12,25,05,15,02,29,26,,,,,,4.8,1.9,4.4*3E
$GPRMC,113759.000,A,3353.7494,N,09832.0189,W,0.25,310.53,310312,,,D*78
$GPGGA,113800.000,3353.7494,N,09832.0189,W,2,07,1.9,340.0,M,-23.7,M,1.8,0000*4A
$GPGSA,A,3,12,25,05,15,02,29,26,,,,,,4.8,1.9,4.4*3E
$GPGSV,3,1,12,05,59,044,32,29,56,320,23,25,37,238,30,26,30,125,31*72
$GPGSV,3,2,12,02,29,070,34,12,22,195,21,15,17,168,31,21,17,280,17*79
$GPGSV,3,3,12,18,09,224,,10,03,044,18,30,01,326,,51,49,195,33*74
$GPRMC,113800.000,A,3353.7494,N,09832.0189,W,0.11,33.34,310312,,,D*4F
$GPGGA,113801.000,3353.7494,N,09832.0189,W,2,07,1.9,339.9,M,-23.7,M,2.8,0000*4F
$GPGSA,A,3,12,25,05,15,02,29,26,,,,,,4.8,1.9,4.4*3E
$GPRMC,113801.000,A,3353.7494,N,09832.0189,W,0.16,310.97,310312,,,D*72
$GPGGA,113802.000,3353.7495,N,09832.0189,W,2,07,1.9,339.7,M,-23.7,M,3.8,0000*42
$GPGSA,A,3,12,25,05,15,02,29,26,,,,,,4.8,1.9,4.4*3E
$GPRMC,113802.000,A,3353.7495,N,09832.0189,W,0.42,337.94,310312,,,D*77
$GPGGA,113803.000,3353.7495,N,09832.0190,W,2,07,1.9,339.6,M,-23.7,M,0.8,0000*49
$GPGSA,A,3,12,25,05,15,02,29,26,,,,,,4.8,1.9,4.4*3E
$GPRMC,113803.000,A,3353.7495,N,09832.0190,W,0.39,312.43,310312,,,D*7F
$GPGGA,113804.000,3353.7496,N,09832.0191,W,2,07,1.9,339.3,M,-23.7,M,0.8,0000*49
$GPGSA,A,3,12,25,05,15,02,29,26,,,,,,4.8,1.9,4.4*3E
$GPRMC,113804.000,A,3353.7496,N,09832.0191,W,0.48,303.97,310312,,,D*75
$GPGGA,113805.000,3353.7496,N,09832.0192,W,2,07,1.9,339.3,M,-23.7,M,0.8,0000*4B
$GPGSA,A,3,12,25,05,15,02,29,26,,,,,,4.8,1.9,4.4*3E
$GPGSV,3,1,12,05,59,044,32,29,56,320,23,25,37,238,28,26,30,125,32*78
$GPGSV,3,2,12,02,29,070,34,12,22,195,22,15,17,168,31,21,17,280,16*7B
$GPGSV,3,3,12,18,09,224,,10,03,044,17,30,01,326,,51,49,195,33*7B
$GPRMC,113805.000,A,3353.7496,N,09832.0192,W,0.51,330.15,310312,,,D*75
$GPGGA,113806.000,3353.7497,N,09832.0193,W,2,07,1.9,339.3,M,-23.7,M,1.8,0000*49
$GPGSA,A,3,12,25,05,15,02,29,26,,,,,,4.8,1.9,4.4*3E
$GPRMC,113806.000,A,3353.7497,N,09832.0193,W,0.15,332.72,310312,,,D*75
$GPGGA,113807.000,3353.7496,N,09832.0193,W,2,07,1.9,339.4,M,-23.7,M,2.8,0000*4D
$GPGSA,A,3,12,25,05,15,02,29,26,,,,,,4.8,1.9,4.4*3E
$GPRMC,113807.000,A,3353.7496,N,09832.0193,W,0.14,17.60,310312,,,D*43
$GPGGA,113808.000,3353.7496,N,09832.0193,W,2,07,1.9,339.4,M,-23.7,M,0.8,0000*40
$GPGSA,A,3,12,25,05,15,02,29,26,,,,,,4.8,1.9,4.4*3E
$GPRMC,113808.000,A,3353.7496,N,09832.0193,W,0.07,123.99,310312,,,D*7E
$GPGGA,113809.000,3353.7495,N,09832.0193,W,2,07,1.9,339.5,M,-23.7,M,0.8,0000*43
$GPGSA,A,3,12,25,05,15,02,29,26,,,,,,4.8,1.9,4.4*3E
$GPRMC,113809.000,A,3353.7495,N,09832.0193,W,0.13,131.49,310312,,,D*77
$GPGGA,113810.000,3353.7495,N,09832.0193,W,2,07,1.9,339.4,M,-23.7,M,0.8,0000*4A
$GPGSA,A,3,12,25,05,15,02,29,26,,,,,,4.8,1.9,4.4*3E
$GPGSV,3,1,12,05,58,044,32,29,56,320,22,25,37,238,28,26,30,125,33*79
$GPGSV,3,2,12,02,29,070,34,12,21,195,21,15,17,168,32,21,17,280,16*78
$GPGSV,3,3,12,18,09,224,,10,03,044,16,30,01,326,,51,49,195,33*7A
$GPRMC,113810.000,A,3353.7495,N,09832.0193,W,0.12,264.93,310312,,,D*7A
$GPGGA,113811.000,3353.7496,N,09832.0195,W,2,07,1.9,339.0,M,-23.7,M,0.8,0000*4A
$GPGSA,A,3,12,25,05,15,02,29,26,,,,,,4.8,1.9,4.4*3E
$GPRMC,113811.000,A,3353.7496,N,09832.0195,W,0.36,301.01,310312,,,D*71
$GPGGA,113812.000,3353.7496,N,09832.0195,W,2,07,1.9,338.8,M,-23.7,M,1.8,0000*41
$GPGSA,A,3,12,25,05,15,02,29,26,,,,,,4.8,1.9,4.4*3E
$GPRMC,113812.000,A,3353.7496,N,09832.0195,W,0.14,240.65,310312,,,D*74
$GPGGA,113813.000,3353.7496,N,09832.0196,W,2,07,1.9,338.6,M,-23.7,M,2.8,0000*4E
$GPGSA,A,3,12,25,05,15,02,29,26,,,,,,4.8,1.9,4.4*3E
$GPRMC,113813.000,A,3353.7496,N,09832.0196,W,0.33,340.56,310312,,,D*72
$GPGGA,113814.000,3353.7498,N,09832.0197,W,2,07,1.9,338.3,M,-23.7,M,3.8,0000*42
$GPGSA,A,3,12,25,05,15,02,29,26,,,,,,4.8,1.9,4.4*3E
$GPRMC,113814.000,A,3353.7498,N,09832.0197,W,0.43,340.39,310312,,,D*74
$GPGGA,113815.000,3353.7499,N,09832.0198,W,2,07,1.9,338.1,M,-23.7,M,0.8,0000*4C
$GPGSA,A,3,12,25,05,15,02,29,26,,,,,,4.8,1.9,4.4*3E
$GPGSV,3,1,12,05,58,044,32,29,56,320,22,25,37,238,27,26,30,125,33*76
$GPGSV,3,2,12,02,29,070,34,12,21,195,20,15,17,168,32,21,17,280,16*79
$GPGSV,3,3,12,18,09,224,,10,03,044,16,30,01,326,,51,49,195,33*7A
$GPRMC,113815.000,A,3353.7499,N,09832.0198,W,0.59,334.27,310312,,,D*7C
$GPGGA,113816.000,3353.7500,N,09832.0198,W,2,07,1.9,337.9,M,-23.7,M,0.8,0000*49
$GPGSA,A,3,12,25,05,15,02,29,26,,,,,,4.8,1.9,4.4*3E
$GPRMC,113816.000,A,3353.7500,N,09832.0198,W,0.19,344.49,310312,,,D*75
$GPGGA,113817.000,3353.7500,N,09832.0199,W,2,07,1.9,337.9,M,-23.7,M,0.8,0000*49
$GPGSA,A,3,12,25,05,15,02,29,26,,,,,,4.8,1.9,4.4*3E
$GPRMC,113817.000,A,3353.7500,N,09832.0199,W,0.48,330.63,310312,,,D*7A
$GPGGA,113818.000,3353.7500,N,09832.0200,W,2,07,1.9,337.8,M,-23.7,M,0.8,0000*44
$GPGSA,A,3,12,25,05,15,02,29,26,,,,,,4.8,1.9,4.4*3E
$GPRMC,113818.000,A,3353.7500,N,09832.0200,W,0.12,326.26,310312,,,D*7F
$GPGGA,113819.000,3353.7501,N,09832.0200,W,2,07,1.9,337.8,M,-23.7,M,1.8,0000*45
$GPGSA,A,3,12,25,05,15,02,29,26,,,,,,4.8,1.9,4.4*3E
$GPRMC,113819.000,A,3353.7501,N,09832.0200,W,0.40,338.48,310312,,,D*7F
$GPGGA,113820.000,3353.7501,N,09832.0200,W,2,07,1.9,337.7,M,-23.7,M,0.8,0000*41
$GPGSA,A,3,12,25,05,15,02,29,26,,,,,,4.8,1.9,4.4*3E
$GPGSV,3,1,12,05,58,044,31,29,56,320,21,25,37,238,27,26,30,125,33*76
$GPGSV,3,2,12,02,29,071,35,12,21,195,19,15,17,168,32,21,17,280,16*73
$GPGSV,3,3,12,18,09,224,21,10,03,044,17,30,01,326,,51,49,195,33*78
$GPRMC,113820.000,A,3353.7501,N,09832.0200,W,0.14,15.50,310312,,,D*41
$GPGGA,113821.000,3353.7501,N,09832.0200,W,2,07,1.9,337.7,M,-23.7,M,0.8,0000*40
$GPGSA,A,3,12,25,05,15,02,29,26,,,,,,4.8,1.9,4.4*3E
$GPRMC,113821.000,A,3353.7501,N,09832.0200,W,0.29,315.70,310312,,,D*7F
$GPGGA,113822.000,3353.7501,N,09832.0201,W,2,07,1.9,337.7,M,-23.7,M,0.8,0000*42
$GPGSA,A,3,12,25,05,15,02,29,26,,,,,,4.8,1.9,4.4*3E
$GPRMC,113822.000,A,3353.7501,N,09832.0201,W,0.32,304.67,310312,,,D*71
$GPGGA,113823.000,3353.7501,N,09832.0201,W,2,07,1.9,337.6,M,-23.7,M,0.8,0000*42
$GPGSA,A,3,12,25,05,15,02,29,26,,,,,,4.8,1.9,4.4*3E
$GPRMC,113823.000,A,3353.7501,N,09832.0201,W,0.16,268.18,310312,,,D*75
$GPGGA,113824.000,3353.7500,N,09832.0201,W,2,07,1.9,337.5,M,-23.7,M,1.8,0000*46
$GPGSA,A,3,12,25,05,15,02,29,26,,,,,,4.8,1.9,4.4*3E
$GPRMC,113824.000,A,3353.7500,N,09832.0201,W,0.09,329.49,310312,,,D*7D
$GPGGA,113825.000,3353.7500,N,09832.0201,W,2,07,1.9,337.5,M,-23.7,M,2.8,0000*44
$GPGSA,A,3,12,25,05,15,02,29,26,,,,,,4.8,1.9,4.4*3E
$GPGSV,3,1,12,05,58,044,31,29,56,320,21,25,37,238,27,26,30,125,32*77
$GPGSV,3,2,12,02,29,071,34,12,21,195,18,15,17,168,32,21,17,280,15*70
$GPGSV,3,3,12,18,09,224,21,10,03,044,18,30,01,326,,51,49,195,33*77
$GPRMC,113825.000,A,3353.7500,N,09832.0201,W,0.20,77.20,310312,,,D*40
$GPGGA,113826.000,3353.7500,N,09832.0200,W,2,07,1.9,337.6,M,-23.7,M,3.8,0000*44
$GPGSA,A,3,12,25,05,15,02,29,26,,,,,,4.8,1.9,4.4*3E
$GPRMC,113826.000,A,3353.7500,N,09832.0200,W,0.26,13.75,310312,,,D*46
$GPGGA,113827.000,3353.7499,N,09832.0199,W,2,07,1.9,337.7,M,-23.7,M,0.8,0000*45
$GPGSA,A,3,12,25,05,15,02,29,26,,,,,,4.8,1.9,4.4*3E
$GPRMC,113827.000,A,3353.7499,N,09832.0199,W,0.22,63.28,310312,,,D*4E
$GPGGA,113828.000,3353.7499,N,09832.0198,W,2,07,1.9,337.8,M,-23.7,M,0.8,0000*44
$GPGSA,A,3,12,25,05,15,02,29,26,,,,,,4.8,1.9,4.4*3E
$GPRMC,113828.000,A,3353.7499,N,09832.0198,W,0.24,93.18,310312,,,D*4A
$GPGGA,113829.000,3353.7498,N,09832.0198,W,2,07,1.9,338.0,M,-23.7,M,0.8,0000*43
$GPGSA,A,3,12,25,05,15,02,29,26,,,,,,4.8,1.9,4.4*3E
$GPRMC,113829.000,A,3353.7498,N,09832.0198,W,0.21,140.70,310312,,,D*7E
$GPGGA,113830.000,3353.7497,N,09832.0197,W,2,07,1.9,338.1,M,-23.7,M,1.8,0000*4B
$GPGSA,A,3,12,25,05,15,02,29,26,,,,,,4.8,1.9,4.4*3E
$GPGSV,3,1,12,05,58,044,31,29,56,320,20,25,37,238,27,26,30,125,33*77
$GPGSV,3,2,12,02,29,071,34,12,21,195,18,15,17,168,32,21,17,280,16*73
$GPGSV,3,3,12,18,09,224,21,10,03,044,19,30,01,326,,51,49,195,33*76
$GPRMC,113830.000,A,3353.7497,N,09832.0197,W,0.26,158.01,310312,,,D*7E
$GPGGA,113831.000,3353.7496,N,09832.0198,W,2,07,1.9,338.2,M,-23.7,M,2.8,0000*44
$GPGSA,A,3,12,25,05,15,02,29,26,,,,,,4.8,1.9,4.4*3E
$GPRMC,113831.000,A,3353.7496,N,09832.0198,W,0.31,287.76,310312,,,D*76
$GPGGA,113832.000,3353.7496,N,09832.0198,W,2,07,1.9,338.4,M,-23.7,M,3.8,0000*40
$GPGSA,A,3,12,25,05,15,02,29,26,,,,,,4.8,1.9,4.4*3E
$GPRMC,113832.000,A,3353.7496,N,09832.0198,W,0.24,347.60,310312,,,D*7B
$GPGGA,113833.000,3353.7497,N,09832.0199,W,2,07,1.9,338.5,M,-23.7,M,0.8,0000*43
$GPGSA,A,3,12,25,05,15,02,29,26,,,,,,4.8,1.9,4.4*3E
$GPRMC,113833.000,A,3353.7497,N,09832.0199,W,0.42,338.59,310312,,,D*78
$GPGGA,113834.000,3353.7497,N,09832.0199,W,2,07,1.9,338.6,M,-23.7,M,0.8,0000*47
$GPGSA,A,3,12,25,05,15,02,29,26,,,,,,4.8,1.9,4.4*3E
$GPRMC,113834.000,A,3353.7497,N,09832.0199,W,0.10,5.78,310312,,,D*76
$GPGGA,113835.000,3353.7496,N,09832.0198,W,2,07,1.9,338.8,M,-23.7,M,0.8,0000*48
$GPGSA,A,3,12,25,05,15,02,29,26,,,,,,4.8,1.9,4.4*3E
$GPGSV,3,1,12,05,58,044,30,29,56,320,21,25,37,238,28,26,30,125,33*78
$GPGSV,3,2,12,02,29,071,34,12,21,195,17,15,17,168,32,21,17,280,16*7C
$GPGSV,3,3,12,18,09,224,20,10,03,044,19,30,01,326,,51,49,195,33*77
$GPRMC,113835.000,A,3353.7496,N,09832.0198,W,0.14,114.93,310312,,,D*77
$GPGGA,113836.000,3353.7496,N,09832.0198,W,2,07,1.9,338.9,M,-23.7,M,0.8,0000*4A
$GPGSA,A,3,12,25,05,15,02,29,26,,,,,,4.8,1.9,4.4*3E
$GPRMC,113836.000,A,3353.7496,N,09832.0198,W,0.18,355.50,310312,,,D*70
$GPGGA,113837.000,3353.7496,N,09832.0198,W,2,07,1.9,339.1,M,-23.7,M,0.8,0000*42
$GPGSA,A,3,12,25,05,15,02,29,26,,,,,,4.8,1.9,4.4*3E
$GPRMC,113837.000,A,3353.7496,N,09832.0198,W,0.19,6.25,310312,,,D*77
$GPGGA,113838.000,3353.7496,N,09832.0198,W,2,07,1.9,339.3,M,-23.7,M,1.8,0000*4E
$GPGSA,A,3,12,25,05,15,02,29,26,,,,,,4.8,1.9,4.4*3E
$GPRMC,113838.000,A,3353.7496,N,09832.0198,W,0.28,343.16,310312,,,D*78
$GPGGA,113839.000,3353.7496,N,09832.0199,W,2,07,1.9,339.5,M,-23.7,M,0.8,0000*49
$GPGSA,A,3,12,25,05,15,02,29,26,,,,,,4.8,1.9,4.4*3E
$GPRMC,113839.000,A,3353.7496,N,09832.0199,W,0.09,32.22,310312,,,D*49
$GPGGA,113840.000,3353.7496,N,09832.0199,W,2,07,1.9,339.5,M,-23.7,M,0.8,0000*47
$GPGSA,A,3,12,25,05,15,02,29,26,,,,,,4.8,1.9,4.4*3E
$GPGSV,3,1,12,05,58,044,30,29,56,320,21,25,37,238,28,26,30,125,34*7F
$GPGSV,3,2,12,02,29,071,34,12,21,195,17,15,17,168,32,21,17,280,17*7D
$GPGSV,3,3,12,18,09,224,11,10,03,044,19,30,01,326,,51,49,195,33*75
$GPRMC,113840.000,A,3353.7496,N,09832.0199,W,0.15,174.51,310312,,,D*7D
$GPGGA,113841.000,3353.7496,N,09832.0200,W,2,07,1.9,339.4,M,-23.7,M,0.8,0000*44
$GPGSA,A,3,12,25,05,15,02,29,26,,,,,,4.8,1.9,4.4*3E
$GPRMC,113841.000,A,3353.7496,N,09832.0200,W,0.20,284.95,310312,,,D*7D
$GPGGA,113842.000,3353.7497,N,09832.0201,W,2,07,1.9,339.3,M,-23.7,M,1.8,0000*41
$GPGSA,A,3,12,25,05,15,02,29,26,,,,,,4.8,1.9,4.4*3E
$GPRMC,113842.000,A,3353.7497,N,09832.0201,W,0.37,296.23,310312,,,D*76
$GPGGA,113843.000,3353.7497,N,09832.0202,W,2,07,1.9,339.1,M,-23.7,M,2.8,0000*42
$GPGSA,A,3,12,25,05,15,02,29,26,,,,,,4.8,1.9,4.4*3E
$GPRMC,113843.000,A,3353.7497,N,09832.0202,W,0.47,300.20,310312,,,D*7E
$GPGGA,113844.000,3353.7498,N,09832.0203,W,2,07,1.9,338.9,M,-23.7,M,3.8,0000*43
$GPGSA,A,3,12,25,05,15,02,29,26,,,,,,4.8,1.9,4.4*3E
$GPRMC,113844.000,A,3353.7498,N,09832.0203,W,0.16,264.83,310312,,,D*79
$GPGGA,113845.000,3353.7498,N,09832.0203,W,2,07,1.9,338.8,M,-23.7,M,0.8,0000*40
$GPGSA,A,3,12,25,05,15,02,29,26,,,,,,4.8,1.9,4.4*3E
$GPGSV,3,1,12,05,58,044,29,29,56,320,20,25,37,238,28,26,30,125,35*77
$GPGSV,3,2,12,02,29,071,33,12,21,195,18,15,17,168,32,21,17,280,19*7B
$GPGSV,3,3,12,18,09,224,,10,03,044,19,30,01,326,,51,49,195,33*75
$GPRMC,113845.000,A,3353.7498,N,09832.0203,W,0.05,197.37,310312,,,D*7A
$GPGGA,113846.000,3353.7498,N,09832.0203,W,2,07,1.9,338.6,M,-23.7,M,0.8,0000*4D
$GPGSA,A,3,12,25,05,15,02,29,26,,,,,,4.8,1.9,4.4*3E
$GPRMC,113846.000,A,3353.7498,N,09832.0203,W,0.13,94.18,310312,,,D*41
$GPGGA,113847.000,3353.7498,N,09832.0203,W,2,07,1.9,338.5,M,-23.7,M,0.8,0000*4F
$GPGSA,A,3,12,25,05,15,02,29,26,,,,,,4.8,1.9,4.4*3E
$GPRMC,113847.000,A,3353.7498,N,09832.0203,W,0.34,338.02,310312,,,D*7B
$GPGGA,113848.000,3353.7499,N,09832.0203,W,2,07,1.9,338.6,M,-23.7,M,1.8,0000*43
$GPGSA,A,3,12,25,05,15,02,29,26,,,,,,4.8,1.9,4.4*3E
$GPRMC,113848.000,A,3353.7499,N,09832.0203,W,0.12,40.18,310312,,,D*46
$GPGGA,113849.000,3353.7499,N,09832.0203,W,2,07,1.9,338.5,M,-23.7,M,0.8,0000*40
$GPGSA,A,3,12,25,05,15,02,29,26,,,,,,4.8,1.9,4.4*3E
$GPRMC,113849.000,A,3353.7499,N,09832.0203,W,0.09,178.52,310312,,,D*79
$GPGGA,113850.000,3353.7499,N,09832.0203,W,2,07,1.9,338.5,M,-23.7,M,1.8,0000*49
$GPGSA,A,3,12,25,05,15,02,29,26,,,,,,4.8,1.9,4.4*3E
$GPGSV,3,1,12,05,58,044,29,29,56,320,19,25,37,238,28,26,30,125,35*7D
$GPGSV,3,2,12,02,29,071,32,12,21,195,20,15,17,168,32,21,17,280,20*7B
$GPGSV,3,3,12,18,09,224,,10,03,044,18,30,01,326,,51,49,195,33*74
$GPRMC,113850.000,A,3353.7499,N,09832.0203,W,0.32,331.71,310312,,,D*77
$GPGGA,113851.000,3353.7499,N,09832.0204,W,2,07,1.9,338.6,M,-23.7,M,0.8,0000*4D
$GPGSA,A,3,12,25,05,15,02,29,26,,,,,,4.8,1.9,4.4*3E
$GPRMC,113851.000,A,3353.7499,N,09832.0204,W,0.08,272.59,310312,,,D*74
$GPGGA,113852.000,3353.7499,N,09832.0204,W,2,07,1.9,338.5,M,-23.7,M,0.8,0000*4D
$GPGSA,A,3,12,25,05,15,02,29,26,,,,,,4.8,1.9,4.4*3E
$GPRMC,113852.000,A,3353.7499,N,09832.0204,W,0.07,213.56,310312,,,D*70
$GPGGA,113853.000,3353.7500,N,09832.0205,W,2,07,1.9,338.4,M,-23.7,M,0.8,0000*4D
$GPGSA,A,3,12,25,05,15,02,29,26,,,,,,4.8,1.9,4.4*3E
$GPRMC,113853.000,A,3353.7500,N,09832.0205,W,0.39,328.63,310312,,,D*73
$GPGGA,113854.000,3353.7500,N,09832.0206,W,2,07,1.9,338.4,M,-23.7,M,0.8,0000*49
$GPGSA,A,3,12,25,05,15,02,29,26,,,,,,4.8,1.9,4.4*3E
$GPRMC,113854.000,A,3353.7500,N,09832.0206,W,0.14,339.30,310312,,,D*7E
$GPGGA,113855.000,3353.7501,N,09832.0206,W,2,07,1.9,338.4,M,-23.7,M,1.8,0000*48
$GPGSA,A,3,12,25,05,15,02,29,26,,,,,,4.8,1.9,4.4*3E
$GPGSV,3,1,12,05,58,044,29,29,56,320,17,25,37,238,28,26,30,125,35*73
