$GPGGA,124338.000,3351.4503,N,09831.2505,W,1,08,1.0,294.8,M,-23.7,M,20.8,0000*77
$GPGSA,A,3,15,21,25,26,29,05,18,02,,,,,1.8,1.0,1.5*3F
$GPRMC,124338.000,A,3351.4503,N,09831.2505,W,8.74,212.08,310312,,,A*74
$GPGGA,124339.000,3351.4496,N,09831.2516,W,1,07,1.2,295.4,M,-23.7,M,20.8,0000*79
$GPGSA,A,3,15,21,25,26,29,18,02,,,,,,1.9,1.2,1.6*3A
$GPRMC,124339.000,A,3351.4496,N,09831.2516,W,4.51,232.46,310312,,,A*79
$GPGGA,124340.000,3351.4494,N,09831.2526,W,1,08,1.0,295.8,M,-23.7,M,20.8,0000*77
$GPGSA,A,3,15,21,25,26,29,05,18,02,,,,,1.8,1.0,1.5*3F
$GPGSV,3,1,10,29,81,252,29,15,45,153,29,26,44,087,28,21,34,302,27*7E
$GPGSV,3,2,10,18,32,242,33,05,31,045,21,25,15,215,29,02,10,094,29*7B
$GPGSV,3,3,10,30,09,302,25,16,01,326,*75
$GPRMC,124340.000,A,3351.4494,N,09831.2526,W,3.71,247.70,310312,,,A*74
$GPGGA,124341.000,3351.4493,N,09831.2537,W,1,08,1.0,296.2,M,-23.7,M,20.8,0000*78
$GPGSA,A,3,15,21,25,26,29,05,18,02,,,,,1.8,1.0,1.5*3F
$GPRMC,124341.000,A,3351.4493,N,09831.2537,W,3.75,260.62,310312,,,A*70
$GPGGA,124342.000,3351.4493,N,09831.2548,W,1,08,1.0,296.6,M,-23.7,M,20.8,0000*77
$GPGSA,A,3,15,21,25,26,29,05,18,02,,,,,1.8,1.0,1.5*3F
$GPRMC,124342.000,A,3351.4493,N,09831.2548,W,3.70,260.18,310312,,,A*73
$GPGGA,124343.000,3351.4490,N,09831.2561,W,1,08,1.0,296.9,M,-23.7,M,20.8,0000*71
$GPGSA,A,3,15,21,25,26,29,05,18,02,,,,,1.8,1.0,1.5*3F
$GPRMC,124343.000,A,3351.4490,N,09831.2561,W,4.83,248.43,310312,,,A*75
$GPGGA,124344.000,3351.4487,N,09831.2579,W,1,08,1.0,297.1,M,-23.7,M,20.8,0000*70
$GPGSA,A,3,15,21,25,26,29,05,18,02,,,,,1.8,1.0,1.5*3F
$GPRMC,124344.000,A,3351.4487,N,09831.2579,W,5.80,253.10,310312,,,A*73
$GPGGA,124345.000,3351.4482,N,09831.2599,W,1,08,1.0,297.0,M,-23.7,M,20.8,0000*7B
$GPGSA,A,3,15,21,25,26,29,05,18,02,,,,,1.8,1.0,1.5*3F
$GPGSV,3,1,10,29,81,252,33,15,45,153,30,26,44,087,26,21,34,302,24*70
$GPGSV,3,2,10,18,32,242,28,05,31,045,28,25,15,215,24,02,10,094,25*79
$GPGSV,3,3,10,30,09,302,14,16,01,326,14*72
$GPRMC,124345.000,A,3351.4482,N,09831.2599,W,6.88,245.90,310312,,,A*7D
$GPGGA,124346.000,3351.4470,N,09831.2619,W,1,08,1.0,296.9,M,-23.7,M,20.8,0000*76
$GPGSA,A,3,15,21,25,26,29,05,18,02,,,,,1.8,1.0,1.5*3F
$GPRMC,124346.000,A,3351.4470,N,09831.2619,W,7.90,229.66,310312,,,A*73
$GPGGA,124347.000,3351.4456,N,09831.2634,W,1,07,1.1,296.7,M,-23.7,M,20.8,0000*7C
$GPGSA,A,3,15,21,26,29,05,18,02,,,,,,2.1,1.1,1.8*3E
$GPRMC,124347.000,A,3351.4456,N,09831.2634,W,7.29,218.27,310312,,,A*7C
$GPGGA,124348.000,3351.4443,N,09831.2648,W,1,07,1.1,296.5,M,-23.7,M,20.8,0000*7E
$GPGSA,A,3,15,21,26,29,05,18,02,,,,,,2.1,1.1,1.8*3E
$GPRMC,124348.000,A,3351.4443,N,09831.2648,W,6.58,220.70,310312,,,A*72
$GPGGA,124349.000,3351.4436,N,09831.2664,W,1,08,1.0,296.3,M,-23.7,M,20.8,0000*7B
$GPGSA,A,3,15,21,25,26,29,05,18,02,,,,,1.8,1.0,1.5*3F
$GPRMC,124349.000,A,3351.4436,N,09831.2664,W,5.70,235.89,310312,,,A*74
$GPGGA,124350.000,3351.4434,N,09831.2683,W,1,08,1.0,296.2,M,-23.7,M,20.8,0000*79
$GPGSA,A,3,15,21,25,26,29,05,18,02,,,,,1.8,1.0,1.5*3F
$GPGSV,3,1,10,29,81,252,33,15,45,153,20,26,44,087,28,21,34,302,23*78
$GPGSV,3,2,10,18,32,242,22,05,31,045,27,25,15,215,27,02,10,094,18*71
$GPGSV,3,3,10,30,09,302,25,16,01,326,*75
$GPRMC,124350.000,A,3351.4434,N,09831.2683,W,5.74,257.42,310312,,,A*70
$GPGGA,124351.000,3351.4436,N,09831.2703,W,1,08,1.0,296.1,M,-23.7,M,20.8,0000*70
$GPGSA,A,3,15,21,25,26,29,05,18,02,,,,,1.8,1.0,1.5*3F
$GPRMC,124351.000,A,3351.4436,N,09831.2703,W,5.96,268.30,310312,,,A*7F
$GPGGA,124352.000,3351.4439,N,09831.2723,W,1,08,1.0,295.8,M,-23.7,M,20.8,0000*74
$GPGSA,A,3,15,21,25,26,29,05,18,02,,,,,1.8,1.0,1.5*3F
$GPRMC,124352.000,A,3351.4439,N,09831.2723,W,5.60,275.11,310312,,,A*77
$GPGGA,124353.000,3351.4442,N,09831.2740,W,1,08,1.0,295.6,M,-23.7,M,20.8,0000*72
$GPGSA,A,3,15,21,25,26,29,05,18,02,,,,,1.8,1.0,1.5*3F
$GPRMC,124353.000,A,3351.4442,N,09831.2740,W,5.20,275.99,310312,,,A*7B
$GPGGA,124354.000,3351.4449,N,09831.2757,W,1,08,1.0,295.4,M,-23.7,M,20.8,0000*7A
$GPGSA,A,3,15,21,25,26,29,05,18,02,,,,,1.8,1.0,1.5*3F
$GPRMC,124354.000,A,3351.4449,N,09831.2757,W,5.22,289.80,310312,,,A*78
$GPGGA,124355.000,3351.4459,N,09831.2769,W,1,08,1.0,295.2,M,-23.7,M,20.8,0000*71
$GPGSA,A,3,15,21,25,26,29,05,18,02,,,,,1.8,1.0,1.5*3F
$GPGSV,3,1,10,29,81,252,34,15,45,153,21,26,44,087,32,21,34,302,28*7E
$GPGSV,3,2,10,18,32,242,24,05,31,045,33,25,15,215,26,02,10,094,25*7D
$GPGSV,3,3,10,30,09,302,25,16,01,326,*75
$GPRMC,124355.000,A,3351.4459,N,09831.2769,W,4.57,314.65,310312,,,A*78
$GPGGA,124356.000,3351.4472,N,09831.2776,W,1,07,1.1,294.9,M,-23.7,M,20.8,0000*71
$GPGSA,A,3,15,21,25,26,29,05,02,,,,,,1.9,1.1,1.5*36
$GPRMC,124356.000,A,3351.4472,N,09831.2776,W,4.13,333.44,310312,,,A*7A
$GPGGA,124357.000,3351.4483,N,09831.2776,W,1,07,1.4,294.6,M,-23.7,M,20.8,0000*74
$GPGSA,A,3,15,25,26,29,05,18,02,,,,,,2.1,1.4,1.6*31
$GPRMC,124357.000,A,3351.4483,N,09831.2776,W,3.32,5.17,310312,,,A*71
$GPGGA,124358.000,3351.4491,N,09831.2776,W,1,08,1.0,294.3,M,-23.7,M,20.8,0000*76
$GPGSA,A,3,15,25,26,29,05,18,21,02,,,,,1.8,1.0,1.5*3F
$GPRMC,124358.000,A,3351.4491,N,09831.2776,W,2.50,15.40,310312,,,A*4B
$GPGGA,124359.000,3351.4497,N,09831.2776,W,1,08,1.0,293.9,M,-23.7,M,20.8,0000*7C
$GPGSA,A,3,15,25,26,29,05,18,21,02,,,,,1.8,1.0,1.5*3F
$GPRMC,124359.000,A,3351.4497,N,09831.2776,W,1.25,15.25,310312,,,A*4E
$GPGGA,124400.000,3351.4500,N,09831.2776,W,1,08,1.0,293.4,M,-23.7,M,20.8,0000*75
$GPGSA,A,3,15,25,26,29,05,18,21,02,,,,,1.8,1.0,1.5*3F
$GPGSV,3,1,11,29,81,252,25,15,45,153,32,26,44,087,34,21,34,302,27*74
$GPGSV,3,2,11,18,32,242,28,05,31,045,24,25,15,215,20,02,10,094,25*70
$GPGSV,3,3,11,30,09,302,28,16,01,326,,51,49,195,35*4B
$GPRMC,124400.000,A,3351.4500,N,09831.2776,W,0.56,24.46,310312,,,A*48
$GPGGA,124401.000,3351.4500,N,09831.2777,W,1,08,1.0,292.9,M,-23.7,M,20.8,0000*79
$GPGSA,A,3,15,25,26,29,05,18,21,02,,,,,1.8,1.0,1.5*3F
$GPRMC,124401.000,A,3351.4500,N,09831.2777,W,0.30,183.77,310312,,,A*76
$GPGGA,124402.000,3351.4502,N,09831.2777,W,1,08,1.0,292.5,M,-23.7,M,20.8,0000*74
$GPGSA,A,3,15,25,26,29,05,18,21,02,,,,,1.8,1.0,1.5*3F
$GPRMC,124402.000,A,3351.4502,N,09831.2777,W,0.17,31.35,310312,,,A*4C
$GPGGA,124403.000,3351.4513,N,09831.2784,W,2,08,1.0,289.7,M,-23.7,M,0.8,0000*40
$GPGSA,A,3,15,25,26,29,05,18,21,02,,,,,1.8,1.0,1.5*3F
$GPRMC,124403.000,A,3351.4513,N,09831.2784,W,0.40,40.32,310312,,,D*47
$GPGGA,124404.000,3351.4514,N,09831.2783,W,2,08,1.0,289.6,M,-23.7,M,0.8,0000*46
$GPGSA,A,3,15,25,26,29,05,18,21,02,,,,,1.8,1.0,1.5*3F
$GPRMC,124404.000,A,3351.4514,N,09831.2783,W,0.20,72.50,310312,,,D*43
$GPGGA,124405.000,3351.4513,N,09831.2783,W,2,08,1.0,289.4,M,-23.7,M,0.8,0000*42
$GPGSA,A,3,15,25,26,29,05,18,21,02,,,,,1.8,1.0,1.5*3F
$GPGSV,3,1,11,29,81,252,33,15,45,153,33,26,44,087,35,21,34,302,30*75
$GPGSV,3,2,11,18,32,242,33,05,31,045,18,25,15,215,24,02,10,094,25*71
$GPGSV,3,3,11,30,09,302,29,16,01,326,,51,49,195,36*49
$GPRMC,124405.000,A,3351.4513,N,09831.2783,W,0.31,185.55,310312,,,D*79
$GPGGA,124406.000,3351.4512,N,09831.2784,W,2,08,1.0,288.8,M,-23.7,M,1.8,0000*4B
$GPGSA,A,3,15,25,26,29,05,18,21,02,,,,,1.8,1.0,1.5*3F
$GPRMC,124406.000,A,3351.4512,N,09831.2784,W,0.53,192.02,310312,,,D*7C
$GPGGA,124407.000,3351.4511,N,09831.2786,W,2,08,1.0,288.3,M,-23.7,M,2.8,0000*43
$GPGSA,A,3,15,25,26,29,05,18,21,02,,,,,1.8,1.0,1.5*3F
$GPRMC,124407.000,A,3351.4511,N,09831.2786,W,0.31,195.85,310312,,,D*70
$GPGGA,124408.000,3351.4510,N,09831.2787,W,2,08,1.0,288.0,M,-23.7,M,0.8,0000*4D
$GPGSA,A,3,15,25,26,29,05,18,21,02,,,,,1.8,1.0,1.5*3F
$GPRMC,124408.000,A,3351.4510,N,09831.2787,W,0.15,179.31,310312,,,D*74
$GPGGA,124409.000,3351.4510,N,09831.2787,W,2,08,1.0,287.7,M,-23.7,M,0.8,0000*44
$GPGSA,A,3,15,25,26,29,05,18,21,02,,,,,1.8,1.0,1.5*3F
$GPRMC,124409.000,A,3351.4510,N,09831.2787,W,0.20,173.78,310312,,,D*74
$GPGGA,124410.000,3351.4510,N,09831.2787,W,2,08,1.0,287.4,M,-23.7,M,0.8,0000*4F
$GPGSA,A,3,15,25,26,29,05,18,21,02,,,,,1.8,1.0,1.5*3F
$GPGSV,3,1,11,29,81,252,32,15,45,153,34,26,44,087,36,21,34,302,31*71
$GPGSV,3,2,11,18,32,242,38,05,31,045,19,25,15,215,25,02,10,094,25*7A
$GPGSV,3,3,11,30,09,302,30,16,01,326,,51,49,195,35*42
$GPRMC,124410.000,A,3351.4510,N,09831.2787,W,0.13,51.53,310312,,,D*44
$GPGGA,124411.000,3351.4510,N,09831.2787,W,2,08,1.0,287.1,M,-23.7,M,0.8,0000*4B
$GPGSA,A,3,15,25,26,29,05,18,21,02,,,,,1.8,1.0,1.5*3F
$GPRMC,124411.000,A,3351.4510,N,09831.2787,W,0.27,39.73,310312,,,D*4E
$GPGGA,124412.000,3351.4511,N,09831.2786,W,2,08,1.0,286.7,M,-23.7,M,0.8,0000*4F
$GPGSA,A,3,15,25,26,29,05,18,21,02,,,,,1.8,1.0,1.5*3F
$GPRMC,124412.000,A,3351.4511,N,09831.2786,W,0.32,57.96,310312,,,D*4A
$GPGGA,124413.000,3351.4512,N,09831.2786,W,2,08,1.0,286.2,M,-23.7,M,1.8,0000*49
$GPGSA,A,3,15,25,26,29,05,18,21,02,,,,,1.8,1.0,1.5*3F
$GPRMC,124413.000,A,3351.4512,N,09831.2786,W,0.42,59.48,310312,,,D*42
$GPGGA,124414.000,3351.4513,N,09831.2785,W,2,08,1.0,285.8,M,-23.7,M,2.8,0000*46
$GPGSA,A,3,15,25,26,29,05,18,21,02,,,,,1.8,1.0,1.5*3F
$GPRMC,124414.000,A,3351.4513,N,09831.2785,W,0.33,41.01,310312,,,D*45
$GPGGA,124415.000,3351.4513,N,09831.2785,W,2,08,1.0,285.6,M,-23.7,M,0.8,0000*4B
$GPGSA,A,3,15,25,26,29,05,18,21,02,,,,,1.8,1.0,1.5*3F
$GPGSV,3,1,11,29,81,252,33,15,45,153,34,26,44,087,35,21,34,302,32*70
$GPGSV,3,2,11,18,32,242,36,05,31,045,18,25,15,215,26,02,10,094,21*72
$GPGSV,3,3,11,30,09,302,28,16,01,326,,51,49,195,37*49
$GPRMC,124415.000,A,3351.4513,N,09831.2785,W,0.26,18.03,310312,,,D*4E
$GPGGA,124416.000,3351.4514,N,09831.2785,W,2,08,1.0,285.4,M,-23.7,M,0.8,0000*4D
$GPGSA,A,3,15,25,26,29,05,18,21,02,,,,,1.8,1.0,1.5*3F
$GPRMC,124416.000,A,3351.4514,N,09831.2785,W,0.20,39.00,310312,,,D*4C
$GPGGA,124417.000,3351.4514,N,09831.2786,W,2,08,1.0,285.4,M,-23.7,M,0.8,0000*4F
$GPGSA,A,3,15,25,26,29,05,18,21,02,,,,,1.8,1.0,1.5*3F
$GPRMC,124417.000,A,3351.4514,N,09831.2786,W,0.08,178.36,310312,,,D*75
$GPGGA,124418.000,3351.4514,N,09831.2786,W,2,08,1.0,285.6,M,-23.7,M,1.8,0000*43
$GPGSA,A,3,15,25,26,29,05,18,21,02,,,,,1.8,1.0,1.5*3F
$GPRMC,124418.000,A,3351.4514,N,09831.2786,W,0.17,212.38,310312,,,D*75
$GPGGA,124419.000,3351.4514,N,09831.2787,W,2,08,1.0,285.7,M,-23.7,M,0.8,0000*43
$GPGSA,A,3,15,25,26,29,05,18,21,02,,,,,1.8,1.0,1.5*3F
$GPRMC,124419.000,A,3351.4514,N,09831.2787,W,0.17,353.40,310312,,,D*7E
$GPGGA,124420.000,3351.4515,N,09831.2788,W,2,08,1.0,285.8,M,-23.7,M,1.8,0000*49
$GPGSA,A,3,15,25,26,29,05,18,21,02,,,,,1.8,1.0,1.5*3F
$GPGSV,3,1,11,29,81,252,33,15,45,153,34,26,44,087,34,21,34,302,33*70
$GPGSV,3,2,11,18,32,242,36,05,31,045,19,25,15,215,26,02,10,094,20*72
$GPGSV,3,3,11,30,09,302,27,16,01,326,,51,49,195,38*49
$GPRMC,124420.000,A,3351.4515,N,09831.2788,W,0.29,8.96,310312,,,D*71
$GPGGA,124421.000,3351.4515,N,09831.2788,W,2,08,1.0,285.9,M,-23.7,M,0.8,0000*48
$GPGSA,A,3,15,25,26,29,05,18,21,02,,,,,1.8,1.0,1.5*3F
$GPRMC,124421.000,A,3351.4515,N,09831.2788,W,0.16,196.96,310312,,,D*7A
$GPGGA,124422.000,3351.4514,N,09831.2788,W,2,08,1.0,285.9,M,-23.7,M,0.8,0000*4A
$GPGSA,A,3,15,25,26,29,05,18,21,02,,,,,1.8,1.0,1.5*3F
$GPRMC,124422.000,A,3351.4514,N,09831.2788,W,0.15,71.37,310312,,,D*48
$GPGGA,124423.000,3351.4513,N,09831.2787,W,2,07,1.1,286.0,M,-23.7,M,0.8,0000*47
$GPGSA,A,3,15,25,26,29,05,18,21,,,,,,2.2,1.1,2.0*33
$GPRMC,124423.000,A,3351.4513,N,09831.2787,W,0.18,53.53,310312,,,D*4E
$GPGGA,124424.000,3351.4513,N,09831.2787,W,2,07,1.1,286.0,M,-23.7,M,1.8,0000*41
$GPGSA,A,3,15,25,26,29,05,18,21,,,,,,2.2,1.1,2.0*33
$GPRMC,124424.000,A,3351.4513,N,09831.2787,W,0.25,41.57,310312,,,D*40
$GPGGA,124425.000,3351.4512,N,09831.2787,W,2,07,1.1,286.0,M,-23.7,M,0.8,0000*40
$GPGSA,A,3,15,25,26,29,05,18,21,,,,,,2.2,1.1,2.0*33
$GPGSV,3,1,11,29,81,252,33,15,45,153,34,26,44,087,34,21,34,302,34*77
$GPGSV,3,2,11,18,32,242,36,05,31,045,20,25,15,215,25,02,10,094,*79
$GPGSV,3,3,11,30,09,302,28,16,01,326,,51,49,195,38*46
$GPRMC,124425.000,A,3351.4512,N,09831.2787,W,0.10,61.24,310312,,,D*40
$GPGGA,124426.000,3351.4511,N,09831.2787,W,2,07,1.1,286.2,M,-23.7,M,1.8,0000*43
$GPGSA,A,3,15,25,26,29,05,18,21,,,,,,2.2,1.1,2.0*33
$GPRMC,124426.000,A,3351.4511,N,09831.2787,W,0.19,187.50,310312,,,D*73
$GPGGA,124427.000,3351.4510,N,09831.2787,W,2,07,1.1,286.3,M,-23.7,M,0.8,0000*43
$GPGSA,A,3,15,25,26,29,05,18,21,,,,,,2.2,1.1,2.0*33
$GPRMC,124427.000,A,3351.4510,N,09831.2787,W,0.15,166.43,310312,,,D*72
$GPGGA,124428.000,3351.4509,N,09831.2787,W,2,07,1.1,286.4,M,-23.7,M,0.8,0000*43
$GPGSA,A,3,15,25,26,29,05,18,21,,,,,,2.2,1.1,2.0*33
$GPRMC,124428.000,A,3351.4509,N,09831.2787,W,0.12,80.91,310312,,,D*44
$GPGGA,124429.000,3351.4509,N,09831.2786,W,2,07,1.1,286.6,M,-23.7,M,0.8,0000*41
$GPGSA,A,3,15,25,26,29,05,18,21,,,,,,2.2,1.1,2.0*33
$GPRMC,124429.000,A,3351.4509,N,09831.2786,W,0.10,128.74,310312,,,D*7E
$GPGGA,124430.000,3351.4508,N,09831.2786,W,2,08,1.0,286.7,M,-23.7,M,1.8,0000*46
$GPGSA,A,3,15,25,26,29,05,18,21,02,,,,,1.8,1.0,1.5*3F
$GPGSV,3,1,11,29,81,252,34,15,45,153,33,26,44,087,34,21,34,302,34*77
$GPGSV,3,2,11,18,32,242,36,05,31,045,21,25,15,215,26,02,10,094,12*78
$GPGSV,3,3,11,30,09,302,29,16,01,326,,51,49,195,37*48
$GPRMC,124430.000,A,3351.4508,N,09831.2786,W,0.10,111.08,310312,,,D*76
$GPGGA,124431.000,3351.4508,N,09831.2786,W,2,08,1.0,286.9,M,-23.7,M,2.8,0000*4A
$GPGSA,A,3,15,25,26,29,05,18,21,02,,,,,1.8,1.0,1.5*3F
$GPRMC,124431.000,A,3351.4508,N,09831.2786,W,0.12,125.79,310312,,,D*74
$GPGGA,124432.000,3351.4507,N,09831.2785,W,2,08,1.0,287.0,M,-23.7,M,3.8,0000*4C
$GPGSA,A,3,15,25,26,29,05,18,21,02,,,,,1.8,1.0,1.5*3F
$GPRMC,124432.000,A,3351.4507,N,09831.2785,W,0.09,105.51,310312,,,D*79
$GPGGA,124433.000,3351.4507,N,09831.2785,W,2,09,0.9,287.1,M,-23.7,M,0.8,0000*46
$GPGSA,A,3,15,25,26,30,29,05,18,21,02,,,,1.6,0.9,1.3*3C
$GPRMC,124433.000,A,3351.4507,N,09831.2785,W,0.01,94.99,310312,,,D*4D
$GPGGA,124434.000,3351.4507,N,09831.2786,W,2,08,0.9,287.2,M,-23.7,M,0.8,0000*40
$GPGSA,A,3,15,25,30,29,05,18,21,02,,,,,1.6,0.9,1.4*3F
$GPRMC,124434.000,A,3351.4507,N,09831.2786,W,0.11,339.99,310312,,,D*7C
$GPGGA,124435.000,3351.4507,N,09831.2785,W,2,09,0.9,287.1,M,-23.7,M,0.8,0000*40
$GPGSA,A,3,15,25,26,30,29,05,18,21,02,,,,1.6,0.9,1.3*3C
$GPGSV,3,1,11,29,80,246,33,15,45,152,32,26,44,086,30,21,35,302,34*70
$GPGSV,3,2,11,18,33,242,35,05,30,046,22,25,15,214,26,02,10,095,16*7F
$GPGSV,3,3,11,30,10,301,29,16,01,325,,51,49,195,39*4E
$GPRMC,124435.000,A,3351.4507,N,09831.2785,W,0.15,213.99,310312,,,D*73
$GPGGA,124436.000,3351.4506,N,09831.2785,W,2,09,0.9,287.2,M,-23.7,M,1.8,0000*40
$GPGSA,A,3,15,25,26,30,29,05,18,21,02,,,,1.6,0.9,1.3*3C
$GPRMC,124436.000,A,3351.4506,N,09831.2785,W,0.14,220.23,310312,,,D*71
$GPGGA,124437.000,3351.4506,N,09831.2785,W,2,09,0.9,287.1,M,-23.7,M,2.8,0000*41
$GPGSA,A,3,15,25,26,30,29,05,18,21,02,,,,1.6,0.9,1.3*3C
$GPRMC,124437.000,A,3351.4506,N,09831.2785,W,0.20,74.81,310312,,,D*4C
$GPGGA,124438.000,3351.4506,N,09831.2784,W,2,09,0.9,287.0,M,-23.7,M,3.8,0000*4F
$GPGSA,A,3,15,25,26,30,29,05,18,21,02,,,,1.6,0.9,1.3*3C
$GPRMC,124438.000,A,3351.4506,N,09831.2784,W,0.17,48.50,310312,,,D*45
$GPGGA,124439.000,3351.4507,N,09831.2783,W,2,09,0.9,287.0,M,-23.7,M,0.8,0000*4B
$GPGSA,A,3,15,25,26,30,29,05,18,21,02,,,,1.6,0.9,1.3*3C
$GPRMC,124439.000,A,3351.4507,N,09831.2783,W,0.18,23.64,310312,,,D*47
$GPGGA,124440.000,3351.4507,N,09831.2782,W,2,09,0.9,286.9,M,-23.7,M,0.8,0000*4C
$GPGSA,A,3,15,25,26,30,29,05,18,21,02,,,,1.6,0.9,1.3*3C
$GPGSV,3,1,11,29,80,246,33,15,45,152,32,26,44,086,32,21,35,302,35*73
$GPGSV,3,2,11,18,33,242,35,05,30,046,23,25,15,214,26,02,10,095,21*7A
$GPGSV,3,3,11,30,10,301,30,16,01,325,,51,49,195,36*49
$GPRMC,124440.000,A,3351.4507,N,09831.2782,W,0.08,125.53,310312,,,D*7A
$GPGGA,124441.000,3351.4507,N,09831.2782,W,2,09,0.9,287.0,M,-23.7,M,0.8,0000*45
$GPGSA,A,3,15,25,26,30,29,05,18,21,02,,,,1.6,0.9,1.3*3C
$GPRMC,124441.000,A,3351.4507,N,09831.2782,W,0.09,0.38,310312,,,D*71
$GPGGA,124442.000,3351.4507,N,09831.2781,W,2,08,1.0,286.9,M,-23.7,M,0.8,0000*44
$GPGSA,A,3,15,25,26,30,29,05,18,21,,,,,2.0,1.0,1.7*37
$GPRMC,124442.000,A,3351.4507,N,09831.2781,W,0.07,97.87,310312,,,D*45
$GPGGA,124443.000,3351.4506,N,09831.2781,W,2,08,1.0,286.9,M,-23.7,M,1.8,0000*45
$GPGSA,A,3,15,25,26,30,29,05,18,21,,,,,2.0,1.0,1.7*37
$GPRMC,124443.000,A,3351.4506,N,09831.2781,W,0.19,45.81,310312,,,D*43
$GPGGA,124444.000,3351.4506,N,09831.2779,W,2,08,1.0,286.8,M,-23.7,M,0.8,0000*45
$GPGSA,A,3,15,25,26,30,29,05,18,21,,,,,2.0,1.0,1.7*37
$GPRMC,124444.000,A,3351.4506,N,09831.2779,W,0.21,54.28,310312,,,D*4B
$GPGGA,124445.000,3351.4506,N,09831.2778,W,2,08,1.0,286.6,M,-23.7,M,0.8,0000*4B
$GPGSA,A,3,15,25,26,30,29,05,18,21,,,,,2.0,1.0,1.7*37
$GPGSV,3,1,11,29,80,246,32,15,45,152,31,26,44,086,32,21,35,302,35*71
$GPGSV,3,2,11,18,33,242,35,05,30,046,24,25,15,214,25,02,10,095,*7D
$GPGSV,3,3,11,30,10,301,30,16,01,325,,51,49,195,37*48
$GPRMC,124445.000,A,3351.4506,N,09831.2778,W,0.08,150.71,310312,,,D*79
$GPGGA,124446.000,3351.4505,N,09831.2777,W,2,08,1.0,286.5,M,-23.7,M,0.8,0000*47
$GPGSA,A,3,15,25,26,30,29,05,18,21,,,,,2.0,1.0,1.7*37
$GPRMC,124446.000,A,3351.4505,N,09831.2777,W,0.04,218.57,310312,,,D*71
$GPGGA,124447.000,3351.4505,N,09831.2776,W,2,08,1.0,286.4,M,-23.7,M,0.8,0000*46
$GPGSA,A,3,15,25,26,30,29,05,18,21,,,,,2.0,1.0,1.7*37
$GPRMC,124447.000,A,3351.4505,N,09831.2776,W,0.22,38.05,310312,,,D*42
$GPGGA,124448.000,3351.4504,N,09831.2776,W,2,08,1.0,286.3,M,-23.7,M,1.8,0000*4E
$GPGSA,A,3,15,25,26,30,29,05,18,21,,,,,2.0,1.0,1.7*37
$GPRMC,124448.000,A,3351.4504,N,09831.2776,W,0.07,196.98,310312,,,D*7A
$GPGGA,124449.000,3351.4503,N,09831.2776,W,2,08,1.0,286.2,M,-23.7,M,0.8,0000*48
$GPGSA,A,3,15,25,26,30,29,05,18,21,,,,,2.0,1.0,1.7*37
$GPRMC,124449.000,A,3351.4503,N,09831.2776,W,0.28,200.33,310312,,,D*7C
$GPGGA,124450.000,3351.4502,N,09831.2776,W,2,08,1.0,286.1,M,-23.7,M,1.8,0000*43
$GPGSA,A,3,15,25,26,30,29,05,18,21,,,,,2.0,1.0,1.7*37
$GPGSV,3,1,11,29,80,246,32,15,45,152,31,26,44,086,32,21,35,302,35*71
$GPGSV,3,2,11,18,33,242,35,05,30,046,24,25,15,214,24,02,10,095,*7C
$GPGSV,3,3,11,30,10,301,29,16,01,325,,51,49,195,44*44
$GPRMC,124450.000,A,3351.4502,N,09831.2776,W,0.38,203.30,310312,,,D*74
$GPGGA,124451.000,3351.4501,N,09831.2776,W,2,08,1.0,286.0,M,-23.7,M,0.8,0000*41
$GPGSA,A,3,15,25,26,30,29,05,18,21,,,,,2.0,1.0,1.7*37
$GPRMC,124451.000,A,3351.4501,N,09831.2776,W,0.17,66.81,310312,,,D*40
$GPGGA,124452.000,3351.4500,N,09831.2775,W,2,09,0.9,285.9,M,-23.7,M,0.8,0000*43
$GPGSA,A,3,15,25,26,30,29,05,18,21,02,,,,1.6,0.9,1.3*3C
$GPRMC,124452.000,A,3351.4500,N,09831.2775,W,0.07,92.29,310312,,,D*49
$GPGGA,124453.000,3351.4499,N,09831.2775,W,2,09,0.9,285.9,M,-23.7,M,0.8,0000*43
$GPGSA,A,3,15,25,26,30,29,05,18,21,02,,,,1.6,0.9,1.3*3C
$GPRMC,124453.000,A,3351.4499,N,09831.2775,W,0.31,201.44,310312,,,D*7F
$GPGGA,124454.000,3351.4499,N,09831.2775,W,2,09,0.9,285.8,M,-23.7,M,1.8,0000*44
$GPGSA,A,3,15,25,26,30,29,05,18,21,02,,,,1.6,0.9,1.3*3C
$GPRMC,124454.000,A,3351.4499,N,09831.2775,W,0.07,86.61,310312,,,D*47
$GPGGA,124455.000,3351.4498,N,09831.2775,W,2,09,0.9,285.9,M,-23.7,M,2.8,0000*46
$GPGSA,A,3,15,25,26,30,29,05,18,21,02,,,,1.6,0.9,1.3*3C
$GPGSV,3,1,11,29,80,246,32,15,45,152,30,26,44,086,33,21,35,302,34*70
$GPGSV,3,2,11,18,33,242,35,05,30,046,24,25,15,214,19,02,10,095,14*77
$GPGSV,3,3,11,30,10,301,29,16,01,325,,51,49,195,37*40
$GPRMC,124455.000,A,3351.4498,N,09831.2775,W,0.08,353.31,310312,,,D*76
$GPGGA,124456.000,3351.4498,N,09831.2774,W,2,09,0.9,285.9,M,-23.7,M,3.8,0000*45
$GPGSA,A,3,15,25,26,30,29,05,18,21,02,,,,1.6,0.9,1.3*3C
$GPRMC,124456.000,A,3351.4498,N,09831.2774,W,0.31,36.28,310312,,,D*46
$GPGGA,124457.000,3351.4498,N,09831.2775,W,2,08,1.0,285.9,M,-23.7,M,0.8,0000*4F
$GPGSA,A,3,15,25,26,30,29,05,18,21,,,,,2.0,1.0,1.7*37
$GPRMC,124457.000,A,3351.4498,N,09831.2775,W,0.18,211.04,310312,,,D*74
$GPGGA,124458.000,3351.4497,N,09831.2775,W,2,08,1.0,285.7,M,-23.7,M,0.8,0000*41
$GPGSA,A,3,15,25,26,30,29,05,18,21,,,,,2.0,1.0,1.7*37
$GPRMC,124458.000,A,3351.4497,N,09831.2775,W,0.14,157.29,310312,,,D*76
$GPGGA,124459.000,3351.4496,N,09831.2775,W,2,08,1.0,285.6,M,-23.7,M,0.8,0000*40
$GPGSA,A,3,15,25,26,30,29,05,18,21,,,,,2.0,1.0,1.7*37
$GPRMC,124459.000,A,3351.4496,N,09831.2775,W,0.16,178.83,310312,,,D*79
$GPGGA,124500.000,3351.4496,N,09831.2775,W,2,08,1.0,285.7,M,-23.7,M,1.8,0000*4D
$GPGSA,A,3,15,25,26,30,29,05,18,21,,,,,2.0,1.0,1.7*37
$GPGSV,3,1,11,29,80,246,32,15,45,152,30,26,44,086,33,21,35,302,35*71
$GPGSV,3,2,11,18,33,242,34,05,30,046,23,25,15,214,19,02,10,095,*74
$GPGSV,3,3,11,30,10,301,29,16,01,325,,51,49,195,39*4E
$GPRMC,124500.000,A,3351.4496,N,09831.2775,W,0.00,165.01,310312,,,D*75
$GPGGA,124501.000,3351.4495,N,09831.2776,W,2,08,1.0,285.8,M,-23.7,M,2.8,0000*40
$GPGSA,A,3,15,25,26,30,29,05,18,21,,,,,2.0,1.0,1.7*37
$GPRMC,124501.000,A,3351.4495,N,09831.2776,W,0.07,281.31,310312,,,D*79
$GPGGA,124502.000,3351.4495,N,09831.2776,W,2,08,1.0,285.9,M,-23.7,M,0.8,0000*40
$GPGSA,A,3,15,25,26,30,29,05,18,21,,,,,2.0,1.0,1.7*37
$GPRMC,124502.000,A,3351.4495,N,09831.2776,W,0.24,213.82,310312,,,D*78
$GPGGA,124503.000,3351.4495,N,09831.2777,W,2,08,1.0,286.0,M,-23.7,M,0.8,0000*4A
$GPGSA,A,3,15,25,26,30,29,05,18,21,,,,,2.0,1.0,1.7*37
$GPRMC,124503.000,A,3351.4495,N,09831.2777,W,0.10,180.39,310312,,,D*76
$GPGGA,124504.000,3351.4496,N,09831.2778,W,2,09,0.9,286.3,M,-23.7,M,0.8,0000*4B
$GPGSA,A,3,15,25,26,30,29,05,18,21,02,,,,1.6,0.9,1.3*3C
$GPRMC,124504.000,A,3351.4496,N,09831.2778,W,0.11,286.65,310312,,,D*70
$GPGGA,124505.000,3351.4497,N,09831.2779,W,2,09,0.9,286.5,M,-23.7,M,0.8,0000*4C
$GPGSA,A,3,15,25,26,30,29,05,18,21,02,,,,1.6,0.9,1.3*3C
$GPGSV,3,1,11,29,80,246,33,15,45,152,31,26,44,086,30,21,35,302,34*73
$GPGSV,3,2,11,18,33,242,34,05,30,046,23,25,15,214,18,02,10,095,20*77
$GPGSV,3,3,11,30,10,301,29,16,01,325,,51,49,195,37*40
$GPRMC,124505.000,A,3351.4497,N,09831.2779,W,0.17,227.12,310312,,,D*7C
$GPGGA,124506.000,3351.4497,N,09831.2780,W,2,09,0.9,286.7,M,-23.7,M,1.8,0000*4A
$GPGSA,A,3,15,25,26,30,29,05,18,21,02,,,,1.6,0.9,1.3*3C
$GPRMC,124506.000,A,3351.4497,N,09831.2780,W,0.14,214.59,310312,,,D*75
$GPGGA,124507.000,3351.4498,N,09831.2781,W,2,09,0.9,286.9,M,-23.7,M,0.8,0000*4A
$GPGSA,A,3,15,25,26,30,29,05,18,21,02,,,,1.6,0.9,1.3*3C
$GPRMC,124507.000,A,3351.4498,N,09831.2781,W,0.38,31.70,310312,,,D*4A
$GPGGA,124508.000,3351.4499,N,09831.2781,W,2,09,0.9,287.3,M,-23.7,M,1.8,0000*4E
$GPGSA,A,3,15,25,26,30,29,05,18,21,02,,,,1.6,0.9,1.3*3C
$GPRMC,124508.000,A,3351.4499,N,09831.2781,W,0.59,17.45,310312,,,D*41
$GPGGA,124509.000,3351.4501,N,09831.2781,W,2,09,0.9,287.5,M,-23.7,M,0.8,0000*48
$GPGSA,A,3,15,25,26,30,29,05,18,21,02,,,,1.6,0.9,1.3*3C
$GPRMC,124509.000,A,3351.4501,N,09831.2781,W,0.51,26.04,310312,,,D*4F
$GPGGA,124510.000,3351.4502,N,09831.2781,W,2,09,0.9,287.7,M,-23.7,M,0.8,0000*41
$GPGSA,A,3,15,25,26,30,29,05,18,21,02,,,,1.6,0.9,1.3*3C
$GPGSV,3,1,11,29,80,246,33,15,45,152,30,26,44,086,29,21,35,302,34*7A
$GPGSV,3,2,11,18,33,242,34,05,30,046,23,25,15,214,17,02,10,095,26*7E
$GPGSV,3,3,11,30,10,301,29,16,01,325,,51,49,195,38*4F
$GPRMC,124510.000,A,3351.4502,N,09831.2781,W,0.48,22.20,310312,,,D*4E
$GPGGA,124511.000,3351.4503,N,09831.2781,W,2,09,0.9,287.9,M,-23.7,M,0.8,0000*4F
$GPGSA,A,3,15,25,26,30,29,05,18,21,02,,,,1.6,0.9,1.3*3C
$GPRMC,124511.000,A,3351.4503,N,09831.2781,W,0.46,21.01,310312,,,D*40
$GPGGA,124512.000,3351.4504,N,09831.2781,W,2,09,0.9,288.0,M,-23.7,M,1.8,0000*4C
$GPGSA,A,3,15,25,26,30,29,05,18,21,02,,,,1.6,0.9,1.3*3C
$GPRMC,124512.000,A,3351.4504,N,09831.2781,W,0.02,290.91,310312,,,D*75
$GPGGA,124513.000,3351.4504,N,09831.2782,W,2,09,0.9,288.0,M,-23.7,M,0.8,0000*4F
$GPGSA,A,3,15,25,26,30,29,05,18,21,02,,,,1.6,0.9,1.3*3C
$GPRMC,124513.000,A,3351.4504,N,09831.2782,W,0.18,22.92,310312,,,D*44
$GPGGA,124514.000,3351.4503,N,09831.2782,W,2,09,0.9,288.0,M,-23.7,M,0.8,0000*4F
$GPGSA,A,3,15,25,26,30,29,05,18,21,02,,,,1.6,0.9,1.3*3C
$GPRMC,124514.000,A,3351.4503,N,09831.2782,W,0.02,321.42,310312,,,D*72
$GPGGA,124515.000,3351.4503,N,09831.2782,W,2,09,0.9,288.1,M,-23.7,M,0.8,0000*4F
$GPGSA,A,3,15,25,26,30,29,05,18,21,02,,,,1.6,0.9,1.3*3C
$GPGSV,3,1,11,29,80,246,34,15,45,152,29,26,44,086,30,21,35,302,35*7C
$GPGSV,3,2,11,18,33,242,34,05,30,046,23,25,15,214,26,02,10,095,23*79
$GPGSV,3,3,11,30,10,301,29,16,01,325,,51,49,195,42*42
$GPRMC,124515.000,A,3351.4503,N,09831.2782,W,0.09,192.72,310312,,,D*71
$GPGGA,124516.000,3351.4502,N,09831.2783,W,2,09,0.9,288.1,M,-23.7,M,0.8,0000*4C
$GPGSA,A,3,15,25,26,30,29,05,18,21,02,,,,1.6,0.9,1.3*3C
$GPRMC,124516.000,A,3351.4502,N,09831.2783,W,0.05,194.58,310312,,,D*70
$GPGGA,124517.000,3351.4501,N,09831.2783,W,2,09,0.9,288.2,M,-23.7,M,0.8,0000*4D
$GPGSA,A,3,15,25,26,30,29,05,18,21,02,,,,1.6,0.9,1.3*3C
$GPRMC,124517.000,A,3351.4501,N,09831.2783,W,0.04,289.24,310312,,,D*77
$GPGGA,124518.000,3351.4501,N,09831.2783,W,2,09,0.9,288.2,M,-23.7,M,1.8,0000*43
$GPGSA,A,3,15,25,26,30,29,05,18,21,02,,,,1.6,0.9,1.3*3C
$GPRMC,124518.000,A,3351.4501,N,09831.2783,W,0.11,68.62,310312,,,D*43
$GPGGA,124519.000,3351.4500,N,09831.2782,W,2,09,0.9,288.2,M,-23.7,M,2.8,0000*41
$GPGSA,A,3,15,25,26,30,29,05,18,21,02,,,,1.6,0.9,1.3*3C
$GPRMC,124519.000,A,3351.4500,N,09831.2782,W,0.18,66.69,310312,,,D*4E
$GPGGA,124520.000,3351.4499,N,09831.2782,W,2,09,0.9,288.1,M,-23.7,M,0.8,0000*4B
$GPGSA,A,3,15,25,26,30,29,05,18,21,02,,,,1.6,0.9,1.3*3C
$GPGSV,3,1,11,29,80,244,34,15,46,152,26,26,44,085,29,21,35,303,35*78
$GPGSV,3,2,11,18,33,243,33,05,30,046,22,25,15,214,25,02,10,095,18*75
$GPGSV,3,3,11,30,10,301,28,16,02,325,,51,49,195,37*42
$GPRMC,124520.000,A,3351.4499,N,09831.2782,W,0.30,153.66,310312,,,D*77
$GPGGA,124521.000,3351.4498,N,09831.2782,W,2,09,0.9,288.0,M,-23.7,M,0.8,0000*4A
$GPGSA,A,3,15,25,26,30,29,05,18,21,02,,,,1.6,0.9,1.3*3C
$GPRMC,124521.000,A,3351.4498,N,09831.2782,W,0.50,190.15,310312,,,D*7A
$GPGGA,124522.000,3351.4496,N,09831.2782,W,2,09,0.9,288.0,M,-23.7,M,0.8,0000*47
$GPGSA,A,3,15,25,26,30,29,05,18,21,02,,,,1.6,0.9,1.3*3C
$GPRMC,124522.000,A,3351.4496,N,09831.2782,W,0.24,160.90,310312,,,D*76
$GPGGA,124523.000,3351.4496,N,09831.2782,W,2,09,0.9,287.9,M,-23.7,M,0.8,0000*40
$GPGSA,A,3,15,25,26,30,29,05,18,21,02,,,,1.6,0.9,1.3*3C
$GPRMC,124523.000,A,3351.4496,N,09831.2782,W,0.16,73.45,310312,,,D*4D
$GPGGA,124524.000,3351.4496,N,09831.2782,W,2,09,0.9,287.9,M,-23.7,M,1.8,0000*46
$GPGSA,A,3,15,25,26,30,29,05,18,21,02,,,,1.6,0.9,1.3*3C
$GPRMC,124524.000,A,3351.4496,N,09831.2782,W,0.13,22.81,310312,,,D*43
$GPGGA,124525.000,3351.4495,N,09831.2782,W,2,09,0.9,287.9,M,-23.7,M,2.8,0000*47
$GPGSA,A,3,15,25,26,30,29,05,18,21,02,,,,1.6,0.9,1.3*3C
$GPGSV,3,1,11,29,80,244,34,15,46,152,25,26,44,085,30,21,35,303,35*73
$GPGSV,3,2,11,18,33,243,33,05,30,046,22,25,15,214,25,02,10,095,25*7B
$GPGSV,3,3,11,30,10,301,28,16,02,325,,51,49,195,37*42
$GPRMC,124525.000,A,3351.4495,N,09831.2782,W,0.06,81.91,310312,,,D*4D
$GPGGA,124526.000,3351.4495,N,09831.2782,W,2,09,0.9,287.8,M,-23.7,M,3.8,0000*44
$GPGSA,A,3,15,25,26,30,29,05,18,21,02,,,,1.6,0.9,1.3*3C
$GPRMC,124526.000,A,3351.4495,N,09831.2782,W,0.14,50.02,310312,,,D*4B
$GPGGA,124527.000,3351.4495,N,09831.2782,W,2,09,0.9,287.8,M,-23.7,M,0.8,0000*46
$GPGSA,A,3,15,25,26,30,29,05,18,21,02,,,,1.6,0.9,1.3*3C
$GPRMC,124527.000,A,3351.4495,N,09831.2782,W,0.25,43.16,310312,,,D*4F
$GPGGA,124528.000,3351.4495,N,09831.2782,W,2,09,0.9,287.8,M,-23.7,M,0.8,0000*49
$GPGSA,A,3,15,25,26,30,29,05,18,21,02,,,,1.6,0.9,1.3*3C
$GPRMC,124528.000,A,3351.4495,N,09831.2782,W,0.03,205.90,310312,,,D*7A
$GPGGA,124529.000,3351.4495,N,09831.2782,W,2,09,0.9,287.9,M,-23.7,M,0.8,0000*49
$GPGSA,A,3,15,25,26,30,29,05,18,21,02,,,,1.6,0.9,1.3*3C
$GPRMC,124529.000,A,3351.4495,N,09831.2782,W,0.14,181.15,310312,,,D*7F
$GPGGA,124530.000,3351.4494,N,09831.2782,W,2,09,0.9,287.9,M,-23.7,M,1.8,0000*41
$GPGSA,A,3,15,25,26,30,29,05,18,21,02,,,,1.6,0.9,1.3*3C
$GPGSV,3,1,11,29,80,244,35,15,46,152,17,26,44,085,30,21,35,303,35*73
$GPGSV,3,2,11,18,33,243,34,05,30,046,21,25,15,214,25,02,10,095,26*7C
$GPGSV,3,3,11,30,10,301,27,16,02,325,,51,49,195,37*4D
$GPRMC,124530.000,A,3351.4494,N,09831.2782,W,0.16,63.11,310312,,,D*4D
$GPGGA,124531.000,3351.4494,N,09831.2782,W,2,09,0.9,287.8,M,-23.7,M,2.8,0000*42
$GPGSA,A,3,15,25,26,30,29,05,18,21,02,,,,1.6,0.9,1.3*3C
$GPRMC,124531.000,A,3351.4494,N,09831.2782,W,0.19,61.19,310312,,,D*49
$GPGGA,124532.000,3351.4494,N,09831.2781,W,2,09,0.9,287.8,M,-23.7,M,0.8,0000*40
$GPGSA,A,3,15,25,26,30,29,05,18,21,02,,,,1.6,0.9,1.3*3C
$GPRMC,124532.000,A,3351.4494,N,09831.2781,W,0.23,44.35,310312,,,D*49
$GPGGA,124533.000,3351.4494,N,09831.2781,W,2,09,0.9,287.8,M,-23.7,M,0.8,0000*41
$GPGSA,A,3,15,25,26,30,29,05,18,21,02,,,,1.6,0.9,1.3*3C
$GPRMC,124533.000,A,3351.4494,N,09831.2781,W,0.20,83.93,310312,,,D*4C
$GPGGA,124534.000,3351.4494,N,09831.2781,W,2,09,0.9,287.7,M,-23.7,M,0.8,0000*49
$GPGSA,A,3,15,25,26,30,29,05,18,21,02,,,,1.6,0.9,1.3*3C
$GPRMC,124534.000,A,3351.4494,N,09831.2781,W,0.21,176.15,310312,,,D*7F
$GPGGA,124535.000,3351.4493,N,09831.2781,W,2,09,0.9,287.6,M,-23.7,M,0.8,0000*4E
$GPGSA,A,3,15,25,26,30,29,05,18,21,02,,,,1.6,0.9,1.3*3C
$GPGSV,3,1,11,29,80,244,35,15,46,152,26,26,44,085,30,21,35,303,35*71
$GPGSV,3,2,11,18,33,243,35,05,30,046,21,25,15,214,25,02,10,095,25*7E
$GPGSV,3,3,11,30,10,301,25,16,02,325,,51,49,195,37*4F
$GPRMC,124535.000,A,3351.4493,N,09831.2781,W,0.43,191.52,310312,,,D*77
$GPGGA,124536.000,3351.4492,N,09831.2781,W,2,09,0.9,287.6,M,-23.7,M,1.8,0000*4D
$GPGSA,A,3,15,25,26,30,29,05,18,21,02,,,,1.6,0.9,1.3*3C
$GPRMC,124536.000,A,3351.4492,N,09831.2781,W,0.13,15.94,310312,,,D*47
$GPGGA,124537.000,3351.4492,N,09831.2781,W,2,09,0.9,287.5,M,-23.7,M,2.8,0000*4C
$GPGSA,A,3,15,25,26,30,29,05,18,21,02,,,,1.6,0.9,1.3*3C
$GPRMC,124537.000,A,3351.4492,N,09831.2781,W,0.01,88.65,310312,,,D*4F
$GPGGA,124538.000,3351.4492,N,09831.2781,W,2,09,0.9,287.6,M,-23.7,M,3.8,0000*41
$GPGSA,A,3,15,25,26,30,29,05,18,21,02,,,,1.6,0.9,1.3*3C
$GPRMC,124538.000,A,3351.4492,N,09831.2781,W,0.05,243.98,310312,,,D*73
$GPGGA,124539.000,3351.4491,N,09831.2782,W,2,09,0.9,287.6,M,-23.7,M,0.8,0000*43
$GPGSA,A,3,15,25,26,30,29,05,18,21,02,,,,1.6,0.9,1.3*3C
$GPRMC,124539.000,A,3351.4491,N,09831.2782,W,0.45,217.88,310312,,,D*76
$GPGGA,124540.000,3351.4490,N,09831.2783,W,2,09,0.9,287.6,M,-23.7,M,0.8,0000*4D
$GPGSA,A,3,15,25,26,30,29,05,18,21,02,,,,1.6,0.9,1.3*3C
$GPGSV,3,1,11,29,80,244,35,15,46,152,26,26,44,085,30,21,35,303,35*71
$GPGSV,3,2,11,18,33,243,35,05,30,046,21,25,15,214,24,02,10,095,18*71
$GPGSV,3,3,11,30,10,301,25,16,02,325,,51,49,195,37*4F
$GPRMC,124540.000,A,3351.4490,N,09831.2783,W,0.39,211.15,310312,,,D*71
$GPGGA,124541.000,3351.4490,N,09831.2783,W,2,09,0.9,287.7,M,-23.7,M,0.8,0000*4D
$GPGSA,A,3,15,25,26,30,29,05,18,21,02,,,,1.6,0.9,1.3*3C
$GPRMC,124541.000,A,3351.4490,N,09831.2783,W,0.18,17.94,310312,,,D*4E
$GPGGA,124542.000,3351.4490,N,09831.2783,W,2,09,0.9,287.9,M,-23.7,M,1.8,0000*41
$GPGSA,A,3,15,25,26,30,29,05,18,21,02,,,,1.6,0.9,1.3*3C
$GPRMC,124542.000,A,3351.4490,N,09831.2783,W,0.24,306.50,310312,,,D*79
$GPGGA,124543.000,3351.4490,N,09831.2784,W,2,09,0.9,288.0,M,-23.7,M,2.8,0000*42
$GPGSA,A,3,15,25,26,30,29,05,18,21,02,,,,1.6,0.9,1.3*3C
$GPRMC,124543.000,A,3351.4490,N,09831.2784,W,0.16,222.73,310312,,,D*78
$GPGGA,124544.000,3351.4490,N,09831.2784,W,2,09,0.9,288.0,M,-23.7,M,0.8,0000*47
$GPGSA,A,3,15,25,26,30,29,05,18,21,02,,,,1.6,0.9,1.3*3C
$GPRMC,124544.000,A,3351.4490,N,09831.2784,W,0.20,222.82,310312,,,D*74
$GPGGA,124545.000,3351.4490,N,09831.2784,W,2,09,0.9,287.9,M,-23.7,M,0.8,0000*40
$GPGSA,A,3,15,25,26,30,29,05,18,21,02,,,,1.6,0.9,1.3*3C
$GPGSV,3,1,11,29,80,244,35,15,46,152,25,26,44,085,29,21,35,303,35*7A
$GPGSV,3,2,11,18,33,243,35,05,30,046,21,25,15,214,23,02,10,095,25*78
$GPGSV,3,3,11,30,10,301,22,16,02,325,14,51,49,195,38*42
$GPRMC,124545.000,A,3351.4490,N,09831.2784,W,0.05,314.19,310312,,,D*74
$GPGGA,124546.000,3351.4490,N,09831.2784,W,2,09,0.9,287.8,M,-23.7,M,0.8,0000*42
$GPGSA,A,3,15,25,26,30,29,05,18,21,02,,,,1.6,0.9,1.3*3C
$GPRMC,124546.000,A,3351.4490,N,09831.2784,W,0.09,359.24,310312,,,D*7C
$GPGGA,124547.000,3351.4491,N,09831.2784,W,2,09,0.9,287.7,M,-23.7,M,0.8,0000*4D
$GPGSA,A,3,15,25,26,30,29,05,18,21,02,,,,1.6,0.9,1.3*3C
$GPRMC,124547.000,A,3351.4491,N,09831.2784,W,0.13,342.73,310312,,,D*7F
$GPGGA,124548.000,3351.4491,N,09831.2784,W,2,09,0.9,287.7,M,-23.7,M,0.8,0000*42
$GPGSA,A,3,15,25,26,30,29,05,18,21,02,,,,1.6,0.9,1.3*3C
$GPRMC,124548.000,A,3351.4491,N,09831.2784,W,0.02,221.66,310312,,,D*70
$GPGGA,124549.000,3351.4490,N,09831.2785,W,2,09,0.9,287.8,M,-23.7,M,1.8,0000*4D
$GPGSA,A,3,15,25,26,30,29,05,18,21,02,,,,1.6,0.9,1.3*3C
$GPRMC,124549.000,A,3351.4490,N,09831.2785,W,0.41,176.76,310312,,,D*76
$GPGGA,124550.000,3351.4490,N,09831.2784,W,2,09,0.9,287.9,M,-23.7,M,0.8,0000*44
$GPGSA,A,3,15,25,26,30,29,05,18,21,02,,,,1.6,0.9,1.3*3C
$GPGSV,3,1,11,29,80,243,35,15,46,152,24,26,44,085,29,21,35,303,35*7C
$GPGSV,3,2,11,18,33,243,35,05,30,046,21,25,14,214,23,30,10,301,20*73
$GPGSV,3,3,11,02,10,095,25,16,02,325,15,51,49,195,38*4B
$GPRMC,124550.000,A,3351.4490,N,09831.2784,W,0.21,129.65,310312,,,D*71
$GPGGA,124551.000,3351.4489,N,09831.2784,W,2,09,0.9,288.0,M,-23.7,M,0.8,0000*4B
$GPGSA,A,3,15,25,26,30,29,05,18,21,02,,,,1.6,0.9,1.3*3C
$GPRMC,124551.000,A,3351.4489,N,09831.2784,W,0.29,129.69,310312,,,D*7C
$GPGGA,124552.000,3351.4489,N,09831.2783,W,2,09,0.9,288.2,M,-23.7,M,0.8,0000*4D
$GPGSA,A,3,15,25,26,30,29,05,18,21,02,,,,1.6,0.9,1.3*3C
$GPRMC,124552.000,A,3351.4489,N,09831.2783,W,0.29,61.13,310312,,,D*48
$GPGGA,124553.000,3351.4490,N,09831.2782,W,2,09,0.9,288.4,M,-23.7,M,0.8,0000*43
$GPGSA,A,3,15,25,26,30,29,05,18,21,02,,,,1.6,0.9,1.3*3C
$GPRMC,124553.000,A,3351.4490,N,09831.2782,W,0.40,65.59,310312,,,D*45
$GPGGA,124554.000,3351.4489,N,09831.2781,W,2,09,0.9,288.6,M,-23.7,M,1.8,0000*4C
$GPGSA,A,3,15,25,26,30,29,05,18,21,02,,,,1.6,0.9,1.3*3C
$GPRMC,124554.000,A,3351.4489,N,09831.2781,W,0.33,160.11,310312,,,D*75
$GPGGA,124555.000,3351.4489,N,09831.2781,W,2,09,0.9,288.6,M,-23.7,M,0.8,0000*4C
$GPGSA,A,3,15,25,26,30,29,05,18,21,02,,,,1.6,0.9,1.3*3C
$GPGSV,3,1,11,29,80,243,35,15,46,152,20,26,44,085,28,21,35,303,35*79
$GPGSV,3,2,11,18,33,243,35,05,30,046,20,25,14,214,23,30,10,301,21*73
$GPGSV,3,3,11,02,10,095,26,16,02,325,,51,49,195,38*4C
$GPRMC,124555.000,A,3351.4489,N,09831.2781,W,0.25,179.06,310312,,,D*7D
$GPGGA,124556.000,3351.4489,N,09831.2781,W,2,09,0.9,288.6,M,-23.7,M,1.8,0000*4E
$GPGSA,A,3,15,25,26,30,29,05,18,21,02,,,,1.6,0.9,1.3*3C
$GPRMC,124556.000,A,3351.4489,N,09831.2781,W,0.26,7.54,310312,,,D*72
$GPGGA,124557.000,3351.4490,N,09831.2782,W,2,09,0.9,288.7,M,-23.7,M,0.8,0000*44
$GPGSA,A,3,15,25,26,30,29,05,18,21,02,,,,1.6,0.9,1.3*3C
$GPRMC,124557.000,A,3351.4490,N,09831.2782,W,0.32,359.05,310312,,,D*71
$GPGGA,124558.000,3351.4490,N,09831.2782,W,2,09,0.9,288.6,M,-23.7,M,0.8,0000*4A
$GPGSA,A,3,15,25,26,30,29,05,18,21,02,,,,1.6,0.9,1.3*3C
$GPRMC,124558.000,A,3351.4490,N,09831.2782,W,0.24,212.15,310312,,,D*76
$GPGGA,124559.000,3351.4489,N,09831.2782,W,2,09,0.9,288.7,M,-23.7,M,0.8,0000*42
$GPGSA,A,3,15,25,26,30,29,05,18,21,02,,,,1.6,0.9,1.3*3C
$GPRMC,124559.000,A,3351.4489,N,09831.2782,W,0.52,166.54,310312,,,D*7B
$GPGGA,124600.000,3351.4489,N,09831.2782,W,2,09,0.9,288.8,M,-23.7,M,1.8,0000*43
$GPGSA,A,3,15,25,26,30,29,05,18,21,02,,,,1.6,0.9,1.3*3C
$GPGSV,3,1,11,29,80,243,35,15,46,152,21,26,44,085,27,21,35,303,35*77
$GPGSV,3,2,11,18,33,243,35,05,30,046,20,25,14,214,23,30,10,301,22*70
$GPGSV,3,3,11,02,10,095,25,16,02,325,,51,49,195,38*4F
$GPRMC,124600.000,A,3351.4489,N,09831.2782,W,0.25,104.82,310312,,,D*7B
$GPGGA,124601.000,3351.4491,N,09831.2782,W,2,09,0.9,288.8,M,-23.7,M,0.8,0000*4A
$GPGSA,A,3,15,25,26,30,29,05,18,21,02,,,,1.6,0.9,1.3*3C
$GPRMC,124601.000,A,3351.4491,N,09831.2782,W,0.21,25.08,310312,,,D*47
$GPGGA,124602.000,3351.4495,N,09831.2784,W,2,08,0.9,289.0,M,-23.7,M,1.8,0000*42
$GPGSA,A,3,15,25,30,29,05,18,21,02,,,,,1.6,0.9,1.3*38
$GPRMC,124602.000,A,3351.4495,N,09831.2784,W,0.34,6.78,310312,,,D*74
$GPGGA,124603.000,3351.4499,N,09831.2786,W,2,09,0.9,289.2,M,-23.7,M,0.8,0000*4F
$GPGSA,A,3,15,25,26,30,29,05,18,21,02,,,,1.6,0.9,1.3*3C
$GPRMC,124603.000,A,3351.4499,N,09831.2786,W,0.36,66.46,310312,,,D*42
$GPGGA,124604.000,3351.4502,N,09831.2788,W,2,09,0.9,289.4,M,-23.7,M,0.8,0000*43
$GPGSA,A,3,15,25,26,30,29,05,18,21,02,,,,1.6,0.9,1.3*3C
$GPRMC,124604.000,A,3351.4502,N,09831.2788,W,0.07,60.31,310312,,,D*4C
$GPGGA,124605.000,3351.4504,N,09831.2789,W,2,09,0.9,289.6,M,-23.7,M,0.8,0000*47
$GPGSA,A,3,15,25,26,30,29,05,18,21,02,,,,1.6,0.9,1.3*3C
$GPGSV,3,1,11,29,80,243,34,15,46,152,29,26,44,085,18,21,35,303,35*72
$GPGSV,3,2,11,18,33,243,35,05,30,046,21,25,14,214,23,30,10,301,22*71
$GPGSV,3,3,11,02,10,095,25,16,02,325,,51,49,195,38*4F
$GPRMC,124605.000,A,3351.4504,N,09831.2789,W,0.30,17.01,310312,,,D*4D
$GPGGA,124606.000,3351.4506,N,09831.2791,W,2,09,0.9,289.7,M,-23.7,M,1.8,0000*4F
$GPGSA,A,3,15,25,26,30,29,05,18,21,02,,,,1.6,0.9,1.3*3C
$GPRMC,124606.000,A,3351.4506,N,09831.2791,W,0.28,11.95,310312,,,D*47
$GPGGA,124607.000,3351.4508,N,09831.2792,W,2,09,0.9,289.8,M,-23.7,M,2.8,0000*4F
$GPGSA,A,3,15,25,26,30,29,05,18,21,02,,,,1.6,0.9,1.3*3C
$GPRMC,124607.000,A,3351.4508,N,09831.2792,W,0.37,4.58,310312,,,D*70
$GPGGA,124608.000,3351.4509,N,09831.2794,W,2,09,0.9,290.0,M,-23.7,M,3.8,0000*46
$GPGSA,A,3,15,25,26,30,29,05,18,21,02,,,,1.6,0.9,1.3*3C
$GPRMC,124608.000,A,3351.4509,N,09831.2794,W,0.14,264.65,310312,,,D*73
$GPGGA,124609.000,3351.4510,N,09831.2795,W,2,09,0.9,290.3,M,-23.7,M,0.8,0000*4E
$GPGSA,A,3,15,25,26,30,29,05,18,21,02,,,,1.6,0.9,1.3*3C
$GPRMC,124609.000,A,3351.4510,N,09831.2795,W,0.35,37.20,310312,,,D*4D
$GPGGA,124610.000,3351.4511,N,09831.2795,W,2,09,0.9,290.5,M,-23.7,M,0.8,0000*41
$GPGSA,A,3,15,25,26,30,29,05,18,21,02,,,,1.6,0.9,1.3*3C
$GPGSV,3,1,11,29,80,243,34,15,46,152,29,26,44,085,26,21,35,303,35*7F
$GPGSV,3,2,11,18,33,243,36,05,30,046,21,25,14,214,23,30,10,301,22*72
$GPGSV,3,3,11,02,10,095,25,16,02,325,,51,49,195,38*4F
$GPRMC,124610.000,A,3351.4511,N,09831.2795,W,0.29,25.41,310312,,,D*4D
$GPGGA,124611.000,3351.4513,N,09831.2795,W,2,08,1.0,290.7,M,-23.7,M,0.8,0000*49
$GPGSA,A,3,15,25,26,30,29,18,21,02,,,,,1.6,1.0,1.3*31
$GPRMC,124611.000,A,3351.4513,N,09831.2795,W,0.45,27.17,310312,,,D*45
$GPGGA,124612.000,3351.4513,N,09831.2796,W,2,08,1.0,290.8,M,-23.7,M,1.8,0000*47
$GPGSA,A,3,15,25,26,30,29,18,21,02,,,,,1.6,1.0,1.3*31
$GPRMC,124612.000,A,3351.4513,N,09831.2796,W,0.06,192.56,310312,,,D*78
$GPGGA,124613.000,3351.4512,N,09831.2796,W,2,08,1.0,290.9,M,-23.7,M,2.8,0000*45
$GPGSA,A,3,15,25,26,30,29,18,21,02,,,,,1.6,1.0,1.3*31
$GPRMC,124613.000,A,3351.4512,N,09831.2796,W,0.14,195.29,310312,,,D*74
$GPGGA,124614.000,3351.4512,N,09831.2797,W,2,08,1.0,290.8,M,-23.7,M,3.8,0000*43
$GPGSA,A,3,15,25,26,30,29,18,21,02,,,,,1.6,1.0,1.3*31
$GPRMC,124614.000,A,3351.4512,N,09831.2797,W,0.06,191.28,310312,,,D*74
$GPGGA,124615.000,3351.4511,N,09831.2798,W,2,08,1.0,290.9,M,-23.7,M,0.8,0000*4C
$GPGSA,A,3,15,25,26,30,29,18,21,02,,,,,1.6,1.0,1.3*31
$GPGSV,3,1,11,29,80,243,34,15,46,152,29,26,44,085,27,21,35,303,35*7E
$GPGSV,3,2,11,18,33,243,35,05,30,046,,25,14,214,23,30,10,301,29*79
$GPGSV,3,3,11,02,10,095,25,16,02,325,,51,49,195,38*4F
$GPRMC,124615.000,A,3351.4511,N,09831.2798,W,0.29,196.94,310312,,,D*74
$GPGGA,124616.000,3351.4511,N,09831.2798,W,2,08,1.0,291.1,M,-23.7,M,0.8,0000*46
$GPGSA,A,3,15,25,26,30,29,18,21,02,,,,,1.6,1.0,1.3*31
$GPRMC,124616.000,A,3351.4511,N,09831.2798,W,0.10,19.93,310312,,,D*4C
$GPGGA,124617.000,3351.4511,N,09831.2799,W,2,08,1.0,291.1,M,-23.7,M,0.8,0000*46
$GPGSA,A,3,15,25,26,30,29,18,21,02,,,,,1.6,1.0,1.3*31
$GPRMC,124617.000,A,3351.4511,N,09831.2799,W,0.18,64.04,310312,,,D*40
$GPGGA,124618.000,3351.4511,N,09831.2799,W,2,08,1.0,291.3,M,-23.7,M,1.8,0000*4A
$GPGSA,A,3,15,25,26,30,29,18,21,02,,,,,1.6,1.0,1.3*31
$GPRMC,124618.000,A,3351.4511,N,09831.2799,W,0.26,38.61,310312,,,D*48
$GPGGA,124619.000,3351.4511,N,09831.2799,W,2,08,1.0,291.4,M,-23.7,M,2.8,0000*4F
$GPGSA,A,3,15,25,26,30,29,18,21,02,,,,,1.6,1.0,1.3*31
$GPRMC,124619.000,A,3351.4511,N,09831.2799,W,0.05,108.50,310312,,,D*78
$GPGGA,124620.000,3351.4510,N,09831.2800,W,2,08,1.0,291.4,M,-23.7,M,3.8,0000*4A
$GPGSA,A,3,15,25,26,30,29,18,21,02,,,,,1.6,1.0,1.3*31
$GPGSV,3,1,11,29,80,243,35,15,46,152,29,26,44,085,28,21,35,303,35*70
$GPGSV,3,2,11,18,33,243,34,05,30,046,,25,14,214,22,30,10,301,27*77
$GPGSV,3,3,11,02,10,095,25,16,02,325,,51,49,195,37*40
$GPRMC,124620.000,A,3351.4510,N,09831.2800,W,0.18,198.08,310312,,,D*74
$GPGGA,124621.000,3351.4510,N,09831.2800,W,2,08,1.0,291.5,M,-23.7,M,0.8,0000*49
$GPGSA,A,3,15,25,26,30,29,18,21,02,,,,,1.6,1.0,1.3*31
$GPRMC,124621.000,A,3351.4510,N,09831.2800,W,0.04,149.18,310312,,,D*75
$GPGGA,124622.000,3351.4510,N,09831.2801,W,2,08,1.0,291.7,M,-23.7,M,0.8,0000*49
$GPGSA,A,3,15,25,26,30,29,18,21,02,,,,,1.6,1.0,1.3*31
$GPRMC,124622.000,A,3351.4510,N,09831.2801,W,0.16,32.90,310312,,,D*49
$GPGGA,124623.000,3351.4511,N,09831.2801,W,2,08,1.0,291.9,M,-23.7,M,0.8,0000*47
$GPGSA,A,3,15,25,26,30,29,18,21,02,,,,,1.6,1.0,1.3*31
$GPRMC,124623.000,A,3351.4511,N,09831.2801,W,0.39,28.50,310312,,,D*43
$GPGGA,124624.000,3351.4511,N,09831.2800,W,2,08,1.0,291.9,M,-23.7,M,1.8,0000*40
$GPGSA,A,3,15,25,26,30,29,18,21,02,,,,,1.6,1.0,1.3*31
$GPRMC,124624.000,A,3351.4511,N,09831.2800,W,0.09,49.83,310312,,,D*4F
$GPGGA,124625.000,3351.4510,N,09831.2800,W,2,08,1.0,291.9,M,-23.7,M,0.8,0000*41
$GPGSA,A,3,15,25,26,30,29,18,21,02,,,,,1.6,1.0,1.3*31
$GPGSV,3,1,11,29,80,243,34,15,46,152,29,26,44,085,34,21,35,303,31*78
$GPGSV,3,2,11,18,33,243,35,05,30,046,,25,14,214,28,30,10,301,27*7C
$GPGSV,3,3,11,02,10,095,26,16,02,325,,51,49,195,34*40
$GPRMC,124625.000,A,3351.4510,N,09831.2800,W,0.08,93.19,310312,,,D*4A
$GPGGA,124626.000,3351.4510,N,09831.2799,W,2,08,1.0,291.9,M,-23.7,M,1.8,0000*4C
$GPGSA,A,3,15,25,26,30,29,18,21,02,,,,,1.6,1.0,1.3*31
$GPRMC,124626.000,A,3351.4510,N,09831.2799,W,0.16,21.65,310312,,,D*4B
$GPGGA,124627.000,3351.4510,N,09831.2799,W,2,08,1.0,291.8,M,-23.7,M,2.8,0000*4F
$GPGSA,A,3,15,25,26,30,29,18,21,02,,,,,1.6,1.0,1.3*31
$GPRMC,124627.000,A,3351.4510,N,09831.2799,W,0.11,118.22,310312,,,D*75
$GPGGA,124628.000,3351.4509,N,09831.2798,W,2,09,0.9,291.7,M,-23.7,M,3.8,0000*4E
$GPGSA,A,3,15,25,26,30,29,05,18,21,02,,,,1.6,0.9,1.3*3C
$GPRMC,124628.000,A,3351.4509,N,09831.2798,W,0.15,95.43,310312,,,D*44
$GPGGA,124629.000,3351.4509,N,09831.2795,W,2,09,0.9,291.4,M,-23.7,M,4.8,0000*46
$GPGSA,A,3,15,25,26,30,29,05,18,21,02,,,,1.6,0.9,1.3*3C
$GPRMC,124629.000,A,3351.4509,N,09831.2795,W,0.55,207.57,310312,,,D*70
$GPGGA,124630.000,3351.4507,N,09831.2796,W,2,09,0.9,291.2,M,-23.7,M,5.8,0000*44
$GPGSA,A,3,15,25,26,30,29,05,18,21,02,,,,1.6,0.9,1.3*3C
$GPGSV,3,1,11,29,80,243,34,15,46,152,29,26,44,085,30,21,35,303,29*75
$GPGSV,3,2,11,18,33,243,31,05,30,046,18,25,14,214,19,30,10,301,27*73
$GPGSV,3,3,11,02,10,095,29,16,02,325,,51,49,195,35*4E
$GPRMC,124630.000,A,3351.4507,N,09831.2796,W,0.51,192.13,310312,,,D*7E
$GPGGA,124631.000,3351.4507,N,09831.2797,W,2,09,0.9,291.2,M,-23.7,M,6.8,0000*47
$GPGSA,A,3,15,25,26,30,29,05,18,21,02,,,,1.6,0.9,1.3*3C
$GPRMC,124631.000,A,3351.4507,N,09831.2797,W,0.31,185.70,310312,,,D*7B
$GPGGA,124632.000,3351.4506,N,09831.2797,W,2,09,0.9,291.1,M,-23.7,M,7.8,0000*47
$GPGSA,A,3,15,25,26,30,29,05,18,21,02,,,,1.6,0.9,1.3*3C
$GPRMC,124632.000,A,3351.4506,N,09831.2797,W,0.20,214.39,310312,,,D*7F
$GPGGA,124633.000,3351.4506,N,09831.2797,W,2,09,0.9,291.3,M,-23.7,M,0.8,0000*43
$GPGSA,A,3,15,25,26,30,29,05,18,21,02,,,,1.6,0.9,1.3*3C
$GPRMC,124633.000,A,3351.4506,N,09831.2797,W,0.26,114.47,310312,,,D*72
$GPGGA,124634.000,3351.4506,N,09831.2798,W,2,09,0.9,291.4,M,-23.7,M,0.8,0000*4C
$GPGSA,A,3,15,25,26,30,29,05,18,21,02,,,,1.6,0.9,1.3*3C
$GPRMC,124634.000,A,3351.4506,N,09831.2798,W,0.21,144.75,310312,,,D*79
$GPGGA,124635.000,3351.4503,N,09831.2798,W,2,09,0.9,291.4,M,-23.7,M,0.8,0000*48
$GPGSA,A,3,15,25,26,30,29,05,18,21,02,,,,1.6,0.9,1.3*3C
$GPGSV,3,1,11,29,80,243,36,15,46,152,31,26,44,085,24,21,35,303,30*73
$GPGSV,3,2,11,18,33,243,29,05,30,046,19,25,14,214,19,30,10,301,22*7E
$GPGSV,3,3,11,02,10,095,27,16,02,325,,51,49,195,36*43
$GPRMC,124635.000,A,3351.4503,N,09831.2798,W,1.19,187.09,310312,,,D*73
$GPGGA,124636.000,3351.4499,N,09831.2798,W,2,09,0.9,291.5,M,-23.7,M,0.8,0000*48
$GPGSA,A,3,15,25,26,30,29,05,18,21,02,,,,1.6,0.9,1.3*3C
$GPRMC,124636.000,A,3351.4499,N,09831.2798,W,1.79,181.91,310312,,,D*73
$GPGGA,124637.000,3351.4495,N,09831.2798,W,2,09,0.9,291.9,M,-23.7,M,0.8,0000*49
$GPGSA,A,3,15,25,26,30,29,05,18,21,02,,,,1.6,0.9,1.3*3C
$GPRMC,124637.000,A,3351.4495,N,09831.2798,W,1.72,186.01,310312,,,D*7B
$GPGGA,124638.000,3351.4493,N,09831.2797,W,2,08,1.0,292.8,M,-23.7,M,1.8,0000*45
$GPGSA,A,3,25,26,30,29,05,18,21,02,,,,,1.6,1.0,1.3*30
$GPRMC,124638.000,A,3351.4493,N,09831.2797,W,0.97,202.29,310312,,,D*72
$GPGGA,124639.000,3351.4488,N,09831.2799,W,2,09,0.9,293.2,M,-23.7,M,2.8,0000*41
$GPGSA,A,3,15,25,26,30,29,05,18,21,02,,,,1.6,0.9,1.3*3C
$GPRMC,124639.000,A,3351.4488,N,09831.2799,W,1.21,198.80,310312,,,D*78
$GPGGA,124640.000,3351.4486,N,09831.2803,W,2,09,0.9,293.9,M,-23.7,M,3.8,0000*47
$GPGSA,A,3,15,25,26,30,29,05,18,21,02,,,,1.6,0.9,1.3*3C
$GPGSV,3,1,10,29,80,243,36,15,46,152,29,26,44,085,31,21,35,303,34*7B
$GPGSV,3,2,10,18,33,243,19,05,30,046,32,25,14,214,23,30,10,301,22*7C
$GPGSV,3,3,10,02,10,095,27,16,02,325,*73
$GPRMC,124640.000,A,3351.4486,N,09831.2803,W,1.39,224.87,310312,,,D*7E
$GPGGA,124641.000,3351.4482,N,09831.2805,W,2,09,0.9,293.9,M,-23.7,M,4.8,0000*43
$GPGSA,A,3,15,25,26,30,29,05,18,21,02,,,,1.6,0.9,1.3*3C
$GPRMC,124641.000,A,3351.4482,N,09831.2805,W,0.87,222.36,310312,,,D*75
$GPGGA,124642.000,3351.4483,N,09831.2807,W,2,09,0.9,294.0,M,-23.7,M,5.8,0000*4C
$GPGSA,A,3,15,25,26,30,29,05,18,21,02,,,,1.6,0.9,1.3*3C
$GPRMC,124642.000,A,3351.4483,N,09831.2807,W,0.25,65.19,310312,,,D*41
$GPGGA,124643.000,3351.4483,N,09831.2801,W,2,09,0.9,294.0,M,-23.7,M,6.8,0000*48
$GPGSA,A,3,15,25,26,30,29,05,18,21,02,,,,1.6,0.9,1.3*3C
$GPRMC,124643.000,A,3351.4483,N,09831.2801,W,2.23,85.19,310312,,,D*4C
$GPGGA,124644.000,3351.4486,N,09831.2790,W,2,09,0.9,294.1,M,-23.7,M,7.8,0000*4D
$GPGSA,A,3,15,25,26,30,29,05,18,21,02,,,,1.6,0.9,1.3*3C
$GPRMC,124644.000,A,3351.4486,N,09831.2790,W,4.26,86.01,310312,,,D*40
$GPGGA,124645.000,3351.4485,N,09831.2772,W,2,09,0.9,294.0,M,-23.7,M,8.8,0000*4D
$GPGSA,A,3,15,25,26,30,29,05,18,21,02,,,,1.6,0.9,1.3*3C
$GPGSV,3,1,11,29,80,243,35,15,46,152,27,26,44,085,32,21,35,303,30*70
$GPGSV,3,2,11,18,33,243,22,05,30,046,32,25,14,214,25,30,10,301,26*77
$GPGSV,3,3,11,02,10,095,29,16,02,325,,51,49,195,35*4E
$GPRMC,124645.000,A,3351.4485,N,09831.2772,W,5.09,92.29,310312,,,D*4D
$GPGGA,124646.000,3351.4487,N,09831.2752,W,2,09,0.9,294.6,M,-23.7,M,9.8,0000*49
$GPGSA,A,3,15,25,26,30,29,05,18,21,02,,,,1.6,0.9,1.3*3C
$GPRMC,124646.000,A,3351.4487,N,09831.2752,W,5.76,98.40,310312,,,D*43
$GPGGA,124647.000,3351.4486,N,09831.2731,W,2,09,0.9,294.8,M,-23.7,M,0.8,0000*4B
$GPGSA,A,3,15,25,26,30,29,05,18,21,02,,,,1.6,0.9,1.3*3C
$GPRMC,124647.000,A,3351.4486,N,09831.2731,W,6.00,96.83,310312,,,D*45
$GPGGA,124648.000,3351.4485,N,09831.2710,W,2,09,0.9,294.8,M,-23.7,M,1.8,0000*45
$GPGSA,A,3,15,25,26,30,29,05,18,21,02,,,,1.6,0.9,1.3*3C
$GPRMC,124648.000,A,3351.4485,N,09831.2710,W,6.30,94.49,310312,,,D*4D
$GPGGA,124649.000,3351.4486,N,09831.2687,W,2,08,1.0,294.8,M,-23.7,M,2.8,0000*42
$GPGSA,A,3,15,25,26,30,29,05,18,21,,,,,1.9,1.0,1.7*3D
$GPRMC,124649.000,A,3351.4486,N,09831.2687,W,6.70,84.44,310312,,,D*48
$GPGGA,124650.000,3351.4491,N,09831.2663,W,2,08,1.0,294.5,M,-23.7,M,3.8,0000*4A
$GPGSA,A,3,15,25,26,30,29,05,18,21,,,,,1.9,1.0,1.7*3D
$GPGSV,3,1,11,29,80,243,31,15,46,152,27,26,44,085,30,21,35,303,27*70
$GPGSV,3,2,11,18,33,243,27,05,30,046,33,25,14,214,23,30,10,301,25*76
$GPGSV,3,3,11,02,10,095,22,16,02,325,,51,49,195,30*40
$GPRMC,124650.000,A,3351.4491,N,09831.2663,W,7.26,72.61,310312,,,D*40
$GPGGA,124651.000,3351.4500,N,09831.2641,W,2,06,1.2,294.1,M,-23.7,M,0.8,0000*49
$GPGSA,A,3,15,25,26,30,29,05,,,,,,,2.2,1.2,1.8*32
$GPRMC,124651.000,A,3351.4500,N,09831.2641,W,7.07,63.65,310312,,,D*4F
$GPGGA,124652.000,3351.4509,N,09831.2621,W,2,08,1.0,293.8,M,-23.7,M,1.8,0000*46
$GPGSA,A,3,15,25,26,30,29,05,18,21,,,,,1.9,1.0,1.7*3D
$GPRMC,124652.000,A,3351.4509,N,09831.2621,W,7.42,70.30,310312,,,D*40
$GPGGA,124653.000,3351.4515,N,09831.2599,W,2,08,1.0,293.0,M,-23.7,M,2.8,0000*41
$GPGSA,A,3,15,25,26,30,29,05,18,21,,,,,1.9,1.0,1.7*3D
$GPRMC,124653.000,A,3351.4515,N,09831.2599,W,6.54,77.46,310312,,,D*4C
$GPGGA,124654.000,3351.4519,N,09831.2582,W,2,08,1.0,292.6,M,-23.7,M,3.8,0000*46
$GPGSA,A,3,15,25,26,30,29,05,18,21,,,,,1.9,1.0,1.7*3D
$GPRMC,124654.000,A,3351.4519,N,09831.2582,W,5.34,78.13,310312,,,D*47
$GPGGA,124655.000,3351.4522,N,09831.2566,W,2,08,1.0,292.9,M,-23.7,M,4.8,0000*4D
$GPGSA,A,3,15,25,26,30,29,05,18,21,,,,,1.9,1.0,1.7*3D
$GPGSV,3,1,11,29,80,243,33,15,46,152,20,26,44,085,26,21,35,303,30*74
$GPGSV,3,2,11,18,33,243,27,05,30,046,34,25,14,214,20,30,10,301,18*7C
$GPGSV,3,3,11,02,10,095,28,16,02,325,,51,49,195,36*4C
$GPRMC,124655.000,A,3351.4522,N,09831.2566,W,3.63,87.85,310312,,,D*4F
$GPGGA,124656.000,3351.4520,N,09831.2555,W,2,08,1.0,293.0,M,-23.7,M,0.8,0000*40
$GPGSA,A,3,15,25,26,30,29,05,18,21,,,,,1.9,1.0,1.7*3D
$GPRMC,124656.000,A,3351.4520,N,09831.2555,W,2.82,111.01,310312,,,D*72
$GPGGA,124657.000,3351.4516,N,09831.2547,W,2,08,1.0,292.6,M,-23.7,M,0.8,0000*40
$GPGSA,A,3,15,25,26,30,29,05,18,21,,,,,1.9,1.0,1.7*3D
$GPRMC,124657.000,A,3351.4516,N,09831.2547,W,1.76,119.92,310312,,,D*7F
$GPGGA,124658.000,3351.4517,N,09831.2541,W,2,08,1.0,292.8,M,-23.7,M,0.8,0000*46
$GPGSA,A,3,15,25,26,30,29,05,18,21,,,,,1.9,1.0,1.7*3D
$GPRMC,124658.000,A,3351.4517,N,09831.2541,W,1.38,106.95,310312,,,D*74
$GPGGA,124659.000,3351.4522,N,09831.2531,W,2,08,1.0,293.4,M,-23.7,M,0.8,0000*4B
$GPGSA,A,3,15,25,26,30,29,05,18,21,,,,,1.9,1.0,1.7*3D
$GPRMC,124659.000,A,3351.4522,N,09831.2531,W,2.93,83.01,310312,,,D*47
$GPGGA,124700.000,3351.4526,N,09831.2518,W,2,08,1.0,293.1,M,-23.7,M,1.8,0000*4D
$GPGSA,A,3,15,25,26,30,29,05,18,21,,,,,1.9,1.0,1.7*3D
$GPGSV,3,1,11,29,80,243,25,15,46,152,25,26,44,085,24,21,35,303,31*75
$GPGSV,3,2,11,18,33,243,26,05,30,046,30,25,14,214,26,30,10,301,18*7F
$GPGSV,3,3,11,02,10,095,30,16,02,325,,51,49,195,36*45
$GPRMC,124700.000,A,3351.4526,N,09831.2518,W,5.72,78.01,310312,,,D*49
$GPGGA,124701.000,3351.4534,N,09831.2494,W,2,07,1.1,293.1,M,-23.7,M,2.8,0000*47
$GPGSA,A,3,15,25,26,30,05,18,21,,,,,,2.7,1.1,2.5*3B
$GPRMC,124701.000,A,3351.4534,N,09831.2494,W,8.28,67.99,310312,,,D*43
$GPGGA,124702.000,3351.4548,N,09831.2466,W,2,08,1.0,293.5,M,-23.7,M,3.8,0000*49
$GPGSA,A,3,15,25,26,30,29,05,18,21,,,,,1.9,1.0,1.7*3D
$GPRMC,124702.000,A,3351.4548,N,09831.2466,W,10.62,55.38,310312,,,D*7B
$GPGGA,124703.000,3351.4571,N,09831.2435,W,2,08,1.0,293.5,M,-23.7,M,4.8,0000*43
$GPGSA,A,3,15,25,26,30,29,05,18,21,,,,,1.9,1.0,1.7*3D
$GPRMC,124703.000,A,3351.4571,N,09831.2435,W,12.89,45.21,310312,,,D*78
$GPGGA,124704.000,3351.4602,N,09831.2403,W,2,08,1.0,293.4,M,-23.7,M,5.8,0000*46
$GPGSA,A,3,15,25,26,30,29,05,18,21,,,,,1.9,1.0,1.7*3D
$GPRMC,124704.000,A,3351.4602,N,09831.2403,W,14.88,39.22,310312,,,D*72
$GPGGA,124705.000,3351.4637,N,09831.2368,W,2,08,1.0,292.6,M,-23.7,M,0.8,0000*4D
$GPGSA,A,3,15,25,26,30,29,05,18,21,,,,,1.9,1.0,1.7*3D
$GPGSV,3,1,11,29,80,243,34,15,46,152,36,26,44,085,26,21,35,303,27*72
$GPGSV,3,2,11,18,33,243,34,05,30,046,30,25,14,214,21,30,10,301,24*74
$GPGSV,3,3,11,02,10,095,19,16,02,325,22,51,49,195,29*40
$GPRMC,124705.000,A,3351.4637,N,09831.2368,W,16.65,38.55,310312,,,D*7F
$GPGGA,124706.000,3351.4676,N,09831.2331,W,2,08,1.0,292.8,M,-23.7,M,0.8,0000*49
$GPGSA,A,3,15,25,26,30,29,05,18,21,,,,,1.9,1.0,1.7*3D
$GPRMC,124706.000,A,3351.4676,N,09831.2331,W,17.94,39.04,310312,,,D*7F
$GPGGA,124707.000,3351.4715,N,09831.2292,W,2,08,1.0,292.3,M,-23.7,M,0.8,0000*4F
$GPGSA,A,3,15,25,26,30,29,05,18,21,,,,,1.9,1.0,1.7*3D
$GPRMC,124707.000,A,3351.4715,N,09831.2292,W,18.73,40.24,310312,,,D*78
$GPGGA,124708.000,3351.4759,N,09831.2242,W,2,08,1.0,293.0,M,-23.7,M,1.8,0000*46
$GPGSA,A,3,15,25,26,30,29,05,18,21,,,,,1.9,1.0,1.7*3D
$GPRMC,124708.000,A,3351.4759,N,09831.2242,W,20.88,45.14,310312,,,D*7B
$GPGGA,124709.000,3351.4801,N,09831.2186,W,2,08,1.0,292.9,M,-23.7,M,2.8,0000*45
$GPGSA,A,3,15,25,26,30,29,05,18,21,,,,,1.9,1.0,1.7*3D
$GPRMC,124709.000,A,3351.4801,N,09831.2186,W,22.05,48.15,310312,,,D*78
$GPGGA,124710.000,3351.4842,N,09831.2128,W,2,08,1.0,292.6,M,-23.7,M,3.8,0000*40
$GPGSA,A,3,15,25,26,30,29,05,18,21,,,,,1.9,1.0,1.7*3D
$GPGSV,3,1,11,29,80,243,33,15,46,152,40,26,44,085,38,21,35,303,25*79
$GPGSV,3,2,11,18,33,243,27,05,30,046,33,25,14,214,24,30,10,301,29*7D
$GPGSV,3,3,11,02,10,095,24,16,02,325,10,51,49,195,28*4E
$GPRMC,124710.000,A,3351.4842,N,09831.2128,W,22.72,51.09,310312,,,D*76
$GPGGA,124711.000,3351.4883,N,09831.2067,W,2,08,1.0,292.6,M,-23.7,M,4.8,0000*41
$GPGSA,A,3,15,25,26,30,29,05,18,21,,,,,1.9,1.0,1.7*3D
$GPRMC,124711.000,A,3351.4883,N,09831.2067,W,23.03,52.74,310312,,,D*7E
$GPGGA,124712.000,3351.4921,N,09831.2003,W,2,08,1.0,292.6,M,-23.7,M,5.8,0000*48
$GPGSA,A,3,15,25,26,30,29,05,18,21,,,,,1.9,1.0,1.7*3D
$GPRMC,124712.000,A,3351.4921,N,09831.2003,W,23.47,54.69,310312,,,D*7C
$GPGGA,124713.000,3351.4959,N,09831.1938,W,2,08,1.0,292.9,M,-23.7,M,6.8,0000*48
$GPGSA,A,3,15,25,26,30,29,05,18,21,,,,,1.9,1.0,1.7*3D
$GPRMC,124713.000,A,3351.4959,N,09831.1938,W,23.56,54.41,310312,,,D*7A
$GPGGA,124714.000,3351.4999,N,09831.1875,W,2,08,1.0,292.7,M,-23.7,M,7.8,0000*44
$GPGSA,A,3,15,25,26,30,29,05,18,21,,,,,1.9,1.0,1.7*3D
$GPRMC,124714.000,A,3351.4999,N,09831.1875,W,23.77,53.16,310312,,,D*7F
$GPGGA,124715.000,3351.5041,N,09831.1811,W,2,08,1.0,292.2,M,-23.7,M,8.8,0000*40
$GPGSA,A,3,15,25,26,30,29,05,18,21,,,,,1.9,1.0,1.7*3D
$GPGSV,3,1,11,29,80,243,34,15,46,152,39,26,44,085,34,21,35,303,32*7A
$GPGSV,3,2,11,18,33,243,22,05,30,046,28,25,14,214,25,30,10,301,26*7C
$GPGSV,3,3,11,02,10,095,24,16,02,325,,51,49,195,29*4E
$GPRMC,124715.000,A,3351.5041,N,09831.1811,W,24.07,51.47,310312,,,D*77
$GPGGA,124716.000,3351.5085,N,09831.1747,W,2,08,1.0,292.0,M,-23.7,M,9.8,0000*44
$GPGSA,A,3,15,25,26,30,29,05,18,21,,,,,1.9,1.0,1.7*3D
$GPRMC,124716.000,A,3351.5085,N,09831.1747,W,24.52,49.62,310312,,,D*7E
$GPGGA,124717.000,3351.5132,N,09831.1684,W,2,08,1.0,291.8,M,-23.7,M,10.8,0000*75
$GPGSA,A,3,15,25,26,30,29,05,18,21,,,,,1.9,1.0,1.6*3C
$GPRMC,124717.000,A,3351.5132,N,09831.1684,W,24.74,47.13,310312,,,D*70
$GPGGA,124718.000,3351.5182,N,09831.1625,W,2,08,1.0,291.7,M,-23.7,M,11.8,0000*74
$GPGSA,A,3,15,25,26,30,29,05,18,21,,,,,1.9,1.0,1.6*3C
$GPRMC,124718.000,A,3351.5182,N,09831.1625,W,25.34,44.86,310312,,,D*75
$GPGGA,124719.000,3351.5234,N,09831.1567,W,2,08,1.0,291.5,M,-23.7,M,12.8,0000*7F
$GPGSA,A,3,15,25,26,30,29,05,18,21,,,,,1.9,1.0,1.6*3C
$GPRMC,124719.000,A,3351.5234,N,09831.1567,W,25.38,42.08,310312,,,D*73
$GPGGA,124720.000,3351.5287,N,09831.1512,W,2,08,1.0,291.4,M,-23.7,M,13.8,0000*7F
$GPGSA,A,3,15,25,26,30,29,05,18,21,,,,,1.9,1.0,1.6*3C
$GPGSV,3,1,10,29,80,243,35,15,46,152,39,26,44,085,31,21,35,303,30*7D
$GPGSV,3,2,10,18,33,243,30,05,30,046,23,25,14,214,26,30,10,301,22*72
$GPGSV,3,3,10,02,10,095,27,16,02,325,*73
$GPRMC,124720.000,A,3351.5287,N,09831.1512,W,25.37,39.59,310312,,,D*74
$GPGGA,124721.000,3351.5343,N,09831.1457,W,2,08,1.0,291.6,M,-23.7,M,14.8,0000*72
$GPGSA,A,3,15,25,26,30,29,05,18,21,,,,,1.9,1.0,1.6*3C
$GPRMC,124721.000,A,3351.5343,N,09831.1457,W,25.96,38.28,310312,,,D*70
$GPGGA,124722.000,3351.5404,N,09831.1403,W,2,08,1.0,290.9,M,-23.7,M,15.8,0000*7B
$GPGSA,A,3,15,25,26,30,29,05,18,21,,,,,1.9,1.0,1.6*3C
$GPRMC,124722.000,A,3351.5404,N,09831.1403,W,26.53,35.97,310312,,,D*75
$GPGGA,124723.000,3351.5466,N,09831.1352,W,2,08,1.0,290.9,M,-23.7,M,16.8,0000*7E
$GPGSA,A,3,15,25,26,30,29,05,18,21,,,,,1.9,1.0,1.6*3C
$GPRMC,124723.000,A,3351.5466,N,09831.1352,W,26.85,33.14,310312,,,D*75
$GPGGA,124724.000,3351.5532,N,09831.1304,W,2,08,1.0,291.0,M,-23.7,M,17.8,0000*73
$GPGSA,A,3,15,25,26,30,29,05,18,21,,,,,1.9,1.0,1.6*3C
$GPRMC,124724.000,A,3351.5532,N,09831.1304,W,27.24,29.26,310312,,,D*71
$GPGGA,124725.000,3351.5602,N,09831.1263,W,1,08,1.0,291.1,M,-23.7,M,18.8,0000*7F
$GPGSA,A,3,15,25,26,30,29,05,18,21,,,,,1.9,1.0,1.6*3C
$GPGSV,3,1,11,29,80,243,35,15,46,152,31,26,44,085,22,21,35,303,29*7E
$GPGSV,3,2,11,18,33,243,31,05,30,046,30,25,14,214,27,30,10,301,14*74
$GPGSV,3,3,11,02,10,095,19,16,02,325,,51,49,195,36*4E
$GPRMC,124725.000,A,3351.5602,N,09831.1263,W,27.73,24.59,310312,,,A*72
$GPGGA,124726.000,3351.5675,N,09831.1231,W,1,08,1.0,291.0,M,-23.7,M,18.8,0000*7A
$GPGSA,A,3,15,25,26,30,29,05,18,21,,,,,1.9,1.0,1.6*3C
$GPRMC,124726.000,A,3351.5675,N,09831.1231,W,28.13,20.17,310312,,,A*71
$GPGGA,124727.000,3351.5752,N,09831.1206,W,1,08,1.0,290.9,M,-23.7,M,18.8,0000*73
$GPGSA,A,3,15,25,26,30,29,05,18,21,,,,,1.9,1.0,1.6*3C
$GPRMC,124727.000,A,3351.5752,N,09831.1206,W,28.62,15.19,310312,,,A*7E
$GPGGA,124728.000,3351.5831,N,09831.1185,W,1,08,1.0,290.9,M,-23.7,M,18.8,0000*7E
$GPGSA,A,3,15,25,26,30,29,05,18,21,,,,,1.9,1.0,1.6*3C
$GPRMC,124728.000,A,3351.5831,N,09831.1185,W,29.10,12.43,310312,,,A*7F
$GPGGA,124729.000,3351.5912,N,09831.1166,W,1,08,1.0,290.8,M,-23.7,M,18.8,0000*73
$GPGSA,A,3,15,25,26,30,29,05,18,21,,,,,1.9,1.0,1.6*3C
$GPRMC,124729.000,A,3351.5912,N,09831.1166,W,29.42,11.24,310312,,,A*76
$GPGGA,124730.000,3351.5992,N,09831.1147,W,1,08,1.0,290.7,M,-23.7,M,18.8,0000*7F
$GPGSA,A,3,15,25,26,30,29,05,18,21,,,,,1.9,1.0,1.6*3C
$GPGSV,3,1,11,29,80,243,36,15,46,152,26,26,44,085,29,21,35,303,31*79
$GPGSV,3,2,11,18,33,243,33,05,30,046,28,25,14,214,28,30,10,301,16*72
$GPGSV,3,3,11,02,10,095,25,16,02,325,,51,49,195,33*44
$GPRMC,124730.000,A,3351.5992,N,09831.1147,W,29.65,11.12,310312,,,A*75
$GPGGA,124731.000,3351.6074,N,09831.1129,W,1,08,1.0,290.6,M,-23.7,M,18.8,0000*75
$GPGSA,A,3,15,25,26,30,29,05,18,21,,,,,1.9,1.0,1.6*3C
$GPRMC,124731.000,A,3351.6074,N,09831.1129,W,29.92,10.50,310312,,,A*71
$GPGGA,124732.000,3351.6156,N,09831.1113,W,1,08,1.0,290.4,M,-23.7,M,18.8,0000*7C
$GPGSA,A,3,15,25,26,30,29,05,18,21,,,,,1.9,1.0,1.6*3C
$GPRMC,124732.000,A,3351.6156,N,09831.1113,W,29.75,9.90,310312,,,A*47
$GPGGA,124733.000,3351.6237,N,09831.1097,W,1,08,1.0,290.2,M,-23.7,M,18.8,0000*72
$GPGSA,A,3,15,25,26,30,29,05,18,21,,,,,1.9,1.0,1.6*3C
$GPRMC,124733.000,A,3351.6237,N,09831.1097,W,29.38,9.05,310312,,,A*4A
$GPGGA,124734.000,3351.6318,N,09831.1086,W,1,08,1.0,289.9,M,-23.7,M,18.8,0000*7A
$GPGSA,A,3,15,25,26,30,29,05,18,21,,,,,1.9,1.0,1.6*3C
$GPRMC,124734.000,A,3351.6318,N,09831.1086,W,29.32,7.11,310312,,,A*40
$GPGGA,124735.000,3351.6400,N,09831.1078,W,1,08,1.0,289.7,M,-23.7,M,18.8,0000*7A
$GPGSA,A,3,15,25,26,30,29,05,18,21,,,,,1.9,1.0,1.6*3C
$GPGSV,3,1,11,29,80,243,36,15,46,152,18,26,44,085,31,21,35,303,31*7D
$GPGSV,3,2,11,18,33,243,35,05,30,046,33,25,14,214,23,30,10,301,16*75
$GPGSV,3,3,11,02,10,095,19,16,02,325,,51,49,195,32*4A
$GPRMC,124735.000,A,3351.6400,N,09831.1078,W,29.55,4.48,310312,,,A*40
$GPGGA,124736.000,3351.6484,N,09831.1074,W,1,08,1.0,289.4,M,-23.7,M,18.8,0000*7A
$GPGSA,A,3,15,25,26,30,29,05,18,21,,,,,1.9,1.0,1.6*3C
$GPRMC,124736.000,A,3351.6484,N,09831.1074,W,30.02,2.44,310312,,,A*43
$GPGGA,124737.000,3351.6569,N,09831.1072,W,1,08,1.0,289.0,M,-23.7,M,18.8,0000*7B
$GPGSA,A,3,15,25,26,30,29,05,18,21,,,,,1.9,1.0,1.6*3C
$GPRMC,124737.000,A,3351.6569,N,09831.1072,W,30.52,1.12,310312,,,A*43
$GPGGA,124738.000,3351.6655,N,09831.1071,W,1,08,1.0,288.7,M,-23.7,M,18.8,0000*7D
$GPGSA,A,3,15,25,26,30,29,05,18,21,,,,,1.9,1.0,1.6*3C
$GPRMC,124738.000,A,3351.6655,N,09831.1071,W,30.93,1.15,310312,,,A*49
$GPGGA,124739.000,3351.6742,N,09831.1070,W,1,08,1.0,288.5,M,-23.7,M,18.8,0000*78
$GPGSA,A,3,15,25,26,30,29,05,18,21,,,,,1.9,1.0,1.6*3C
$GPRMC,124739.000,A,3351.6742,N,09831.1070,W,30.85,0.70,310312,,,A*4B
$GPGGA,124740.000,3351.6827,N,09831.1070,W,1,08,1.0,288.3,M,-23.7,M,18.8,0000*7C
$GPGSA,A,3,15,25,26,30,29,05,18,21,,,,,1.9,1.0,1.6*3C
$GPGSV,3,1,11,29,80,243,35,15,46,152,31,26,44,085,31,21,35,303,33*77
