$GPGGA,170832.000,3352.0053,N,09831.5592,W,2,08,1.0,298.8,M,-23.7,M,1.8,0000*45
$GPGSA,A,3,21,06,09,18,22,31,14,19,,,,,1.8,1.0,1.5*34
$GPRMC,170832.000,A,3352.0053,N,09831.5592,W,0.25,354.36,030412,,,D*7B
$GPGGA,170833.000,3352.0053,N,09831.5592,W,2,08,1.0,299.0,M,-23.7,M,2.8,0000*4E
$GPGSA,A,3,21,06,09,18,22,31,14,19,,,,,1.8,1.0,1.5*34
$GPRMC,170833.000,A,3352.0053,N,09831.5592,W,0.05,81.70,030412,,,D*41
$GPGGA,170834.000,3352.0053,N,09831.5593,W,2,08,1.0,299.2,M,-23.7,M,3.8,0000*4B
$GPGSA,A,3,21,06,09,18,22,31,14,19,,,,,1.8,1.0,1.5*34
$GPGSV,3,1,12,22,68,009,37,14,68,288,33,18,42,087,39,21,24,157,24*78
$GPGSV,3,2,12,09,22,042,29,31,21,189,34,19,17,282,34,06,11,235,34*7D
$GPGSV,3,3,12,11,09,316,36,03,09,245,32,27,05,034,29,25,04,124,*72
$GPRMC,170834.000,A,3352.0053,N,09831.5593,W,0.04,77.56,030412,,,D*4B
$GPGGA,170835.000,3352.0053,N,09831.5593,W,2,08,1.0,299.3,M,-23.7,M,4.8,0000*4C
$GPGSA,A,3,21,06,09,18,22,31,14,19,,,,,1.8,1.0,1.5*34
$GPRMC,170835.000,A,3352.0053,N,09831.5593,W,0.09,25.89,030412,,,D*42
$GPGGA,170836.000,3352.0053,N,09831.5593,W,2,08,1.0,299.5,M,-23.7,M,0.8,0000*4D
$GPGSA,A,3,21,06,09,18,22,31,14,19,,,,,1.8,1.0,1.5*34
$GPRMC,170836.000,A,3352.0053,N,09831.5593,W,0.13,347.83,030412,,,D*77
$GPGGA,170837.000,3352.0053,N,09831.5594,W,2,08,1.0,299.7,M,-23.7,M,0.8,0000*49
$GPGSA,A,3,21,06,09,18,22,31,14,19,,,,,1.8,1.0,1.5*34
$GPRMC,170837.000,A,3352.0053,N,09831.5594,W,0.02,25.32,030412,,,D*4C
$GPGGA,170838.000,3352.0053,N,09831.5594,W,2,08,1.0,299.8,M,-23.7,M,0.8,0000*49
$GPGSA,A,3,21,06,09,18,22,31,14,19,,,,,1.8,1.0,1.5*34
$GPRMC,170838.000,A,3352.0053,N,09831.5594,W,0.04,334.36,030412,,,D*72
$GPGGA,170839.000,3352.0053,N,09831.5595,W,2,08,1.0,300.0,M,-23.7,M,1.8,0000*41
$GPGSA,A,3,21,06,09,18,22,31,14,19,,,,,1.8,1.0,1.5*34
$GPGSV,3,1,12,22,68,009,37,14,68,288,33,18,42,087,39,21,24,157,23*7F
$GPGSV,3,2,12,09,22,042,29,31,21,189,34,19,17,282,34,06,11,235,34*7D
$GPGSV,3,3,12,11,09,316,36,03,09,245,32,27,05,034,29,25,04,124,*72
$GPRMC,170839.000,A,3352.0053,N,09831.5595,W,0.18,343.26,030412,,,D*7E
$GPGGA,170840.000,3352.0053,N,09831.5595,W,2,08,1.0,300.1,M,-23.7,M,0.8,0000*4F
$GPGSA,A,3,21,06,09,18,22,31,14,19,,,,,1.8,1.0,1.5*34
$GPRMC,170840.000,A,3352.0053,N,09831.5595,W,0.13,344.35,030412,,,D*7E
$GPGGA,170841.000,3352.0053,N,09831.5596,W,2,08,1.0,300.3,M,-23.7,M,0.8,0000*4F
$GPGSA,A,3,21,06,09,18,22,31,14,19,,,,,1.8,1.0,1.5*34
$GPRMC,170841.000,A,3352.0053,N,09831.5596,W,0.04,333.78,030412,,,D*73
$GPGGA,170842.000,3352.0053,N,09831.5596,W,2,08,1.0,300.3,M,-23.7,M,0.8,0000*4C
$GPGSA,A,3,21,06,09,18,22,31,14,19,,,,,1.8,1.0,1.5*34
$GPRMC,170842.000,A,3352.0053,N,09831.5596,W,0.09,126.54,030412,,,D*75
$GPGGA,170843.000,3352.0053,N,09831.5596,W,2,08,1.0,300.4,M,-23.7,M,0.8,0000*4A
$GPGSA,A,3,21,06,09,18,22,31,14,19,,,,,1.8,1.0,1.5*34
$GPRMC,170843.000,A,3352.0053,N,09831.5596,W,0.15,5.65,030412,,,D*7B
$GPGGA,170844.000,3352.0054,N,09831.5596,W,2,08,1.0,300.4,M,-23.7,M,0.8,0000*4A
$GPGSA,A,3,21,06,09,18,22,31,14,19,,,,,1.8,1.0,1.5*34
$GPGSV,3,1,12,22,68,009,37,14,68,288,33,18,42,087,39,21,24,157,23*7F
$GPGSV,3,2,12,09,22,042,29,31,21,189,34,19,17,282,34,06,11,235,34*7D
$GPGSV,3,3,12,11,09,316,36,03,09,245,32,27,05,034,29,25,04,124,*72
$GPRMC,170844.000,A,3352.0054,N,09831.5596,W,0.15,0.39,030412,,,D*77
$GPGGA,170845.000,3352.0054,N,09831.5596,W,2,08,1.0,300.5,M,-23.7,M,0.8,0000*4A
$GPGSA,A,3,21,06,09,18,22,31,14,19,,,,,1.8,1.0,1.5*34
$GPRMC,170845.000,A,3352.0054,N,09831.5596,W,0.09,33.01,030412,,,D*40
$GPGGA,170846.000,3352.0054,N,09831.5596,W,2,08,1.0,300.5,M,-23.7,M,1.8,0000*48
$GPGSA,A,3,21,06,09,18,22,31,14,19,,,,,1.8,1.0,1.5*34
$GPRMC,170846.000,A,3352.0054,N,09831.5596,W,0.14,2.80,030412,,,D*74
$GPGGA,170847.000,3352.0054,N,09831.5596,W,2,08,1.0,300.5,M,-23.7,M,2.8,0000*4A
$GPGSA,A,3,21,06,09,18,22,31,14,19,,,,,1.8,1.0,1.5*34
$GPRMC,170847.000,A,3352.0054,N,09831.5596,W,0.16,6.48,030412,,,D*77
$GPGGA,170848.000,3352.0054,N,09831.5596,W,2,08,1.0,300.6,M,-23.7,M,0.8,0000*44
$GPGSA,A,3,21,06,09,18,22,31,14,19,,,,,1.8,1.0,1.5*34
$GPRMC,170848.000,A,3352.0054,N,09831.5596,W,0.10,333.54,030412,,,D*76
$GPGGA,170849.000,3352.0054,N,09831.5597,W,2,08,1.0,300.7,M,-23.7,M,0.8,0000*45
$GPGSA,A,3,21,06,09,18,22,31,14,19,,,,,1.8,1.0,1.5*34
$GPGSV,3,1,12,22,68,009,37,14,68,288,33,18,42,087,39,21,24,157,23*7F
$GPGSV,3,2,12,09,22,042,30,31,21,189,34,19,17,282,34,06,11,235,33*72
$GPGSV,3,3,12,11,09,316,36,03,09,245,31,27,05,034,28,25,04,124,*70
$GPRMC,170849.000,A,3352.0054,N,09831.5597,W,0.01,268.65,030412,,,D*7B
$GPGGA,170850.000,3352.0054,N,09831.5597,W,2,08,1.0,300.8,M,-23.7,M,0.8,0000*42
$GPGSA,A,3,21,06,09,18,22,31,14,19,,,,,1.8,1.0,1.5*34
$GPRMC,170850.000,A,3352.0054,N,09831.5597,W,0.23,344.90,030412,,,D*76
$GPGGA,170851.000,3352.0054,N,09831.5597,W,2,08,1.0,300.9,M,-23.7,M,1.8,0000*43
$GPGSA,A,3,21,06,09,18,22,31,14,19,,,,,1.8,1.0,1.5*34
$GPRMC,170851.000,A,3352.0054,N,09831.5597,W,0.06,1.34,030412,,,D*7C
$GPGGA,170852.000,3352.0055,N,09831.5598,W,2,08,1.0,301.0,M,-23.7,M,0.8,0000*47
$GPGSA,A,3,21,06,09,18,22,31,14,19,,,,,1.8,1.0,1.5*34
$GPRMC,170852.000,A,3352.0055,N,09831.5598,W,0.23,344.96,030412,,,D*7C
$GPGGA,170853.000,3352.0055,N,09831.5598,W,2,08,1.0,301.0,M,-23.7,M,1.8,0000*47
$GPGSA,A,3,21,06,09,18,22,31,14,19,,,,,1.8,1.0,1.5*34
$GPRMC,170853.000,A,3352.0055,N,09831.5598,W,0.07,6.48,030412,,,D*7D
$GPGGA,170854.000,3352.0054,N,09831.5598,W,2,08,1.0,301.0,M,-23.7,M,0.8,0000*40
$GPGSA,A,3,21,06,09,18,22,31,14,19,,,,,1.8,1.0,1.5*34
$GPGSV,3,1,12,22,68,009,37,14,68,288,33,18,42,087,39,21,24,157,22*7E
$GPGSV,3,2,12,09,22,042,30,31,21,189,34,19,17,282,34,06,11,235,33*72
$GPGSV,3,3,12,11,09,316,36,03,09,245,31,27,05,034,28,25,04,124,*70
$GPRMC,170854.000,A,3352.0054,N,09831.5598,W,0.13,123.54,030412,,,D*75
$GPGGA,170855.000,3352.0054,N,09831.5597,W,2,08,1.0,301.0,M,-23.7,M,0.8,0000*4E
$GPGSA,A,3,21,06,09,18,22,31,14,19,,,,,1.8,1.0,1.5*34
$GPRMC,170855.000,A,3352.0054,N,09831.5597,W,0.14,120.54,030412,,,D*7F
$GPGGA,170856.000,3352.0054,N,09831.5597,W,2,08,1.0,301.1,M,-23.7,M,0.8,0000*4C
$GPGSA,A,3,21,06,09,18,22,31,14,19,,,,,1.8,1.0,1.5*34
$GPRMC,170856.000,A,3352.0054,N,09831.5597,W,0.16,130.76,030412,,,D*7F
$GPGGA,170857.000,3352.0053,N,09831.5597,W,2,08,1.0,301.1,M,-23.7,M,0.8,0000*4A
$GPGSA,A,3,21,06,09,18,22,31,14,19,,,,,1.8,1.0,1.5*34
$GPRMC,170857.000,A,3352.0053,N,09831.5597,W,0.07,85.81,030412,,,D*4E
$GPGGA,170858.000,3352.0053,N,09831.5596,W,2,08,1.0,301.1,M,-23.7,M,1.8,0000*45
$GPGSA,A,3,21,06,09,18,22,31,14,19,,,,,1.8,1.0,1.5*34
$GPRMC,170858.000,A,3352.0053,N,09831.5596,W,0.13,130.27,030412,,,D*76
$GPGGA,170859.000,3352.0053,N,09831.5596,W,2,08,1.0,301.1,M,-23.7,M,2.8,0000*47
$GPGSA,A,3,21,06,09,18,22,31,14,19,,,,,1.8,1.0,1.5*34
$GPGSV,3,1,12,22,68,009,37,14,68,288,32,18,42,087,39,21,24,157,22*7F
$GPGSV,3,2,12,09,22,042,31,31,21,189,34,19,17,282,34,06,11,235,33*73
$GPGSV,3,3,12,11,09,316,36,03,09,245,30,27,05,034,27,25,04,124,*7E
$GPRMC,170859.000,A,3352.0053,N,09831.5596,W,0.11,112.30,030412,,,D*73
$GPGGA,170900.000,3352.0053,N,09831.5596,W,2,08,1.0,301.1,M,-23.7,M,0.8,0000*48
$GPGSA,A,3,21,06,09,18,22,31,14,19,,,,,1.8,1.0,1.5*34
$GPRMC,170900.000,A,3352.0053,N,09831.5596,W,0.12,345.40,030412,,,D*7A
$GPGGA,170901.000,3352.0053,N,09831.5597,W,2,08,1.0,301.1,M,-23.7,M,0.8,0000*48
$GPGSA,A,3,21,06,09,18,22,31,14,19,,,,,1.8,1.0,1.5*34
$GPRMC,170901.000,A,3352.0053,N,09831.5597,W,0.03,162.36,030412,,,D*7C
$GPGGA,170902.000,3352.0053,N,09831.5597,W,2,08,1.0,301.2,M,-23.7,M,0.8,0000*48
$GPGSA,A,3,21,06,09,18,22,31,14,19,,,,,1.8,1.0,1.5*34
$GPRMC,170902.000,A,3352.0053,N,09831.5597,W,0.25,347.78,030412,,,D*74
$GPGGA,170903.000,3352.0053,N,09831.5597,W,2,08,1.0,301.3,M,-23.7,M,1.8,0000*49
$GPGSA,A,3,21,06,09,18,22,31,14,19,,,,,1.8,1.0,1.5*34
$GPRMC,170903.000,A,3352.0053,N,09831.5597,W,0.09,344.03,030412,,,D*74
$GPGGA,170904.000,3352.0053,N,09831.5597,W,2,08,1.0,301.4,M,-23.7,M,0.8,0000*48
$GPGSA,A,3,21,06,09,18,22,31,14,19,,,,,1.8,1.0,1.5*34
$GPGSV,3,1,12,22,68,009,36,14,68,288,32,18,42,087,39,21,24,157,22*7E
$GPGSV,3,2,12,09,22,042,31,31,21,189,34,19,17,282,34,06,11,235,33*73
$GPGSV,3,3,12,11,09,316,36,03,09,245,30,27,05,034,27,25,04,124,*7E
$GPRMC,170904.000,A,3352.0053,N,09831.5597,W,0.16,347.18,030412,,,D*74
$GPGGA,170905.000,3352.0053,N,09831.5598,W,2,08,1.0,301.4,M,-23.7,M,1.8,0000*47
$GPGSA,A,3,21,06,09,18,22,31,14,19,,,,,1.8,1.0,1.5*34
$GPRMC,170905.000,A,3352.0053,N,09831.5598,W,0.29,348.08,030412,,,D*78
$GPGGA,170906.000,3352.0054,N,09831.5598,W,2,08,1.0,301.4,M,-23.7,M,0.8,0000*42
$GPGSA,A,3,21,06,09,18,22,31,14,19,,,,,1.8,1.0,1.5*34
$GPRMC,170906.000,A,3352.0054,N,09831.5598,W,0.09,108.96,030412,,,D*7F
$GPGGA,170907.000,3352.0053,N,09831.5597,W,2,08,1.0,301.5,M,-23.7,M,0.8,0000*4A
$GPGSA,A,3,21,06,09,18,22,31,14,19,,,,,1.8,1.0,1.5*34
$GPRMC,170907.000,A,3352.0053,N,09831.5597,W,0.13,112.38,030412,,,D*72
$GPGGA,170908.000,3352.0053,N,09831.5597,W,2,08,1.0,301.5,M,-23.7,M,0.8,0000*45
$GPGSA,A,3,21,06,09,18,22,31,14,19,,,,,1.8,1.0,1.5*34
$GPRMC,170908.000,A,3352.0053,N,09831.5597,W,0.12,130.76,030412,,,D*76
$GPGGA,170909.000,3352.0053,N,09831.5597,W,2,08,1.0,301.5,M,-23.7,M,1.8,0000*45
$GPGSA,A,3,21,06,09,18,22,31,14,19,,,,,1.8,1.0,1.5*34
$GPGSV,3,1,12,22,68,009,36,14,68,288,32,18,42,087,39,21,24,157,22*7E
$GPGSV,3,2,12,09,22,042,31,31,21,189,34,19,17,282,34,06,11,235,33*73
$GPGSV,3,3,12,11,09,316,36,03,09,245,29,27,05,034,27,25,04,124,*76
$GPRMC,170909.000,A,3352.0053,N,09831.5597,W,0.09,48.64,030412,,,D*40
$GPGGA,170910.000,3352.0052,N,09831.5597,W,2,08,1.0,301.4,M,-23.7,M,2.8,0000*4E
$GPGSA,A,3,21,06,09,18,22,31,14,19,,,,,1.8,1.0,1.5*34
$GPRMC,170910.000,A,3352.0052,N,09831.5597,W,0.07,95.59,030412,,,D*49
$GPGGA,170911.000,3352.0052,N,09831.5597,W,2,08,1.0,301.4,M,-23.7,M,3.8,0000*4E
$GPGSA,A,3,21,06,09,18,22,31,14,19,,,,,1.8,1.0,1.5*34
$GPRMC,170911.000,A,3352.0052,N,09831.5597,W,0.10,22.29,030412,,,D*45
$GPGGA,170912.000,3352.0052,N,09831.5597,W,2,08,1.0,301.5,M,-23.7,M,0.8,0000*4F
$GPGSA,A,3,21,06,09,18,22,31,14,19,,,,,1.8,1.0,1.5*34
$GPRMC,170912.000,A,3352.0052,N,09831.5597,W,0.16,342.05,030412,,,D*7B
$GPGGA,170913.000,3352.0052,N,09831.5598,W,2,08,1.0,301.5,M,-23.7,M,0.8,0000*41
$GPGSA,A,3,21,06,09,18,22,31,14,19,,,,,1.8,1.0,1.5*34
$GPRMC,170913.000,A,3352.0052,N,09831.5598,W,0.01,248.53,030412,,,D*7B
$GPGGA,170914.000,3352.0052,N,09831.5598,W,2,08,1.0,301.5,M,-23.7,M,0.8,0000*46
$GPGSA,A,3,21,06,09,18,22,31,14,19,,,,,1.8,1.0,1.5*34
$GPGSV,3,1,12,22,68,009,36,14,68,288,32,18,42,087,39,21,24,157,22*7E
$GPGSV,3,2,12,09,22,042,31,31,21,189,34,19,17,282,34,06,11,235,33*73
$GPGSV,3,3,12,11,09,316,36,03,09,245,29,27,05,034,27,25,04,124,*76
$GPRMC,170914.000,A,3352.0052,N,09831.5598,W,0.14,347.26,030412,,,D*74
$GPGGA,170915.000,3352.0052,N,09831.5598,W,2,08,1.0,301.5,M,-23.7,M,0.8,0000*47
$GPGSA,A,3,21,06,09,18,22,31,14,19,,,,,1.8,1.0,1.5*34
$GPRMC,170915.000,A,3352.0052,N,09831.5598,W,0.11,355.87,030412,,,D*78
$GPGGA,170916.000,3352.0052,N,09831.5599,W,2,08,1.0,301.5,M,-23.7,M,0.8,0000*45
$GPGSA,A,3,21,06,09,18,22,31,14,19,,,,,1.8,1.0,1.5*34
$GPRMC,170916.000,A,3352.0052,N,09831.5599,W,0.02,125.13,030412,,,D*70
$GPGGA,170917.000,3352.0052,N,09831.5599,W,2,08,1.0,301.6,M,-23.7,M,1.8,0000*46
$GPGSA,A,3,21,06,09,18,22,31,14,19,,,,,1.8,1.0,1.5*34
$GPRMC,170917.000,A,3352.0052,N,09831.5599,W,0.20,345.43,030412,,,D*70
$GPGGA,170918.000,3352.0052,N,09831.5599,W,2,08,1.0,301.6,M,-23.7,M,0.8,0000*48
$GPGSA,A,3,21,06,09,18,22,31,14,19,,,,,1.8,1.0,1.5*34
$GPRMC,170918.000,A,3352.0052,N,09831.5599,W,0.22,5.26,030412,,,D*79
$GPGGA,170919.000,3352.0053,N,09831.5599,W,2,08,1.0,301.6,M,-23.7,M,0.8,0000*48
$GPGSA,A,3,21,06,09,18,22,31,14,19,,,,,1.8,1.0,1.5*34
$GPGSV,3,1,12,22,68,009,36,14,68,288,31,18,42,087,40,21,24,157,22*73
$GPGSV,3,2,12,09,22,042,31,31,21,189,34,19,17,282,34,06,11,235,32*72
$GPGSV,3,3,12,11,09,316,36,03,09,245,29,27,05,034,27,25,04,124,*76
$GPRMC,170919.000,A,3352.0053,N,09831.5599,W,0.14,27.52,030412,,,D*4F
$GPGGA,170920.000,3352.0052,N,09831.5599,W,2,08,1.0,301.5,M,-23.7,M,0.8,0000*40
$GPGSA,A,3,21,06,09,18,22,31,14,19,,,,,1.8,1.0,1.5*34
$GPRMC,170920.000,A,3352.0052,N,09831.5599,W,0.09,87.32,030412,,,D*44
$GPGGA,170921.000,3352.0052,N,09831.5599,W,2,08,1.0,301.5,M,-23.7,M,1.8,0000*40
$GPGSA,A,3,21,06,09,18,22,31,14,19,,,,,1.8,1.0,1.5*34
$GPRMC,170921.000,A,3352.0052,N,09831.5599,W,0.09,25.27,030412,,,D*49
$GPGGA,170922.000,3352.0052,N,09831.5599,W,2,08,1.0,301.5,M,-23.7,M,2.8,0000*40
$GPGSA,A,3,21,06,09,18,22,31,14,19,,,,,1.8,1.0,1.5*34
$GPRMC,170922.000,A,3352.0052,N,09831.5599,W,0.12,20.00,030412,,,D*40
$GPGGA,170923.000,3352.0052,N,09831.5599,W,2,08,1.0,301.5,M,-23.7,M,3.8,0000*40
$GPGSA,A,3,21,06,09,18,22,31,14,19,,,,,1.8,1.0,1.5*34
$GPRMC,170923.000,A,3352.0052,N,09831.5599,W,0.18,6.68,030412,,,D*71
$GPGGA,170924.000,3352.0052,N,09831.5599,W,2,08,1.0,301.6,M,-23.7,M,0.8,0000*47
$GPGSA,A,3,21,06,09,18,22,31,14,19,,,,,1.8,1.0,1.5*34
$GPGSV,3,1,12,22,68,009,36,14,68,288,31,18,42,087,40,21,24,157,22*73
$GPGSV,3,2,12,09,22,042,31,31,21,189,34,19,17,282,34,06,11,235,32*72
$GPGSV,3,3,12,11,09,316,36,03,09,245,29,27,05,034,27,25,04,124,*76
$GPRMC,170924.000,A,3352.0052,N,09831.5599,W,0.04,346.30,030412,,,D*71
$GPGGA,170925.000,3352.0052,N,09831.5599,W,2,08,1.0,301.6,M,-23.7,M,0.8,0000*46
$GPGSA,A,3,21,06,09,18,22,31,14,19,,,,,1.8,1.0,1.5*34
$GPRMC,170925.000,A,3352.0052,N,09831.5599,W,0.01,267.60,030412,,,D*72
$GPGGA,170926.000,3352.0052,N,09831.5599,W,2,08,1.0,301.6,M,-23.7,M,0.8,0000*45
$GPGSA,A,3,21,06,09,18,22,31,14,19,,,,,1.8,1.0,1.5*34
$GPRMC,170926.000,A,3352.0052,N,09831.5599,W,0.02,69.31,030412,,,D*4A
$GPGGA,170927.000,3352.0052,N,09831.5600,W,2,08,1.0,301.7,M,-23.7,M,1.8,0000*47
$GPGSA,A,3,21,06,09,18,22,31,14,19,,,,,1.8,1.0,1.5*34
$GPRMC,170927.000,A,3352.0052,N,09831.5600,W,0.25,346.04,030412,,,D*75
$GPGGA,170928.000,3352.0052,N,09831.5600,W,2,08,1.0,301.7,M,-23.7,M,2.8,0000*4B
$GPGSA,A,3,21,06,09,18,22,31,14,19,,,,,1.8,1.0,1.5*34
$GPRMC,170928.000,A,3352.0052,N,09831.5600,W,0.04,7.87,030412,,,D*74
$GPGGA,170929.000,3352.0052,N,09831.5600,W,2,08,1.0,301.7,M,-23.7,M,0.8,0000*48
$GPGSA,A,3,21,06,09,18,22,31,14,19,,,,,1.8,1.0,1.5*34
$GPGSV,3,1,12,22,68,009,36,14,68,288,31,18,42,087,40,21,24,157,22*73
$GPGSV,3,2,12,09,22,042,31,31,21,189,34,19,17,282,34,06,11,235,32*72
$GPGSV,3,3,12,11,09,316,36,03,09,245,29,27,05,034,27,25,04,124,*76
$GPRMC,170929.000,A,3352.0052,N,09831.5600,W,0.02,62.59,030412,,,D*43
$GPGGA,170930.000,3352.0051,N,09831.5600,W,2,08,1.0,301.7,M,-23.7,M,0.8,0000*43
$GPGSA,A,3,21,06,09,18,22,31,14,19,,,,,1.8,1.0,1.5*34
$GPRMC,170930.000,A,3352.0051,N,09831.5600,W,0.17,129.74,030412,,,D*7D
$GPGGA,170931.000,3352.0051,N,09831.5600,W,2,08,1.0,301.7,M,-23.7,M,0.8,0000*42
$GPGSA,A,3,21,06,09,18,22,31,14,19,,,,,1.8,1.0,1.5*34
$GPRMC,170931.000,A,3352.0051,N,09831.5600,W,0.11,104.77,030412,,,D*76
$GPGGA,170932.000,3352.0051,N,09831.5599,W,2,08,1.0,301.7,M,-23.7,M,0.8,0000*42
$GPGSA,A,3,21,06,09,18,22,31,14,19,,,,,1.8,1.0,1.5*34
$GPRMC,170932.000,A,3352.0051,N,09831.5599,W,0.11,19.70,030412,,,D*4C
$GPGGA,170933.000,3352.0051,N,09831.5599,W,2,08,1.0,301.7,M,-23.7,M,1.8,0000*42
$GPGSA,A,3,21,06,09,18,22,31,14,19,,,,,1.8,1.0,1.5*34
$GPRMC,170933.000,A,3352.0051,N,09831.5599,W,0.15,12.13,030412,,,D*47
$GPGGA,170934.000,3352.0051,N,09831.5599,W,2,08,1.0,301.7,M,-23.7,M,2.8,0000*46
$GPGSA,A,3,21,06,09,18,22,31,14,19,,,,,1.8,1.0,1.5*34
$GPGSV,3,1,12,22,68,009,36,14,68,288,32,18,42,087,40,21,24,157,21*73
$GPGSV,3,2,12,09,22,042,31,31,21,189,34,19,17,282,34,06,11,235,32*72
$GPGSV,3,3,12,11,09,316,36,03,09,245,30,27,05,034,27,25,04,124,*7E
$GPRMC,170934.000,A,3352.0051,N,09831.5599,W,0.12,15.19,030412,,,D*4A
$GPGGA,170935.000,3352.0051,N,09831.5599,W,2,08,1.0,301.7,M,-23.7,M,3.8,0000*46
$GPGSA,A,3,21,06,09,18,22,31,14,19,,,,,1.8,1.0,1.5*34
$GPRMC,170935.000,A,3352.0051,N,09831.5599,W,0.14,8.57,030412,,,D*7B
$GPGGA,170936.000,3352.0051,N,09831.5599,W,2,08,1.0,301.7,M,-23.7,M,0.8,0000*46
$GPGSA,A,3,21,06,09,18,22,31,14,19,,,,,1.8,1.0,1.5*34
$GPRMC,170936.000,A,3352.0051,N,09831.5599,W,0.01,143.18,030412,,,D*79
$GPGGA,170937.000,3352.0051,N,09831.5600,W,2,08,1.0,301.7,M,-23.7,M,0.8,0000*44
$GPGSA,A,3,21,06,09,18,22,31,14,19,,,,,1.8,1.0,1.5*34
$GPRMC,170937.000,A,3352.0051,N,09831.5600,W,0.22,340.89,030412,,,D*73
$GPGGA,170938.000,3352.0051,N,09831.5600,W,2,08,1.0,301.8,M,-23.7,M,0.8,0000*44
$GPGSA,A,3,21,06,09,18,22,31,14,19,,,,,1.8,1.0,1.5*34
$GPRMC,170938.000,A,3352.0051,N,09831.5600,W,0.07,13.24,030412,,,D*49
$GPGGA,170939.000,3352.0051,N,09831.5600,W,2,08,1.0,301.8,M,-23.7,M,0.8,0000*45
$GPGSA,A,3,21,06,09,18,22,31,14,19,,,,,1.8,1.0,1.5*34
$GPGSV,3,1,12,22,68,009,36,14,68,288,32,18,42,087,40,21,24,157,21*73
$GPGSV,3,2,12,09,22,042,31,31,21,189,34,19,17,282,34,06,11,235,32*72
$GPGSV,3,3,12,11,09,316,36,03,09,245,30,27,05,034,27,25,04,124,*7E
$GPRMC,170939.000,A,3352.0051,N,09831.5600,W,0.15,355.14,030412,,,D*79
$GPGGA,170940.000,3352.0052,N,09831.5600,W,2,09,0.9,301.6,M,-23.7,M,1.8,0000*4E
$GPGSA,A,3,21,06,09,18,22,31,14,11,19,,,,1.6,0.9,1.3*34
$GPRMC,170940.000,A,3352.0052,N,09831.5600,W,0.05,44.39,030412,,,D*49
$GPGGA,170941.000,3352.0053,N,09831.5600,W,2,09,0.9,301.4,M,-23.7,M,2.8,0000*4F
$GPGSA,A,3,21,06,09,18,22,31,14,11,19,,,,1.6,0.9,1.3*34
$GPRMC,170941.000,A,3352.0053,N,09831.5600,W,0.19,2.85,030412,,,D*71
$GPGGA,170942.000,3352.0053,N,09831.5600,W,2,09,0.9,301.2,M,-23.7,M,0.8,0000*48
$GPGSA,A,3,21,06,09,18,22,31,14,11,19,,,,1.6,0.9,1.3*34
$GPRMC,170942.000,A,3352.0053,N,09831.5600,W,0.10,89.15,030412,,,D*41
$GPGGA,170943.000,3352.0053,N,09831.5600,W,2,09,0.9,301.0,M,-23.7,M,0.8,0000*4B
$GPGSA,A,3,21,06,09,18,22,31,14,11,19,,,,1.6,0.9,1.3*34
$GPRMC,170943.000,A,3352.0053,N,09831.5600,W,0.11,89.49,030412,,,D*48
$GPGGA,170944.000,3352.0054,N,09831.5599,W,2,09,0.9,300.8,M,-23.7,M,0.8,0000*41
$GPGSA,A,3,21,06,09,18,22,31,14,11,19,,,,1.6,0.9,1.3*34
$GPGSV,3,1,12,22,68,009,36,14,68,288,32,18,42,087,40,21,24,157,21*73
$GPGSV,3,2,12,09,22,042,31,31,21,189,34,19,17,282,34,06,11,235,32*72
$GPGSV,3,3,12,11,09,316,36,03,09,245,31,27,05,034,27,25,04,124,*7F
$GPRMC,170944.000,A,3352.0054,N,09831.5599,W,0.09,81.92,030412,,,D*4C
$GPGGA,170945.000,3352.0054,N,09831.5599,W,2,09,0.9,300.6,M,-23.7,M,1.8,0000*4F
$GPGSA,A,3,21,06,09,18,22,31,14,11,19,,,,1.6,0.9,1.3*34
$GPRMC,170945.000,A,3352.0054,N,09831.5599,W,0.15,132.91,030412,,,D*7A
$GPGGA,170946.000,3352.0054,N,09831.5599,W,2,09,0.9,300.5,M,-23.7,M,2.8,0000*4C
$GPGSA,A,3,21,06,09,18,22,31,14,11,19,,,,1.6,0.9,1.3*34
$GPRMC,170946.000,A,3352.0054,N,09831.5599,W,0.10,48.09,030412,,,D*41
$GPGGA,170947.000,3352.0054,N,09831.5598,W,2,09,0.9,300.3,M,-23.7,M,3.8,0000*4B
$GPGSA,A,3,21,06,09,18,22,31,14,11,19,,,,1.6,0.9,1.3*34
$GPRMC,170947.000,A,3352.0054,N,09831.5598,W,0.15,132.60,030412,,,D*77
$GPGGA,170948.000,3352.0054,N,09831.5598,W,2,09,0.9,300.3,M,-23.7,M,0.8,0000*47
$GPGSA,A,3,21,06,09,18,22,31,14,11,19,,,,1.6,0.9,1.3*34
$GPRMC,170948.000,A,3352.0054,N,09831.5598,W,0.02,98.73,030412,,,D*4D
$GPGGA,170949.000,3352.0054,N,09831.5598,W,2,09,0.9,300.2,M,-23.7,M,0.8,0000*47
$GPGSA,A,3,21,06,09,18,22,31,14,11,19,,,,1.6,0.9,1.3*34
$GPGSV,3,1,12,22,68,009,36,14,68,288,32,18,42,087,40,21,24,157,21*73
$GPGSV,3,2,12,09,22,042,32,31,21,189,34,19,17,282,35,06,11,235,33*71
$GPGSV,3,3,12,11,09,316,35,03,09,245,31,27,05,034,28,25,04,124,*73
$GPRMC,170949.000,A,3352.0054,N,09831.5598,W,0.02,99.55,030412,,,D*49
$GPGGA,170950.000,3352.0054,N,09831.5599,W,2,09,0.9,300.1,M,-23.7,M,0.8,0000*4D
$GPGSA,A,3,21,06,09,18,22,31,14,11,19,,,,1.6,0.9,1.3*34
$GPRMC,170950.000,A,3352.0054,N,09831.5599,W,0.15,8.85,030412,,,D*73
$GPGGA,170951.000,3352.0055,N,09831.5599,W,2,09,0.9,300.1,M,-23.7,M,1.8,0000*4C
$GPGSA,A,3,21,06,09,18,22,31,14,11,19,,,,1.6,0.9,1.3*34
$GPRMC,170951.000,A,3352.0055,N,09831.5599,W,0.14,6.44,030412,,,D*71
$GPGGA,170952.000,3352.0055,N,09831.5599,W,2,09,0.9,300.0,M,-23.7,M,2.8,0000*4D
$GPGSA,A,3,21,06,09,18,22,31,14,11,19,,,,1.6,0.9,1.3*34
$GPRMC,170952.000,A,3352.0055,N,09831.5599,W,0.04,51.01,030412,,,D*40
$GPGGA,170953.000,3352.0055,N,09831.5599,W,2,09,0.9,300.0,M,-23.7,M,3.8,0000*4D
$GPGSA,A,3,21,06,09,18,22,31,14,11,19,,,,1.6,0.9,1.3*34
$GPRMC,170953.000,A,3352.0055,N,09831.5599,W,0.04,90.66,030412,,,D*4D
$GPGGA,170954.000,3352.0056,N,09831.5598,W,2,09,0.9,299.9,M,-23.7,M,0.8,0000*43
$GPGSA,A,3,21,06,09,18,22,31,14,11,19,,,,1.6,0.9,1.3*34
$GPGSV,3,1,12,22,68,009,36,14,68,288,32,18,42,087,40,21,24,157,21*73
$GPGSV,3,2,12,09,22,042,32,31,21,189,35,19,17,282,35,06,11,235,33*70
$GPGSV,3,3,12,11,09,316,35,03,09,245,32,27,05,034,28,25,04,124,*70
$GPRMC,170954.000,A,3352.0056,N,09831.5598,W,0.17,26.27,030412,,,D*42
$GPGGA,170955.000,3352.0056,N,09831.5598,W,2,09,0.9,299.8,M,-23.7,M,0.8,0000*43
$GPGSA,A,3,21,06,09,18,22,31,14,11,19,,,,1.6,0.9,1.3*34
$GPRMC,170955.000,A,3352.0056,N,09831.5598,W,0.18,23.35,030412,,,D*4A
$GPGGA,170956.000,3352.0056,N,09831.5598,W,2,09,0.9,299.7,M,-23.7,M,0.8,0000*4F
$GPGSA,A,3,21,06,09,18,22,31,14,11,19,,,,1.6,0.9,1.3*34
$GPRMC,170956.000,A,3352.0056,N,09831.5598,W,0.10,125.90,030412,,,D*79
$GPGGA,170957.000,3352.0056,N,09831.5597,W,2,09,0.9,299.5,M,-23.7,M,1.8,0000*42
$GPGSA,A,3,21,06,09,18,22,31,14,11,19,,,,1.6,0.9,1.3*34
$GPRMC,170957.000,A,3352.0056,N,09831.5597,W,0.09,122.87,030412,,,D*7E
$GPGGA,170958.000,3352.0056,N,09831.5597,W,2,09,0.9,299.4,M,-23.7,M,2.8,0000*4F
$GPGSA,A,3,21,06,09,18,22,31,14,11,19,,,,1.6,0.9,1.3*34
$GPRMC,170958.000,A,3352.0056,N,09831.5597,W,0.13,133.67,030412,,,D*74
$GPGGA,170959.000,3352.0056,N,09831.5597,W,2,09,0.9,299.2,M,-23.7,M,3.8,0000*49
$GPGSA,A,3,21,06,09,18,22,31,14,11,19,,,,1.6,0.9,1.3*34
$GPGSV,3,1,12,22,68,009,36,14,68,288,32,18,42,087,40,21,24,157,22*70
$GPGSV,3,2,12,09,22,042,32,31,21,189,35,19,17,282,35,06,11,235,33*70
$GPGSV,3,3,12,11,09,316,35,03,09,245,32,27,05,034,28,25,04,124,*70
$GPRMC,170959.000,A,3352.0056,N,09831.5597,W,0.11,45.82,030412,,,D*4C
$GPGGA,171000.000,3352.0057,N,09831.5597,W,2,09,0.9,299.1,M,-23.7,M,0.8,0000*4C
$GPGSA,A,3,21,06,09,18,22,31,14,11,19,,,,1.6,0.9,1.3*34
$GPRMC,171000.000,A,3352.0057,N,09831.5597,W,0.13,7.06,030412,,,D*71
$GPGGA,171001.000,3352.0057,N,09831.5597,W,2,09,0.9,299.1,M,-23.7,M,0.8,0000*4D
$GPGSA,A,3,21,06,09,18,22,31,14,11,19,,,,1.6,0.9,1.3*34
$GPRMC,171001.000,A,3352.0057,N,09831.5597,W,0.01,294.75,030412,,,D*7F
$GPGGA,171002.000,3352.0057,N,09831.5597,W,2,09,0.9,299.0,M,-23.7,M,0.8,0000*4F
$GPGSA,A,3,21,06,09,18,22,31,14,11,19,,,,1.6,0.9,1.3*34
$GPRMC,171002.000,A,3352.0057,N,09831.5597,W,0.03,120.00,030412,,,D*70
$GPGGA,171003.000,3352.0057,N,09831.5597,W,2,09,0.9,298.9,M,-23.7,M,0.8,0000*46
$GPGSA,A,3,21,06,09,18,22,31,14,11,19,,,,1.6,0.9,1.3*34
$GPRMC,171003.000,A,3352.0057,N,09831.5597,W,0.03,120.75,030412,,,D*73
$GPGGA,171004.000,3352.0058,N,09831.5598,W,2,09,0.9,298.9,M,-23.7,M,1.8,0000*40
$GPGSA,A,3,21,06,09,18,22,31,14,11,19,,,,1.6,0.9,1.3*34
$GPGSV,3,1,12,22,68,009,35,14,68,288,32,18,42,087,40,21,24,157,22*73
$GPGSV,3,2,12,09,22,042,33,31,21,189,35,19,17,282,35,06,11,235,33*71
$GPGSV,3,3,12,11,09,316,35,03,09,245,32,27,05,034,28,25,04,124,*70
$GPRMC,171004.000,A,3352.0058,N,09831.5598,W,0.01,115.40,030412,,,D*76
$GPGGA,171005.000,3352.0058,N,09831.5598,W,2,09,0.9,298.8,M,-23.7,M,0.8,0000*41
$GPGSA,A,3,21,06,09,18,22,31,14,11,19,,,,1.6,0.9,1.3*34
$GPRMC,171005.000,A,3352.0058,N,09831.5598,W,0.03,89.48,030412,,,D*49
$GPGGA,171006.000,3352.0058,N,09831.5598,W,2,09,0.9,298.7,M,-23.7,M,0.8,0000*4D
$GPGSA,A,3,21,06,09,18,22,31,14,11,19,,,,1.6,0.9,1.3*34
$GPRMC,171006.000,A,3352.0058,N,09831.5598,W,0.10,108.02,030412,,,D*7E
$GPGGA,171007.000,3352.0058,N,09831.5597,W,2,09,0.9,298.5,M,-23.7,M,0.8,0000*41
$GPGSA,A,3,21,06,09,18,22,31,14,11,19,,,,1.6,0.9,1.3*34
$GPRMC,171007.000,A,3352.0058,N,09831.5597,W,0.11,131.59,030412,,,D*75
$GPGGA,171008.000,3352.0058,N,09831.5597,W,2,09,0.9,298.4,M,-23.7,M,0.8,0000*4F
$GPGSA,A,3,21,06,09,18,22,31,14,11,19,,,,1.6,0.9,1.3*34
$GPRMC,171008.000,A,3352.0058,N,09831.5597,W,0.10,121.75,030412,,,D*74
$GPGGA,171009.000,3352.0058,N,09831.5597,W,2,09,0.9,298.2,M,-23.7,M,1.8,0000*49
$GPGSA,A,3,21,06,09,18,22,31,14,11,19,,,,1.6,0.9,1.3*34
$GPGSV,3,1,12,22,68,009,35,14,68,288,32,18,42,087,41,21,24,157,22*72
$GPGSV,3,2,12,09,22,042,33,31,21,189,35,19,17,282,35,06,11,235,33*71
$GPGSV,3,3,12,11,09,316,35,03,09,245,31,27,05,034,29,25,04,124,*72
$GPRMC,171009.000,A,3352.0058,N,09831.5597,W,0.07,75.58,030412,,,D*4C
$GPGGA,171010.000,3352.0058,N,09831.5597,W,2,09,0.9,298.1,M,-23.7,M,2.8,0000*41
$GPGSA,A,3,21,06,09,18,22,31,14,11,19,,,,1.6,0.9,1.3*34
$GPRMC,171010.000,A,3352.0058,N,09831.5597,W,0.11,134.63,030412,,,D*7F
$GPGGA,171011.000,3352.0058,N,09831.5597,W,2,09,0.9,297.9,M,-23.7,M,0.8,0000*45
$GPGSA,A,3,21,06,09,18,22,31,14,11,19,,,,1.6,0.9,1.3*34
$GPRMC,171011.000,A,3352.0058,N,09831.5597,W,0.11,40.54,030412,,,D*48
$GPGGA,171012.000,3352.0059,N,09831.5597,W,2,09,0.9,297.8,M,-23.7,M,0.8,0000*46
$GPGSA,A,3,21,06,09,18,22,31,14,11,19,,,,1.6,0.9,1.3*34
$GPRMC,171012.000,A,3352.0059,N,09831.5597,W,0.08,356.37,030412,,,D*73
$GPGGA,171013.000,3352.0059,N,09831.5597,W,2,09,0.9,297.8,M,-23.7,M,0.8,0000*47
$GPGSA,A,3,21,06,09,18,22,31,14,11,19,,,,1.6,0.9,1.3*34
$GPRMC,171013.000,A,3352.0059,N,09831.5597,W,0.06,336.78,030412,,,D*71
$GPGGA,171014.000,3352.0060,N,09831.5598,W,2,09,0.9,297.8,M,-23.7,M,0.8,0000*45
$GPGSA,A,3,21,06,09,18,22,31,14,11,19,,,,1.6,0.9,1.3*34
$GPGSV,3,1,12,22,68,009,35,14,68,288,33,18,42,087,41,21,24,157,22*73
$GPGSV,3,2,12,09,22,042,33,31,21,189,35,19,17,282,35,06,11,235,33*71
$GPGSV,3,3,12,11,09,316,35,03,09,245,32,27,05,034,29,25,04,124,*71
$GPRMC,171014.000,A,3352.0060,N,09831.5598,W,0.19,4.69,030412,,,D*7F
$GPGGA,171015.000,3352.0060,N,09831.5598,W,2,09,0.9,297.8,M,-23.7,M,1.8,0000*45
$GPGSA,A,3,21,06,09,18,22,31,14,11,19,,,,1.6,0.9,1.3*34
$GPRMC,171015.000,A,3352.0060,N,09831.5598,W,0.05,9.55,030412,,,D*71
$GPGGA,171016.000,3352.0061,N,09831.5598,W,2,09,0.9,297.8,M,-23.7,M,0.8,0000*46
$GPGSA,A,3,21,06,09,18,22,31,14,11,19,,,,1.6,0.9,1.3*34
$GPRMC,171016.000,A,3352.0061,N,09831.5598,W,0.11,3.64,030412,,,D*7E
$GPGGA,171017.000,3352.0061,N,09831.5599,W,2,09,0.9,297.8,M,-23.7,M,0.8,0000*46
$GPGSA,A,3,21,06,09,18,22,31,14,11,19,,,,1.6,0.9,1.3*34
$GPRMC,171017.000,A,3352.0061,N,09831.5599,W,0.13,358.63,030412,,,D*76
$GPGGA,171018.000,3352.0061,N,09831.5599,W,2,09,0.9,297.7,M,-23.7,M,0.8,0000*46
$GPGSA,A,3,21,06,09,18,22,31,14,11,19,,,,1.6,0.9,1.3*34
$GPRMC,171018.000,A,3352.0061,N,09831.5599,W,0.10,96.00,030412,,,D*4E
$GPGGA,171019.000,3352.0061,N,09831.5598,W,2,09,0.9,297.6,M,-23.7,M,0.8,0000*47
$GPGSA,A,3,21,06,09,18,22,31,14,11,19,,,,1.6,0.9,1.3*34
$GPGSV,3,1,12,22,68,009,35,14,68,288,33,18,42,087,41,21,24,157,23*72
$GPGSV,3,2,12,09,22,042,33,31,21,189,35,19,17,282,34,06,11,235,33*70
$GPGSV,3,3,12,11,09,316,35,03,09,245,32,27,05,034,29,25,04,124,*71
$GPRMC,171019.000,A,3352.0061,N,09831.5598,W,0.10,105.40,030412,,,D*71
$GPGGA,171020.000,3352.0062,N,09831.5598,W,2,09,0.9,297.5,M,-23.7,M,0.8,0000*4D
$GPGSA,A,3,21,06,09,18,22,31,14,11,19,,,,1.6,0.9,1.3*34
$GPRMC,171020.000,A,3352.0062,N,09831.5598,W,0.11,40.09,030412,,,D*44
$GPGGA,171021.000,3352.0062,N,09831.5598,W,2,09,0.9,297.4,M,-23.7,M,1.8,0000*4C
$GPGSA,A,3,21,06,09,18,22,31,14,11,19,,,,1.6,0.9,1.3*34
$GPRMC,171021.000,A,3352.0062,N,09831.5598,W,0.09,120.67,030412,,,D*73
$GPGGA,171022.000,3352.0062,N,09831.5598,W,2,09,0.9,297.3,M,-23.7,M,0.8,0000*49
$GPGSA,A,3,21,06,09,18,22,31,14,11,19,,,,1.6,0.9,1.3*34
$GPRMC,171022.000,A,3352.0062,N,09831.5598,W,0.08,93.09,030412,,,D*40
$GPGGA,171023.000,3352.0062,N,09831.5598,W,2,09,0.9,297.2,M,-23.7,M,0.8,0000*49
$GPGSA,A,3,21,06,09,18,22,31,14,11,19,,,,1.6,0.9,1.3*34
$GPRMC,171023.000,A,3352.0062,N,09831.5598,W,0.14,32.27,030412,,,D*4B
$GPGGA,171024.000,3352.0063,N,09831.5598,W,2,09,0.9,297.1,M,-23.7,M,0.8,0000*4C
$GPGSA,A,3,21,06,09,18,22,31,14,11,19,,,,1.6,0.9,1.3*34
$GPGSV,3,1,12,22,68,009,35,14,68,288,33,18,42,087,41,21,24,157,23*72
$GPGSV,3,2,12,09,22,042,33,31,21,189,35,19,17,282,34,06,11,235,32*71
$GPGSV,3,3,12,11,09,316,34,03,09,245,32,27,05,034,28,25,04,124,*71
$GPRMC,171024.000,A,3352.0063,N,09831.5598,W,0.01,17.23,030412,,,D*4A
$GPGGA,171025.000,3352.0063,N,09831.5598,W,2,09,0.9,297.1,M,-23.7,M,0.8,0000*4D
$GPGSA,A,3,21,06,09,18,22,31,14,11,19,,,,1.6,0.9,1.3*34
$GPRMC,171025.000,A,3352.0063,N,09831.5598,W,0.10,349.34,030412,,,D*75
$GPGGA,171026.000,3352.0063,N,09831.5598,W,2,09,0.9,297.1,M,-23.7,M,0.8,0000*4E
$GPGSA,A,3,21,06,09,18,22,31,14,11,19,,,,1.6,0.9,1.3*34
$GPRMC,171026.000,A,3352.0063,N,09831.5598,W,0.03,144.32,030412,,,D*7D
$GPGGA,171027.000,3352.0063,N,09831.5599,W,2,09,0.9,297.1,M,-23.7,M,0.8,0000*4E
$GPGSA,A,3,21,06,09,18,22,31,14,11,19,,,,1.6,0.9,1.3*34
$GPRMC,171027.000,A,3352.0063,N,09831.5599,W,0.13,5.55,030412,,,D*79
$GPGGA,171028.000,3352.0063,N,09831.5599,W,2,09,0.9,297.1,M,-23.7,M,1.8,0000*40
$GPGSA,A,3,21,06,09,18,22,31,14,11,19,,,,1.6,0.9,1.3*34
$GPRMC,171028.000,A,3352.0063,N,09831.5599,W,0.02,180.61,030412,,,D*7D
$GPGGA,171029.000,3352.0063,N,09831.5599,W,2,09,0.9,297.1,M,-23.7,M,2.8,0000*42
$GPGSA,A,3,21,06,09,18,22,31,14,11,19,,,,1.6,0.9,1.3*34
$GPGSV,3,1,12,22,68,009,35,14,68,288,33,18,42,087,41,21,24,157,22*73
$GPGSV,3,2,12,09,22,042,33,31,21,189,35,19,17,282,34,06,11,235,32*71
$GPGSV,3,3,12,11,09,316,34,03,09,245,32,27,05,034,28,25,04,124,*71
$GPRMC,171029.000,A,3352.0063,N,09831.5599,W,0.03,15.43,030412,,,D*40
$GPGGA,171030.000,3352.0063,N,09831.5599,W,2,09,0.9,297.0,M,-23.7,M,0.8,0000*49
$GPGSA,A,3,21,06,09,18,22,31,14,11,19,,,,1.6,0.9,1.3*34
$GPRMC,171030.000,A,3352.0063,N,09831.5599,W,0.11,127.53,030412,,,D*7A
$GPGGA,171031.000,3352.0063,N,09831.5599,W,2,09,0.9,296.9,M,-23.7,M,0.8,0000*40
$GPGSA,A,3,21,06,09,18,22,31,14,11,19,,,,1.6,0.9,1.3*34
$GPRMC,171031.000,A,3352.0063,N,09831.5599,W,0.09,88.74,030412,,,D*43
$GPGGA,171032.000,3352.0064,N,09831.5599,W,2,09,0.9,296.8,M,-23.7,M,0.8,0000*45
$GPGSA,A,3,21,06,09,18,22,31,14,11,19,,,,1.6,0.9,1.3*34
$GPRMC,171032.000,A,3352.0064,N,09831.5599,W,0.08,45.00,030412,,,D*44
$GPGGA,171033.000,3352.0064,N,09831.5599,W,2,09,0.9,296.7,M,-23.7,M,1.8,0000*4A
$GPGSA,A,3,21,06,09,18,22,31,14,11,19,,,,1.6,0.9,1.3*34
$GPRMC,171033.000,A,3352.0064,N,09831.5599,W,0.08,101.98,030412,,,D*75
$GPGGA,171034.000,3352.0064,N,09831.5598,W,2,09,0.9,296.6,M,-23.7,M,0.8,0000*4C
$GPGSA,A,3,21,06,09,18,22,31,14,11,19,,,,1.6,0.9,1.3*34
$GPGSV,3,1,12,22,69,013,35,14,69,292,33,18,42,088,41,21,22,157,22*7A
$GPGSV,3,2,12,31,22,189,35,09,21,042,34,19,17,281,34,06,10,234,31*76
$GPGSV,3,3,12,11,10,315,34,03,08,244,32,25,05,122,,12,05,085,*7B
$GPRMC,171034.000,A,3352.0064,N,09831.5598,W,0.09,54.57,030412,,,D*40
$GPGGA,171035.000,3352.0064,N,09831.5598,W,2,09,0.9,296.6,M,-23.7,M,1.8,0000*4C
$GPGSA,A,3,21,06,09,18,22,31,14,11,19,,,,1.6,0.9,1.3*34
$GPRMC,171035.000,A,3352.0064,N,09831.5598,W,0.13,27.46,030412,,,D*4E
$GPGGA,171036.000,3352.0065,N,09831.5598,W,2,09,0.9,296.5,M,-23.7,M,2.8,0000*4E
$GPGSA,A,3,21,06,09,18,22,31,14,11,19,,,,1.6,0.9,1.3*34
$GPRMC,171036.000,A,3352.0065,N,09831.5598,W,0.09,117.62,030412,,,D*73
$GPGGA,171037.000,3352.0064,N,09831.5598,W,2,09,0.9,296.4,M,-23.7,M,3.8,0000*4E
$GPGSA,A,3,21,06,09,18,22,31,14,11,19,,,,1.6,0.9,1.3*34
$GPRMC,171037.000,A,3352.0064,N,09831.5598,W,0.10,130.14,030412,,,D*7F
$GPGGA,171038.000,3352.0065,N,09831.5598,W,2,09,0.9,296.3,M,-23.7,M,0.8,0000*44
$GPGSA,A,3,21,06,09,18,22,31,14,11,19,,,,1.6,0.9,1.3*34
$GPRMC,171038.000,A,3352.0065,N,09831.5598,W,0.13,50.00,030412,,,D*40
$GPGGA,171039.000,3352.0065,N,09831.5598,W,2,09,0.9,296.3,M,-23.7,M,1.8,0000*44
$GPGSA,A,3,21,06,09,18,22,31,14,11,19,,,,1.6,0.9,1.3*34
$GPGSV,3,1,12,22,69,013,34,14,69,292,33,18,42,088,41,21,22,157,22*7B
$GPGSV,3,2,12,31,22,189,35,09,21,042,34,19,17,281,34,06,10,234,30*77
$GPGSV,3,3,12,11,10,315,34,03,08,244,31,25,05,122,,12,05,085,*78
$GPRMC,171039.000,A,3352.0065,N,09831.5598,W,0.10,96.81,030412,,,D*41
$GPGGA,171040.000,3352.0065,N,09831.5597,W,2,09,0.9,296.2,M,-23.7,M,2.8,0000*47
$GPGSA,A,3,21,06,09,18,22,31,14,11,19,,,,1.6,0.9,1.3*34
$GPRMC,171040.000,A,3352.0065,N,09831.5597,W,0.16,42.30,030412,,,D*45
$GPGGA,171041.000,3352.0066,N,09831.5597,W,2,09,0.9,296.2,M,-23.7,M,3.8,0000*44
$GPGSA,A,3,21,06,09,18,22,31,14,11,19,,,,1.6,0.9,1.3*34
$GPRMC,171041.000,A,3352.0066,N,09831.5597,W,0.18,29.23,030412,,,D*46
$GPGGA,171042.000,3352.0066,N,09831.5597,W,2,09,0.9,296.1,M,-23.7,M,4.8,0000*43
$GPGSA,A,3,21,06,09,18,22,31,14,11,19,,,,1.6,0.9,1.3*34
$GPRMC,171042.000,A,3352.0066,N,09831.5597,W,0.19,28.89,030412,,,D*45
$GPGGA,171043.000,3352.0066,N,09831.5597,W,2,09,0.9,296.1,M,-23.7,M,0.8,0000*46
$GPGSA,A,3,21,06,09,18,22,31,14,11,19,,,,1.6,0.9,1.3*34
$GPRMC,171043.000,A,3352.0066,N,09831.5597,W,0.10,70.86,030412,,,D*4F
$GPGGA,171044.000,3352.0066,N,09831.5596,W,2,09,0.9,296.0,M,-23.7,M,0.8,0000*41
$GPGSA,A,3,21,06,09,18,22,31,14,11,19,,,,1.6,0.9,1.3*34
$GPGSV,3,1,12,22,69,013,34,14,69,292,33,18,42,088,41,21,22,157,22*7B
$GPGSV,3,2,12,31,22,189,35,09,21,042,34,19,17,281,33,06,10,234,30*70
$GPGSV,3,3,12,11,10,315,34,03,08,244,31,25,05,122,,12,05,085,*78
$GPRMC,171044.000,A,3352.0066,N,09831.5596,W,0.08,96.93,030412,,,D*4C
$GPGGA,171045.000,3352.0066,N,09831.5596,W,2,09,0.9,295.9,M,-23.7,M,1.8,0000*4B
$GPGSA,A,3,21,06,09,18,22,31,14,11,19,,,,1.6,0.9,1.3*34
$GPRMC,171045.000,A,3352.0066,N,09831.5596,W,0.08,99.02,030412,,,D*4A
$GPGGA,171046.000,3352.0067,N,09831.5596,W,2,09,0.9,295.9,M,-23.7,M,2.8,0000*4A
$GPGSA,A,3,21,06,09,18,22,31,14,11,19,,,,1.6,0.9,1.3*34
$GPRMC,171046.000,A,3352.0067,N,09831.5596,W,0.08,58.80,030412,,,D*4F
$GPGGA,171047.000,3352.0067,N,09831.5596,W,2,09,0.9,295.8,M,-23.7,M,3.8,0000*4B
$GPGSA,A,3,21,06,09,18,22,31,14,11,19,,,,1.6,0.9,1.3*34
$GPRMC,171047.000,A,3352.0067,N,09831.5596,W,0.09,85.83,030412,,,D*4C
$GPGGA,171048.000,3352.0067,N,09831.5596,W,2,09,0.9,295.8,M,-23.7,M,0.8,0000*47
$GPGSA,A,3,21,06,09,18,22,31,14,11,19,,,,1.6,0.9,1.3*34
$GPRMC,171048.000,A,3352.0067,N,09831.5596,W,0.05,28.09,030412,,,D*4A
$GPGGA,171049.000,3352.0067,N,09831.5596,W,2,09,0.9,295.9,M,-23.7,M,0.8,0000*47
$GPGSA,A,3,21,06,09,18,22,31,14,11,19,,,,1.6,0.9,1.3*34
$GPGSV,3,1,12,22,69,013,34,14,69,292,33,18,42,088,41,21,22,157,21*78
$GPGSV,3,2,12,31,22,189,35,09,21,042,34,19,17,281,33,06,10,234,30*70
$GPGSV,3,3,12,11,10,315,34,03,08,244,31,25,05,122,,12,05,085,*78
$GPRMC,171049.000,A,3352.0067,N,09831.5596,W,0.13,9.44,030412,,,D*76
$GPGGA,171050.000,3352.0067,N,09831.5596,W,2,09,0.9,295.9,M,-23.7,M,0.8,0000*4F
$GPGSA,A,3,21,06,09,18,22,31,14,11,19,,,,1.6,0.9,1.3*34
$GPRMC,171050.000,A,3352.0067,N,09831.5596,W,0.03,80.79,030412,,,D*40
$GPGGA,171051.000,3352.0067,N,09831.5596,W,2,09,0.9,295.9,M,-23.7,M,0.8,0000*4E
$GPGSA,A,3,21,06,09,18,22,31,14,11,19,,,,1.6,0.9,1.3*34
$GPRMC,171051.000,A,3352.0067,N,09831.5596,W,0.03,106.16,030412,,,D*77
$GPGGA,171052.000,3352.0068,N,09831.5597,W,2,09,0.9,295.9,M,-23.7,M,1.8,0000*42
$GPGSA,A,3,21,06,09,18,22,31,14,11,19,,,,1.6,0.9,1.3*34
$GPRMC,171052.000,A,3352.0068,N,09831.5597,W,0.04,122.36,030412,,,D*79
$GPGGA,171053.000,3352.0068,N,09831.5597,W,2,09,0.9,296.0,M,-23.7,M,2.8,0000*4A
$GPGSA,A,3,21,06,09,18,22,31,14,11,19,,,,1.6,0.9,1.3*34
$GPRMC,171053.000,A,3352.0068,N,09831.5597,W,0.05,120.10,030412,,,D*7F
$GPGGA,171054.000,3352.0068,N,09831.5597,W,2,09,0.9,296.0,M,-23.7,M,0.8,0000*4F
$GPGSA,A,3,21,06,09,18,22,31,14,11,19,,,,1.6,0.9,1.3*34
$GPGSV,3,1,12,22,69,013,33,14,69,292,33,18,42,088,41,21,22,157,21*7F
$GPGSV,3,2,12,31,22,189,35,09,21,042,34,19,17,281,32,06,10,234,29*79
$GPGSV,3,3,12,11,10,315,34,03,08,244,31,25,05,122,,12,05,085,*78
$GPRMC,171054.000,A,3352.0068,N,09831.5597,W,0.10,80.76,030412,,,D*47
$GPGGA,171055.000,3352.0068,N,09831.5597,W,2,09,0.9,295.9,M,-23.7,M,0.8,0000*44
$GPGSA,A,3,21,06,09,18,22,31,14,11,19,,,,1.6,0.9,1.3*34
$GPRMC,171055.000,A,3352.0068,N,09831.5597,W,0.11,89.42,030412,,,D*49
$GPGGA,171056.000,3352.0068,N,09831.5596,W,2,09,0.9,295.9,M,-23.7,M,0.8,0000*46
$GPGSA,A,3,21,06,09,18,22,31,14,11,19,,,,1.6,0.9,1.3*34
$GPRMC,171056.000,A,3352.0068,N,09831.5596,W,0.08,81.62,030412,,,D*49
$GPGGA,171057.000,3352.0068,N,09831.5596,W,2,09,0.9,295.8,M,-23.7,M,1.8,0000*47
$GPGSA,A,3,21,06,09,18,22,31,14,11,19,,,,1.6,0.9,1.3*34
$GPRMC,171057.000,A,3352.0068,N,09831.5596,W,0.16,26.54,030412,,,D*4F
$GPGGA,171058.000,3352.0069,N,09831.5596,W,2,09,0.9,295.8,M,-23.7,M,0.8,0000*48
$GPGSA,A,3,21,06,09,18,22,31,14,11,19,,,,1.6,0.9,1.3*34
$GPRMC,171058.000,A,3352.0069,N,09831.5596,W,0.08,78.73,030412,,,D*40
$GPGGA,171059.000,3352.0069,N,09831.5596,W,2,09,0.9,295.7,M,-23.7,M,1.8,0000*47
$GPGSA,A,3,21,06,09,18,22,31,14,11,19,,,,1.6,0.9,1.3*34
$GPGSV,3,1,12,22,69,013,33,14,69,292,33,18,42,088,41,21,22,157,21*7F
$GPGSV,3,2,12,31,22,189,35,09,21,042,33,19,17,281,32,06,10,234,28*7F
$GPGSV,3,3,12,11,10,315,33,03,08,244,31,25,05,122,,12,05,085,*7F
$GPRMC,171059.000,A,3352.0069,N,09831.5596,W,0.11,39.15,030412,,,D*4C
$GPGGA,171100.000,3352.0069,N,09831.5596,W,2,09,0.9,295.7,M,-23.7,M,0.8,0000*4B
$GPGSA,A,3,21,06,09,18,22,31,14,11,19,,,,1.6,0.9,1.3*34
$GPRMC,171100.000,A,3352.0069,N,09831.5596,W,0.06,351.51,030412,,,D*7A
$GPGGA,171101.000,3352.0069,N,09831.5597,W,2,09,0.9,295.7,M,-23.7,M,0.8,0000*4B
$GPGSA,A,3,21,06,09,18,22,31,14,11,19,,,,1.6,0.9,1.3*34
$GPRMC,171101.000,A,3352.0069,N,09831.5597,W,0.03,236.12,030412,,,D*78
$GPGGA,171102.000,3352.0069,N,09831.5597,W,2,09,0.9,295.7,M,-23.7,M,0.8,0000*48
$GPGSA,A,3,21,06,09,18,22,31,14,11,19,,,,1.6,0.9,1.3*34
$GPRMC,171102.000,A,3352.0069,N,09831.5597,W,0.01,159.20,030412,,,D*72
$GPGGA,171103.000,3352.0069,N,09831.5597,W,2,09,0.9,295.7,M,-23.7,M,1.8,0000*48
$GPGSA,A,3,21,06,09,18,22,31,14,11,19,,,,1.6,0.9,1.3*34
$GPRMC,171103.000,A,3352.0069,N,09831.5597,W,0.01,171.69,030412,,,D*74
$GPGGA,171104.000,3352.0069,N,09831.5597,W,2,09,0.9,295.6,M,-23.7,M,2.8,0000*4D
$GPGSA,A,3,21,06,09,18,22,31,14,11,19,,,,1.6,0.9,1.3*34
$GPGSV,3,1,12,22,69,013,33,14,69,292,33,18,42,088,41,21,22,157,21*7F
$GPGSV,3,2,12,31,22,189,35,09,21,042,33,19,17,281,31,06,10,234,28*7C
$GPGSV,3,3,12,11,10,315,33,03,08,244,31,25,05,122,,12,05,085,*7F
$GPRMC,171104.000,A,3352.0069,N,09831.5597,W,0.02,170.05,030412,,,D*7B
$GPGGA,171105.000,3352.0069,N,09831.5597,W,2,09,0.9,295.6,M,-23.7,M,3.8,0000*4D
$GPGSA,A,3,21,06,09,18,22,31,14,11,19,,,,1.6,0.9,1.3*34
$GPRMC,171105.000,A,3352.0069,N,09831.5597,W,0.00,132.77,030412,,,D*7B
$GPGGA,171106.000,3352.0069,N,09831.5597,W,2,09,0.9,295.5,M,-23.7,M,0.8,0000*4E
$GPGSA,A,3,21,06,09,18,22,31,14,11,19,,,,1.6,0.9,1.3*34
$GPRMC,171106.000,A,3352.0069,N,09831.5597,W,0.11,111.93,030412,,,D*73
$GPGGA,171107.000,3352.0069,N,09831.5597,W,2,09,0.9,295.4,M,-23.7,M,0.8,0000*4E
$GPGSA,A,3,21,06,09,18,22,31,14,11,19,,,,1.6,0.9,1.3*34
$GPRMC,171107.000,A,3352.0069,N,09831.5597,W,0.11,86.25,030412,,,D*40
$GPGGA,171108.000,3352.0069,N,09831.5597,W,2,09,0.9,295.4,M,-23.7,M,0.8,0000*41
$GPGSA,A,3,21,06,09,18,22,31,14,11,19,,,,1.6,0.9,1.3*34
$GPRMC,171108.000,A,3352.0069,N,09831.5597,W,0.12,42.42,030412,,,D*45
$GPGGA,171109.000,3352.0070,N,09831.5597,W,2,09,0.9,295.3,M,-23.7,M,0.8,0000*4F
$GPGSA,A,3,21,06,09,18,22,31,14,11,19,,,,1.6,0.9,1.3*34
$GPGSV,3,1,12,22,69,013,33,14,69,292,33,18,42,088,41,21,22,157,21*7F
$GPGSV,3,2,12,31,22,189,35,09,21,042,33,19,17,281,31,06,10,234,28*7C
$GPGSV,3,3,12,11,10,315,32,03,08,244,31,25,05,122,,12,05,085,*7E
$GPRMC,171109.000,A,3352.0070,N,09831.5597,W,0.09,57.85,030412,,,D*49
$GPGGA,171110.000,3352.0070,N,09831.5596,W,2,09,0.9,295.2,M,-23.7,M,1.8,0000*46
$GPGSA,A,3,21,06,09,18,22,31,14,11,19,,,,1.6,0.9,1.3*34
$GPRMC,171110.000,A,3352.0070,N,09831.5596,W,0.09,95.17,030412,,,D*45
$GPGGA,171111.000,3352.0070,N,09831.5596,W,2,09,0.9,295.2,M,-23.7,M,2.8,0000*44
$GPGSA,A,3,21,06,09,18,22,31,14,11,19,,,,1.6,0.9,1.3*34
$GPRMC,171111.000,A,3352.0070,N,09831.5596,W,0.17,27.30,030412,,,D*47
$GPGGA,171112.000,3352.0070,N,09831.5596,W,2,09,0.9,295.2,M,-23.7,M,0.8,0000*45
$GPGSA,A,3,21,06,09,18,22,31,14,11,19,,,,1.6,0.9,1.3*34
$GPRMC,171112.000,A,3352.0070,N,09831.5596,W,0.04,345.78,030412,,,D*7D
$GPGGA,171113.000,3352.0070,N,09831.5597,W,2,09,0.9,295.3,M,-23.7,M,0.8,0000*44
$GPGSA,A,3,21,06,09,18,22,31,14,11,19,,,,1.6,0.9,1.3*34
$GPRMC,171113.000,A,3352.0070,N,09831.5597,W,0.03,236.07,030412,,,D*77
$GPGGA,171114.000,3352.0071,N,09831.5597,W,2,09,0.9,295.5,M,-23.7,M,0.8,0000*44
$GPGSA,A,3,21,06,09,18,22,31,14,11,19,,,,1.6,0.9,1.3*34
$GPGSV,3,1,12,22,69,013,33,14,69,292,33,18,42,088,41,21,22,157,21*7F
$GPGSV,3,2,12,31,22,189,35,09,21,042,33,19,17,281,31,06,10,234,29*7D
$GPGSV,3,3,12,11,10,315,32,03,08,244,31,25,05,122,,12,05,085,*7E
$GPRMC,171114.000,A,3352.0071,N,09831.5597,W,0.14,357.31,030412,,,D*74
$GPGGA,171115.000,3352.0071,N,09831.5598,W,2,09,0.9,295.6,M,-23.7,M,0.8,0000*49
$GPGSA,A,3,21,06,09,18,22,31,14,11,19,,,,1.6,0.9,1.3*34
$GPRMC,171115.000,A,3352.0071,N,09831.5598,W,0.09,347.71,030412,,,D*73
$GPGGA,171116.000,3352.0072,N,09831.5598,W,2,09,0.9,295.7,M,-23.7,M,1.8,0000*49
$GPGSA,A,3,21,06,09,18,22,31,14,11,19,,,,1.6,0.9,1.3*34
$GPRMC,171116.000,A,3352.0072,N,09831.5598,W,0.15,349.90,030412,,,D*7F
$GPGGA,171117.000,3352.0072,N,09831.5599,W,2,09,0.9,295.8,M,-23.7,M,2.8,0000*45
$GPGSA,A,3,21,06,09,18,22,31,14,11,19,,,,1.6,0.9,1.3*34
$GPRMC,171117.000,A,3352.0072,N,09831.5599,W,0.10,347.50,030412,,,D*78
$GPGGA,171118.000,3352.0072,N,09831.5599,W,2,09,0.9,295.8,M,-23.7,M,0.8,0000*48
$GPGSA,A,3,21,06,09,18,22,31,14,11,19,,,,1.6,0.9,1.3*34
$GPRMC,171118.000,A,3352.0072,N,09831.5599,W,0.09,135.31,030412,,,D*7F
$GPGGA,171119.000,3352.0072,N,09831.5599,W,2,09,0.9,295.8,M,-23.7,M,0.8,0000*49
$GPGSA,A,3,21,06,09,18,22,31,14,11,19,,,,1.6,0.9,1.3*34
$GPGSV,3,1,12,22,69,013,33,14,69,292,33,18,42,088,41,21,22,157,22*7C
$GPGSV,3,2,12,31,22,189,35,09,21,042,33,19,17,281,31,06,10,234,29*7D
$GPGSV,3,3,12,11,10,315,31,03,08,244,31,25,05,122,,12,05,085,*7D
$GPRMC,171119.000,A,3352.0072,N,09831.5599,W,0.10,128.11,030412,,,D*78
$GPGGA,171120.000,3352.0072,N,09831.5599,W,2,09,0.9,295.8,M,-23.7,M,0.8,0000*43
$GPGSA,A,3,21,06,09,18,22,31,14,11,19,,,,1.6,0.9,1.3*34
$GPRMC,171120.000,A,3352.0072,N,09831.5599,W,0.07,120.64,030412,,,D*7E
$GPGGA,171121.000,3352.0072,N,09831.5598,W,2,09,0.9,295.8,M,-23.7,M,0.8,0000*43
$GPGSA,A,3,21,06,09,18,22,31,14,11,19,,,,1.6,0.9,1.3*34
$GPRMC,171121.000,A,3352.0072,N,09831.5598,W,0.07,122.26,030412,,,D*7A
$GPGGA,171122.000,3352.0072,N,09831.5598,W,2,09,0.9,295.7,M,-23.7,M,1.8,0000*4E
$GPGSA,A,3,21,06,09,18,22,31,14,11,19,,,,1.6,0.9,1.3*34
$GPRMC,171122.000,A,3352.0072,N,09831.5598,W,0.08,92.79,030412,,,D*46
$GPGGA,171123.000,3352.0073,N,09831.5598,W,2,09,0.9,295.7,M,-23.7,M,2.8,0000*4D
$GPGSA,A,3,21,06,09,18,22,31,14,11,19,,,,1.6,0.9,1.3*34
$GPRMC,171123.000,A,3352.0073,N,09831.5598,W,0.11,43.72,030412,,,D*49
$GPGGA,171124.000,3352.0073,N,09831.5598,W,2,09,0.9,295.6,M,-23.7,M,3.8,0000*4A
$GPGSA,A,3,21,06,09,18,22,31,14,11,19,,,,1.6,0.9,1.3*34
$GPGSV,3,1,12,22,69,013,34,14,69,292,33,18,42,088,41,21,22,157,22*7B
$GPGSV,3,2,12,31,22,189,35,09,21,042,33,19,17,281,31,06,10,234,28*7C
$GPGSV,3,3,12,11,10,315,31,03,08,244,31,25,05,122,,12,05,085,*7D
$GPRMC,171124.000,A,3352.0073,N,09831.5598,W,0.07,79.95,030412,,,D*49
$GPGGA,171125.000,3352.0073,N,09831.5598,W,2,09,0.9,295.5,M,-23.7,M,0.8,0000*4B
$GPGSA,A,3,21,06,09,18,22,31,14,11,19,,,,1.6,0.9,1.3*34
$GPRMC,171125.000,A,3352.0073,N,09831.5598,W,0.08,114.89,030412,,,D*70
$GPGGA,171126.000,3352.0073,N,09831.5598,W,2,09,0.9,295.5,M,-23.7,M,0.8,0000*48
$GPGSA,A,3,21,06,09,18,22,31,14,11,19,,,,1.6,0.9,1.3*34
$GPRMC,171126.000,A,3352.0073,N,09831.5598,W,0.11,76.29,030412,,,D*44
$GPGGA,171127.000,3352.0073,N,09831.5598,W,2,09,0.9,295.5,M,-23.7,M,1.8,0000*48
$GPGSA,A,3,21,06,09,18,22,31,14,11,19,,,,1.6,0.9,1.3*34
$GPRMC,171127.000,A,3352.0073,N,09831.5598,W,0.10,64.85,030412,,,D*41
$GPGGA,171128.000,3352.0073,N,09831.5598,W,2,09,0.9,295.4,M,-23.7,M,2.8,0000*45
$GPGSA,A,3,21,06,09,18,22,31,14,11,19,,,,1.6,0.9,1.3*34
$GPRMC,171128.000,A,3352.0073,N,09831.5598,W,0.13,132.28,030412,,,D*78
$GPGGA,171129.000,3352.0073,N,09831.5597,W,2,09,0.9,295.4,M,-23.7,M,3.8,0000*4A
$GPGSA,A,3,21,06,09,18,22,31,14,11,19,,,,1.6,0.9,1.3*34
$GPGSV,3,1,12,22,69,013,34,14,69,292,33,18,42,088,41,21,22,157,23*7A
$GPGSV,3,2,12,31,22,189,35,09,21,042,33,19,17,281,31,06,10,234,28*7C
$GPGSV,3,3,12,11,10,315,30,03,08,244,31,25,05,122,,12,05,085,*7C
$GPRMC,171129.000,A,3352.0073,N,09831.5597,W,0.10,112.12,030412,,,D*7E
$GPGGA,171130.000,3352.0073,N,09831.5597,W,2,09,0.9,295.4,M,-23.7,M,0.8,0000*41
$GPGSA,A,3,21,06,09,18,22,31,14,11,19,,,,1.6,0.9,1.3*34
$GPRMC,171130.000,A,3352.0073,N,09831.5597,W,0.11,155.18,030412,,,D*7E
$GPGGA,171131.000,3352.0073,N,09831.5597,W,2,09,0.9,295.4,M,-23.7,M,0.8,0000*40
$GPGSA,A,3,21,06,09,18,22,31,14,11,19,,,,1.6,0.9,1.3*34
$GPRMC,171131.000,A,3352.0073,N,09831.5597,W,0.06,130.57,030412,,,D*71
$GPGGA,171132.000,3352.0073,N,09831.5597,W,2,09,0.9,295.3,M,-23.7,M,0.8,0000*44
$GPGSA,A,3,21,06,09,18,22,31,14,11,19,,,,1.6,0.9,1.3*34
$GPRMC,171132.000,A,3352.0073,N,09831.5597,W,0.05,47.96,030412,,,D*4D
$GPGGA,171133.000,3352.0073,N,09831.5598,W,2,09,0.9,295.3,M,-23.7,M,1.8,0000*4B
$GPGSA,A,3,21,06,09,18,22,31,14,11,19,,,,1.6,0.9,1.3*34
$GPRMC,171133.000,A,3352.0073,N,09831.5598,W,0.15,13.24,030412,,,D*4A
$GPGGA,171134.000,3352.0074,N,09831.5598,W,2,09,0.9,295.2,M,-23.7,M,2.8,0000*49
$GPGSA,A,3,21,06,09,18,22,31,14,11,19,,,,1.6,0.9,1.3*34
$GPGSV,3,1,12,22,69,013,34,14,69,292,33,18,42,088,41,21,22,157,23*7A
$GPGSV,3,2,12,31,22,189,35,09,21,042,33,19,17,281,32,06,10,234,29*7E
$GPGSV,3,3,12,11,10,315,30,03,08,244,31,25,05,122,,12,05,085,*7C
$GPRMC,171134.000,A,3352.0074,N,09831.5598,W,0.04,93.94,030412,,,D*49
$GPGGA,171135.000,3352.0074,N,09831.5598,W,2,09,0.9,295.2,M,-23.7,M,3.8,0000*49
$GPGSA,A,3,21,06,09,18,22,31,14,11,19,,,,1.6,0.9,1.3*34
$GPRMC,171135.000,A,3352.0074,N,09831.5598,W,0.12,18.12,030412,,,D*42
$GPGGA,171136.000,3352.0075,N,09831.5598,W,2,09,0.9,295.2,M,-23.7,M,0.8,0000*48
$GPGSA,A,3,21,06,09,18,22,31,14,11,19,,,,1.6,0.9,1.3*34
$GPRMC,171136.000,A,3352.0075,N,09831.5598,W,0.17,354.89,030412,,,D*7C
$GPGGA,171137.000,3352.0075,N,09831.5598,W,2,09,0.8,295.2,M,-23.7,M,0.8,0000*48
$GPGSA,A,3,21,06,09,18,22,31,14,11,19,,,,1.6,0.8,1.3*35
$GPRMC,171137.000,A,3352.0075,N,09831.5598,W,0.03,338.40,030412,,,D*77
$GPGGA,171138.000,3352.0075,N,09831.5598,W,2,09,0.8,295.2,M,-23.7,M,0.8,0000*47
$GPGSA,A,3,21,06,09,18,22,31,14,11,19,,,,1.6,0.8,1.3*35
$GPRMC,171138.000,A,3352.0075,N,09831.5598,W,0.03,176.49,030412,,,D*79
$GPGGA,171139.000,3352.0075,N,09831.5599,W,2,09,0.8,295.2,M,-23.7,M,0.8,0000*47
$GPGSA,A,3,21,06,09,18,22,31,14,11,19,,,,1.6,0.8,1.3*35
$GPGSV,3,1,12,22,69,013,34,14,69,292,33,18,42,088,41,21,22,157,23*7A
$GPGSV,3,2,12,31,22,189,35,09,21,042,33,19,17,281,32,06,10,234,29*7E
$GPGSV,3,3,12,11,10,315,29,03,08,244,31,25,05,122,,12,05,085,*74
$GPRMC,171139.000,A,3352.0075,N,09831.5599,W,0.05,186.21,030412,,,D*7E
$GPGGA,171140.000,3352.0075,N,09831.5599,W,2,09,0.8,295.3,M,-23.7,M,1.8,0000*49
$GPGSA,A,3,21,06,09,18,22,31,14,11,19,,,,1.6,0.8,1.3*35
$GPRMC,171140.000,A,3352.0075,N,09831.5599,W,0.11,353.90,030412,,,D*75
$GPGGA,171141.000,3352.0075,N,09831.5599,W,2,09,0.8,295.3,M,-23.7,M,0.8,0000*49
$GPGSA,A,3,21,06,09,18,22,31,14,11,19,,,,1.6,0.8,1.3*35
$GPRMC,171141.000,A,3352.0075,N,09831.5599,W,0.03,206.54,030412,,,D*7E
$GPGGA,171142.000,3352.0075,N,09831.5599,W,2,09,0.8,295.2,M,-23.7,M,0.8,0000*4B
$GPGSA,A,3,21,06,09,18,22,31,14,11,19,,,,1.6,0.8,1.3*35
$GPRMC,171142.000,A,3352.0075,N,09831.5599,W,0.13,141.27,030412,,,D*78
$GPGGA,171143.000,3352.0075,N,09831.5599,W,2,09,0.8,295.2,M,-23.7,M,0.8,0000*4A
$GPGSA,A,3,21,06,09,18,22,31,14,11,19,,,,1.6,0.8,1.3*35
$GPRMC,171143.000,A,3352.0075,N,09831.5599,W,0.09,81.26,030412,,,D*4E
$GPGGA,171144.000,3352.0075,N,09831.5599,W,2,09,0.8,295.2,M,-23.7,M,0.8,0000*4D
$GPGSA,A,3,21,06,09,18,22,31,14,11,19,,,,1.6,0.8,1.3*35
$GPGSV,3,1,12,22,69,013,34,14,69,292,34,18,42,088,41,21,22,157,24*7A
$GPGSV,3,2,12,31,22,189,34,09,21,042,34,19,17,281,32,06,10,234,30*70
$GPGSV,3,3,12,11,10,315,29,03,08,244,31,25,05,122,,12,05,085,*74
$GPRMC,171144.000,A,3352.0075,N,09831.5599,W,0.15,26.09,030412,,,D*44
$GPGGA,171145.000,3352.0075,N,09831.5599,W,2,09,0.8,295.1,M,-23.7,M,1.8,0000*4E
$GPGSA,A,3,21,06,09,18,22,31,14,11,19,,,,1.6,0.8,1.3*35
$GPRMC,171145.000,A,3352.0075,N,09831.5599,W,0.08,50.46,030412,,,D*43
$GPGGA,171146.000,3352.0075,N,09831.5598,W,2,09,0.8,295.0,M,-23.7,M,0.8,0000*4C
$GPGSA,A,3,21,06,09,18,22,31,14,11,19,,,,1.6,0.8,1.3*35
$GPRMC,171146.000,A,3352.0075,N,09831.5598,W,0.09,92.14,030412,,,D*49
$GPGGA,171147.000,3352.0076,N,09831.5598,W,2,09,0.8,294.9,M,-23.7,M,1.8,0000*47
$GPGSA,A,3,21,06,09,18,22,31,14,11,19,,,,1.6,0.8,1.3*35
$GPRMC,171147.000,A,3352.0076,N,09831.5598,W,0.12,48.80,030412,,,D*4B
$GPGGA,171148.000,3352.0076,N,09831.5598,W,2,09,0.8,294.8,M,-23.7,M,0.8,0000*48
$GPGSA,A,3,21,06,09,18,22,31,14,11,19,,,,1.6,0.8,1.3*35
$GPRMC,171148.000,A,3352.0076,N,09831.5598,W,0.06,352.43,030412,,,D*76
$GPGGA,171149.000,3352.0076,N,09831.5598,W,2,09,0.8,294.8,M,-23.7,M,0.8,0000*49
$GPGSA,A,3,21,06,09,18,22,31,14,11,19,,,,1.6,0.8,1.3*35
$GPGSV,3,1,12,22,69,013,34,14,69,292,34,18,42,088,41,21,22,157,24*7A
$GPGSV,3,2,12,31,22,189,34,09,21,042,34,19,17,281,32,06,10,234,30*70
$GPGSV,3,3,12,11,10,315,29,03,08,244,32,25,05,122,,12,05,085,*77
$GPRMC,171149.000,A,3352.0076,N,09831.5598,W,0.12,359.31,030412,,,D*7C
$GPGGA,171150.000,3352.0076,N,09831.5598,W,2,09,0.8,294.7,M,-23.7,M,0.8,0000*4E
$GPGSA,A,3,21,06,09,18,22,31,14,11,19,,,,1.6,0.8,1.3*35
$GPRMC,171150.000,A,3352.0076,N,09831.5598,W,0.09,354.76,030412,,,D*70
$GPGGA,171151.000,3352.0076,N,09831.5599,W,2,09,0.8,294.6,M,-23.7,M,1.8,0000*4E
$GPGSA,A,3,21,06,09,18,22,31,14,11,19,,,,1.6,0.8,1.3*35
$GPRMC,171151.000,A,3352.0076,N,09831.5599,W,0.10,11.33,030412,,,D*4B
$GPGGA,171152.000,3352.0076,N,09831.5599,W,2,09,0.8,294.5,M,-23.7,M,2.8,0000*4D
$GPGSA,A,3,21,06,09,18,22,31,14,11,19,,,,1.6,0.8,1.3*35
$GPRMC,171152.000,A,3352.0076,N,09831.5599,W,0.03,7.89,030412,,,D*7C
$GPGGA,171153.000,3352.0076,N,09831.5599,W,2,09,0.8,294.5,M,-23.7,M,0.8,0000*4E
$GPGSA,A,3,21,06,09,18,22,31,14,11,19,,,,1.6,0.8,1.3*35
$GPRMC,171153.000,A,3352.0076,N,09831.5599,W,0.05,6.86,030412,,,D*75
$GPGGA,171154.000,3352.0076,N,09831.5598,W,2,09,0.8,294.4,M,-23.7,M,0.8,0000*49
$GPGSA,A,3,21,06,09,18,22,31,14,11,19,,,,1.6,0.8,1.3*35
$GPGSV,3,1,12,22,69,013,33,14,69,292,34,18,42,088,41,21,22,157,24*7D
$GPGSV,3,2,12,31,22,189,34,09,21,042,34,19,17,281,33,06,10,234,31*70
$GPGSV,3,3,12,11,10,315,28,03,08,244,32,25,05,122,,12,05,085,*76
$GPRMC,171154.000,A,3352.0076,N,09831.5598,W,0.09,71.17,030412,,,D*47
$GPGGA,171155.000,3352.0076,N,09831.5598,W,2,09,0.8,294.2,M,-23.7,M,0.8,0000*4E
$GPGSA,A,3,21,06,09,18,22,31,14,11,19,,,,1.6,0.8,1.3*35
$GPRMC,171155.000,A,3352.0076,N,09831.5598,W,0.16,38.90,030412,,,D*4A
$GPGGA,171156.000,3352.0076,N,09831.5598,W,2,09,0.8,294.1,M,-23.7,M,0.8,0000*4E
$GPGSA,A,3,21,06,09,18,22,31,14,11,19,,,,1.6,0.8,1.3*35
$GPRMC,171156.000,A,3352.0076,N,09831.5598,W,0.10,61.30,030412,,,D*49
$GPGGA,171157.000,3352.0076,N,09831.5597,W,2,09,0.8,294.0,M,-23.7,M,0.8,0000*41
$GPGSA,A,3,21,06,09,18,22,31,14,11,19,,,,1.6,0.8,1.3*35
$GPRMC,171157.000,A,3352.0076,N,09831.5597,W,0.08,89.00,030412,,,D*4B
$GPGGA,171158.000,3352.0076,N,09831.5597,W,2,09,0.8,293.9,M,-23.7,M,0.8,0000*40
$GPGSA,A,3,21,06,09,18,22,31,14,11,19,,,,1.6,0.8,1.3*35
$GPRMC,171158.000,A,3352.0076,N,09831.5597,W,0.09,72.57,030412,,,D*43
$GPGGA,171159.000,3352.0076,N,09831.5597,W,2,09,0.8,293.8,M,-23.7,M,1.8,0000*41
$GPGSA,A,3,21,06,09,18,22,31,14,11,19,,,,1.6,0.8,1.3*35
$GPGSV,3,1,12,22,69,013,32,14,69,292,34,18,42,088,41,21,22,157,25*7D
$GPGSV,3,2,12,31,22,189,34,09,21,042,34,19,17,281,33,06,10,234,31*70
$GPGSV,3,3,12,11,10,315,28,03,08,244,32,25,05,122,,12,05,085,*76
$GPRMC,171159.000,A,3352.0076,N,09831.5597,W,0.11,49.11,030412,,,D*41
$GPGGA,171200.000,3352.0076,N,09831.5597,W,2,09,0.8,293.8,M,-23.7,M,0.8,0000*4F
$GPGSA,A,3,21,06,09,18,22,31,14,11,19,,,,1.6,0.8,1.3*35
$GPRMC,171200.000,A,3352.0076,N,09831.5597,W,0.06,356.32,030412,,,D*74
$GPGGA,171201.000,3352.0076,N,09831.5597,W,2,09,0.8,293.8,M,-23.7,M,0.8,0000*4E
$GPGSA,A,3,21,06,09,18,22,31,14,11,19,,,,1.6,0.8,1.3*35
$GPRMC,171201.000,A,3352.0076,N,09831.5597,W,0.04,350.14,030412,,,D*75
$GPGGA,171202.000,3352.0076,N,09831.5597,W,2,09,0.8,293.7,M,-23.7,M,0.8,0000*42
$GPGSA,A,3,21,06,09,18,22,31,14,11,19,,,,1.6,0.8,1.3*35
$GPRMC,171202.000,A,3352.0076,N,09831.5597,W,0.05,333.26,030412,,,D*73
$GPGGA,171203.000,3352.0076,N,09831.5597,W,2,09,0.8,293.6,M,-23.7,M,0.8,0000*42
$GPGSA,A,3,21,06,09,18,22,31,14,11,19,,,,1.6,0.8,1.3*35
$GPRMC,171203.000,A,3352.0076,N,09831.5597,W,0.04,333.77,030412,,,D*77
$GPGGA,171204.000,3352.0076,N,09831.5598,W,2,09,0.8,293.6,M,-23.7,M,1.8,0000*4B
$GPGSA,A,3,21,06,09,18,22,31,14,11,19,,,,1.6,0.8,1.3*35
$GPGSV,3,1,12,22,69,013,32,14,69,292,34,18,42,088,41,21,22,157,25*7D
$GPGSV,3,2,12,31,22,189,34,09,21,042,34,19,17,281,32,06,10,234,31*71
$GPGSV,3,3,12,11,10,315,27,03,08,244,32,25,05,122,,12,05,085,*79
$GPRMC,171204.000,A,3352.0076,N,09831.5598,W,0.08,329.94,030412,,,D*75
$GPGGA,171205.000,3352.0076,N,09831.5598,W,2,09,0.8,293.5,M,-23.7,M,0.8,0000*48
$GPGSA,A,3,21,06,09,18,22,31,14,11,19,,,,1.6,0.8,1.3*35
$GPRMC,171205.000,A,3352.0076,N,09831.5598,W,0.05,341.72,030412,,,D*7F
$GPGGA,171206.000,3352.0076,N,09831.5598,W,2,09,0.8,293.4,M,-23.7,M,0.8,0000*4A
$GPGSA,A,3,21,06,09,18,22,31,14,11,19,,,,1.6,0.8,1.3*35
$GPRMC,171206.000,A,3352.0076,N,09831.5598,W,0.07,74.25,030412,,,D*49
$GPGGA,171207.000,3352.0076,N,09831.5597,W,2,09,0.8,293.3,M,-23.7,M,0.8,0000*43
$GPGSA,A,3,21,06,09,18,22,31,14,11,19,,,,1.6,0.8,1.3*35
$GPRMC,171207.000,A,3352.0076,N,09831.5597,W,0.11,56.20,030412,,,D*45
$GPGGA,171208.000,3352.0076,N,09831.5597,W,2,09,0.8,293.2,M,-23.7,M,0.8,0000*4D
$GPGSA,A,3,21,06,09,18,22,31,14,11,19,,,,1.6,0.8,1.3*35
$GPRMC,171208.000,A,3352.0076,N,09831.5597,W,0.10,50.68,030412,,,D*41
$GPGGA,171209.000,3352.0076,N,09831.5597,W,2,09,0.8,293.1,M,-23.7,M,1.8,0000*4E
$GPGSA,A,3,21,06,09,18,22,31,14,11,19,,,,1.6,0.8,1.3*35
$GPGSV,3,1,12,22,69,013,32,14,69,292,33,18,42,088,41,21,22,157,25*7A
$GPGSV,3,2,12,31,22,189,34,09,21,042,34,19,17,281,32,06,10,234,31*71
$GPGSV,3,3,12,11,10,315,27,03,08,244,32,25,05,122,,12,05,085,*79
$GPRMC,171209.000,A,3352.0076,N,09831.5597,W,0.11,61.59,030412,,,D*41
$GPGGA,171210.000,3352.0076,N,09831.5597,W,2,09,0.8,293.1,M,-23.7,M,0.8,0000*47
$GPGSA,A,3,21,06,09,18,22,31,14,11,19,,,,1.6,0.8,1.3*35
$GPRMC,171210.000,A,3352.0076,N,09831.5597,W,0.11,49.50,030412,,,D*4A
$GPGGA,171211.000,3352.0076,N,09831.5597,W,2,09,0.8,293.0,M,-23.7,M,1.8,0000*46
$GPGSA,A,3,21,06,09,18,22,31,14,11,19,,,,1.6,0.8,1.3*35
$GPRMC,171211.000,A,3352.0076,N,09831.5597,W,0.11,50.31,030412,,,D*44
$GPGGA,171212.000,3352.0076,N,09831.5597,W,2,09,0.8,293.0,M,-23.7,M,0.8,0000*44
$GPGSA,A,3,21,06,09,18,22,31,14,11,19,,,,1.6,0.8,1.3*35
$GPRMC,171212.000,A,3352.0076,N,09831.5597,W,0.07,25.72,030412,,,D*45
$GPGGA,171213.000,3352.0076,N,09831.5597,W,2,09,0.8,293.0,M,-23.7,M,0.8,0000*45
$GPGSA,A,3,21,06,09,18,22,31,14,11,19,,,,1.6,0.8,1.3*35
$GPRMC,171213.000,A,3352.0076,N,09831.5597,W,0.04,22.57,030412,,,D*47
$GPGGA,171214.000,3352.0076,N,09831.5597,W,2,09,0.8,293.0,M,-23.7,M,0.8,0000*42
$GPGSA,A,3,21,06,09,18,22,31,14,11,19,,,,1.6,0.8,1.3*35
$GPGSV,3,1,12,22,69,013,32,14,69,292,33,18,42,088,41,21,22,157,25*7A
$GPGSV,3,2,12,31,22,189,34,09,21,042,34,19,17,281,32,06,10,234,31*71
$GPGSV,3,3,12,11,10,315,26,03,08,244,32,25,05,122,,12,05,085,*78
$GPRMC,171214.000,A,3352.0076,N,09831.5597,W,0.07,344.26,030412,,,D*76
$GPGGA,171215.000,3352.0076,N,09831.5597,W,2,09,0.8,293.0,M,-23.7,M,1.8,0000*42
$GPGSA,A,3,21,06,09,18,22,31,14,11,19,,,,1.6,0.8,1.3*35
$GPRMC,171215.000,A,3352.0076,N,09831.5597,W,0.05,120.13,030412,,,D*73
$GPGGA,171216.000,3352.0076,N,09831.5597,W,2,09,0.8,293.0,M,-23.7,M,2.8,0000*42
$GPGSA,A,3,21,06,09,18,22,31,14,11,19,,,,1.6,0.8,1.3*35
$GPRMC,171216.000,A,3352.0076,N,09831.5597,W,0.03,20.09,030412,,,D*4C
$GPGGA,171217.000,3352.0076,N,09831.5597,W,2,09,0.8,292.9,M,-23.7,M,3.8,0000*4A
$GPGSA,A,3,21,06,09,18,22,31,14,11,19,,,,1.6,0.8,1.3*35
$GPRMC,171217.000,A,3352.0076,N,09831.5597,W,0.03,12.23,030412,,,D*44
$GPGGA,171218.000,3352.0076,N,09831.5597,W,2,09,0.8,292.8,M,-23.7,M,0.8,0000*47
$GPGSA,A,3,21,06,09,18,22,31,14,11,19,,,,1.6,0.8,1.3*35
$GPRMC,171218.000,A,3352.0076,N,09831.5597,W,0.03,16.27,030412,,,D*4B
$GPGGA,171219.000,3352.0076,N,09831.5597,W,2,09,0.8,292.8,M,-23.7,M,0.8,0000*46
$GPGSA,A,3,21,06,09,18,22,31,14,11,19,,,,1.6,0.8,1.3*35
$GPGSV,3,1,12,22,69,013,32,14,69,292,33,18,42,088,41,21,22,157,26*79
$GPGSV,3,2,12,31,22,189,34,09,21,042,34,19,17,281,32,06,10,234,30*70
$GPGSV,3,3,12,11,10,315,25,03,08,244,31,25,05,122,,12,05,085,*78
$GPRMC,171219.000,A,3352.0076,N,09831.5597,W,0.04,40.80,030412,,,D*43
$GPGGA,171220.000,3352.0076,N,09831.5597,W,2,09,0.8,292.7,M,-23.7,M,0.8,0000*43
$GPGSA,A,3,21,06,09,18,22,31,14,11,19,,,,1.6,0.8,1.3*35
$GPRMC,171220.000,A,3352.0076,N,09831.5597,W,0.08,12.95,030412,,,D*46
$GPGGA,171221.000,3352.0076,N,09831.5597,W,2,09,0.8,292.6,M,-23.7,M,1.8,0000*42
$GPGSA,A,3,21,06,09,18,22,31,14,11,19,,,,1.6,0.8,1.3*35
$GPRMC,171221.000,A,3352.0076,N,09831.5597,W,0.06,25.31,030412,,,D*43
$GPGGA,171222.000,3352.0076,N,09831.5597,W,2,09,0.8,292.6,M,-23.7,M,2.8,0000*42
$GPGSA,A,3,21,06,09,18,22,31,14,11,19,,,,1.6,0.8,1.3*35
$GPRMC,171222.000,A,3352.0076,N,09831.5597,W,0.08,30.52,030412,,,D*4F
$GPGGA,171223.000,3352.0077,N,09831.5597,W,2,09,0.8,292.5,M,-23.7,M,3.8,0000*40
$GPGSA,A,3,21,06,09,18,22,31,14,11,19,,,,1.6,0.8,1.3*35
$GPRMC,171223.000,A,3352.0077,N,09831.5597,W,0.06,12.35,030412,,,D*40
$GPGGA,171224.000,3352.0077,N,09831.5597,W,2,09,0.8,292.5,M,-23.7,M,0.8,0000*44
$GPGSA,A,3,21,06,09,18,22,31,14,11,19,,,,1.6,0.8,1.3*35
$GPGSV,3,1,12,22,69,013,32,14,69,292,34,18,42,088,41,21,22,157,26*7E
$GPGSV,3,2,12,31,22,189,34,09,21,042,34,19,17,281,31,06,10,234,30*73
$GPGSV,3,3,12,11,10,315,24,03,08,244,31,25,05,122,,12,05,085,*79
$GPRMC,171224.000,A,3352.0077,N,09831.5597,W,0.10,35.12,030412,,,D*40
$GPGGA,171225.000,3352.0077,N,09831.5597,W,2,09,0.8,292.5,M,-23.7,M,0.8,0000*45
$GPGSA,A,3,21,06,09,18,22,31,14,11,19,,,,1.6,0.8,1.3*35
$GPRMC,171225.000,A,3352.0077,N,09831.5597,W,0.06,59.16,030412,,,D*48
$GPGGA,171226.000,3352.0077,N,09831.5597,W,2,09,0.8,292.5,M,-23.7,M,0.8,0000*46
$GPGSA,A,3,21,06,09,18,22,31,14,11,19,,,,1.6,0.8,1.3*35
$GPRMC,171226.000,A,3352.0077,N,09831.5597,W,0.04,44.45,030412,,,D*43
$GPGGA,171227.000,3352.0077,N,09831.5597,W,2,09,0.8,292.4,M,-23.7,M,0.8,0000*46
$GPGSA,A,3,21,06,09,18,22,31,14,11,19,,,,1.6,0.8,1.3*35
$GPRMC,171227.000,A,3352.0077,N,09831.5597,W,0.17,351.63,030412,,,D*73
$GPGGA,171228.000,3352.0077,N,09831.5597,W,2,09,0.8,292.3,M,-23.7,M,1.8,0000*4F
$GPGSA,A,3,21,06,09,18,22,31,14,11,19,,,,1.6,0.8,1.3*35
$GPRMC,171228.000,A,3352.0077,N,09831.5597,W,0.12,350.57,030412,,,D*7F
$GPGGA,171229.000,3352.0077,N,09831.5597,W,2,09,0.8,292.2,M,-23.7,M,2.8,0000*4C
$GPGSA,A,3,21,06,09,18,22,31,14,11,19,,,,1.6,0.8,1.3*35
$GPGSV,3,1,12,22,69,013,33,14,69,292,34,18,42,088,41,21,22,157,26*7F
$GPGSV,3,2,12,31,22,189,34,09,21,042,34,19,17,281,31,06,10,234,29*7B
$GPGSV,3,3,12,11,10,315,24,03,08,244,31,25,05,122,,12,05,085,*79
$GPRMC,171229.000,A,3352.0077,N,09831.5597,W,0.09,56.74,030412,,,D*40
$GPGGA,171230.000,3352.0077,N,09831.5597,W,2,09,0.8,292.2,M,-23.7,M,0.8,0000*46
$GPGSA,A,3,21,06,09,18,22,31,14,11,19,,,,1.6,0.8,1.3*35
$GPRMC,171230.000,A,3352.0077,N,09831.5597,W,0.06,97.49,030412,,,D*44
$GPGGA,171231.000,3352.0077,N,09831.5597,W,2,09,0.8,292.0,M,-23.7,M,0.8,0000*45
$GPGSA,A,3,21,06,09,18,22,31,14,11,19,,,,1.6,0.8,1.3*35
