$GPGGA,173310.000,3352.2653,N,09832.3368,W,2,09,0.8,305.2,M,-23.7,M,1.8,0000*48
$GPGSA,A,3,18,22,31,14,06,21,19,11,09,,,,1.6,0.8,1.3*35
$GPRMC,173310.000,A,3352.2653,N,09832.3368,W,0.10,70.72,290312,,,D*4D
$GPGGA,173311.000,3352.2652,N,09832.3368,W,2,09,0.8,305.4,M,-23.7,M,2.8,0000*4D
$GPGSA,A,3,18,22,31,14,06,21,19,11,09,,,,1.6,0.8,1.3*35
$GPRMC,173311.000,A,3352.2652,N,09832.3368,W,0.05,196.00,290312,,,D*75
$GPGGA,173312.000,3352.2652,N,09832.3368,W,2,09,0.8,305.7,M,-23.7,M,3.8,0000*4C
$GPGSA,A,3,18,22,31,14,06,21,19,11,09,,,,1.6,0.8,1.3*35
$GPRMC,173312.000,A,3352.2652,N,09832.3368,W,0.12,222.84,290312,,,D*70
$GPGGA,173313.000,3352.2651,N,09832.3369,W,2,09,0.8,305.8,M,-23.7,M,0.8,0000*43
$GPGSA,A,3,18,22,31,14,06,21,19,11,09,,,,1.6,0.8,1.3*35
$GPGSV,3,1,12,22,69,013,34,14,68,292,27,18,41,088,28,21,22,157,32*72
$GPGSV,3,2,12,31,22,189,39,09,21,042,26,19,17,280,33,06,10,234,31*7F
$GPGSV,3,3,12,11,10,315,30,03,08,244,19,25,05,122,18,12,05,085,*7F
$GPRMC,173313.000,A,3352.2651,N,09832.3369,W,0.13,49.47,290312,,,D*42
$GPGGA,173314.000,3352.2651,N,09832.3368,W,2,09,0.8,305.9,M,-23.7,M,0.8,0000*44
$GPGSA,A,3,18,22,31,14,06,21,19,11,09,,,,1.6,0.8,1.3*35
$GPRMC,173314.000,A,3352.2651,N,09832.3368,W,0.12,31.64,290312,,,D*4B
$GPGGA,173315.000,3352.2651,N,09832.3368,W,2,09,0.8,306.1,M,-23.7,M,0.8,0000*4E
$GPGSA,A,3,18,22,31,14,06,21,19,11,09,,,,1.6,0.8,1.3*35
$GPRMC,173315.000,A,3352.2651,N,09832.3368,W,0.06,339.07,290312,,,D*71
$GPGGA,173316.000,3352.2651,N,09832.3369,W,2,09,0.8,306.2,M,-23.7,M,0.8,0000*4F
$GPGSA,A,3,18,22,31,14,06,21,19,11,09,,,,1.6,0.8,1.3*35
$GPRMC,173316.000,A,3352.2651,N,09832.3369,W,0.06,338.76,290312,,,D*74
$GPGGA,173317.000,3352.2651,N,09832.3369,W,2,09,0.8,306.4,M,-23.7,M,1.8,0000*49
$GPGSA,A,3,18,22,31,14,06,21,19,11,09,,,,1.6,0.8,1.3*35
$GPRMC,173317.000,A,3352.2651,N,09832.3369,W,0.06,258.39,290312,,,D*79
$GPGGA,173318.000,3352.2654,N,09832.3366,W,2,08,0.9,305.3,M,-23.7,M,2.8,0000*4B
$GPGSA,A,3,18,22,31,06,21,19,11,09,,,,,2.0,0.9,1.8*3F
$GPGSV,3,1,12,22,69,013,34,14,68,292,07,18,41,088,26,21,22,157,32*7E
$GPGSV,3,2,12,31,22,189,38,09,21,042,26,19,17,280,28,06,10,234,30*75
$GPGSV,3,3,12,11,10,315,23,03,08,244,19,25,05,122,18,12,05,085,*7D
$GPRMC,173318.000,A,3352.2654,N,09832.3366,W,0.15,10.86,290312,,,D*44
$GPGGA,173319.000,3352.2657,N,09832.3364,W,2,09,0.8,304.5,M,-23.7,M,0.8,0000*4E
$GPGSA,A,3,18,22,31,14,06,21,19,11,09,,,,1.6,0.8,1.3*35
$GPRMC,173319.000,A,3352.2657,N,09832.3364,W,0.23,34.36,290312,,,D*4C
$GPGGA,173320.000,3352.2659,N,09832.3360,W,2,09,0.8,303.4,M,-23.7,M,0.8,0000*48
$GPGSA,A,3,18,22,31,14,06,21,19,11,09,,,,1.6,0.8,1.3*35
$GPRMC,173320.000,A,3352.2659,N,09832.3360,W,0.24,55.49,290312,,,D*44
$GPGGA,173321.000,3352.2660,N,09832.3359,W,2,09,0.8,303.1,M,-23.7,M,0.8,0000*4C
$GPGSA,A,3,18,22,31,14,06,21,19,11,09,,,,1.6,0.8,1.3*35
$GPRMC,173321.000,A,3352.2660,N,09832.3359,W,0.12,2.37,290312,,,D*7B
$GPGGA,173322.000,3352.2661,N,09832.3359,W,2,09,0.8,302.9,M,-23.7,M,1.8,0000*46
$GPGSA,A,3,18,22,31,14,06,21,19,11,09,,,,1.6,0.8,1.3*35
$GPRMC,173322.000,A,3352.2661,N,09832.3359,W,0.13,48.91,290312,,,D*4A
$GPGGA,173323.000,3352.2661,N,09832.3359,W,2,09,0.8,303.0,M,-23.7,M,2.8,0000*4C
$GPGSA,A,3,18,22,31,14,06,21,19,11,09,,,,1.6,0.8,1.3*35
$GPGSV,3,1,12,22,69,013,34,14,68,292,17,18,41,088,26,21,22,157,32*7F
$GPGSV,3,2,12,31,22,189,37,09,21,042,26,19,17,280,30,06,10,234,30*73
$GPGSV,3,3,12,11,10,315,25,03,08,244,27,25,05,122,19,12,05,085,*77
$GPRMC,173323.000,A,3352.2661,N,09832.3359,W,0.11,65.74,290312,,,D*4D
$GPGGA,173324.000,3352.2661,N,09832.3359,W,2,09,0.8,303.0,M,-23.7,M,3.8,0000*4A
$GPGSA,A,3,18,22,31,14,06,21,19,11,09,,,,1.6,0.8,1.3*35
$GPRMC,173324.000,A,3352.2661,N,09832.3359,W,0.10,89.89,290312,,,D*4B
$GPGGA,173325.000,3352.2660,N,09832.3359,W,2,09,0.8,303.1,M,-23.7,M,0.8,0000*48
$GPGSA,A,3,18,22,31,14,06,21,19,11,09,,,,1.6,0.8,1.3*35
$GPRMC,173325.000,A,3352.2660,N,09832.3359,W,0.12,67.68,290312,,,D*46
$GPGGA,173326.000,3352.2660,N,09832.3359,W,2,09,0.8,303.2,M,-23.7,M,0.8,0000*48
$GPGSA,A,3,18,22,31,14,06,21,19,11,09,,,,1.6,0.8,1.3*35
$GPRMC,173326.000,A,3352.2660,N,09832.3359,W,0.05,121.45,290312,,,D*7F
$GPGGA,173327.000,3352.2660,N,09832.3359,W,2,09,0.8,303.1,M,-23.7,M,0.8,0000*4A
$GPGSA,A,3,18,22,31,14,06,21,19,11,09,,,,1.6,0.8,1.3*35
$GPRMC,173327.000,A,3352.2660,N,09832.3359,W,0.14,49.80,290312,,,D*48
$GPGGA,173328.000,3352.2660,N,09832.3360,W,2,09,0.8,303.1,M,-23.7,M,1.8,0000*4E
$GPGSA,A,3,18,22,31,14,06,21,19,11,09,,,,1.6,0.8,1.3*35
$GPGSV,3,1,12,22,69,013,34,14,68,292,17,18,41,088,31,21,22,157,31*7A
$GPGSV,3,2,12,31,22,189,37,09,21,042,25,19,17,280,30,06,10,234,30*70
$GPGSV,3,3,12,11,10,315,26,03,08,244,27,25,05,122,20,12,05,085,*7E
$GPRMC,173328.000,A,3352.2660,N,09832.3360,W,0.11,59.68,290312,,,D*4F
$GPGGA,173329.000,3352.2659,N,09832.3360,W,2,09,0.8,303.1,M,-23.7,M,0.8,0000*44
$GPGSA,A,3,18,22,31,14,06,21,19,11,09,,,,1.6,0.8,1.3*35
$GPRMC,173329.000,A,3352.2659,N,09832.3360,W,0.20,49.77,290312,,,D*49
$GPGGA,173330.000,3352.2659,N,09832.3360,W,2,09,0.8,303.1,M,-23.7,M,0.8,0000*4C
$GPGSA,A,3,18,22,31,14,06,21,19,11,09,,,,1.6,0.8,1.3*35
$GPRMC,173330.000,A,3352.2659,N,09832.3360,W,0.07,73.40,290312,,,D*49
$GPGGA,173331.000,3352.2659,N,09832.3361,W,2,09,0.8,303.1,M,-23.7,M,0.8,0000*4C
$GPGSA,A,3,18,22,31,14,06,21,19,11,09,,,,1.6,0.8,1.3*35
$GPRMC,173331.000,A,3352.2659,N,09832.3361,W,0.05,98.16,290312,,,D*4D
$GPGGA,173332.000,3352.2658,N,09832.3361,W,2,09,0.8,303.4,M,-23.7,M,0.8,0000*4B
$GPGSA,A,3,18,22,31,14,06,21,19,11,09,,,,1.6,0.8,1.3*35
$GPRMC,173332.000,A,3352.2658,N,09832.3361,W,0.07,43.12,290312,,,D*4F
$GPGGA,173333.000,3352.2658,N,09832.3362,W,2,09,0.8,303.7,M,-23.7,M,0.8,0000*4A
$GPGSA,A,3,18,22,31,14,06,21,19,11,09,,,,1.6,0.8,1.3*35
$GPGSV,3,1,12,22,69,013,34,14,68,292,15,18,41,088,30,21,22,157,32*7A
$GPGSV,3,2,12,31,22,189,37,09,21,042,25,19,17,280,31,06,10,234,30*71
$GPGSV,3,3,12,11,10,315,27,03,08,244,28,25,05,122,21,12,05,085,*71
$GPRMC,173333.000,A,3352.2658,N,09832.3362,W,0.08,50.85,290312,,,D*4E
$GPGGA,173334.000,3352.2657,N,09832.3362,W,2,09,0.8,304.0,M,-23.7,M,1.8,0000*43
$GPGSA,A,3,18,22,31,14,06,21,19,11,09,,,,1.6,0.8,1.3*35
$GPRMC,173334.000,A,3352.2657,N,09832.3362,W,0.06,44.99,290312,,,D*40
$GPGGA,173335.000,3352.2657,N,09832.3362,W,2,09,0.8,304.3,M,-23.7,M,2.8,0000*42
$GPGSA,A,3,18,22,31,14,06,21,19,11,09,,,,1.6,0.8,1.3*35
$GPRMC,173335.000,A,3352.2657,N,09832.3362,W,0.04,6.82,290312,,,D*7F
$GPGGA,173336.000,3352.2656,N,09832.3362,W,2,09,0.8,304.7,M,-23.7,M,3.8,0000*45
$GPGSA,A,3,18,22,31,14,06,21,19,11,09,,,,1.6,0.8,1.3*35
$GPRMC,173336.000,A,3352.2656,N,09832.3362,W,0.03,53.10,290312,,,D*41
$GPGGA,173337.000,3352.2656,N,09832.3362,W,2,09,0.8,304.9,M,-23.7,M,0.8,0000*49
$GPGSA,A,3,18,22,31,14,06,21,19,11,09,,,,1.6,0.8,1.3*35
$GPRMC,173337.000,A,3352.2656,N,09832.3362,W,0.06,17.65,290312,,,D*47
$GPGGA,173338.000,3352.2656,N,09832.3362,W,2,09,0.8,305.3,M,-23.7,M,0.8,0000*4D
$GPGSA,A,3,18,22,31,14,06,21,19,11,09,,,,1.6,0.8,1.3*35
$GPGSV,3,1,12,22,69,013,33,14,68,292,15,18,41,088,29,21,22,157,32*75
$GPGSV,3,2,12,31,22,189,37,09,21,042,25,19,17,280,32,06,10,234,30*72
$GPGSV,3,3,12,11,10,315,27,03,08,244,28,25,05,122,20,12,05,085,*70
$GPRMC,173338.000,A,3352.2656,N,09832.3362,W,0.08,336.32,290312,,,D*74
$GPGGA,173339.000,3352.2655,N,09832.3362,W,2,09,0.8,305.6,M,-23.7,M,0.8,0000*4A
$GPGSA,A,3,18,22,31,14,06,21,19,11,09,,,,1.6,0.8,1.3*35
$GPRMC,173339.000,A,3352.2655,N,09832.3362,W,0.11,326.03,290312,,,D*7D
$GPGGA,173340.000,3352.2655,N,09832.3362,W,2,09,0.8,305.8,M,-23.7,M,1.8,0000*4B
$GPGSA,A,3,18,22,31,14,06,21,19,11,09,,,,1.6,0.8,1.3*35
$GPRMC,173340.000,A,3352.2655,N,09832.3362,W,0.04,341.69,290312,,,D*7A
$GPGGA,173341.000,3352.2655,N,09832.3362,W,2,09,0.8,306.0,M,-23.7,M,2.8,0000*42
$GPGSA,A,3,18,22,31,14,06,21,19,11,09,,,,1.6,0.8,1.3*35
$GPRMC,173341.000,A,3352.2655,N,09832.3362,W,0.03,28.38,290312,,,D*44
$GPGGA,173342.000,3352.2655,N,09832.3362,W,2,09,0.8,306.3,M,-23.7,M,3.8,0000*43
$GPGSA,A,3,18,22,31,14,06,21,19,11,09,,,,1.6,0.8,1.3*35
$GPRMC,173342.000,A,3352.2655,N,09832.3362,W,0.10,301.21,290312,,,D*75
$GPGGA,173343.000,3352.2655,N,09832.3364,W,2,09,0.8,306.5,M,-23.7,M,0.8,0000*41
$GPGSA,A,3,18,22,31,14,06,21,19,11,09,,,,1.6,0.8,1.3*35
$GPGSV,3,1,12,22,69,013,33,14,68,292,23,18,41,088,29,21,22,157,32*70
$GPGSV,3,2,12,31,22,189,37,09,21,042,25,19,17,280,33,06,10,234,27*75
$GPGSV,3,3,12,11,10,315,28,03,08,244,28,25,05,122,20,12,05,085,*7F
$GPRMC,173343.000,A,3352.2655,N,09832.3364,W,0.80,280.55,290312,,,D*70
$GPGGA,173344.000,3352.2656,N,09832.3372,W,2,09,0.8,306.7,M,-23.7,M,0.8,0000*40
$GPGSA,A,3,18,22,31,14,06,21,19,11,09,,,,1.6,0.8,1.3*35
$GPRMC,173344.000,A,3352.2656,N,09832.3372,W,3.65,280.24,290312,,,D*7D
$GPGGA,173345.000,3352.2657,N,09832.3390,W,2,09,0.8,306.7,M,-23.7,M,0.8,0000*4C
$GPGSA,A,3,18,22,31,14,06,21,19,11,09,,,,1.6,0.8,1.3*35
$GPRMC,173345.000,A,3352.2657,N,09832.3390,W,6.44,276.15,290312,,,D*7C
$GPGGA,173346.000,3352.2657,N,09832.3417,W,2,09,0.8,306.4,M,-23.7,M,0.8,0000*44
$GPGSA,A,3,18,22,31,14,06,21,19,11,09,,,,1.6,0.8,1.3*35
$GPRMC,173346.000,A,3352.2657,N,09832.3417,W,8.81,266.76,290312,,,D*74
$GPGGA,173347.000,3352.2650,N,09832.3450,W,2,09,0.8,306.5,M,-23.7,M,1.8,0000*41
$GPGSA,A,3,18,22,31,14,06,21,19,11,09,,,,1.6,0.8,1.3*35
$GPRMC,173347.000,A,3352.2650,N,09832.3450,W,10.43,251.69,290312,,,D*4C
$GPGGA,173348.000,3352.2635,N,09832.3481,W,2,09,0.8,306.7,M,-23.7,M,0.8,0000*42
$GPGSA,A,3,18,22,31,14,06,21,19,11,09,,,,1.6,0.8,1.3*35
$GPGSV,3,1,12,22,69,013,36,14,68,292,33,18,41,088,31,21,22,157,29*77
$GPGSV,3,2,12,31,22,189,33,09,21,042,26,19,17,280,26,06,10,234,27*76
$GPGSV,3,3,12,11,10,315,23,03,08,244,,25,05,122,26,12,05,085,*78
$GPRMC,173348.000,A,3352.2635,N,09832.3481,W,10.45,231.89,290312,,,D*42
$GPGGA,173349.000,3352.2613,N,09832.3505,W,2,09,0.8,306.6,M,-23.7,M,0.8,0000*4B
$GPGSA,A,3,18,22,31,14,06,21,19,11,09,,,,1.6,0.8,1.3*35
$GPRMC,173349.000,A,3352.2613,N,09832.3505,W,10.61,216.12,290312,,,D*4B
$GPGGA,173350.000,3352.2585,N,09832.3521,W,2,09,0.8,306.6,M,-23.7,M,1.8,0000*48
$GPGSA,A,3,18,22,31,14,06,21,19,11,09,,,,1.6,0.8,1.3*35
$GPRMC,173350.000,A,3352.2585,N,09832.3521,W,10.66,201.95,290312,,,D*47
$GPGGA,173351.000,3352.2556,N,09832.3531,W,2,09,0.8,306.8,M,-23.7,M,0.8,0000*49
$GPGSA,A,3,18,22,31,14,06,21,19,11,09,,,,1.6,0.8,1.3*35
$GPRMC,173351.000,A,3352.2556,N,09832.3531,W,10.95,192.07,290312,,,D*47
$GPGGA,173352.000,3352.2528,N,09832.3539,W,2,08,0.9,306.3,M,-23.7,M,1.8,0000*41
$GPGSA,A,3,18,22,31,14,06,21,11,09,,,,,1.6,0.9,1.3*3C
$GPRMC,173352.000,A,3352.2528,N,09832.3539,W,10.35,191.04,290312,,,D*4F
$GPGGA,173353.000,3352.2500,N,09832.3546,W,2,08,0.9,305.9,M,-23.7,M,0.8,0000*4A
$GPGSA,A,3,22,31,14,06,21,19,11,09,,,,,1.6,0.9,1.3*3D
$GPGSV,3,1,12,22,69,013,35,14,68,292,26,18,41,088,,21,22,157,28*73
$GPGSV,3,2,12,31,22,189,25,09,21,042,26,19,17,280,32,06,10,234,24*77
$GPGSV,3,3,12,11,10,315,25,03,08,244,27,25,05,122,,12,05,085,*7F
$GPRMC,173353.000,A,3352.2500,N,09832.3546,W,9.50,194.18,290312,,,D*7F
$GPGGA,173354.000,3352.2478,N,09832.3557,W,2,08,0.9,305.9,M,-23.7,M,0.8,0000*43
$GPGSA,A,3,22,31,14,06,21,19,11,09,,,,,1.6,0.9,1.3*3D
$GPRMC,173354.000,A,3352.2478,N,09832.3557,W,8.04,209.37,290312,,,D*7C
$GPGGA,173355.000,3352.2463,N,09832.3579,W,2,09,0.8,305.8,M,-23.7,M,0.8,0000*45
$GPGSA,A,3,18,22,31,14,06,21,19,11,09,,,,1.6,0.8,1.3*35
$GPRMC,173355.000,A,3352.2463,N,09832.3579,W,7.91,239.45,290312,,,D*7E
$GPGGA,173356.000,3352.2456,N,09832.3609,W,2,09,0.8,306.3,M,-23.7,M,0.8,0000*4C
$GPGSA,A,3,18,22,31,14,06,21,19,11,09,,,,1.6,0.8,1.3*35
$GPRMC,173356.000,A,3352.2456,N,09832.3609,W,7.56,261.37,290312,,,D*7C
$GPGGA,173357.000,3352.2457,N,09832.3634,W,2,08,0.9,305.7,M,-23.7,M,0.8,0000*45
$GPGSA,A,3,18,22,31,14,21,19,11,09,,,,,1.6,0.9,1.4*35
$GPRMC,173357.000,A,3352.2457,N,09832.3634,W,7.70,271.24,290312,,,D*75
$GPGGA,173358.000,3352.2458,N,09832.3659,W,2,09,0.8,305.1,M,-23.7,M,1.8,0000*49
$GPGSA,A,3,18,22,31,14,06,21,19,11,09,,,,1.6,0.8,1.3*35
$GPGSV,3,1,12,22,69,013,29,14,68,292,36,18,41,088,29,21,22,157,31*7C
$GPGSV,3,2,12,31,22,189,34,09,21,042,33,19,17,280,28,06,10,234,16*79
$GPGSV,3,3,12,11,10,315,26,03,08,244,17,25,05,122,,12,05,085,*7F
$GPRMC,173358.000,A,3352.2458,N,09832.3659,W,8.20,272.37,290312,,,D*75
$GPGGA,173359.000,3352.2460,N,09832.3687,W,2,09,0.8,304.5,M,-23.7,M,2.8,0000*46
$GPGSA,A,3,18,22,31,14,06,21,19,11,09,,,,1.6,0.8,1.3*35
$GPRMC,173359.000,A,3352.2460,N,09832.3687,W,8.79,273.52,290312,,,D*72
$GPGGA,173400.000,3352.2463,N,09832.3717,W,2,09,0.8,304.3,M,-23.7,M,3.8,0000*41
$GPGSA,A,3,18,22,31,14,06,21,19,11,09,,,,1.6,0.8,1.3*35
$GPRMC,173400.000,A,3352.2463,N,09832.3717,W,9.34,275.75,290312,,,D*79
$GPGGA,173401.000,3352.2468,N,09832.3749,W,2,09,0.8,303.6,M,-23.7,M,0.8,0000*41
$GPGSA,A,3,18,22,31,14,06,21,19,11,09,,,,1.6,0.8,1.3*35
$GPRMC,173401.000,A,3352.2468,N,09832.3749,W,9.98,278.69,290312,,,D*7E
$GPGGA,173402.000,3352.2472,N,09832.3781,W,2,09,0.8,302.7,M,-23.7,M,0.8,0000*4D
$GPGSA,A,3,18,22,31,14,06,21,19,11,09,,,,1.6,0.8,1.3*35
$GPRMC,173402.000,A,3352.2472,N,09832.3781,W,9.93,274.95,290312,,,D*76
$GPGGA,173403.000,3352.2474,N,09832.3814,W,2,09,0.8,301.8,M,-23.7,M,0.8,0000*45
$GPGSA,A,3,18,22,31,14,06,21,19,11,09,,,,1.6,0.8,1.3*35
$GPGSV,3,1,12,22,69,013,31,14,68,292,25,18,41,088,29,21,22,157,16*72
$GPGSV,3,2,12,31,22,189,22,09,21,042,31,19,17,280,31,06,10,234,13*71
$GPGSV,3,3,12,11,10,315,21,03,08,244,14,25,05,122,19,12,05,085,*73
$GPRMC,173403.000,A,3352.2474,N,09832.3814,W,10.01,272.87,290312,,,D*44
$GPGGA,173404.000,3352.2477,N,09832.3848,W,2,09,0.8,301.3,M,-23.7,M,1.8,0000*42
$GPGSA,A,3,18,22,31,14,06,21,19,11,09,,,,1.6,0.8,1.3*35
$GPRMC,173404.000,A,3352.2477,N,09832.3848,W,10.18,280.11,290312,,,D*43
$GPGGA,173405.000,3352.2482,N,09832.3880,W,2,09,0.8,300.7,M,-23.7,M,0.8,0000*49
$GPGSA,A,3,18,22,31,14,06,21,19,11,09,,,,1.6,0.8,1.3*35
$GPRMC,173405.000,A,3352.2482,N,09832.3880,W,10.14,281.92,290312,,,D*4A
$GPGGA,173406.000,3352.2486,N,09832.3913,W,2,07,1.2,300.1,M,-23.7,M,1.8,0000*47
$GPGSA,A,3,18,22,31,14,21,19,11,,,,,,2.0,1.2,1.6*31
$GPRMC,173406.000,A,3352.2486,N,09832.3913,W,9.95,280.83,290312,,,D*76
$GPGGA,173407.000,3352.2490,N,09832.3945,W,2,07,1.2,299.5,M,-23.7,M,0.8,0000*46
$GPGSA,A,3,18,22,31,14,21,19,11,,,,,,2.0,1.2,1.6*31
$GPRMC,173407.000,A,3352.2490,N,09832.3945,W,9.81,280.45,290312,,,D*7C
$GPGGA,173408.000,3352.2494,N,09832.3977,W,2,08,0.9,298.9,M,-23.7,M,0.8,0000*44
$GPGSA,A,3,18,22,31,14,21,19,11,09,,,,,1.6,0.9,1.4*35
$GPGSV,3,1,12,22,69,013,30,14,68,292,23,18,41,088,28,21,22,157,25*74
$GPGSV,3,2,12,31,22,189,30,09,21,042,27,19,17,280,31,06,10,234,*77
$GPGSV,3,3,12,11,10,315,20,03,08,244,13,25,05,122,15,12,05,085,*79
$GPRMC,173408.000,A,3352.2494,N,09832.3977,W,9.50,279.39,290312,,,D*77
$GPGGA,173409.000,3352.2499,N,09832.4007,W,2,08,0.9,298.3,M,-23.7,M,0.8,0000*4B
$GPGSA,A,3,18,22,31,14,21,19,11,09,,,,,1.6,0.9,1.4*35
$GPRMC,173409.000,A,3352.2499,N,09832.4007,W,9.01,281.67,290312,,,D*7A
$GPGGA,173410.000,3352.2503,N,09832.4036,W,2,08,0.9,298.4,M,-23.7,M,1.8,0000*45
$GPGSA,A,3,18,22,31,14,21,19,11,09,,,,,1.6,0.9,1.4*35
$GPRMC,173410.000,A,3352.2503,N,09832.4036,W,7.87,278.25,290312,,,D*72
$GPGGA,173411.000,3352.2504,N,09832.4060,W,2,07,1.2,298.4,M,-23.7,M,0.8,0000*44
$GPGSA,A,3,18,22,31,14,21,19,11,,,,,,2.0,1.2,1.6*31
$GPRMC,173411.000,A,3352.2504,N,09832.4060,W,6.26,277.39,290312,,,D*7F
$GPGGA,173412.000,3352.2505,N,09832.4077,W,2,08,0.9,298.6,M,-23.7,M,0.8,0000*47
$GPGSA,A,3,18,22,31,14,09,21,19,11,,,,,1.6,0.9,1.4*35
$GPRMC,173412.000,A,3352.2505,N,09832.4077,W,4.30,274.76,290312,,,D*76
$GPGGA,173413.000,3352.2505,N,09832.4089,W,2,08,0.9,298.4,M,-23.7,M,0.8,0000*45
$GPGSA,A,3,18,22,31,14,09,21,19,11,,,,,1.6,0.9,1.4*35
$GPGSV,3,1,12,22,69,013,31,14,68,292,34,18,41,088,26,21,22,157,20*78
$GPGSV,3,2,12,31,22,189,30,09,21,042,27,19,17,280,32,06,10,234,*74
$GPGSV,3,3,12,11,10,315,23,03,08,244,,25,05,122,,12,05,085,*7C
$GPRMC,173413.000,A,3352.2505,N,09832.4089,W,3.44,271.05,290312,,,D*73
$GPGGA,173414.000,3352.2505,N,09832.4100,W,2,08,0.9,298.3,M,-23.7,M,0.8,0000*45
$GPGSA,A,3,18,22,31,14,09,21,19,11,,,,,1.6,0.9,1.4*35
$GPRMC,173414.000,A,3352.2505,N,09832.4100,W,2.97,275.36,290312,,,D*7F
$GPGGA,173415.000,3352.2506,N,09832.4110,W,2,08,0.9,298.0,M,-23.7,M,0.8,0000*45
$GPGSA,A,3,18,22,31,14,09,21,19,11,,,,,1.6,0.9,1.4*35
$GPRMC,173415.000,A,3352.2506,N,09832.4110,W,3.58,277.69,290312,,,D*76
$GPGGA,173416.000,3352.2506,N,09832.4127,W,2,08,0.9,298.1,M,-23.7,M,1.8,0000*42
$GPGSA,A,3,18,22,31,14,09,21,19,11,,,,,1.6,0.9,1.4*35
$GPRMC,173416.000,A,3352.2506,N,09832.4127,W,5.34,275.11,290312,,,D*70
$GPGGA,173417.000,3352.2507,N,09832.4151,W,2,08,0.9,298.4,M,-23.7,M,0.8,0000*47
$GPGSA,A,3,18,22,31,14,09,21,19,11,,,,,1.6,0.9,1.4*35
$GPRMC,173417.000,A,3352.2507,N,09832.4151,W,7.00,275.94,290312,,,D*79
$GPGGA,173418.000,3352.2508,N,09832.4180,W,2,08,0.9,298.9,M,-23.7,M,1.8,0000*47
$GPGSA,A,3,18,22,31,14,09,21,19,11,,,,,1.6,0.9,1.4*35
$GPGSV,3,1,12,22,69,013,32,14,68,292,34,18,41,088,30,21,22,157,24*78
$GPGSV,3,2,12,31,22,189,29,09,21,042,27,19,17,280,32,06,10,234,*7C
$GPGSV,3,3,12,11,10,315,21,03,08,244,15,25,05,122,,12,05,085,*7A
$GPRMC,173418.000,A,3352.2508,N,09832.4180,W,7.78,272.93,290312,,,D*7A
$GPGGA,173419.000,3352.2508,N,09832.4211,W,2,08,0.9,299.4,M,-23.7,M,0.8,0000*40
$GPGSA,A,3,18,22,31,14,09,21,19,11,,,,,1.6,0.9,1.4*35
$GPRMC,173419.000,A,3352.2508,N,09832.4211,W,8.33,269.00,290312,,,D*70
$GPGGA,173420.000,3352.2507,N,09832.4242,W,2,09,0.8,299.8,M,-23.7,M,0.8,0000*4F
$GPGSA,A,3,18,22,31,14,09,21,19,06,11,,,,1.6,0.8,1.3*35
$GPRMC,173420.000,A,3352.2507,N,09832.4242,W,8.63,270.21,290312,,,D*7D
$GPGGA,173421.000,3352.2508,N,09832.4272,W,2,09,0.8,299.9,M,-23.7,M,0.8,0000*43
$GPGSA,A,3,18,22,31,14,09,21,19,06,11,,,,1.6,0.8,1.3*35
$GPRMC,173421.000,A,3352.2508,N,09832.4272,W,8.72,270.24,290312,,,D*75
$GPGGA,173422.000,3352.2507,N,09832.4304,W,2,09,0.8,300.1,M,-23.7,M,1.8,0000*47
$GPGSA,A,3,18,22,31,14,09,21,19,06,11,,,,1.6,0.8,1.3*35
$GPRMC,173422.000,A,3352.2507,N,09832.4304,W,9.03,269.93,290312,,,D*7A
$GPGGA,173423.000,3352.2508,N,09832.4336,W,2,09,0.8,300.0,M,-23.7,M,2.8,0000*4A
$GPGSA,A,3,18,22,31,14,09,21,19,06,11,,,,1.6,0.8,1.3*35
$GPGSV,3,1,12,22,69,017,32,14,69,296,35,18,41,090,30,31,23,189,32*75
$GPGSV,3,2,12,21,21,158,26,09,19,041,33,19,16,279,25,11,11,315,27*71
$GPGSV,3,3,12,06,09,233,16,03,07,243,15,25,06,121,,12,06,083,*78
$GPRMC,173423.000,A,3352.2508,N,09832.4336,W,9.02,270.33,290312,,,D*76
$GPGGA,173424.000,3352.2508,N,09832.4366,W,2,09,0.8,300.1,M,-23.7,M,3.8,0000*48
$GPGSA,A,3,18,22,31,14,09,21,19,06,11,,,,1.6,0.8,1.3*35
$GPRMC,173424.000,A,3352.2508,N,09832.4366,W,8.32,270.00,290312,,,D*76
$GPGGA,173425.000,3352.2508,N,09832.4392,W,2,09,0.8,300.4,M,-23.7,M,0.8,0000*44
$GPGSA,A,3,18,22,31,14,09,21,19,06,11,,,,1.6,0.8,1.3*35
$GPRMC,173425.000,A,3352.2508,N,09832.4392,W,7.55,269.87,290312,,,D*75
$GPGGA,173426.000,3352.2508,N,09832.4417,W,2,09,0.8,300.6,M,-23.7,M,0.8,0000*4F
$GPGSA,A,3,18,22,31,14,09,21,19,06,11,,,,1.6,0.8,1.3*35
$GPRMC,173426.000,A,3352.2508,N,09832.4417,W,7.46,270.80,290312,,,D*71
$GPGGA,173427.000,3352.2509,N,09832.4441,W,2,09,0.8,300.6,M,-23.7,M,0.8,0000*4C
$GPGSA,A,3,18,22,31,14,09,21,19,06,11,,,,1.6,0.8,1.3*35
$GPRMC,173427.000,A,3352.2509,N,09832.4441,W,6.82,269.26,290312,,,D*7F
$GPGGA,173428.000,3352.2509,N,09832.4462,W,2,09,0.8,300.9,M,-23.7,M,1.8,0000*4C
$GPGSA,A,3,18,22,31,14,09,21,19,06,11,,,,1.6,0.8,1.3*35
$GPGSV,3,1,12,22,69,017,25,14,69,296,37,18,41,090,20,31,23,189,32*70
$GPGSV,3,2,12,21,21,158,27,09,19,041,32,19,16,279,26,11,11,315,24*71
$GPGSV,3,3,12,06,09,233,32,03,07,243,29,25,06,121,,12,06,083,*71
$GPRMC,173428.000,A,3352.2509,N,09832.4462,W,5.86,268.26,290312,,,D*77
$GPGGA,173429.000,3352.2509,N,09832.4481,W,2,09,0.8,300.9,M,-23.7,M,2.8,0000*43
$GPGSA,A,3,18,22,31,14,09,21,19,06,11,,,,1.6,0.8,1.3*35
$GPRMC,173429.000,A,3352.2509,N,09832.4481,W,5.73,272.49,290312,,,D*73
$GPGGA,173430.000,3352.2512,N,09832.4501,W,2,09,0.8,300.8,M,-23.7,M,3.8,0000*48
$GPGSA,A,3,18,22,31,14,09,21,19,06,11,,,,1.6,0.8,1.3*35
$GPRMC,173430.000,A,3352.2512,N,09832.4501,W,5.86,283.33,290312,,,D*71
$GPGGA,173431.000,3352.2519,N,09832.4521,W,2,09,0.8,300.4,M,-23.7,M,0.8,0000*4F
$GPGSA,A,3,18,22,31,14,09,21,19,06,11,,,,1.6,0.8,1.3*35
$GPRMC,173431.000,A,3352.2519,N,09832.4521,W,6.39,299.11,290312,,,D*75
$GPGGA,173432.000,3352.2532,N,09832.4539,W,2,09,0.8,300.3,M,-23.7,M,0.8,0000*4B
$GPGSA,A,3,18,22,31,14,09,21,19,06,11,,,,1.6,0.8,1.3*35
$GPRMC,173432.000,A,3352.2532,N,09832.4539,W,6.94,317.69,290312,,,D*79
$GPGGA,173433.000,3352.2549,N,09832.4549,W,2,08,0.9,300.5,M,-23.7,M,0.8,0000*47
$GPGSA,A,3,22,31,14,09,21,19,06,11,,,,,1.6,0.9,1.3*3D
$GPGSV,3,1,12,22,69,017,38,14,69,296,34,18,41,090,,31,23,189,32*7D
$GPGSV,3,2,12,21,21,158,21,09,19,041,27,19,16,279,29,11,11,315,27*7F
$GPGSV,3,3,12,06,09,233,24,03,07,243,28,25,06,121,,12,06,083,*77
$GPRMC,173433.000,A,3352.2549,N,09832.4549,W,7.26,338.26,290312,,,D*7D
$GPGGA,173434.000,3352.2571,N,09832.4555,W,2,08,0.9,300.6,M,-23.7,M,1.8,0000*44
$GPGSA,A,3,18,22,31,14,09,21,19,06,,,,,1.7,0.9,1.4*32
$GPRMC,173434.000,A,3352.2571,N,09832.4555,W,7.57,354.30,290312,,,D*77
$GPGGA,173435.000,3352.2593,N,09832.4554,W,2,08,0.9,301.2,M,-23.7,M,2.8,0000*4E
$GPGSA,A,3,18,22,31,14,09,21,19,06,,,,,1.7,0.9,1.4*32
$GPRMC,173435.000,A,3352.2593,N,09832.4554,W,7.37,11.53,290312,,,D*4A
$GPGGA,173436.000,3352.2611,N,09832.4544,W,2,08,0.9,301.4,M,-23.7,M,3.8,0000*42
$GPGSA,A,3,18,22,14,09,21,19,06,11,,,,,1.6,0.9,1.3*36
$GPRMC,173436.000,A,3352.2611,N,09832.4544,W,6.38,32.84,290312,,,D*44
$GPGGA,173437.000,3352.2623,N,09832.4525,W,2,07,1.2,301.7,M,-23.7,M,4.8,0000*44
$GPGSA,A,3,18,22,14,09,19,06,11,,,,,,1.8,1.2,1.4*36
$GPRMC,173437.000,A,3352.2623,N,09832.4525,W,7.37,54.21,290312,,,D*42
$GPGGA,173438.000,3352.2625,N,09832.4501,W,2,09,0.8,301.6,M,-23.7,M,5.8,0000*4E
$GPGSA,A,3,18,22,31,14,09,21,19,06,11,,,,1.6,0.8,1.3*35
$GPGSV,3,1,12,22,69,017,35,14,69,296,24,18,41,090,28,31,23,189,31*78
$GPGSV,3,2,12,21,21,158,28,09,19,041,31,19,16,279,29,11,11,315,25*73
$GPGSV,3,3,12,06,09,233,26,03,07,243,27,25,06,121,27,12,06,083,*7F
$GPRMC,173438.000,A,3352.2625,N,09832.4501,W,6.87,79.92,290312,,,D*40
$GPGGA,173439.000,3352.2623,N,09832.4476,W,2,08,0.9,301.3,M,-23.7,M,0.8,0000*48
$GPGSA,A,3,22,31,14,09,21,19,06,11,,,,,1.6,0.9,1.3*3D
$GPRMC,173439.000,A,3352.2623,N,09832.4476,W,6.79,92.66,290312,,,D*49
$GPGGA,173440.000,3352.2624,N,09832.4455,W,2,09,0.8,301.5,M,-23.7,M,1.8,0000*47
$GPGSA,A,3,18,22,31,14,09,21,19,06,11,,,,1.6,0.8,1.3*35
$GPRMC,173440.000,A,3352.2624,N,09832.4455,W,6.90,94.44,290312,,,D*40
$GPGGA,173441.000,3352.2625,N,09832.4433,W,2,09,0.8,301.5,M,-23.7,M,2.8,0000*44
$GPGSA,A,3,18,22,31,14,09,21,19,06,11,,,,1.6,0.8,1.3*35
$GPRMC,173441.000,A,3352.2625,N,09832.4433,W,7.00,93.93,290312,,,D*45
$GPGGA,173442.000,3352.2625,N,09832.4410,W,2,09,0.8,301.4,M,-23.7,M,3.8,0000*46
$GPGSA,A,3,18,22,31,14,09,21,19,06,11,,,,1.6,0.8,1.3*35
$GPRMC,173442.000,A,3352.2625,N,09832.4410,W,7.44,94.63,290312,,,D*4F
$GPGGA,173443.000,3352.2626,N,09832.4385,W,2,09,0.8,301.2,M,-23.7,M,4.8,0000*4E
$GPGSA,A,3,18,22,31,14,09,21,19,06,11,,,,1.6,0.8,1.3*35
$GPGSV,3,1,12,22,69,017,35,14,69,296,33,18,41,090,36,31,23,189,29*78
$GPGSV,3,2,12,21,21,158,33,09,19,041,32,19,16,279,24,11,11,315,25*77
$GPGSV,3,3,12,06,09,233,27,03,07,243,33,25,06,121,29,12,06,083,*75
$GPRMC,173443.000,A,3352.2626,N,09832.4385,W,8.06,93.91,290312,,,D*45
$GPGGA,173444.000,3352.2626,N,09832.4356,W,2,09,0.8,301.0,M,-23.7,M,5.8,0000*44
$GPGSA,A,3,18,22,31,14,09,21,19,06,11,,,,1.6,0.8,1.3*35
$GPRMC,173444.000,A,3352.2626,N,09832.4356,W,8.62,94.62,290312,,,D*45
$GPGGA,173445.000,3352.2625,N,09832.4326,W,2,09,0.8,300.6,M,-23.7,M,6.8,0000*45
$GPGSA,A,3,18,22,31,14,09,21,19,06,11,,,,1.6,0.8,1.3*35
$GPRMC,173445.000,A,3352.2625,N,09832.4326,W,8.95,96.42,290312,,,D*48
$GPGGA,173446.000,3352.2622,N,09832.4292,W,2,09,0.8,300.4,M,-23.7,M,7.8,0000*4C
$GPGSA,A,3,18,22,31,14,09,21,19,06,11,,,,1.6,0.8,1.3*35
$GPRMC,173446.000,A,3352.2622,N,09832.4292,W,10.42,97.93,290312,,,D*7C
$GPGGA,173447.000,3352.2616,N,09832.4254,W,2,09,0.8,300.4,M,-23.7,M,8.8,0000*4F
$GPGSA,A,3,18,22,31,14,09,21,19,06,11,,,,1.6,0.8,1.3*35
$GPRMC,173447.000,A,3352.2616,N,09832.4254,W,11.87,98.11,290312,,,D*7D
$GPGGA,173448.000,3352.2611,N,09832.4213,W,2,09,0.8,300.4,M,-23.7,M,9.8,0000*45
$GPGSA,A,3,18,22,31,14,09,21,19,06,11,,,,1.6,0.8,1.3*35
$GPGSV,3,1,12,22,69,017,35,14,69,296,29,18,41,090,36,31,23,189,35*7E
$GPGSV,3,2,12,21,21,158,22,09,19,041,30,19,16,279,30,11,11,315,33*77
$GPGSV,3,3,12,06,09,233,21,03,07,243,25,25,06,121,23,12,06,083,*7E
$GPRMC,173448.000,A,3352.2611,N,09832.4213,W,12.32,97.32,290312,,,D*75
$GPGGA,173449.000,3352.2608,N,09832.4171,W,2,09,0.8,300.4,M,-23.7,M,0.8,0000*42
$GPGSA,A,3,18,22,31,14,09,21,19,06,11,,,,1.6,0.8,1.3*35
$GPRMC,173449.000,A,3352.2608,N,09832.4171,W,12.64,96.37,290312,,,D*7C
$GPGGA,173450.000,3352.2605,N,09832.4129,W,2,09,0.8,300.5,M,-23.7,M,0.8,0000*4B
$GPGSA,A,3,18,22,31,14,09,21,19,06,11,,,,1.6,0.8,1.3*35
$GPRMC,173450.000,A,3352.2605,N,09832.4129,W,12.78,95.52,290312,,,D*79
$GPGGA,173451.000,3352.2602,N,09832.4085,W,2,09,0.8,300.2,M,-23.7,M,0.8,0000*4D
$GPGSA,A,3,18,22,31,14,09,21,19,06,11,,,,1.6,0.8,1.3*35
$GPRMC,173451.000,A,3352.2602,N,09832.4085,W,13.13,94.12,290312,,,D*71
$GPGGA,173452.000,3352.2601,N,09832.4040,W,2,09,0.8,299.7,M,-23.7,M,0.8,0000*40
$GPGSA,A,3,18,22,31,14,09,21,19,06,11,,,,1.6,0.8,1.3*35
$GPRMC,173452.000,A,3352.2601,N,09832.4040,W,13.04,94.54,290312,,,D*7C
$GPGGA,173453.000,3352.2599,N,09832.3997,W,2,09,0.8,299.2,M,-23.7,M,1.8,0000*43
$GPGSA,A,3,18,22,31,14,09,21,19,06,11,,,,1.6,0.8,1.3*35
$GPGSV,3,1,12,22,69,017,36,14,69,296,31,18,41,090,35,31,23,189,30*72
$GPGSV,3,2,12,21,21,158,34,09,19,041,27,19,16,279,25,11,11,315,27*77
$GPGSV,3,3,12,06,09,233,24,03,07,243,26,25,06,121,33,12,06,083,*79
$GPRMC,173453.000,A,3352.2599,N,09832.3997,W,13.02,94.55,290312,,,D*7C
$GPGGA,173454.000,3352.2597,N,09832.3954,W,2,09,0.8,298.9,M,-23.7,M,2.8,0000*4C
$GPGSA,A,3,18,22,31,14,09,21,19,06,11,,,,1.6,0.8,1.3*35
$GPRMC,173454.000,A,3352.2597,N,09832.3954,W,12.46,93.79,290312,,,D*72
$GPGGA,173455.000,3352.2596,N,09832.3914,W,2,09,0.8,298.2,M,-23.7,M,0.8,0000*41
$GPGSA,A,3,18,22,31,14,09,21,19,06,11,,,,1.6,0.8,1.3*35
$GPRMC,173455.000,A,3352.2596,N,09832.3914,W,11.20,95.07,290312,,,D*7A
$GPGGA,173456.000,3352.2593,N,09832.3879,W,2,09,0.8,297.8,M,-23.7,M,0.8,0000*48
$GPGSA,A,3,18,22,31,14,09,21,19,06,11,,,,1.6,0.8,1.3*35
$GPRMC,173456.000,A,3352.2593,N,09832.3879,W,10.44,98.11,290312,,,D*7F
$GPGGA,173457.000,3352.2588,N,09832.3844,W,2,09,0.8,297.8,M,-23.7,M,0.8,0000*4D
$GPGSA,A,3,18,22,31,14,09,21,19,06,11,,,,1.6,0.8,1.3*35
$GPRMC,173457.000,A,3352.2588,N,09832.3844,W,10.06,97.99,290312,,,D*73
$GPGGA,173458.000,3352.2583,N,09832.3813,W,2,09,0.8,297.8,M,-23.7,M,1.8,0000*4A
$GPGSA,A,3,18,22,31,14,09,21,19,06,11,,,,1.6,0.8,1.3*35
$GPGSV,3,1,12,22,69,017,36,14,69,296,27,18,41,090,35,31,23,189,31*74
$GPGSV,3,2,12,21,21,158,23,09,19,041,28,19,16,279,26,11,11,315,31*7A
$GPGSV,3,3,12,06,09,233,19,03,07,243,17,25,06,121,21,12,06,083,*76
$GPRMC,173458.000,A,3352.2583,N,09832.3813,W,8.88,96.89,290312,,,D*4A
$GPGGA,173459.000,3352.2580,N,09832.3789,W,2,09,0.8,297.6,M,-23.7,M,0.8,0000*4B
$GPGSA,A,3,18,22,31,14,09,21,19,06,11,,,,1.6,0.8,1.3*35
$GPRMC,173459.000,A,3352.2580,N,09832.3789,W,6.08,93.38,290312,,,D*4D
$GPGGA,173500.000,3352.2578,N,09832.3779,W,2,09,0.8,297.5,M,-23.7,M,1.8,0000*4C
$GPGSA,A,3,18,22,31,14,09,21,19,06,11,,,,1.6,0.8,1.3*35
$GPRMC,173500.000,A,3352.2578,N,09832.3779,W,2.08,99.10,290312,,,D*4C
$GPGGA,173501.000,3352.2578,N,09832.3777,W,2,09,0.8,297.5,M,-23.7,M,2.8,0000*40
$GPGSA,A,3,18,22,31,14,09,21,19,06,11,,,,1.6,0.8,1.3*35
$GPRMC,173501.000,A,3352.2578,N,09832.3777,W,0.20,95.89,290312,,,D*47
$GPGGA,173502.000,3352.2578,N,09832.3778,W,2,09,0.8,297.4,M,-23.7,M,0.8,0000*4F
$GPGSA,A,3,18,22,31,14,09,21,19,06,11,,,,1.6,0.8,1.3*35
$GPRMC,173502.000,A,3352.2578,N,09832.3778,W,0.16,268.40,290312,,,D*7B
$GPGGA,173503.000,3352.2578,N,09832.3780,W,2,08,0.9,297.2,M,-23.7,M,0.8,0000*4F
$GPGSA,A,3,18,22,31,14,09,21,19,11,,,,,1.6,0.9,1.3*32
$GPGSV,3,1,12,22,69,017,36,14,69,296,35,18,41,090,35,31,23,189,31*77
$GPGSV,3,2,12,21,21,158,34,09,19,041,29,19,16,279,24,11,11,315,20*7F
$GPGSV,3,3,12,06,09,233,18,03,07,243,25,25,06,121,22,12,06,083,*75
$GPRMC,173503.000,A,3352.2578,N,09832.3780,W,0.22,317.60,290312,,,D*71
$GPGGA,173504.000,3352.2579,N,09832.3781,W,2,08,0.9,297.0,M,-23.7,M,1.8,0000*4B
$GPGSA,A,3,18,22,31,14,09,21,19,11,,,,,1.6,0.9,1.3*32
$GPRMC,173504.000,A,3352.2579,N,09832.3781,W,0.26,317.31,290312,,,D*76
$GPGGA,173505.000,3352.2579,N,09832.3783,W,2,08,0.9,296.8,M,-23.7,M,2.8,0000*42
$GPGSA,A,3,18,22,31,14,09,21,19,11,,,,,1.6,0.9,1.3*32
$GPRMC,173505.000,A,3352.2579,N,09832.3783,W,0.25,319.32,290312,,,D*7B
$GPGGA,173506.000,3352.2580,N,09832.3784,W,2,08,0.9,296.5,M,-23.7,M,3.8,0000*4C
$GPGSA,A,3,18,22,31,14,09,21,19,11,,,,,1.6,0.9,1.3*32
$GPRMC,173506.000,A,3352.2580,N,09832.3784,W,0.27,320.70,290312,,,D*77
$GPGGA,173507.000,3352.2580,N,09832.3785,W,2,08,0.9,296.4,M,-23.7,M,0.8,0000*4E
$GPGSA,A,3,18,22,31,14,09,21,19,11,,,,,1.6,0.9,1.3*32
$GPRMC,173507.000,A,3352.2580,N,09832.3785,W,0.06,41.61,290312,,,D*40
$GPGGA,173508.000,3352.2580,N,09832.3785,W,2,08,0.9,296.3,M,-23.7,M,0.8,0000*46
$GPGSA,A,3,18,22,31,14,09,21,19,11,,,,,1.6,0.9,1.3*32
$GPGSV,3,1,12,22,69,017,36,14,69,296,36,18,41,090,34,31,23,189,32*76
$GPGSV,3,2,12,21,21,158,34,09,19,041,29,19,16,279,25,11,11,315,19*74
$GPGSV,3,3,12,06,09,233,,03,07,243,25,25,06,121,22,12,06,083,*7C
$GPRMC,173508.000,A,3352.2580,N,09832.3785,W,0.06,35.86,290312,,,D*45
$GPGGA,173509.000,3352.2580,N,09832.3785,W,2,08,0.9,296.2,M,-23.7,M,0.8,0000*46
$GPGSA,A,3,18,22,31,14,09,21,19,11,,,,,1.6,0.9,1.3*32
$GPRMC,173509.000,A,3352.2580,N,09832.3785,W,0.09,67.60,290312,,,D*44
$GPGGA,173510.000,3352.2580,N,09832.3786,W,2,08,0.9,296.0,M,-23.7,M,0.8,0000*4F
$GPGSA,A,3,18,22,31,14,09,21,19,11,,,,,1.6,0.9,1.3*32
$GPRMC,173510.000,A,3352.2580,N,09832.3786,W,0.14,341.95,290312,,,D*7E
$GPGGA,173511.000,3352.2580,N,09832.3786,W,2,08,0.9,295.9,M,-23.7,M,1.8,0000*45
$GPGSA,A,3,18,22,31,14,09,21,19,11,,,,,1.6,0.9,1.3*32
$GPRMC,173511.000,A,3352.2580,N,09832.3786,W,0.09,55.87,290312,,,D*46
$GPGGA,173512.000,3352.2580,N,09832.3787,W,2,08,0.9,295.8,M,-23.7,M,2.8,0000*45
$GPGSA,A,3,18,22,31,14,09,21,19,11,,,,,1.6,0.9,1.3*32
$GPRMC,173512.000,A,3352.2580,N,09832.3787,W,0.03,351.85,290312,,,D*7B
$GPGGA,173513.000,3352.2580,N,09832.3787,W,2,08,0.9,295.6,M,-23.7,M,0.8,0000*48
$GPGSA,A,3,18,22,31,14,09,21,19,11,,,,,1.6,0.9,1.3*32
$GPGSV,3,1,12,22,69,017,36,14,69,296,36,18,41,090,34,31,23,189,32*76
$GPGSV,3,2,12,21,21,158,34,09,19,041,30,19,16,279,25,11,11,315,19*7C
$GPGSV,3,3,12,06,09,233,,03,07,243,25,25,06,121,22,12,06,083,*7C
$GPRMC,173513.000,A,3352.2580,N,09832.3787,W,0.21,327.90,290312,,,D*7F
$GPGGA,173514.000,3352.2580,N,09832.3788,W,2,08,0.9,295.4,M,-23.7,M,0.8,0000*42
$GPGSA,A,3,18,22,31,14,09,21,19,11,,,,,1.6,0.9,1.3*32
$GPRMC,173514.000,A,3352.2580,N,09832.3788,W,0.17,22.13,290312,,,D*4F
$GPGGA,173515.000,3352.2580,N,09832.3782,W,2,08,0.9,295.7,M,-23.7,M,0.8,0000*4A
$GPGSA,A,3,18,22,31,14,09,21,19,11,,,,,1.6,0.9,1.3*32
$GPRMC,173515.000,A,3352.2580,N,09832.3782,W,2.03,90.15,290312,,,D*4C
$GPGGA,173516.000,3352.2579,N,09832.3769,W,2,08,0.9,296.0,M,-23.7,M,1.8,0000*4F
$GPGSA,A,3,18,22,31,14,09,21,19,11,,,,,1.6,0.9,1.3*32
$GPRMC,173516.000,A,3352.2579,N,09832.3769,W,4.87,91.46,290312,,,D*41
$GPGGA,173517.000,3352.2577,N,09832.3750,W,2,08,0.9,296.1,M,-23.7,M,2.8,0000*48
$GPGSA,A,3,18,22,31,14,09,21,19,11,,,,,1.6,0.9,1.3*32
$GPRMC,173517.000,A,3352.2577,N,09832.3750,W,6.17,90.70,290312,,,D*4B
$GPGGA,173518.000,3352.2576,N,09832.3728,W,2,08,0.9,296.3,M,-23.7,M,3.8,0000*4A
$GPGSA,A,3,18,22,31,14,09,21,19,11,,,,,1.6,0.9,1.3*32
$GPGSV,3,1,12,22,69,017,30,14,69,296,36,18,41,090,30,31,23,189,33*75
$GPGSV,3,2,12,21,21,158,27,09,19,041,30,19,16,279,32,11,11,315,28*7A
$GPGSV,3,3,12,06,09,233,,03,07,243,16,25,06,121,16,12,06,083,*7B
$GPRMC,173518.000,A,3352.2576,N,09832.3728,W,6.29,89.91,290312,,,D*40
$GPGGA,173519.000,3352.2575,N,09832.3705,W,2,08,0.9,296.5,M,-23.7,M,4.8,0000*46
$GPGSA,A,3,18,22,31,14,09,21,19,11,,,,,1.6,0.9,1.3*32
$GPRMC,173519.000,A,3352.2575,N,09832.3705,W,7.03,91.78,290312,,,D*4A
$GPGGA,173520.000,3352.2572,N,09832.3682,W,2,08,0.9,295.9,M,-23.7,M,0.8,0000*4E
$GPGSA,A,3,18,22,31,14,09,21,19,11,,,,,1.6,0.9,1.3*32
$GPRMC,173520.000,A,3352.2572,N,09832.3682,W,6.54,104.00,290312,,,D*78
$GPGGA,173521.000,3352.2564,N,09832.3663,W,2,07,0.9,295.9,M,-23.7,M,0.8,0000*48
$GPGSA,A,3,18,31,14,09,21,19,11,,,,,,1.9,0.9,1.7*39
$GPRMC,173521.000,A,3352.2564,N,09832.3663,W,6.68,125.91,290312,,,D*75
$GPGGA,173522.000,3352.2547,N,09832.3654,W,2,07,0.9,296.4,M,-23.7,M,1.8,0000*41
$GPGSA,A,3,18,31,14,09,21,19,11,,,,,,1.9,0.9,1.7*39
$GPRMC,173522.000,A,3352.2547,N,09832.3654,W,6.00,162.58,290312,,,D*7B
$GPGGA,173523.000,3352.2528,N,09832.3655,W,2,07,0.9,296.4,M,-23.7,M,2.8,0000*4B
$GPGSA,A,3,18,31,14,09,21,19,11,,,,,,1.9,0.9,1.7*39
$GPGSV,3,1,12,22,69,017,,14,69,296,31,18,41,090,38,31,23,189,31*7B
$GPGSV,3,2,12,21,21,158,27,09,19,041,33,19,16,279,27,11,11,315,27*72
$GPGSV,3,3,12,06,09,233,20,03,07,243,24,25,06,121,17,12,06,083,*79
$GPRMC,173523.000,A,3352.2528,N,09832.3655,W,6.81,188.35,290312,,,D*74
$GPGGA,173524.000,3352.2508,N,09832.3659,W,2,08,0.9,296.1,M,-23.7,M,3.8,0000*49
$GPGSA,A,3,18,22,31,14,09,21,19,11,,,,,1.6,0.9,1.3*32
$GPRMC,173524.000,A,3352.2508,N,09832.3659,W,6.87,189.56,290312,,,D*7F
$GPGGA,173525.000,3352.2489,N,09832.3660,W,2,07,1.0,296.0,M,-23.7,M,4.8,0000*4B
$GPGSA,A,3,18,22,31,14,09,21,11,,,,,,1.7,1.0,1.4*34
$GPRMC,173525.000,A,3352.2489,N,09832.3660,W,6.71,171.26,290312,,,D*75
$GPGGA,173526.000,3352.2472,N,09832.3653,W,2,07,1.0,295.4,M,-23.7,M,5.8,0000*4A
$GPGSA,A,3,18,22,31,14,09,21,11,,,,,,1.7,1.0,1.4*34
$GPRMC,173526.000,A,3352.2472,N,09832.3653,W,5.41,149.34,290312,,,D*7A
$GPGGA,173527.000,3352.2461,N,09832.3643,W,2,08,0.9,295.5,M,-23.7,M,6.8,0000*4D
$GPGSA,A,3,18,22,31,14,09,21,19,11,,,,,1.6,0.9,1.3*32
$GPRMC,173527.000,A,3352.2461,N,09832.3643,W,3.15,138.49,290312,,,D*73
$GPGGA,173528.000,3352.2457,N,09832.3638,W,2,08,0.9,295.4,M,-23.7,M,7.8,0000*4B
$GPGSA,A,3,18,22,31,14,09,21,19,11,,,,,1.6,0.9,1.3*32
$GPGSV,3,1,12,22,69,017,27,14,69,296,31,18,41,090,38,31,23,189,35*7A
$GPGSV,3,2,12,21,21,158,23,09,19,041,27,19,16,279,28,11,11,315,27*7C
$GPGSV,3,3,12,06,09,233,16,03,07,243,19,25,06,121,17,12,06,083,*72
$GPRMC,173528.000,A,3352.2457,N,09832.3638,W,1.41,119.36,290312,,,D*7D
$GPGGA,173529.000,3352.2454,N,09832.3632,W,2,08,0.9,295.5,M,-23.7,M,8.8,0000*4D
$GPGSA,A,3,18,22,31,14,09,21,19,11,,,,,1.6,0.9,1.3*32
$GPRMC,173529.000,A,3352.2454,N,09832.3632,W,1.82,118.05,290312,,,D*7B
$GPGGA,173530.000,3352.2451,N,09832.3624,W,2,08,0.9,295.2,M,-23.7,M,9.8,0000*41
$GPGSA,A,3,18,22,31,14,09,21,19,11,,,,,1.6,0.9,1.3*32
$GPRMC,173530.000,A,3352.2451,N,09832.3624,W,3.24,114.85,290312,,,D*7B
$GPGGA,173531.000,3352.2446,N,09832.3612,W,2,05,1.2,294.8,M,-23.7,M,10.8,0000*77
$GPGSA,A,3,18,22,31,09,11,,,,,,,,2.3,1.2,1.9*3A
$GPRMC,173531.000,A,3352.2446,N,09832.3612,W,4.29,111.52,290312,,,D*7C
$GPGGA,173532.000,3352.2444,N,09832.3603,W,2,08,0.9,295.0,M,-23.7,M,11.8,0000*79
$GPGSA,A,3,18,22,31,14,09,21,19,11,,,,,1.6,0.9,1.3*32
$GPRMC,173532.000,A,3352.2444,N,09832.3603,W,2.57,103.33,290312,,,D*76
$GPGGA,173533.000,3352.2442,N,09832.3596,W,2,08,0.9,294.8,M,-23.7,M,12.8,0000*7B
$GPGSA,A,3,18,22,31,14,09,21,19,11,,,,,1.6,0.9,1.3*32
$GPGSV,3,1,12,22,69,017,28,14,69,296,36,18,41,090,38,31,23,189,24*72
$GPGSV,3,2,12,21,21,158,28,09,19,041,32,19,16,279,20,11,11,315,27*7B
$GPGSV,3,3,12,06,09,233,21,03,07,243,18,25,06,121,18,12,06,083,*78
$GPRMC,173533.000,A,3352.2442,N,09832.3596,W,2.06,103.97,290312,,,D*74
$GPGGA,173534.000,3352.2441,N,09832.3591,W,2,08,0.9,294.8,M,-23.7,M,13.8,0000*79
$GPGSA,A,3,18,22,31,14,09,21,19,11,,,,,1.6,0.9,1.3*32
$GPRMC,173534.000,A,3352.2441,N,09832.3591,W,1.50,107.83,290312,,,D*76
$GPGGA,173535.000,3352.2442,N,09832.3588,W,2,08,0.9,294.9,M,-23.7,M,14.8,0000*75
$GPGSA,A,3,18,22,31,14,09,21,19,11,,,,,1.6,0.9,1.3*32
$GPRMC,173535.000,A,3352.2442,N,09832.3588,W,0.67,107.97,290312,,,D*7C
$GPGGA,173536.000,3352.2441,N,09832.3587,W,2,08,0.9,294.9,M,-23.7,M,15.8,0000*7B
$GPGSA,A,3,18,22,31,14,09,21,19,11,,,,,1.6,0.9,1.3*32
$GPRMC,173536.000,A,3352.2441,N,09832.3587,W,0.14,121.83,290312,,,D*76
$GPGGA,173537.000,3352.2444,N,09832.3588,W,2,08,0.9,295.2,M,-23.7,M,0.8,0000*4E
$GPGSA,A,3,18,22,31,14,09,21,19,11,,,,,1.6,0.9,1.3*32
$GPRMC,173537.000,A,3352.2444,N,09832.3588,W,0.17,348.84,290312,,,D*74
$GPGGA,173538.000,3352.2446,N,09832.3590,W,2,08,0.9,295.3,M,-23.7,M,0.8,0000*4B
$GPGSA,A,3,18,22,31,14,09,21,19,11,,,,,1.6,0.9,1.3*32
$GPGSV,3,1,12,22,69,017,28,14,69,296,36,18,41,090,38,31,23,189,25*73
$GPGSV,3,2,12,21,21,158,27,09,19,041,32,19,16,279,25,11,11,315,19*7C
$GPGSV,3,3,12,06,09,233,19,03,07,243,24,25,06,121,17,12,06,083,*73
$GPRMC,173538.000,A,3352.2446,N,09832.3590,W,0.33,323.10,290312,,,D*76
$GPGGA,173539.000,3352.2447,N,09832.3590,W,2,08,0.9,295.3,M,-23.7,M,0.8,0000*4B
$GPGSA,A,3,18,22,31,14,09,21,19,11,,,,,1.6,0.9,1.3*32
$GPRMC,173539.000,A,3352.2447,N,09832.3590,W,0.12,9.55,290312,,,D*7F
$GPGGA,173540.000,3352.2449,N,09832.3590,W,2,08,0.9,295.2,M,-23.7,M,0.8,0000*4A
$GPGSA,A,3,18,22,31,14,09,21,19,11,,,,,1.6,0.9,1.3*32
$GPRMC,173540.000,A,3352.2449,N,09832.3590,W,0.26,319.32,290312,,,D*7B
$GPGGA,173541.000,3352.2450,N,09832.3591,W,2,08,0.9,295.2,M,-23.7,M,0.8,0000*42
$GPGSA,A,3,18,22,31,14,09,21,19,11,,,,,1.6,0.9,1.3*32
$GPRMC,173541.000,A,3352.2450,N,09832.3591,W,0.30,30.96,290312,,,D*42
$GPGGA,173542.000,3352.2450,N,09832.3589,W,2,08,0.9,295.2,M,-23.7,M,1.8,0000*49
$GPGSA,A,3,18,22,31,14,09,21,19,11,,,,,1.6,0.9,1.3*32
$GPRMC,173542.000,A,3352.2450,N,09832.3589,W,0.53,108.70,290312,,,D*7F
$GPGGA,173543.000,3352.2450,N,09832.3585,W,2,08,0.9,294.9,M,-23.7,M,0.8,0000*4F
$GPGSA,A,3,18,22,31,14,09,21,19,11,,,,,1.6,0.9,1.3*32
$GPGSV,3,1,12,22,69,017,32,14,69,296,35,18,41,090,39,31,23,189,25*7A
$GPGSV,3,2,12,21,21,158,27,09,19,041,32,19,16,279,20,11,11,315,19*79
$GPGSV,3,3,12,06,09,233,19,03,07,243,24,25,06,121,14,12,06,083,*70
$GPRMC,173543.000,A,3352.2450,N,09832.3585,W,1.74,109.15,290312,,,D*74
$GPGGA,173544.000,3352.2448,N,09832.3575,W,2,08,0.9,295.0,M,-23.7,M,0.8,0000*46
$GPGSA,A,3,18,22,31,14,09,21,19,11,,,,,1.6,0.9,1.3*32
$GPRMC,173544.000,A,3352.2448,N,09832.3575,W,4.13,100.95,290312,,,D*70
$GPGGA,173545.000,3352.2447,N,09832.3556,W,2,08,0.9,295.3,M,-23.7,M,0.8,0000*4A
$GPGSA,A,3,18,22,31,14,09,21,19,11,,,,,1.6,0.9,1.3*32
$GPRMC,173545.000,A,3352.2447,N,09832.3556,W,6.78,82.29,290312,,,D*4C
$GPGGA,173546.000,3352.2455,N,09832.3530,W,2,08,0.9,295.3,M,-23.7,M,1.8,0000*4B
$GPGSA,A,3,18,22,31,14,09,21,19,11,,,,,1.6,0.9,1.3*32
$GPRMC,173546.000,A,3352.2455,N,09832.3530,W,9.18,63.93,290312,,,D*4B
$GPGGA,173547.000,3352.2470,N,09832.3503,W,2,08,0.9,295.6,M,-23.7,M,2.8,0000*4B
$GPGSA,A,3,18,22,31,14,09,21,19,11,,,,,1.6,0.9,1.3*32
$GPRMC,173547.000,A,3352.2470,N,09832.3503,W,10.20,48.59,290312,,,D*71
$GPGGA,173548.000,3352.2492,N,09832.3477,W,2,07,1.0,296.8,M,-23.7,M,3.8,0000*41
$GPGSA,A,3,22,31,14,09,21,19,11,,,,,,1.7,1.0,1.4*35
$GPGSV,3,1,12,22,69,017,38,14,69,296,26,18,41,090,,31,23,189,29*74
$GPGSV,3,2,12,21,21,158,29,09,19,041,30,19,16,279,27,11,11,315,28*70
$GPGSV,3,3,12,06,09,233,28,03,07,243,27,25,06,121,16,12,06,083,*73
$GPRMC,173548.000,A,3352.2492,N,09832.3477,W,10.22,36.31,290312,,,D*75
$GPGGA,173549.000,3352.2513,N,09832.3455,W,2,08,0.9,298.4,M,-23.7,M,0.8,0000*4E
$GPGSA,A,3,18,22,31,14,09,21,19,11,,,,,1.6,0.9,1.3*32
$GPRMC,173549.000,A,3352.2513,N,09832.3455,W,9.45,29.96,290312,,,D*46
$GPGGA,173550.000,3352.2535,N,09832.3446,W,2,08,0.9,299.0,M,-23.7,M,0.8,0000*45
$GPGSA,A,3,18,22,31,14,09,21,19,11,,,,,1.6,0.9,1.3*32
$GPRMC,173550.000,A,3352.2535,N,09832.3446,W,6.83,18.75,290312,,,D*42
$GPGGA,173551.000,3352.2549,N,09832.3442,W,2,08,0.9,299.3,M,-23.7,M,0.8,0000*48
$GPGSA,A,3,18,22,31,14,09,21,19,11,,,,,1.6,0.9,1.3*32
$GPRMC,173551.000,A,3352.2549,N,09832.3442,W,3.74,16.15,290312,,,D*49
$GPGGA,173552.000,3352.2556,N,09832.3442,W,2,08,0.9,299.6,M,-23.7,M,1.8,0000*41
$GPGSA,A,3,18,22,31,14,09,21,19,11,,,,,1.6,0.9,1.3*32
$GPRMC,173552.000,A,3352.2556,N,09832.3442,W,1.09,14.76,290312,,,D*4B
$GPGGA,173553.000,3352.2558,N,09832.3442,W,2,08,0.9,299.9,M,-23.7,M,0.8,0000*40
$GPGSA,A,3,18,22,31,14,09,21,19,11,,,,,1.6,0.9,1.3*32
$GPGSV,3,1,12,22,69,017,39,14,69,296,27,18,41,090,36,31,23,189,23*7B
$GPGSV,3,2,12,21,21,158,28,09,19,041,31,19,16,279,27,11,11,315,26*7E
$GPGSV,3,3,12,06,09,233,31,03,07,243,22,25,06,121,,12,06,083,*79
$GPRMC,173553.000,A,3352.2558,N,09832.3442,W,0.08,14.17,290312,,,D*43
$GPGGA,173554.000,3352.2559,N,09832.3444,W,2,08,0.9,300.4,M,-23.7,M,1.8,0000*4D
$GPGSA,A,3,18,22,31,14,09,21,19,11,,,,,1.6,0.9,1.3*32
$GPRMC,173554.000,A,3352.2559,N,09832.3444,W,0.15,170.68,290312,,,D*74
$GPGGA,173555.000,3352.2560,N,09832.3445,W,2,08,0.9,300.8,M,-23.7,M,0.8,0000*4A
$GPGSA,A,3,18,22,31,14,09,21,19,11,,,,,1.6,0.9,1.3*32
$GPRMC,173555.000,A,3352.2560,N,09832.3445,W,0.07,197.65,290312,,,D*79
$GPGGA,173556.000,3352.2561,N,09832.3447,W,2,08,0.9,301.0,M,-23.7,M,0.8,0000*43
$GPGSA,A,3,18,22,31,14,09,21,19,11,,,,,1.6,0.9,1.3*32
$GPRMC,173556.000,A,3352.2561,N,09832.3447,W,0.11,215.27,290312,,,D*71
$GPGGA,173557.000,3352.2562,N,09832.3448,W,2,08,0.9,301.4,M,-23.7,M,0.8,0000*4A
$GPGSA,A,3,18,22,31,14,09,21,19,11,,,,,1.6,0.9,1.3*32
$GPRMC,173557.000,A,3352.2562,N,09832.3448,W,0.27,198.00,290312,,,D*7A
$GPGGA,173558.000,3352.2563,N,09832.3449,W,2,07,1.0,301.6,M,-23.7,M,1.8,0000*41
$GPGSA,A,3,18,22,14,09,21,19,11,,,,,,1.7,1.0,1.4*3E
$GPGSV,3,1,12,22,69,017,38,14,69,296,28,18,41,090,36,31,23,189,16*73
$GPGSV,3,2,12,21,21,158,28,09,19,041,28,19,16,279,26,11,11,315,27*76
$GPGSV,3,3,12,06,09,233,33,03,07,243,23,25,06,121,,12,06,083,*7A
$GPRMC,173558.000,A,3352.2563,N,09832.3449,W,0.03,52.51,290312,,,D*40
$GPGGA,173559.000,3352.2564,N,09832.3450,W,2,07,1.0,301.9,M,-23.7,M,2.8,0000*43
$GPGSA,A,3,18,22,14,09,21,19,11,,,,,,1.7,1.0,1.4*3E
$GPRMC,173559.000,A,3352.2564,N,09832.3450,W,0.01,295.56,290312,,,D*72
$GPGGA,173600.000,3352.2565,N,09832.3451,W,2,07,1.0,302.0,M,-23.7,M,3.8,0000*47
$GPGSA,A,3,18,22,14,09,21,19,11,,,,,,1.7,1.0,1.4*3E
$GPRMC,173600.000,A,3352.2565,N,09832.3451,W,0.03,29.68,290312,,,D*47
$GPGGA,173601.000,3352.2566,N,09832.3450,W,2,07,1.0,302.0,M,-23.7,M,0.8,0000*47
$GPGSA,A,3,18,22,14,09,21,19,11,,,,,,1.7,1.0,1.4*3E
$GPRMC,173601.000,A,3352.2566,N,09832.3450,W,0.04,73.71,290312,,,D*44
$GPGGA,173602.000,3352.2567,N,09832.3450,W,2,07,1.0,302.1,M,-23.7,M,0.8,0000*44
$GPGSA,A,3,18,22,14,09,21,19,11,,,,,,1.7,1.0,1.4*3E
$GPRMC,173602.000,A,3352.2567,N,09832.3450,W,0.05,114.36,290312,,,D*74
$GPGGA,173603.000,3352.2568,N,09832.3453,W,2,07,1.0,302.8,M,-23.7,M,0.8,0000*40
$GPGSA,A,3,18,22,14,09,21,19,11,,,,,,1.7,1.0,1.4*3E
$GPGSV,3,1,12,22,69,017,37,14,69,296,27,18,41,090,36,31,23,189,12*77
$GPGSV,3,2,12,21,21,158,27,09,19,041,29,19,16,279,26,11,11,315,28*77
$GPGSV,3,3,12,06,09,233,33,03,07,243,14,25,06,121,,12,06,083,*7E
$GPRMC,173603.000,A,3352.2568,N,09832.3453,W,0.06,267.31,290312,,,D*7A
$GPGGA,173604.000,3352.2568,N,09832.3455,W,2,08,0.9,303.4,M,-23.7,M,1.8,0000*4A
$GPGSA,A,3,18,22,31,14,09,21,19,11,,,,,1.6,0.9,1.3*32
$GPRMC,173604.000,A,3352.2568,N,09832.3455,W,0.20,7.62,290312,,,D*7D
$GPGGA,173605.000,3352.2568,N,09832.3456,W,2,08,0.9,303.8,M,-23.7,M,2.8,0000*47
$GPGSA,A,3,18,22,31,14,09,21,19,11,,,,,1.6,0.9,1.3*32
$GPRMC,173605.000,A,3352.2568,N,09832.3456,W,0.05,337.95,290312,,,D*70
$GPGGA,173606.000,3352.2565,N,09832.3459,W,2,08,0.9,303.8,M,-23.7,M,3.8,0000*47
$GPGSA,A,3,18,22,31,14,09,21,19,11,,,,,1.6,0.9,1.3*32
$GPRMC,173606.000,A,3352.2565,N,09832.3459,W,0.39,16.24,290312,,,D*44
$GPGGA,173607.000,3352.2566,N,09832.3460,W,2,07,1.0,303.8,M,-23.7,M,4.8,0000*4F
$GPGSA,A,3,18,22,31,14,09,21,11,,,,,,1.7,1.0,1.4*34
$GPRMC,173607.000,A,3352.2566,N,09832.3460,W,0.99,14.63,290312,,,D*47
$GPGGA,173608.000,3352.2567,N,09832.3462,W,2,07,1.0,304.1,M,-23.7,M,5.8,0000*4C
$GPGSA,A,3,18,22,31,14,09,21,11,,,,,,1.7,1.0,1.4*34
$GPGSV,3,1,12,22,69,017,37,14,69,296,27,18,41,090,36,31,23,189,26*70
$GPGSV,3,2,12,21,21,158,25,09,19,041,30,19,16,279,,11,11,315,29*78
$GPGSV,3,3,12,06,09,233,31,03,07,243,28,25,06,121,19,12,06,083,*7B
$GPRMC,173608.000,A,3352.2567,N,09832.3462,W,2.43,20.31,290312,,,D*4E
$GPGGA,173609.000,3352.2576,N,09832.3459,W,2,08,0.9,304.4,M,-23.7,M,0.8,0000*42
$GPGSA,A,3,18,22,31,14,09,21,19,11,,,,,1.6,0.9,1.3*32
$GPRMC,173609.000,A,3352.2576,N,09832.3459,W,3.92,15.59,290312,,,D*42
$GPGGA,173610.000,3352.2587,N,09832.3455,W,2,08,0.9,304.0,M,-23.7,M,1.8,0000*4D
$GPGSA,A,3,18,22,31,14,09,21,19,11,,,,,1.6,0.9,1.3*32
$GPRMC,173610.000,A,3352.2587,N,09832.3455,W,4.20,15.88,290312,,,D*4A
$GPGGA,173611.000,3352.2598,N,09832.3452,W,2,08,0.9,304.5,M,-23.7,M,2.8,0000*43
$GPGSA,A,3,18,22,31,14,09,21,19,11,,,,,1.6,0.9,1.3*32
$GPRMC,173611.000,A,3352.2598,N,09832.3452,W,3.26,14.21,290312,,,D*41
$GPGGA,173612.000,3352.2602,N,09832.3450,W,2,07,1.0,304.6,M,-23.7,M,0.8,0000*44
$GPGSA,A,3,18,22,31,14,09,21,11,,,,,,1.7,1.0,1.4*34
$GPRMC,173612.000,A,3352.2602,N,09832.3450,W,1.60,9.05,290312,,,D*7A
$GPGGA,173613.000,3352.2600,N,09832.3448,W,2,07,1.0,305.5,M,-23.7,M,0.8,0000*4C
$GPGSA,A,3,18,22,31,14,09,21,11,,,,,,1.7,1.0,1.4*34
$GPGSV,3,1,12,22,69,017,37,14,69,296,33,18,41,090,35,31,23,189,27*77
$GPGSV,3,2,12,21,21,158,20,09,19,041,24,19,16,279,,11,11,315,24*75
$GPGSV,3,3,12,06,09,233,18,03,07,243,25,25,06,121,20,12,06,083,*77
$GPRMC,173613.000,A,3352.2600,N,09832.3448,W,0.30,36.47,290312,,,D*4E
$GPGGA,173614.000,3352.2598,N,09832.3447,W,2,07,1.0,305.4,M,-23.7,M,0.8,0000*47
$GPGSA,A,3,18,22,31,14,09,21,11,,,,,,1.7,1.0,1.4*34
$GPRMC,173614.000,A,3352.2598,N,09832.3447,W,0.09,138.43,290312,,,D*75
$GPGGA,173615.000,3352.2597,N,09832.3447,W,2,07,1.0,305.1,M,-23.7,M,0.8,0000*4C
$GPGSA,A,3,18,22,31,14,09,21,11,,,,,,1.7,1.0,1.4*34
$GPRMC,173615.000,A,3352.2597,N,09832.3447,W,0.12,20.54,290312,,,D*4F
$GPGGA,173616.000,3352.2595,N,09832.3445,W,2,07,1.0,305.6,M,-23.7,M,1.8,0000*49
$GPGSA,A,3,18,22,31,14,09,21,11,,,,,,1.7,1.0,1.4*34
$GPRMC,173616.000,A,3352.2595,N,09832.3445,W,0.18,123.28,290312,,,D*7F
$GPGGA,173617.000,3352.2595,N,09832.3445,W,2,07,1.0,305.2,M,-23.7,M,2.8,0000*4F
$GPGSA,A,3,18,22,31,14,09,21,11,,,,,,1.7,1.0,1.4*34
$GPRMC,173617.000,A,3352.2595,N,09832.3445,W,0.18,41.55,290312,,,D*41
$GPGGA,173618.000,3352.2591,N,09832.3441,W,2,07,1.0,306.3,M,-23.7,M,3.8,0000*43
$GPGSA,A,3,18,22,31,14,09,21,11,,,,,,1.7,1.0,1.4*34
$GPGSV,3,1,12,22,69,017,36,14,69,296,32,18,41,090,32,31,23,189,28*7F
$GPGSV,3,2,12,21,21,158,18,09,19,041,24,19,16,279,,11,11,315,25*7F
$GPGSV,3,3,12,06,09,233,23,03,07,243,26,25,06,121,19,12,06,083,*76
$GPRMC,173618.000,A,3352.2591,N,09832.3441,W,0.31,70.45,290312,,,D*46
$GPGGA,173619.000,3352.2588,N,09832.3439,W,2,08,0.9,307.1,M,-23.7,M,0.8,0000*42
$GPGSA,A,3,18,22,31,14,09,21,19,11,,,,,1.6,0.9,1.3*32
$GPRMC,173619.000,A,3352.2588,N,09832.3439,W,0.10,74.00,290312,,,D*46
$GPGGA,173620.000,3352.2586,N,09832.3437,W,2,08,0.9,307.8,M,-23.7,M,0.8,0000*41
$GPGSA,A,3,18,22,31,14,09,21,19,11,,,,,1.6,0.9,1.3*32
$GPRMC,173620.000,A,3352.2586,N,09832.3437,W,0.11,172.32,290312,,,D*7B
$GPGGA,173621.000,3352.2583,N,09832.3435,W,2,08,0.9,308.4,M,-23.7,M,0.8,0000*44
$GPGSA,A,3,18,22,31,14,09,21,19,11,,,,,1.6,0.9,1.3*32
$GPRMC,173621.000,A,3352.2583,N,09832.3435,W,0.27,132.05,290312,,,D*78
$GPGGA,173622.000,3352.2582,N,09832.3434,W,2,08,0.9,308.7,M,-23.7,M,1.8,0000*45
$GPGSA,A,3,18,22,31,14,09,21,19,11,,,,,1.6,0.9,1.3*32
$GPRMC,173622.000,A,3352.2582,N,09832.3434,W,0.15,19.51,290312,,,D*43
$GPGGA,173623.000,3352.2586,N,09832.3432,W,2,08,0.9,308.9,M,-23.7,M,2.8,0000*4B
$GPGSA,A,3,18,22,31,14,09,21,19,11,,,,,1.6,0.9,1.3*32
$GPGSV,3,1,12,22,69,017,28,14,69,296,32,18,41,090,21,31,23,189,29*73
$GPGSV,3,2,12,21,21,158,21,09,19,041,25,19,16,279,23,11,11,315,27*77
$GPGSV,3,3,12,06,09,233,28,03,07,243,27,25,06,121,21,12,06,083,*77
$GPRMC,173623.000,A,3352.2586,N,09832.3432,W,1.93,21.86,290312,,,D*4E
$GPGGA,173624.000,3352.2596,N,09832.3424,W,2,08,0.9,308.7,M,-23.7,M,3.8,0000*45
$GPGSA,A,3,18,22,31,14,09,21,19,11,,,,,1.6,0.9,1.3*32
$GPRMC,173624.000,A,3352.2596,N,09832.3424,W,5.03,28.48,290312,,,D*49
$GPGGA,173625.000,3352.2610,N,09832.3411,W,2,08,0.9,308.4,M,-23.7,M,4.8,0000*4B
$GPGSA,A,3,18,22,31,14,09,21,19,11,,,,,1.6,0.9,1.3*32
$GPRMC,173625.000,A,3352.2610,N,09832.3411,W,6.67,46.27,290312,,,D*43
$GPGGA,173626.000,3352.2622,N,09832.3392,W,2,08,0.9,307.9,M,-23.7,M,5.8,0000*46
$GPGSA,A,3,18,22,31,14,09,21,19,11,,,,,1.6,0.9,1.3*32
$GPRMC,173626.000,A,3352.2622,N,09832.3392,W,7.27,62.57,290312,,,D*49
$GPGGA,173627.000,3352.2629,N,09832.3361,W,2,07,1.0,307.6,M,-23.7,M,0.8,0000*4D
$GPGSA,A,3,18,22,14,09,21,19,11,,,,,,1.7,1.0,1.4*3E
$GPRMC,173627.000,A,3352.2629,N,09832.3361,W,9.43,75.92,290312,,,D*4C
$GPGGA,173628.000,3352.2627,N,09832.3324,W,2,08,0.9,306.6,M,-23.7,M,0.8,0000*4B
$GPGSA,A,3,18,22,31,14,09,21,19,11,,,,,1.6,0.9,1.3*32
$GPGSV,3,1,12,22,69,017,33,14,69,296,33,18,41,090,30,31,23,189,33*73
$GPGSV,3,2,12,21,21,158,33,09,19,041,28,19,16,279,25,11,11,315,27*7F
$GPGSV,3,3,12,06,09,233,28,03,07,243,27,25,06,121,26,12,06,083,*70
$GPRMC,173628.000,A,3352.2627,N,09832.3324,W,12.14,95.23,290312,,,D*70
$GPGGA,173629.000,3352.2624,N,09832.3276,W,2,08,0.9,305.5,M,-23.7,M,0.8,0000*4F
$GPGSA,A,3,18,22,31,14,09,21,19,11,,,,,1.6,0.9,1.3*32
$GPRMC,173629.000,A,3352.2624,N,09832.3276,W,14.64,94.58,290312,,,D*78
$GPGGA,173630.000,3352.2622,N,09832.3224,W,2,08,0.9,304.1,M,-23.7,M,1.8,0000*42
$GPGSA,A,3,18,22,31,14,09,21,19,11,,,,,1.6,0.9,1.3*32
$GPRMC,173630.000,A,3352.2622,N,09832.3224,W,15.88,89.13,290312,,,D*71
$GPGGA,173631.000,3352.2620,N,09832.3168,W,2,08,0.9,303.2,M,-23.7,M,2.8,0000*4D
$GPGSA,A,3,18,22,31,14,09,21,19,11,,,,,1.6,0.9,1.3*32
$GPRMC,173631.000,A,3352.2620,N,09832.3168,W,15.34,89.16,290312,,,D*7B
$GPGGA,173632.000,3352.2618,N,09832.3120,W,2,08,0.9,302.5,M,-23.7,M,3.8,0000*4E
$GPGSA,A,3,18,22,31,14,09,21,19,11,,,,,1.6,0.9,1.3*32
$GPRMC,173632.000,A,3352.2618,N,09832.3120,W,13.04,94.57,290312,,,D*73
$GPGGA,173633.000,3352.2616,N,09832.3085,W,2,08,0.9,302.2,M,-23.7,M,4.8,0000*4F
$GPGSA,A,3,18,22,31,14,09,21,19,11,,,,,1.6,0.9,1.3*32
$GPGSV,3,1,12,22,69,017,24,14,69,296,27,18,41,090,35,31,23,189,30*76
$GPGSV,3,2,12,21,21,158,34,09,19,041,30,19,16,279,29,11,11,315,27*7D
$GPGSV,3,3,12,06,09,233,25,03,07,243,22,25,06,121,29,12,06,083,*77
$GPRMC,173633.000,A,3352.2616,N,09832.3085,W,9.24,97.08,290312,,,D*42
$GPGGA,173634.000,3352.2614,N,09832.3060,W,2,08,0.9,301.3,M,-23.7,M,5.8,0000*42
$GPGSA,A,3,18,22,31,14,09,21,19,11,,,,,1.6,0.9,1.3*32
$GPRMC,173634.000,A,3352.2614,N,09832.3060,W,5.73,97.97,290312,,,D*44
$GPGGA,173635.000,3352.2614,N,09832.3049,W,2,08,0.9,300.6,M,-23.7,M,6.8,0000*4F
$GPGSA,A,3,18,22,31,14,09,21,19,11,,,,,1.6,0.9,1.3*32
$GPRMC,173635.000,A,3352.2614,N,09832.3049,W,1.81,93.56,290312,,,D*4E
$GPGGA,173636.000,3352.2613,N,09832.3048,W,2,08,0.9,299.9,M,-23.7,M,7.8,0000*45
$GPGSA,A,3,18,22,31,14,09,21,19,11,,,,,1.6,0.9,1.3*32
$GPRMC,173636.000,A,3352.2613,N,09832.3048,W,0.18,38.84,290312,,,D*44
$GPGGA,173637.000,3352.2613,N,09832.3048,W,2,08,0.9,299.3,M,-23.7,M,8.8,0000*41
$GPGSA,A,3,18,22,31,14,09,21,19,11,,,,,1.6,0.9,1.3*32
$GPRMC,173637.000,A,3352.2613,N,09832.3048,W,0.13,39.90,290312,,,D*4A
$GPGGA,173638.000,3352.2614,N,09832.3048,W,2,08,0.9,298.8,M,-23.7,M,9.8,0000*42
$GPGSA,A,3,18,22,31,14,09,21,19,11,,,,,1.6,0.9,1.3*32
$GPGSV,3,1,12,22,69,017,26,14,69,296,29,18,41,090,36,31,23,189,30*79
$GPGSV,3,2,12,21,21,158,32,09,19,041,27,19,16,279,28,11,11,315,27*7C
$GPGSV,3,3,12,06,09,233,32,03,07,243,23,25,06,121,30,12,06,083,*78
$GPRMC,173638.000,A,3352.2614,N,09832.3048,W,0.14,25.67,290312,,,D*40
$GPGGA,173639.000,3352.2615,N,09832.3049,W,2,08,0.9,298.7,M,-23.7,M,10.8,0000*74
$GPGSA,A,3,18,22,31,14,09,21,19,11,,,,,1.6,0.9,1.3*32
$GPRMC,173639.000,A,3352.2615,N,09832.3049,W,0.18,32.63,290312,,,D*4F
$GPGGA,173640.000,3352.2616,N,09832.3049,W,2,08,0.9,298.7,M,-23.7,M,11.8,0000*78
$GPGSA,A,3,18,22,31,14,09,21,19,11,,,,,1.6,0.9,1.3*32
$GPRMC,173640.000,A,3352.2616,N,09832.3049,W,0.14,30.71,290312,,,D*4F
$GPGGA,173641.000,3352.2617,N,09832.3049,W,2,08,0.9,298.6,M,-23.7,M,12.8,0000*7A
$GPGSA,A,3,18,22,31,14,09,21,19,11,,,,,1.6,0.9,1.3*32
$GPRMC,173641.000,A,3352.2617,N,09832.3049,W,0.19,59.83,290312,,,D*40
$GPGGA,173642.000,3352.2617,N,09832.3047,W,2,08,0.9,298.5,M,-23.7,M,13.8,0000*75
$GPGSA,A,3,18,22,31,14,09,21,19,11,,,,,1.6,0.9,1.3*32
$GPRMC,173642.000,A,3352.2617,N,09832.3047,W,0.90,98.01,290312,,,D*4B
$GPGGA,173643.000,3352.2617,N,09832.3042,W,2,08,0.9,298.3,M,-23.7,M,14.8,0000*70
$GPGSA,A,3,18,22,31,14,09,21,19,11,,,,,1.6,0.9,1.3*32
$GPGSV,3,1,12,22,69,017,30,14,69,296,28,18,41,090,36,31,23,189,31*7E
$GPGSV,3,2,12,21,21,158,32,09,19,041,27,19,16,279,28,11,11,315,28*73
$GPGSV,3,3,12,06,09,233,27,03,07,243,30,25,06,121,30,12,06,083,*7E
$GPRMC,173643.000,A,3352.2617,N,09832.3042,W,2.14,98.56,290312,,,D*43
$GPGGA,173644.000,3352.2615,N,09832.3033,W,2,08,0.9,298.3,M,-23.7,M,15.8,0000*72
$GPGSA,A,3,18,22,31,14,09,21,19,11,,,,,1.6,0.9,1.3*32
$GPRMC,173644.000,A,3352.2615,N,09832.3033,W,3.48,97.76,290312,,,D*45
$GPGGA,173645.000,3352.2613,N,09832.3019,W,2,08,0.9,298.3,M,-23.7,M,16.8,0000*7E
$GPGSA,A,3,18,22,31,14,09,21,19,11,,,,,1.6,0.9,1.3*32
$GPRMC,173645.000,A,3352.2613,N,09832.3019,W,5.08,92.35,290312,,,D*4A
$GPGGA,173646.000,3352.2614,N,09832.2997,W,2,08,0.9,297.8,M,-23.7,M,17.8,0000*71
$GPGSA,A,3,18,22,31,14,09,21,19,11,,,,,1.6,0.9,1.3*32
$GPRMC,173646.000,A,3352.2614,N,09832.2997,W,7.22,77.24,290312,,,D*41
$GPGGA,173647.000,3352.2624,N,09832.2973,W,1,08,0.9,296.8,M,-23.7,M,18.8,0000*74
$GPGSA,A,3,18,22,31,14,09,21,19,11,,,,,1.6,0.9,1.3*32
$GPRMC,173647.000,A,3352.2624,N,09832.2973,W,8.09,62.66,290312,,,A*48
$GPGGA,173648.000,3352.2638,N,09832.2954,W,1,08,0.9,296.6,M,-23.7,M,18.8,0000*7D
$GPGSA,A,3,18,22,31,14,09,21,19,11,,,,,1.6,0.9,1.3*32
$GPGSV,3,1,12,22,69,017,37,14,69,296,26,18,41,090,31,31,23,189,27*77
$GPGSV,3,2,12,21,21,158,27,09,19,041,32,19,16,279,36,11,11,315,22*76
$GPGSV,3,3,12,06,09,233,21,03,07,243,23,25,06,121,30,12,06,083,*7A
$GPRMC,173648.000,A,3352.2638,N,09832.2954,W,7.57,49.19,290312,,,A*4A
$GPGGA,173649.000,3352.2649,N,09832.2940,W,1,08,0.9,296.4,M,-23.7,M,18.8,0000*7D
$GPGSA,A,3,18,22,31,14,09,21,19,11,,,,,1.6,0.9,1.3*32
$GPRMC,173649.000,A,3352.2649,N,09832.2940,W,5.56,43.49,290312,,,A*44
$GPGGA,173650.000,3352.2659,N,09832.2932,W,1,08,0.9,296.2,M,-23.7,M,18.8,0000*77
$GPGSA,A,3,18,22,31,14,09,21,19,11,,,,,1.6,0.9,1.3*32
$GPRMC,173650.000,A,3352.2659,N,09832.2932,W,4.23,34.40,290312,,,A*42
$GPGGA,173651.000,3352.2669,N,09832.2926,W,1,06,1.1,296.1,M,-23.7,M,18.8,0000*74
$GPGSA,A,3,18,22,09,21,19,11,,,,,,,2.1,1.1,1.8*33
$GPRMC,173651.000,A,3352.2669,N,09832.2926,W,3.78,30.58,290312,,,A*41
$GPGGA,173652.000,3352.2678,N,09832.2920,W,1,08,0.9,296.2,M,-23.7,M,18.8,0000*75
$GPGSA,A,3,18,22,31,14,09,21,19,11,,,,,1.6,0.9,1.3*32
$GPRMC,173652.000,A,3352.2678,N,09832.2920,W,3.58,26.30,290312,,,A*4F
$GPGGA,173653.000,3352.2689,N,09832.2915,W,1,08,0.9,296.4,M,-23.7,M,18.8,0000*7A
$GPGSA,A,3,18,22,31,14,09,21,19,11,,,,,1.6,0.9,1.3*32
$GPGSV,3,1,12,22,69,020,38,14,69,299,33,18,40,091,33,31,25,189,27*73
$GPGSV,3,2,12,21,20,158,23,09,19,041,25,19,16,278,29,11,12,314,25*7F
$GPGSV,3,3,12,06,09,232,27,25,07,120,31,03,07,242,32,12,06,082,*7C
$GPRMC,173653.000,A,3352.2689,N,09832.2915,W,4.14,24.34,290312,,,A*4F
$GPGGA,173654.000,3352.2701,N,09832.2906,W,1,08,0.9,296.6,M,-23.7,M,18.8,0000*7C
$GPGSA,A,3,18,22,31,14,09,21,19,11,,,,,1.6,0.9,1.3*32
$GPRMC,173654.000,A,3352.2701,N,09832.2906,W,4.98,32.38,290312,,,A*44
$GPGGA,173655.000,3352.2712,N,09832.2893,W,1,07,0.9,296.7,M,-23.7,M,18.8,0000*7C
$GPGSA,A,3,18,22,31,09,21,19,11,,,,,,2.0,0.9,1.8*39
$GPRMC,173655.000,A,3352.2712,N,09832.2893,W,5.39,46.76,290312,,,A*49
$GPGGA,173656.000,3352.2720,N,09832.2876,W,1,07,0.9,296.9,M,-23.7,M,18.8,0000*7B
$GPGSA,A,3,18,22,31,09,21,19,11,,,,,,2.0,0.9,1.8*39
$GPRMC,173656.000,A,3352.2720,N,09832.2876,W,5.85,62.50,290312,,,A*45
$GPGGA,173657.000,3352.2725,N,09832.2857,W,1,08,0.9,297.0,M,-23.7,M,18.8,0000*7B
$GPGSA,A,3,18,22,31,14,09,21,19,11,,,,,1.6,0.9,1.3*32
$GPRMC,173657.000,A,3352.2725,N,09832.2857,W,5.97,72.28,290312,,,A*4F
$GPGGA,173658.000,3352.2729,N,09832.2837,W,1,07,1.2,297.2,M,-23.7,M,18.8,0000*79
$GPGSA,A,3,18,22,31,14,21,19,11,,,,,,2.0,1.2,1.6*31
$GPGSV,3,1,12,22,69,020,38,14,69,299,26,18,40,091,28,31,25,189,29*73
$GPGSV,3,2,12,21,20,158,25,09,19,041,,19,16,278,29,11,12,314,25*7E
$GPGSV,3,3,12,06,09,232,20,25,07,120,26,03,07,242,29,12,06,082,*77
$GPRMC,173658.000,A,3352.2729,N,09832.2837,W,5.98,79.46,290312,,,A*46
$GPGGA,173659.000,3352.2729,N,09832.2818,W,1,07,1.2,297.4,M,-23.7,M,18.8,0000*73
$GPGSA,A,3,18,22,31,14,21,19,11,,,,,,2.0,1.2,1.6*31
$GPRMC,173659.000,A,3352.2729,N,09832.2818,W,5.71,91.36,290312,,,A*4C
$GPGGA,173700.000,3352.2724,N,09832.2803,W,1,08,0.9,297.5,M,-23.7,M,18.8,0000*7D
$GPGSA,A,3,18,22,31,14,09,21,19,11,,,,,1.6,0.9,1.3*32
$GPRMC,173700.000,A,3352.2724,N,09832.2803,W,4.98,114.84,290312,,,A*75
$GPGGA,173701.000,3352.2715,N,09832.2796,W,1,08,0.9,297.8,M,-23.7,M,18.8,0000*70
$GPGSA,A,3,18,22,31,14,09,21,19,11,,,,,1.6,0.9,1.3*32
$GPRMC,173701.000,A,3352.2715,N,09832.2796,W,3.78,144.58,290312,,,A*78
$GPGGA,173702.000,3352.2709,N,09832.2793,W,1,08,0.9,297.9,M,-23.7,M,18.8,0000*7A
$GPGSA,A,3,18,22,31,14,09,21,19,11,,,,,1.6,0.9,1.3*32
$GPRMC,173702.000,A,3352.2709,N,09832.2793,W,2.47,161.03,290312,,,A*77
$GPGGA,173703.000,3352.2704,N,09832.2791,W,1,08,0.9,298.1,M,-23.7,M,18.8,0000*73
$GPGSA,A,3,18,22,31,14,09,21,19,11,,,,,1.6,0.9,1.3*32
$GPGSV,3,1,12,22,69,020,27,14,69,299,33,18,40,091,38,31,25,189,29*78
$GPGSV,3,2,12,21,20,158,27,09,19,041,30,19,16,278,29,11,12,314,18*71
$GPGSV,3,3,12,06,09,232,18,25,07,120,26,03,07,242,18,12,06,082,*7E
$GPRMC,173703.000,A,3352.2704,N,09832.2791,W,2.03,166.62,290312,,,A*79
$GPGGA,173704.000,3352.2698,N,09832.2790,W,1,08,0.9,298.1,M,-23.7,M,18.8,0000*71
$GPGSA,A,3,18,22,31,14,09,21,19,11,,,,,1.6,0.9,1.3*32
$GPRMC,173704.000,A,3352.2698,N,09832.2790,W,2.01,172.72,290312,,,A*7D
$GPGGA,173705.000,3352.2693,N,09832.2789,W,1,08,0.9,298.2,M,-23.7,M,18.8,0000*70
$GPGSA,A,3,18,22,31,14,09,21,19,11,,,,,1.6,0.9,1.3*32
$GPRMC,173705.000,A,3352.2693,N,09832.2789,W,1.85,174.78,290312,,,A*7C
$GPGGA,173706.000,3352.2690,N,09832.2788,W,1,08,0.9,298.2,M,-23.7,M,18.8,0000*71
$GPGSA,A,3,18,22,31,14,09,21,19,11,,,,,1.6,0.9,1.3*32
$GPRMC,173706.000,A,3352.2690,N,09832.2788,W,1.06,172.50,290312,,,A*7A
$GPGGA,173707.000,3352.2689,N,09832.2787,W,1,08,0.9,298.3,M,-23.7,M,18.8,0000*76
$GPGSA,A,3,18,22,31,14,09,21,19,11,,,,,1.6,0.9,1.3*32
$GPRMC,173707.000,A,3352.2689,N,09832.2787,W,0.36,179.04,290312,,,A*74
$GPGGA,173708.000,3352.2689,N,09832.2786,W,1,08,0.9,298.3,M,-23.7,M,18.8,0000*78
$GPGSA,A,3,18,22,31,14,09,21,19,11,,,,,1.6,0.9,1.3*32
$GPGSV,3,1,12,22,69,020,35,14,69,299,34,18,40,091,29,31,25,189,33*77
$GPGSV,3,2,12,21,20,158,30,09,19,041,30,19,16,278,23,11,12,314,23*75
$GPGSV,3,3,12,06,09,232,26,25,07,120,31,03,07,242,20,12,06,082,*7E
$GPRMC,173708.000,A,3352.2689,N,09832.2786,W,0.34,130.81,290312,,,A*78
$GPGGA,173709.000,3352.2688,N,09832.2785,W,1,08,0.9,298.4,M,-23.7,M,18.8,0000*7C
$GPGSA,A,3,18,22,31,14,09,21,19,11,,,,,1.6,0.9,1.3*32
$GPRMC,173709.000,A,3352.2688,N,09832.2785,W,0.43,146.34,290312,,,A*74
$GPGGA,173710.000,3352.2686,N,09832.2784,W,1,08,0.9,298.5,M,-23.7,M,18.8,0000*7A
