$GPGGA,145427.000,3352.0091,N,09831.5598,W,2,10,0.9,289.1,M,-23.7,M,1.8,0000*47
$GPGSA,A,3,29,15,09,21,18,06,22,14,03,27,,,1.9,0.9,1.7*3C
$GPRMC,145427.000,A,3352.0091,N,09831.5598,W,0.08,24.85,030412,,,D*42
$GPGGA,145428.000,3352.0091,N,09831.5598,W,2,10,0.9,289.1,M,-23.7,M,2.8,0000*4B
$GPGSA,A,3,29,15,09,21,18,06,22,14,03,27,,,1.9,0.9,1.7*3C
$GPRMC,145428.000,A,3352.0091,N,09831.5598,W,0.09,12.08,030412,,,D*4C
$GPGGA,145429.000,3352.0092,N,09831.5598,W,2,10,0.9,289.1,M,-23.7,M,3.8,0000*48
$GPGSA,A,3,29,15,09,21,18,06,22,14,03,27,,,1.9,0.9,1.7*3C
$GPGSV,3,1,12,21,82,059,28,18,65,340,38,15,45,047,34,22,35,282,33*7E
$GPGSV,3,2,12,09,30,111,30,27,29,082,34,06,29,296,28,14,20,212,31*7E
$GPGSV,3,3,12,03,19,304,29,29,17,178,33,26,02,038,,51,49,195,35*71
$GPRMC,145429.000,A,3352.0092,N,09831.5598,W,0.07,20.22,030412,,,D*49
$GPGGA,145430.000,3352.0092,N,09831.5599,W,2,10,0.9,289.0,M,-23.7,M,0.8,0000*43
$GPGSA,A,3,29,15,09,21,18,06,22,14,03,27,,,1.9,0.9,1.7*3C
$GPRMC,145430.000,A,3352.0092,N,09831.5599,W,0.09,38.48,030412,,,D*4B
$GPGGA,145431.000,3352.0092,N,09831.5599,W,2,10,0.9,289.0,M,-23.7,M,0.8,0000*42
$GPGSA,A,3,29,15,09,21,18,06,22,14,03,27,,,1.9,0.9,1.7*3C
$GPRMC,145431.000,A,3352.0092,N,09831.5599,W,0.08,60.63,030412,,,D*4F
$GPGGA,145432.000,3352.0092,N,09831.5599,W,2,10,0.9,288.9,M,-23.7,M,0.8,0000*49
$GPGSA,A,3,29,15,09,21,18,06,22,14,03,27,,,1.9,0.9,1.7*3C
$GPRMC,145432.000,A,3352.0092,N,09831.5599,W,0.08,41.85,030412,,,D*47
$GPGGA,145433.000,3352.0092,N,09831.5599,W,2,10,0.9,288.9,M,-23.7,M,0.8,0000*48
$GPGSA,A,3,29,15,09,21,18,06,22,14,03,27,,,1.9,0.9,1.7*3C
$GPRMC,145433.000,A,3352.0092,N,09831.5599,W,0.12,110.16,030412,,,D*72
$GPGGA,145434.000,3352.0092,N,09831.5598,W,2,10,0.9,288.8,M,-23.7,M,1.8,0000*4E
$GPGSA,A,3,29,15,09,21,18,06,22,14,03,27,,,1.9,0.9,1.7*3C
$GPGSV,3,1,12,21,82,059,28,18,65,340,38,15,45,047,34,22,35,282,33*7E
$GPGSV,3,2,12,09,30,111,29,27,29,082,34,06,29,296,28,14,20,212,31*76
$GPGSV,3,3,12,03,19,304,29,29,17,178,33,26,02,038,,51,49,195,35*71
$GPRMC,145434.000,A,3352.0092,N,09831.5598,W,0.08,17.96,030412,,,D*41
$GPGGA,145435.000,3352.0092,N,09831.5598,W,2,10,0.9,288.7,M,-23.7,M,2.8,0000*43
$GPGSA,A,3,29,15,09,21,18,06,22,14,03,27,,,1.9,0.9,1.7*3C
$GPRMC,145435.000,A,3352.0092,N,09831.5598,W,0.07,54.92,030412,,,D*4C
$GPGGA,145436.000,3352.0092,N,09831.5599,W,2,10,0.9,288.7,M,-23.7,M,0.8,0000*43
$GPGSA,A,3,29,15,09,21,18,06,22,14,03,27,,,1.9,0.9,1.7*3C
$GPRMC,145436.000,A,3352.0092,N,09831.5599,W,0.07,34.84,030412,,,D*4F
$GPGGA,145437.000,3352.0092,N,09831.5599,W,2,10,0.9,288.7,M,-23.7,M,0.8,0000*42
$GPGSA,A,3,29,15,09,21,18,06,22,14,03,27,,,1.9,0.9,1.7*3C
$GPRMC,145437.000,A,3352.0092,N,09831.5599,W,0.07,19.13,030412,,,D*4F
$GPGGA,145438.000,3352.0093,N,09831.5599,W,2,10,0.9,288.7,M,-23.7,M,0.8,0000*4C
$GPGSA,A,3,29,15,09,21,18,06,22,14,03,27,,,1.9,0.9,1.7*3C
$GPRMC,145438.000,A,3352.0093,N,09831.5599,W,0.10,26.88,030412,,,D*49
$GPGGA,145439.000,3352.0093,N,09831.5599,W,2,10,0.9,288.7,M,-23.7,M,1.8,0000*4C
$GPGSA,A,3,29,15,09,21,18,06,22,14,03,27,,,1.9,0.9,1.7*3C
$GPGSV,3,1,12,21,82,059,28,18,65,340,38,15,45,047,34,22,35,282,33*7E
$GPGSV,3,2,12,09,30,111,29,27,29,082,34,06,29,296,28,14,20,212,31*76
$GPGSV,3,3,12,03,19,304,29,29,17,178,33,26,02,038,,51,49,195,35*71
$GPRMC,145439.000,A,3352.0093,N,09831.5599,W,0.07,24.62,030412,,,D*48
$GPGGA,145440.000,3352.0093,N,09831.5599,W,2,10,0.9,288.7,M,-23.7,M,2.8,0000*41
$GPGSA,A,3,29,15,09,21,18,06,22,14,03,27,,,1.9,0.9,1.7*3C
$GPRMC,145440.000,A,3352.0093,N,09831.5599,W,0.08,21.08,030412,,,D*40
$GPGGA,145441.000,3352.0093,N,09831.5599,W,2,10,0.9,288.7,M,-23.7,M,3.8,0000*41
$GPGSA,A,3,29,15,09,21,18,06,22,14,03,27,,,1.9,0.9,1.7*3C
$GPRMC,145441.000,A,3352.0093,N,09831.5599,W,0.08,24.30,030412,,,D*4F
$GPGGA,145442.000,3352.0094,N,09831.5599,W,2,10,0.9,288.7,M,-23.7,M,0.8,0000*46
$GPGSA,A,3,29,15,09,21,18,06,22,14,03,27,,,1.9,0.9,1.7*3C
$GPRMC,145442.000,A,3352.0094,N,09831.5599,W,0.06,24.77,030412,,,D*46
$GPGGA,145443.000,3352.0094,N,09831.5599,W,2,10,0.9,288.7,M,-23.7,M,0.8,0000*47
$GPGSA,A,3,29,15,09,21,18,06,22,14,03,27,,,1.9,0.9,1.7*3C
$GPRMC,145443.000,A,3352.0094,N,09831.5599,W,0.06,39.21,030412,,,D*48
$GPGGA,145444.000,3352.0094,N,09831.5600,W,2,10,0.9,288.7,M,-23.7,M,0.8,0000*43
$GPGSA,A,3,29,15,09,21,18,06,22,14,03,27,,,1.9,0.9,1.7*3C
$GPGSV,3,1,12,21,82,059,27,18,65,340,37,15,45,047,34,22,35,282,33*7E
$GPGSV,3,2,12,09,30,111,29,27,29,082,34,06,29,296,28,14,20,212,30*77
$GPGSV,3,3,12,03,19,304,29,29,17,178,33,26,02,038,,51,49,195,35*71
$GPRMC,145444.000,A,3352.0094,N,09831.5600,W,0.04,35.92,030412,,,D*4A
$GPGGA,145445.000,3352.0094,N,09831.5600,W,2,10,0.9,288.6,M,-23.7,M,1.8,0000*42
$GPGSA,A,3,29,15,09,21,18,06,22,14,03,27,,,1.9,0.9,1.7*3C
$GPRMC,145445.000,A,3352.0094,N,09831.5600,W,0.04,35.25,030412,,,D*47
$GPGGA,145446.000,3352.0094,N,09831.5600,W,2,10,0.9,288.6,M,-23.7,M,2.8,0000*42
$GPGSA,A,3,29,15,09,21,18,06,22,14,03,27,,,1.9,0.9,1.7*3C
$GPRMC,145446.000,A,3352.0094,N,09831.5600,W,0.04,44.11,030412,,,D*45
$GPGGA,145447.000,3352.0094,N,09831.5600,W,2,10,0.9,288.5,M,-23.7,M,3.8,0000*41
$GPGSA,A,3,29,15,09,21,18,06,22,14,03,27,,,1.9,0.9,1.7*3C
$GPRMC,145447.000,A,3352.0094,N,09831.5600,W,0.05,359.25,030412,,,D*7D
$GPGGA,145448.000,3352.0094,N,09831.5600,W,2,10,0.9,288.5,M,-23.7,M,0.8,0000*4D
$GPGSA,A,3,29,15,09,21,18,06,22,14,03,27,,,1.9,0.9,1.7*3C
$GPRMC,145448.000,A,3352.0094,N,09831.5600,W,0.05,41.61,030412,,,D*48
$GPGGA,145449.000,3352.0094,N,09831.5600,W,2,10,0.9,288.5,M,-23.7,M,0.8,0000*4C
$GPGSA,A,3,29,15,09,21,18,06,22,14,03,27,,,1.9,0.9,1.7*3C
$GPGSV,3,1,12,21,82,059,27,18,65,340,37,15,45,047,34,22,35,282,33*7E
$GPGSV,3,2,12,09,30,111,28,27,29,082,34,06,29,296,28,14,20,212,30*76
$GPGSV,3,3,12,03,19,304,29,29,17,178,33,26,02,038,,51,49,195,36*72
$GPRMC,145449.000,A,3352.0094,N,09831.5600,W,0.09,26.25,030412,,,D*44
$GPGGA,145450.000,3352.0094,N,09831.5600,W,2,10,0.9,288.5,M,-23.7,M,0.8,0000*44
$GPGSA,A,3,29,15,09,21,18,06,22,14,03,27,,,1.9,0.9,1.7*3C
$GPRMC,145450.000,A,3352.0094,N,09831.5600,W,0.10,40.38,030412,,,D*48
$GPGGA,145451.000,3352.0094,N,09831.5600,W,2,10,0.9,288.5,M,-23.7,M,1.8,0000*44
$GPGSA,A,3,29,15,09,21,18,06,22,14,03,27,,,1.9,0.9,1.7*3C
$GPRMC,145451.000,A,3352.0094,N,09831.5600,W,0.10,44.59,030412,,,D*4A
$GPGGA,145452.000,3352.0095,N,09831.5600,W,2,10,0.9,288.5,M,-23.7,M,0.8,0000*47
$GPGSA,A,3,29,15,09,21,18,06,22,14,03,27,,,1.9,0.9,1.7*3C
$GPRMC,145452.000,A,3352.0095,N,09831.5600,W,0.10,33.05,030412,,,D*41
$GPGGA,145453.000,3352.0095,N,09831.5600,W,2,10,0.9,288.5,M,-23.7,M,1.8,0000*47
$GPGSA,A,3,29,15,09,21,18,06,22,14,03,27,,,1.9,0.9,1.7*3C
$GPRMC,145453.000,A,3352.0095,N,09831.5600,W,0.10,37.77,030412,,,D*41
$GPGGA,145454.000,3352.0095,N,09831.5600,W,2,10,0.9,288.4,M,-23.7,M,0.8,0000*40
$GPGSA,A,3,29,15,09,21,18,06,22,14,03,27,,,1.9,0.9,1.7*3C
$GPGSV,3,1,12,21,82,059,28,18,65,340,37,15,45,047,35,22,35,282,33*70
$GPGSV,3,2,12,09,30,111,28,27,29,082,34,06,29,296,29,14,20,212,30*77
$GPGSV,3,3,12,03,19,304,29,29,17,178,33,26,02,038,,51,49,195,35*71
$GPRMC,145454.000,A,3352.0095,N,09831.5600,W,0.09,36.94,030412,,,D*42
$GPGGA,145455.000,3352.0095,N,09831.5600,W,2,10,0.9,288.3,M,-23.7,M,0.8,0000*46
$GPGSA,A,3,29,15,09,21,18,06,22,14,03,27,,,1.9,0.9,1.7*3C
$GPRMC,145455.000,A,3352.0095,N,09831.5600,W,0.07,47.72,030412,,,D*43
$GPGGA,145456.000,3352.0095,N,09831.5600,W,2,10,0.9,288.3,M,-23.7,M,0.8,0000*45
$GPGSA,A,3,29,15,09,21,18,06,22,14,03,27,,,1.9,0.9,1.7*3C
$GPRMC,145456.000,A,3352.0095,N,09831.5600,W,0.06,58.07,030412,,,D*4D
$GPGGA,145457.000,3352.0095,N,09831.5600,W,2,10,0.9,288.2,M,-23.7,M,1.8,0000*44
$GPGSA,A,3,29,15,09,21,18,06,22,14,03,27,,,1.9,0.9,1.7*3C
$GPRMC,145457.000,A,3352.0095,N,09831.5600,W,0.06,48.46,030412,,,D*48
$GPGGA,145458.000,3352.0095,N,09831.5600,W,2,10,0.9,288.2,M,-23.7,M,2.8,0000*48
$GPGSA,A,3,29,15,09,21,18,06,22,14,03,27,,,1.9,0.9,1.7*3C
$GPRMC,145458.000,A,3352.0095,N,09831.5600,W,0.07,44.80,030412,,,D*40
$GPGGA,145459.000,3352.0095,N,09831.5600,W,2,10,0.9,288.1,M,-23.7,M,0.8,0000*48
$GPGSA,A,3,29,15,09,21,18,06,22,14,03,27,,,1.9,0.9,1.7*3C
$GPGSV,3,1,12,21,82,059,28,18,65,340,37,15,45,047,35,22,35,282,33*70
$GPGSV,3,2,12,09,30,111,27,27,29,082,34,06,29,296,29,14,20,212,30*78
$GPGSV,3,3,12,03,19,304,29,29,17,178,33,26,02,038,,51,49,195,36*72
$GPRMC,145459.000,A,3352.0095,N,09831.5600,W,0.05,54.21,030412,,,D*49
$GPGGA,145500.000,3352.0096,N,09831.5600,W,2,10,0.9,288.1,M,-23.7,M,0.8,0000*46
$GPGSA,A,3,29,15,09,21,18,06,22,14,03,27,,,1.9,0.9,1.7*3C
$GPRMC,145500.000,A,3352.0096,N,09831.5600,W,0.08,32.24,030412,,,D*4F
$GPGGA,145501.000,3352.0096,N,09831.5600,W,2,10,0.9,288.1,M,-23.7,M,0.8,0000*47
$GPGSA,A,3,29,15,09,21,18,06,22,14,03,27,,,1.9,0.9,1.7*3C
$GPRMC,145501.000,A,3352.0096,N,09831.5600,W,0.09,25.51,030412,,,D*4B
$GPGGA,145502.000,3352.0096,N,09831.5600,W,2,10,0.9,288.1,M,-23.7,M,0.8,0000*44
$GPGSA,A,3,29,15,09,21,18,06,22,14,03,27,,,1.9,0.9,1.7*3C
$GPRMC,145502.000,A,3352.0096,N,09831.5600,W,0.09,22.91,030412,,,D*43
$GPGGA,145503.000,3352.0096,N,09831.5600,W,2,10,0.9,288.1,M,-23.7,M,1.8,0000*44
$GPGSA,A,3,29,15,09,21,18,06,22,14,03,27,,,1.9,0.9,1.7*3C
$GPRMC,145503.000,A,3352.0096,N,09831.5600,W,0.09,13.93,030412,,,D*42
$GPGGA,145504.000,3352.0096,N,09831.5600,W,2,10,0.9,288.2,M,-23.7,M,0.8,0000*41
$GPGSA,A,3,29,15,09,21,18,06,22,14,03,27,,,1.9,0.9,1.7*3C
$GPGSV,3,1,12,21,82,059,28,18,65,340,37,15,45,047,36,22,35,282,33*73
$GPGSV,3,2,12,09,30,111,27,27,29,082,34,06,29,296,29,14,20,212,29*70
$GPGSV,3,3,12,03,19,304,29,29,17,178,33,26,02,038,,51,49,195,35*71
$GPRMC,145504.000,A,3352.0096,N,09831.5600,W,0.08,22.67,030412,,,D*4D
$GPGGA,145505.000,3352.0097,N,09831.5601,W,2,10,0.9,288.2,M,-23.7,M,0.8,0000*40
$GPGSA,A,3,29,15,09,21,18,06,22,14,03,27,,,1.9,0.9,1.7*3C
$GPRMC,145505.000,A,3352.0097,N,09831.5601,W,0.09,17.36,030412,,,D*4F
$GPGGA,145506.000,3352.0097,N,09831.5601,W,2,10,0.9,288.1,M,-23.7,M,0.8,0000*40
$GPGSA,A,3,29,15,09,21,18,06,22,14,03,27,,,1.9,0.9,1.7*3C
$GPRMC,145506.000,A,3352.0097,N,09831.5601,W,0.08,34.68,030412,,,D*47
$GPGGA,145507.000,3352.0097,N,09831.5601,W,2,10,0.9,288.1,M,-23.7,M,0.8,0000*41
$GPGSA,A,3,29,15,09,21,18,06,22,14,03,27,,,1.9,0.9,1.7*3C
$GPRMC,145507.000,A,3352.0097,N,09831.5601,W,0.09,48.88,030412,,,D*42
$GPGGA,145508.000,3352.0097,N,09831.5601,W,2,10,0.9,288.0,M,-23.7,M,0.8,0000*4F
$GPGSA,A,3,29,15,09,21,18,06,22,14,03,27,,,1.9,0.9,1.7*3C
$GPRMC,145508.000,A,3352.0097,N,09831.5601,W,0.07,67.51,030412,,,D*4A
$GPGGA,145509.000,3352.0097,N,09831.5600,W,2,10,0.9,288.0,M,-23.7,M,0.8,0000*4F
$GPGSA,A,3,29,15,09,21,18,06,22,14,03,27,,,1.9,0.9,1.7*3C
$GPGSV,3,1,12,21,82,059,28,18,65,340,37,15,45,047,36,22,35,282,33*73
$GPGSV,3,2,12,09,30,111,26,27,29,082,34,06,29,296,29,14,20,212,29*71
$GPGSV,3,3,12,03,19,304,29,29,17,178,33,26,02,038,,51,49,195,35*71
$GPRMC,145509.000,A,3352.0097,N,09831.5600,W,0.08,50.18,030412,,,D*4C
$GPGGA,145510.000,3352.0097,N,09831.5600,W,2,10,0.9,287.9,M,-23.7,M,1.8,0000*40
$GPGSA,A,3,29,15,09,21,18,06,22,14,03,27,,,1.9,0.9,1.7*3C
$GPRMC,145510.000,A,3352.0097,N,09831.5600,W,0.07,59.16,030412,,,D*4C
$GPGGA,145511.000,3352.0097,N,09831.5600,W,2,10,0.9,287.8,M,-23.7,M,2.8,0000*43
$GPGSA,A,3,29,15,09,21,18,06,22,14,03,27,,,1.9,0.9,1.7*3C
$GPRMC,145511.000,A,3352.0097,N,09831.5600,W,0.08,65.77,030412,,,D*4A
$GPGGA,145512.000,3352.0097,N,09831.5600,W,2,10,0.9,287.8,M,-23.7,M,0.8,0000*42
$GPGSA,A,3,29,15,09,21,18,06,22,14,03,27,,,1.9,0.9,1.7*3C
$GPRMC,145512.000,A,3352.0097,N,09831.5600,W,0.09,44.14,030412,,,D*4E
$GPGGA,145513.000,3352.0097,N,09831.5600,W,2,10,0.9,287.8,M,-23.7,M,0.8,0000*43
$GPGSA,A,3,29,15,09,21,18,06,22,14,03,27,,,1.9,0.9,1.7*3C
$GPRMC,145513.000,A,3352.0097,N,09831.5600,W,0.10,28.41,030412,,,D*4D
$GPGGA,145514.000,3352.0098,N,09831.5600,W,2,10,0.9,287.8,M,-23.7,M,0.8,0000*4B
$GPGSA,A,3,29,15,09,21,18,06,22,14,03,27,,,1.9,0.9,1.7*3C
$GPGSV,3,1,12,21,82,059,27,18,65,340,37,15,45,047,36,22,35,282,33*7C
$GPGSV,3,2,12,09,30,111,26,27,29,082,34,06,29,296,30,14,20,212,29*79
$GPGSV,3,3,12,03,19,304,29,29,17,178,32,26,02,038,,51,49,195,35*70
$GPRMC,145514.000,A,3352.0098,N,09831.5600,W,0.11,39.57,030412,,,D*43
$GPGGA,145515.000,3352.0098,N,09831.5600,W,2,10,0.9,287.8,M,-23.7,M,1.8,0000*4B
$GPGSA,A,3,29,15,09,21,18,06,22,14,03,27,,,1.9,0.9,1.7*3C
$GPRMC,145515.000,A,3352.0098,N,09831.5600,W,0.09,31.40,030412,,,D*45
$GPGGA,145516.000,3352.0098,N,09831.5600,W,2,10,0.9,287.7,M,-23.7,M,2.8,0000*44
$GPGSA,A,3,29,15,09,21,18,06,22,14,03,27,,,1.9,0.9,1.7*3C
$GPRMC,145516.000,A,3352.0098,N,09831.5600,W,0.11,33.77,030412,,,D*49
$GPGGA,145517.000,3352.0099,N,09831.5600,W,2,10,0.9,287.7,M,-23.7,M,3.8,0000*45
$GPGSA,A,3,29,15,09,21,18,06,22,14,03,27,,,1.9,0.9,1.7*3C
$GPRMC,145517.000,A,3352.0099,N,09831.5600,W,0.10,33.61,030412,,,D*4F
$GPGGA,145518.000,3352.0099,N,09831.5600,W,2,10,0.9,287.7,M,-23.7,M,0.8,0000*49
$GPGSA,A,3,29,15,09,21,18,06,22,14,03,27,,,1.9,0.9,1.7*3C
$GPRMC,145518.000,A,3352.0099,N,09831.5600,W,0.11,31.31,030412,,,D*46
$GPGGA,145519.000,3352.0099,N,09831.5601,W,2,10,0.9,287.6,M,-23.7,M,0.8,0000*48
$GPGSA,A,3,29,15,09,21,18,06,22,14,03,27,,,1.9,0.9,1.7*3C
$GPGSV,3,1,12,21,82,065,27,18,65,342,37,15,44,046,36,22,35,283,33*70
$GPGSV,3,2,12,09,30,110,26,06,29,295,30,27,29,082,33,14,20,213,29*7D
$GPGSV,3,3,12,03,20,303,29,29,16,178,32,26,02,038,,51,49,195,35*7C
$GPRMC,145519.000,A,3352.0099,N,09831.5601,W,0.09,41.41,030412,,,D*4F
$GPGGA,145520.000,3352.0099,N,09831.5601,W,2,10,0.9,287.6,M,-23.7,M,0.8,0000*42
$GPGSA,A,3,29,15,09,21,18,06,22,14,03,27,,,1.9,0.9,1.7*3C
$GPRMC,145520.000,A,3352.0099,N,09831.5601,W,0.07,41.80,030412,,,D*46
$GPGGA,145521.000,3352.0099,N,09831.5601,W,2,10,0.9,287.5,M,-23.7,M,1.8,0000*41
$GPGSA,A,3,29,15,09,21,18,06,22,14,03,27,,,1.9,0.9,1.7*3C
$GPRMC,145521.000,A,3352.0099,N,09831.5601,W,0.08,35.37,030412,,,D*47
$GPGGA,145522.000,3352.0099,N,09831.5601,W,2,10,0.9,287.5,M,-23.7,M,2.8,0000*41
$GPGSA,A,3,29,15,09,21,18,06,22,14,03,27,,,1.9,0.9,1.7*3C
$GPRMC,145522.000,A,3352.0099,N,09831.5601,W,0.07,33.98,030412,,,D*48
$GPGGA,145523.000,3352.0099,N,09831.5601,W,2,10,0.9,287.5,M,-23.7,M,0.8,0000*42
$GPGSA,A,3,29,15,09,21,18,06,22,14,03,27,,,1.9,0.9,1.7*3C
$GPRMC,145523.000,A,3352.0099,N,09831.5601,W,0.08,34.05,030412,,,D*45
$GPGGA,145524.000,3352.0099,N,09831.5601,W,2,10,0.9,287.5,M,-23.7,M,0.8,0000*45
$GPGSA,A,3,29,15,09,21,18,06,22,14,03,27,,,1.9,0.9,1.7*3C
$GPGSV,3,1,12,21,82,065,27,18,65,342,36,15,44,046,36,22,35,283,33*71
$GPGSV,3,2,12,09,30,110,26,06,29,295,30,27,29,082,33,14,20,213,29*7D
$GPGSV,3,3,12,03,20,303,29,29,16,178,32,26,02,038,,51,49,195,35*7C
$GPRMC,145524.000,A,3352.0099,N,09831.5601,W,0.05,44.43,030412,,,D*4A
$GPGGA,145525.000,3352.0099,N,09831.5601,W,2,10,0.9,287.5,M,-23.7,M,0.8,0000*44
$GPGSA,A,3,29,15,09,21,18,06,22,14,03,27,,,1.9,0.9,1.7*3C
$GPRMC,145525.000,A,3352.0099,N,09831.5601,W,0.06,28.15,030412,,,D*41
$GPGGA,145526.000,3352.0099,N,09831.5601,W,2,10,0.9,287.5,M,-23.7,M,0.8,0000*47
$GPGSA,A,3,29,15,09,21,18,06,22,14,03,27,,,1.9,0.9,1.7*3C
$GPRMC,145526.000,A,3352.0099,N,09831.5601,W,0.06,14.94,030412,,,D*44
$GPGGA,145527.000,3352.0100,N,09831.5602,W,2,10,0.9,287.5,M,-23.7,M,1.8,0000*45
$GPGSA,A,3,29,15,09,21,18,06,22,14,03,27,,,1.9,0.9,1.7*3C
$GPRMC,145527.000,A,3352.0100,N,09831.5602,W,0.07,26.12,030412,,,D*49
$GPGGA,145528.000,3352.0100,N,09831.5602,W,2,10,0.9,287.6,M,-23.7,M,2.8,0000*4A
$GPGSA,A,3,29,15,09,21,18,06,22,14,03,27,,,1.9,0.9,1.7*3C
$GPRMC,145528.000,A,3352.0100,N,09831.5602,W,0.07,31.49,030412,,,D*4E
$GPGGA,145529.000,3352.0100,N,09831.5602,W,2,10,0.9,287.6,M,-23.7,M,3.8,0000*4A
$GPGSA,A,3,29,15,09,21,18,06,22,14,03,27,,,1.9,0.9,1.7*3C
$GPGSV,3,1,12,21,82,065,26,18,65,342,36,15,44,046,37,22,35,283,33*71
$GPGSV,3,2,12,09,30,110,26,06,29,295,30,27,29,082,33,14,20,213,29*7D
$GPGSV,3,3,12,03,20,303,29,29,16,178,32,26,02,038,,51,49,195,35*7C
$GPRMC,145529.000,A,3352.0100,N,09831.5602,W,0.05,28.18,030412,,,D*41
$GPGGA,145530.000,3352.0100,N,09831.5602,W,2,10,0.9,287.6,M,-23.7,M,0.8,0000*41
$GPGSA,A,3,29,15,09,21,18,06,22,14,03,27,,,1.9,0.9,1.7*3C
$GPRMC,145530.000,A,3352.0100,N,09831.5602,W,0.10,34.75,030412,,,D*4B
$GPGGA,145531.000,3352.0100,N,09831.5602,W,2,10,0.9,287.5,M,-23.7,M,0.8,0000*43
$GPGSA,A,3,29,15,09,21,18,06,22,14,03,27,,,1.9,0.9,1.7*3C
$GPRMC,145531.000,A,3352.0100,N,09831.5602,W,0.09,40.64,030412,,,D*41
$GPGGA,145532.000,3352.0100,N,09831.5602,W,2,10,0.9,287.4,M,-23.7,M,0.8,0000*41
$GPGSA,A,3,29,15,09,21,18,06,22,14,03,27,,,1.9,0.9,1.7*3C
$GPRMC,145532.000,A,3352.0100,N,09831.5602,W,0.10,42.71,030412,,,D*4C
$GPGGA,145533.000,3352.0101,N,09831.5602,W,2,10,0.9,287.4,M,-23.7,M,1.8,0000*40
$GPGSA,A,3,29,15,09,21,18,06,22,14,03,27,,,1.9,0.9,1.7*3C
$GPRMC,145533.000,A,3352.0101,N,09831.5602,W,0.10,43.44,030412,,,D*4B
$GPGGA,145534.000,3352.0101,N,09831.5602,W,2,10,0.9,287.3,M,-23.7,M,2.8,0000*43
$GPGSA,A,3,29,15,09,21,18,06,22,14,03,27,,,1.9,0.9,1.7*3C
$GPGSV,3,1,12,21,82,065,26,18,65,342,36,15,44,046,37,22,35,283,33*71
$GPGSV,3,2,12,09,30,110,26,06,29,295,30,27,29,082,33,14,20,213,29*7D
$GPGSV,3,3,12,03,20,303,29,29,16,178,32,26,02,038,,51,49,195,35*7C
$GPRMC,145534.000,A,3352.0101,N,09831.5602,W,0.11,33.62,030412,,,D*4E
$GPGGA,145535.000,3352.0101,N,09831.5602,W,2,10,0.9,287.3,M,-23.7,M,3.8,0000*43
$GPGSA,A,3,29,15,09,21,18,06,22,14,03,27,,,1.9,0.9,1.7*3C
$GPRMC,145535.000,A,3352.0101,N,09831.5602,W,0.08,47.70,030412,,,D*47
$GPGGA,145536.000,3352.0101,N,09831.5601,W,2,10,0.9,287.3,M,-23.7,M,0.8,0000*40
$GPGSA,A,3,29,15,09,21,18,06,22,14,03,27,,,1.9,0.9,1.7*3C
$GPRMC,145536.000,A,3352.0101,N,09831.5601,W,0.07,52.86,030412,,,D*45
$GPGGA,145537.000,3352.0101,N,09831.5602,W,2,10,0.9,287.3,M,-23.7,M,0.8,0000*42
$GPGSA,A,3,29,15,09,21,18,06,22,14,03,27,,,1.9,0.9,1.7*3C
$GPRMC,145537.000,A,3352.0101,N,09831.5602,W,0.05,24.97,030412,,,D*44
$GPGGA,145538.000,3352.0101,N,09831.5602,W,2,10,0.9,287.3,M,-23.7,M,0.8,0000*4D
$GPGSA,A,3,29,15,09,21,18,06,22,14,03,27,,,1.9,0.9,1.7*3C
$GPRMC,145538.000,A,3352.0101,N,09831.5602,W,0.05,32.28,030412,,,D*48
$GPGGA,145539.000,3352.0101,N,09831.5602,W,2,10,0.9,287.3,M,-23.7,M,0.8,0000*4C
$GPGSA,A,3,29,15,09,21,18,06,22,14,03,27,,,1.9,0.9,1.7*3C
$GPGSV,3,1,12,21,82,065,26,18,65,342,37,15,44,046,36,22,35,283,33*71
$GPGSV,3,2,12,09,30,110,26,06,29,295,30,27,29,082,33,14,20,213,28*7C
$GPGSV,3,3,12,03,20,303,29,29,16,178,32,26,02,038,,51,49,195,35*7C
$GPRMC,145539.000,A,3352.0101,N,09831.5602,W,0.05,39.85,030412,,,D*45
$GPGGA,145540.000,3352.0101,N,09831.5602,W,2,10,0.9,287.3,M,-23.7,M,1.8,0000*43
$GPGSA,A,3,29,15,09,21,18,06,22,14,03,27,,,1.9,0.9,1.7*3C
$GPRMC,145540.000,A,3352.0101,N,09831.5602,W,0.07,32.38,030412,,,D*44
$GPGGA,145541.000,3352.0101,N,09831.5602,W,2,10,0.9,287.3,M,-23.7,M,0.8,0000*43
$GPGSA,A,3,29,15,09,21,18,06,22,14,03,27,,,1.9,0.9,1.7*3C
$GPRMC,145541.000,A,3352.0101,N,09831.5602,W,0.05,8.42,030412,,,D*73
$GPGGA,145542.000,3352.0102,N,09831.5602,W,2,10,0.9,287.2,M,-23.7,M,0.8,0000*42
$GPGSA,A,3,29,15,09,21,18,06,22,14,03,27,,,1.9,0.9,1.7*3C
$GPRMC,145542.000,A,3352.0102,N,09831.5602,W,0.09,42.82,030412,,,D*4D
$GPGGA,145543.000,3352.0102,N,09831.5602,W,2,10,0.9,287.2,M,-23.7,M,0.8,0000*43
$GPGSA,A,3,29,15,09,21,18,06,22,14,03,27,,,1.9,0.9,1.7*3C
$GPRMC,145543.000,A,3352.0102,N,09831.5602,W,0.12,40.78,030412,,,D*41
$GPGGA,145544.000,3352.0102,N,09831.5601,W,2,10,0.9,287.1,M,-23.7,M,0.8,0000*44
$GPGSA,A,3,29,15,09,21,18,06,22,14,03,27,,,1.9,0.9,1.7*3C
$GPGSV,3,1,12,21,82,067,26,18,65,343,37,15,44,046,36,22,35,283,32*73
$GPGSV,3,2,12,09,30,110,26,06,29,295,30,27,29,081,33,14,21,213,28*7E
$GPGSV,3,3,12,03,20,303,29,29,16,178,32,26,02,038,,51,49,195,36*7F
$GPRMC,145544.000,A,3352.0102,N,09831.5601,W,0.12,31.77,030412,,,D*4C
$GPGGA,145545.000,3352.0103,N,09831.5601,W,2,10,0.9,287.0,M,-23.7,M,1.8,0000*44
$GPGSA,A,3,29,15,09,21,18,06,22,14,03,27,,,1.9,0.9,1.7*3C
$GPRMC,145545.000,A,3352.0103,N,09831.5601,W,0.13,28.34,030412,,,D*42
$GPGGA,145546.000,3352.0103,N,09831.5601,W,2,10,0.9,286.9,M,-23.7,M,0.8,0000*4E
$GPGSA,A,3,29,15,09,21,18,06,22,14,03,27,,,1.9,0.9,1.7*3C
$GPRMC,145546.000,A,3352.0103,N,09831.5601,W,0.12,34.87,030412,,,D*45
$GPGGA,145547.000,3352.0103,N,09831.5601,W,2,10,0.9,286.8,M,-23.7,M,1.8,0000*4F
$GPGSA,A,3,29,15,09,21,18,06,22,14,03,27,,,1.9,0.9,1.7*3C
$GPRMC,145547.000,A,3352.0103,N,09831.5601,W,0.14,31.64,030412,,,D*4A
$GPGGA,145548.000,3352.0104,N,09831.5601,W,2,10,0.9,286.8,M,-23.7,M,0.8,0000*46
$GPGSA,A,3,29,15,09,21,18,06,22,14,03,27,,,1.9,0.9,1.7*3C
$GPRMC,145548.000,A,3352.0104,N,09831.5601,W,0.08,22.63,030412,,,D*4A
$GPGGA,145549.000,3352.0104,N,09831.5601,W,2,10,0.9,286.7,M,-23.7,M,0.8,0000*48
$GPGSA,A,3,29,15,09,21,18,06,22,14,03,27,,,1.9,0.9,1.7*3C
$GPGSV,3,1,12,21,82,067,26,18,65,343,37,15,44,046,36,22,35,283,32*73
$GPGSV,3,2,12,09,30,110,26,06,29,295,30,27,29,081,33,14,21,213,28*7E
$GPGSV,3,3,12,03,20,303,29,29,16,178,33,26,02,038,,51,49,195,36*7E
$GPRMC,145549.000,A,3352.0104,N,09831.5601,W,0.04,31.35,030412,,,D*46
$GPGGA,145550.000,3352.0104,N,09831.5601,W,2,10,0.9,286.7,M,-23.7,M,0.8,0000*40
$GPGSA,A,3,29,15,09,21,18,06,22,14,03,27,,,1.9,0.9,1.7*3C
$GPRMC,145550.000,A,3352.0104,N,09831.5601,W,0.05,69.47,030412,,,D*47
$GPGGA,145551.000,3352.0104,N,09831.5601,W,2,10,0.9,286.6,M,-23.7,M,1.8,0000*41
$GPGSA,A,3,29,15,09,21,18,06,22,14,03,27,,,1.9,0.9,1.7*3C
$GPRMC,145551.000,A,3352.0104,N,09831.5601,W,0.06,36.63,030412,,,D*49
$GPGGA,145552.000,3352.0104,N,09831.5601,W,2,10,0.9,286.5,M,-23.7,M,2.8,0000*42
$GPGSA,A,3,29,15,09,21,18,06,22,14,03,27,,,1.9,0.9,1.7*3C
$GPRMC,145552.000,A,3352.0104,N,09831.5601,W,0.04,48.22,030412,,,D*44
$GPGGA,145553.000,3352.0104,N,09831.5601,W,2,10,0.9,286.4,M,-23.7,M,0.8,0000*40
$GPGSA,A,3,29,15,09,21,18,06,22,14,03,27,,,1.9,0.9,1.7*3C
$GPRMC,145553.000,A,3352.0104,N,09831.5601,W,0.06,51.45,030412,,,D*4E
$GPGGA,145554.000,3352.0104,N,09831.5601,W,2,10,0.9,286.4,M,-23.7,M,0.8,0000*47
$GPGSA,A,3,29,15,09,21,18,06,22,14,03,27,,,1.9,0.9,1.7*3C
$GPGSV,3,1,12,21,82,067,26,18,65,343,37,15,44,046,36,22,35,283,32*73
$GPGSV,3,2,12,09,30,110,26,06,29,295,30,27,29,081,32,14,21,213,28*7F
$GPGSV,3,3,12,03,20,303,29,29,16,178,33,26,02,038,17,51,49,195,36*78
$GPRMC,145554.000,A,3352.0104,N,09831.5601,W,0.10,41.28,030412,,,D*44
$GPGGA,145555.000,3352.0105,N,09831.5601,W,2,10,0.9,286.4,M,-23.7,M,0.8,0000*47
$GPGSA,A,3,29,15,09,21,18,06,22,14,03,27,,,1.9,0.9,1.7*3C
$GPRMC,145555.000,A,3352.0105,N,09831.5601,W,0.13,35.69,030412,,,D*41
$GPGGA,145556.000,3352.0105,N,09831.5601,W,2,10,0.9,286.4,M,-23.7,M,0.8,0000*44
$GPGSA,A,3,29,15,09,21,18,06,22,14,03,27,,,1.9,0.9,1.7*3C
$GPRMC,145556.000,A,3352.0105,N,09831.5601,W,0.11,23.77,030412,,,D*48
$GPGGA,145557.000,3352.0105,N,09831.5601,W,2,10,0.9,286.4,M,-23.7,M,1.8,0000*44
$GPGSA,A,3,29,15,09,21,18,06,22,14,03,27,,,1.9,0.9,1.7*3C
$GPRMC,145557.000,A,3352.0105,N,09831.5601,W,0.12,31.47,030412,,,D*4A
$GPGGA,145558.000,3352.0106,N,09831.5601,W,2,10,0.9,286.4,M,-23.7,M,2.8,0000*4B
$GPGSA,A,3,29,15,09,21,18,06,22,14,03,27,,,1.9,0.9,1.7*3C
$GPRMC,145558.000,A,3352.0106,N,09831.5601,W,0.12,23.30,030412,,,D*45
$GPGGA,145559.000,3352.0106,N,09831.5601,W,2,10,0.9,286.3,M,-23.7,M,3.8,0000*4C
$GPGSA,A,3,29,15,09,21,18,06,22,14,03,27,,,1.9,0.9,1.7*3C
$GPGSV,3,1,12,21,82,067,26,18,65,343,37,15,44,046,36,22,35,283,32*73
$GPGSV,3,2,12,09,30,110,26,06,29,295,30,27,29,081,32,14,21,213,27*70
$GPGSV,3,3,12,03,20,303,29,29,16,178,33,26,02,038,17,51,49,195,36*78
$GPRMC,145559.000,A,3352.0106,N,09831.5601,W,0.12,23.01,030412,,,D*46
$GPGGA,145600.000,3352.0106,N,09831.5601,W,2,10,0.9,286.4,M,-23.7,M,0.8,0000*47
$GPGSA,A,3,29,15,09,21,18,06,22,14,03,27,,,1.9,0.9,1.7*3C
$GPRMC,145600.000,A,3352.0106,N,09831.5601,W,0.06,22.76,030412,,,D*4D
$GPGGA,145601.000,3352.0106,N,09831.5601,W,2,10,0.9,286.4,M,-23.7,M,0.8,0000*46
$GPGSA,A,3,29,15,09,21,18,06,22,14,03,27,,,1.9,0.9,1.7*3C
$GPRMC,145601.000,A,3352.0106,N,09831.5601,W,0.05,40.49,030412,,,D*47
$GPGGA,145602.000,3352.0106,N,09831.5601,W,2,10,0.9,286.3,M,-23.7,M,0.8,0000*42
$GPGSA,A,3,29,15,09,21,18,06,22,14,03,27,,,1.9,0.9,1.7*3C
$GPRMC,145602.000,A,3352.0106,N,09831.5601,W,0.06,65.97,030412,,,D*43
$GPGGA,145603.000,3352.0106,N,09831.5601,W,2,10,0.9,286.3,M,-23.7,M,0.8,0000*43
$GPGSA,A,3,29,15,09,21,18,06,22,14,03,27,,,1.9,0.9,1.7*3C
$GPRMC,145603.000,A,3352.0106,N,09831.5601,W,0.06,58.35,030412,,,D*44
$GPGGA,145604.000,3352.0106,N,09831.5601,W,2,10,0.9,286.3,M,-23.7,M,1.8,0000*45
$GPGSA,A,3,29,15,09,21,18,06,22,14,03,27,,,1.9,0.9,1.7*3C
$GPGSV,3,1,12,21,82,067,26,18,65,343,37,15,44,046,36,22,35,283,32*73
$GPGSV,3,2,12,09,30,110,26,06,29,295,30,27,29,081,32,14,21,213,27*70
$GPGSV,3,3,12,03,20,303,29,29,16,178,32,26,02,038,18,51,49,195,36*76
$GPRMC,145604.000,A,3352.0106,N,09831.5601,W,0.05,64.55,030412,,,D*49
$GPGGA,145605.000,3352.0106,N,09831.5601,W,2,10,0.9,286.3,M,-23.7,M,2.8,0000*47
$GPGSA,A,3,29,15,09,21,18,06,22,14,03,27,,,1.9,0.9,1.7*3C
$GPRMC,145605.000,A,3352.0106,N,09831.5601,W,0.07,68.76,030412,,,D*47
$GPGGA,145606.000,3352.0106,N,09831.5601,W,2,10,0.9,286.2,M,-23.7,M,0.8,0000*47
$GPGSA,A,3,29,15,09,21,18,06,22,14,03,27,,,1.9,0.9,1.7*3C
$GPRMC,145606.000,A,3352.0106,N,09831.5601,W,0.09,49.59,030412,,,D*44
$GPGGA,145607.000,3352.0107,N,09831.5601,W,2,10,0.9,286.2,M,-23.7,M,0.8,0000*47
$GPGSA,A,3,29,15,09,21,18,06,22,14,03,27,,,1.9,0.9,1.7*3C
$GPRMC,145607.000,A,3352.0107,N,09831.5601,W,0.10,34.60,030412,,,D*4C
$GPGGA,145608.000,3352.0107,N,09831.5601,W,2,10,0.9,286.2,M,-23.7,M,0.8,0000*48
$GPGSA,A,3,29,15,09,21,18,06,22,14,03,27,,,1.9,0.9,1.7*3C
$GPRMC,145608.000,A,3352.0107,N,09831.5601,W,0.10,24.99,030412,,,D*44
$GPGGA,145609.000,3352.0107,N,09831.5601,W,2,10,0.9,286.1,M,-23.7,M,0.8,0000*4A
$GPGSA,A,3,29,15,09,21,18,06,22,14,03,27,,,1.9,0.9,1.7*3C
$GPGSV,3,1,12,21,82,067,26,18,65,343,37,15,44,046,36,22,35,283,31*70
$GPGSV,3,2,12,09,30,110,26,06,29,295,30,27,29,081,32,14,21,213,27*70
$GPGSV,3,3,12,03,20,303,29,29,16,178,32,26,02,038,19,51,49,195,36*77
$GPRMC,145609.000,A,3352.0107,N,09831.5601,W,0.09,29.00,030412,,,D*40
$GPGGA,145610.000,3352.0108,N,09831.5601,W,2,10,0.9,286.1,M,-23.7,M,1.8,0000*4C
$GPGSA,A,3,29,15,09,21,18,06,22,14,03,27,,,1.9,0.9,1.7*3C
$GPRMC,145610.000,A,3352.0108,N,09831.5601,W,0.10,23.91,030412,,,D*4D
$GPGGA,145611.000,3352.0108,N,09831.5601,W,2,10,0.9,286.0,M,-23.7,M,2.8,0000*4F
$GPGSA,A,3,29,15,09,21,18,06,22,14,03,27,,,1.9,0.9,1.7*3C
$GPRMC,145611.000,A,3352.0108,N,09831.5601,W,0.10,17.28,030412,,,D*49
$GPGGA,145612.000,3352.0108,N,09831.5602,W,2,10,0.9,286.0,M,-23.7,M,0.8,0000*4D
$GPGSA,A,3,29,15,09,21,18,06,22,14,03,27,,,1.9,0.9,1.7*3C
$GPRMC,145612.000,A,3352.0108,N,09831.5602,W,0.08,19.90,030412,,,D*4D
$GPGGA,145613.000,3352.0108,N,09831.5602,W,2,10,0.9,286.0,M,-23.7,M,0.8,0000*4C
$GPGSA,A,3,29,15,09,21,18,06,22,14,03,27,,,1.9,0.9,1.7*3C
$GPRMC,145613.000,A,3352.0108,N,09831.5602,W,0.05,60.46,030412,,,D*44
$GPGGA,145614.000,3352.0108,N,09831.5602,W,2,10,0.9,285.9,M,-23.7,M,0.8,0000*41
$GPGSA,A,3,29,15,09,21,18,06,22,14,03,27,,,1.9,0.9,1.7*3C
$GPGSV,3,1,12,21,82,069,25,18,65,343,37,15,44,046,36,22,35,283,31*7D
$GPGSV,3,2,12,09,30,110,26,06,29,294,30,27,29,081,32,14,21,213,27*71
$GPGSV,3,3,12,03,20,303,29,29,15,178,32,26,01,038,19,51,49,195,35*74
$GPRMC,145614.000,A,3352.0108,N,09831.5602,W,0.07,59.30,030412,,,D*4A
$GPGGA,145615.000,3352.0109,N,09831.5601,W,2,10,0.9,285.9,M,-23.7,M,1.8,0000*43
$GPGSA,A,3,29,15,09,21,18,06,22,14,03,27,,,1.9,0.9,1.7*3C
$GPRMC,145615.000,A,3352.0109,N,09831.5601,W,0.05,70.02,030412,,,D*41
$GPGGA,145616.000,3352.0109,N,09831.5601,W,2,10,0.9,285.8,M,-23.7,M,0.8,0000*40
$GPGSA,A,3,29,15,09,21,18,06,22,14,03,27,,,1.9,0.9,1.7*3C
$GPRMC,145616.000,A,3352.0109,N,09831.5601,W,0.06,70.46,030412,,,D*41
$GPGGA,145617.000,3352.0109,N,09831.5601,W,2,10,0.9,285.8,M,-23.7,M,1.8,0000*40
$GPGSA,A,3,29,15,09,21,18,06,22,14,03,27,,,1.9,0.9,1.7*3C
$GPRMC,145617.000,A,3352.0109,N,09831.5601,W,0.07,58.12,030412,,,D*4A
$GPGGA,145618.000,3352.0109,N,09831.5601,W,2,10,0.9,285.7,M,-23.7,M,0.8,0000*41
$GPGSA,A,3,29,15,09,21,18,06,22,14,03,27,,,1.9,0.9,1.7*3C
$GPRMC,145618.000,A,3352.0109,N,09831.5601,W,0.10,51.58,030412,,,D*44
$GPGGA,145619.000,3352.0109,N,09831.5601,W,2,10,0.9,285.6,M,-23.7,M,0.8,0000*41
$GPGSA,A,3,29,15,09,21,18,06,22,14,03,27,,,1.9,0.9,1.7*3C
$GPGSV,3,1,12,21,82,069,25,18,65,343,37,15,44,046,36,22,35,283,31*7D
$GPGSV,3,2,12,09,30,110,26,06,29,294,30,27,29,081,32,14,21,213,27*71
$GPGSV,3,3,12,03,20,303,29,29,15,178,32,26,01,038,19,51,49,195,35*74
$GPRMC,145619.000,A,3352.0109,N,09831.5601,W,0.10,27.87,030412,,,D*46
$GPGGA,145620.000,3352.0110,N,09831.5601,W,2,10,0.9,285.6,M,-23.7,M,0.8,0000*43
$GPGSA,A,3,29,15,09,21,18,06,22,14,03,27,,,1.9,0.9,1.7*3C
$GPRMC,145620.000,A,3352.0110,N,09831.5601,W,0.12,21.99,030412,,,D*4F
$GPGGA,145621.000,3352.0110,N,09831.5601,W,2,10,0.9,285.5,M,-23.7,M,1.8,0000*40
$GPGSA,A,3,29,15,09,21,18,06,22,14,03,27,,,1.9,0.9,1.7*3C
$GPRMC,145621.000,A,3352.0110,N,09831.5601,W,0.11,20.58,030412,,,D*41
$GPGGA,145622.000,3352.0110,N,09831.5602,W,2,10,0.9,285.4,M,-23.7,M,2.8,0000*42
$GPGSA,A,3,29,15,09,21,18,06,22,14,03,27,,,1.9,0.9,1.7*3C
$GPRMC,145622.000,A,3352.0110,N,09831.5602,W,0.13,24.55,030412,,,D*4A
$GPGGA,145623.000,3352.0111,N,09831.5602,W,2,10,0.9,285.3,M,-23.7,M,3.8,0000*44
$GPGSA,A,3,29,15,09,21,18,06,22,14,03,27,,,1.9,0.9,1.7*3C
$GPRMC,145623.000,A,3352.0111,N,09831.5602,W,0.10,18.27,030412,,,D*43
$GPGGA,145624.000,3352.0111,N,09831.5602,W,2,10,0.9,285.4,M,-23.7,M,0.8,0000*47
$GPGSA,A,3,29,15,09,21,18,06,22,14,03,27,,,1.9,0.9,1.7*3C
$GPGSV,3,1,12,21,82,069,25,18,65,343,37,15,44,046,36,22,35,283,31*7D
$GPGSV,3,2,12,09,30,110,26,06,29,294,30,27,29,081,32,14,21,213,27*71
$GPGSV,3,3,12,03,20,303,29,29,15,178,32,26,01,038,19,51,49,195,35*74
$GPRMC,145624.000,A,3352.0111,N,09831.5602,W,0.07,28.47,030412,,,D*47
$GPGGA,145625.000,3352.0111,N,09831.5602,W,2,10,0.9,285.3,M,-23.7,M,1.8,0000*40
$GPGSA,A,3,29,15,09,21,18,06,22,14,03,27,,,1.9,0.9,1.7*3C
$GPRMC,145625.000,A,3352.0111,N,09831.5602,W,0.07,12.92,030412,,,D*47
$GPGGA,145626.000,3352.0111,N,09831.5602,W,2,10,0.9,285.4,M,-23.7,M,2.8,0000*47
$GPGSA,A,3,29,15,09,21,18,06,22,14,03,27,,,1.9,0.9,1.7*3C
$GPRMC,145626.000,A,3352.0111,N,09831.5602,W,0.07,15.52,030412,,,D*4F
$GPGGA,145627.000,3352.0112,N,09831.5602,W,2,10,0.9,285.4,M,-23.7,M,3.8,0000*44
$GPGSA,A,3,29,15,09,21,18,06,22,14,03,27,,,1.9,0.9,1.7*3C
$GPRMC,145627.000,A,3352.0112,N,09831.5602,W,0.03,11.43,030412,,,D*4D
$GPGGA,145628.000,3352.0112,N,09831.5602,W,2,10,0.9,285.4,M,-23.7,M,4.8,0000*4C
$GPGSA,A,3,29,15,09,21,18,06,22,14,03,27,,,1.9,0.9,1.7*3C
$GPRMC,145628.000,A,3352.0112,N,09831.5602,W,0.07,18.67,030412,,,D*49
$GPGGA,145629.000,3352.0112,N,09831.5602,W,2,10,0.9,285.5,M,-23.7,M,0.8,0000*48
$GPGSA,A,3,29,15,09,21,18,06,22,14,03,27,,,1.9,0.9,1.7*3C
$GPGSV,3,1,12,21,82,069,24,18,65,343,37,15,44,046,36,22,35,283,31*7C
$GPGSV,3,2,12,09,30,110,26,06,29,294,30,27,29,081,32,14,21,213,27*71
$GPGSV,3,3,12,03,20,303,29,29,15,178,32,26,01,038,19,51,49,195,35*74
$GPRMC,145629.000,A,3352.0112,N,09831.5602,W,0.05,29.57,030412,,,D*4B
$GPGGA,145630.000,3352.0112,N,09831.5602,W,2,10,0.9,285.5,M,-23.7,M,0.8,0000*40
$GPGSA,A,3,29,15,09,21,18,06,22,14,03,27,,,1.9,0.9,1.7*3C
$GPRMC,145630.000,A,3352.0112,N,09831.5602,W,0.07,19.44,030412,,,D*40
$GPGGA,145631.000,3352.0112,N,09831.5602,W,2,10,0.9,285.4,M,-23.7,M,0.8,0000*40
$GPGSA,A,3,29,15,09,21,18,06,22,14,03,27,,,1.9,0.9,1.7*3C
$GPRMC,145631.000,A,3352.0112,N,09831.5602,W,0.08,31.63,030412,,,D*41
$GPGGA,145632.000,3352.0113,N,09831.5602,W,2,10,0.9,285.3,M,-23.7,M,0.8,0000*45
$GPGSA,A,3,29,15,09,21,18,06,22,14,03,27,,,1.9,0.9,1.7*3C
$GPRMC,145632.000,A,3352.0113,N,09831.5602,W,0.08,42.48,030412,,,D*4E
$GPGGA,145633.000,3352.0113,N,09831.5602,W,2,10,0.9,285.2,M,-23.7,M,1.8,0000*44
$GPGSA,A,3,29,15,09,21,18,06,22,14,03,27,,,1.9,0.9,1.7*3C
$GPRMC,145633.000,A,3352.0113,N,09831.5602,W,0.09,11.95,030412,,,D*48
$GPGGA,145634.000,3352.0113,N,09831.5602,W,2,10,0.9,285.1,M,-23.7,M,2.8,0000*43
$GPGSA,A,3,29,15,09,21,18,06,22,14,03,27,,,1.9,0.9,1.7*3C
$GPGSV,3,1,12,21,82,069,24,18,65,343,37,15,44,046,36,22,35,283,31*7C
$GPGSV,3,2,12,09,30,110,26,06,29,294,30,27,29,081,31,14,21,213,28*7D
$GPGSV,3,3,12,03,20,303,30,29,15,178,32,26,01,038,19,51,49,195,35*7C
$GPRMC,145634.000,A,3352.0113,N,09831.5602,W,0.09,34.91,030412,,,D*4C
$GPGGA,145635.000,3352.0114,N,09831.5602,W,2,10,0.9,284.9,M,-23.7,M,0.8,0000*4E
$GPGSA,A,3,29,15,09,21,18,06,22,14,03,27,,,1.9,0.9,1.7*3C
$GPRMC,145635.000,A,3352.0114,N,09831.5602,W,0.09,37.22,030412,,,D*41
$GPGGA,145636.000,3352.0114,N,09831.5602,W,2,10,0.9,285.0,M,-23.7,M,0.8,0000*45
$GPGSA,A,3,29,15,09,21,18,06,22,14,03,27,,,1.9,0.9,1.7*3C
$GPRMC,145636.000,A,3352.0114,N,09831.5602,W,0.05,38.57,030412,,,D*43
$GPGGA,145637.000,3352.0114,N,09831.5602,W,2,10,0.9,285.0,M,-23.7,M,0.8,0000*44
$GPGSA,A,3,29,15,09,21,18,06,22,14,03,27,,,1.9,0.9,1.7*3C
$GPRMC,145637.000,A,3352.0114,N,09831.5602,W,0.03,49.51,030412,,,D*44
$GPGGA,145638.000,3352.0114,N,09831.5602,W,2,10,0.9,285.0,M,-23.7,M,0.8,0000*4B
$GPGSA,A,3,29,15,09,21,18,06,22,14,03,27,,,1.9,0.9,1.7*3C
$GPRMC,145638.000,A,3352.0114,N,09831.5602,W,0.06,66.26,030412,,,D*43
$GPGGA,145639.000,3352.0114,N,09831.5602,W,2,10,0.9,284.9,M,-23.7,M,1.8,0000*43
$GPGSA,A,3,29,15,09,21,18,06,22,14,03,27,,,1.9,0.9,1.7*3C
$GPGSV,3,1,12,21,82,069,25,18,65,343,37,15,44,046,36,22,35,283,31*7D
$GPGSV,3,2,12,09,30,110,26,06,29,294,30,27,29,081,31,14,21,213,28*7D
$GPGSV,3,3,12,03,20,303,30,29,15,178,32,26,01,038,19,51,49,195,36*7F
$GPRMC,145639.000,A,3352.0114,N,09831.5602,W,0.04,77.61,030412,,,D*43
$GPGGA,145640.000,3352.0114,N,09831.5602,W,2,10,0.9,284.9,M,-23.7,M,0.8,0000*4C
$GPGSA,A,3,29,15,09,21,18,06,22,14,03,27,,,1.9,0.9,1.7*3C
$GPRMC,145640.000,A,3352.0114,N,09831.5602,W,0.05,65.49,030412,,,D*45
$GPGGA,145641.000,3352.0113,N,09831.5601,W,2,10,0.9,285.4,M,-23.7,M,1.8,0000*44
$GPGSA,A,3,29,15,09,21,18,06,22,14,03,27,,,1.9,0.9,1.7*3C
$GPRMC,145641.000,A,3352.0113,N,09831.5601,W,0.05,90.65,030412,,,D*44
$GPGGA,145642.000,3352.0112,N,09831.5599,W,2,10,0.9,285.7,M,-23.7,M,0.8,0000*46
$GPGSA,A,3,29,15,09,21,18,06,22,14,03,27,,,1.9,0.9,1.7*3C
$GPRMC,145642.000,A,3352.0112,N,09831.5599,W,0.10,61.93,030412,,,D*47
$GPGGA,145643.000,3352.0111,N,09831.5598,W,2,10,0.9,286.0,M,-23.7,M,0.8,0000*41
$GPGSA,A,3,29,15,09,21,18,06,22,14,03,27,,,1.9,0.9,1.7*3C
$GPRMC,145643.000,A,3352.0111,N,09831.5598,W,0.10,54.99,030412,,,D*48
$GPGGA,145644.000,3352.0111,N,09831.5597,W,2,10,0.9,286.3,M,-23.7,M,0.8,0000*4A
$GPGSA,A,3,29,15,09,21,18,06,22,14,03,27,,,1.9,0.9,1.7*3C
$GPGSV,3,1,12,21,82,071,25,18,65,344,36,15,44,046,36,22,35,283,30*73
$GPGSV,3,2,12,09,30,110,26,06,29,294,30,27,29,081,31,14,21,213,28*7D
$GPGSV,3,3,12,03,20,303,30,29,15,178,31,26,01,038,18,51,49,195,35*7E
$GPRMC,145644.000,A,3352.0111,N,09831.5597,W,0.07,36.80,030412,,,D*4A
$GPGGA,145645.000,3352.0111,N,09831.5596,W,2,10,0.9,286.5,M,-23.7,M,1.8,0000*4D
$GPGSA,A,3,29,15,09,21,18,06,22,14,03,27,,,1.9,0.9,1.7*3C
$GPRMC,145645.000,A,3352.0111,N,09831.5596,W,0.10,44.27,030412,,,D*44
$GPGGA,145646.000,3352.0110,N,09831.5595,W,2,10,0.9,286.7,M,-23.7,M,2.8,0000*4D
$GPGSA,A,3,29,15,09,21,18,06,22,14,03,27,,,1.9,0.9,1.7*3C
$GPRMC,145646.000,A,3352.0110,N,09831.5595,W,0.09,38.85,030412,,,D*4E
$GPGGA,145647.000,3352.0110,N,09831.5595,W,2,10,0.9,286.8,M,-23.7,M,3.8,0000*42
$GPGSA,A,3,29,15,09,21,18,06,22,14,03,27,,,1.9,0.9,1.7*3C
$GPRMC,145647.000,A,3352.0110,N,09831.5595,W,0.08,36.84,030412,,,D*41
$GPGGA,145648.000,3352.0110,N,09831.5594,W,2,10,0.9,287.0,M,-23.7,M,0.8,0000*46
$GPGSA,A,3,29,15,09,21,18,06,22,14,03,27,,,1.9,0.9,1.7*3C
$GPRMC,145648.000,A,3352.0110,N,09831.5594,W,0.07,17.82,030412,,,D*45
$GPGGA,145649.000,3352.0110,N,09831.5593,W,2,10,0.9,287.2,M,-23.7,M,0.8,0000*42
$GPGSA,A,3,29,15,09,21,18,06,22,14,03,27,,,1.9,0.9,1.7*3C
$GPGSV,3,1,12,21,82,071,25,18,65,344,36,15,44,046,36,22,35,283,30*73
$GPGSV,3,2,12,09,30,110,26,06,29,294,31,27,29,081,31,14,21,213,28*7C
$GPGSV,3,3,12,03,20,303,30,29,15,178,31,26,01,038,17,51,49,195,35*71
$GPRMC,145649.000,A,3352.0110,N,09831.5593,W,0.08,30.91,030412,,,D*4B
$GPGGA,145650.000,3352.0109,N,09831.5593,W,2,10,0.9,287.3,M,-23.7,M,0.8,0000*43
$GPGSA,A,3,29,15,09,21,18,06,22,14,03,27,,,1.9,0.9,1.7*3C
$GPRMC,145650.000,A,3352.0109,N,09831.5593,W,0.07,65.30,030412,,,D*4F
$GPGGA,145651.000,3352.0109,N,09831.5592,W,2,10,0.9,287.4,M,-23.7,M,0.8,0000*44
$GPGSA,A,3,29,15,09,21,18,06,22,14,03,27,,,1.9,0.9,1.7*3C
$GPRMC,145651.000,A,3352.0109,N,09831.5592,W,0.07,58.02,030412,,,D*40
$GPGGA,145652.000,3352.0109,N,09831.5591,W,2,10,0.9,287.6,M,-23.7,M,1.8,0000*47
$GPGSA,A,3,29,15,09,21,18,06,22,14,03,27,,,1.9,0.9,1.7*3C
$GPRMC,145652.000,A,3352.0109,N,09831.5591,W,0.08,49.55,030412,,,D*4D
$GPGGA,145653.000,3352.0108,N,09831.5590,W,2,10,0.9,287.7,M,-23.7,M,2.8,0000*44
$GPGSA,A,3,29,15,09,21,18,06,22,14,03,27,,,1.9,0.9,1.7*3C
$GPRMC,145653.000,A,3352.0108,N,09831.5590,W,0.07,56.45,030412,,,D*4C
$GPGGA,145654.000,3352.0108,N,09831.5590,W,2,10,0.9,287.7,M,-23.7,M,0.8,0000*41
$GPGSA,A,3,29,15,09,21,18,06,22,14,03,27,,,1.9,0.9,1.7*3C
$GPGSV,3,1,12,21,82,071,25,18,65,344,36,15,44,046,36,22,35,283,29*7B
$GPGSV,3,2,12,09,30,110,26,06,29,294,31,27,29,081,31,14,21,213,28*7C
$GPGSV,3,3,12,03,20,303,30,29,15,178,31,26,01,038,16,51,49,195,35*70
$GPRMC,145654.000,A,3352.0108,N,09831.5590,W,0.09,69.33,030412,,,D*48
$GPGGA,145655.000,3352.0108,N,09831.5589,W,2,10,0.9,287.8,M,-23.7,M,0.8,0000*47
$GPGSA,A,3,29,15,09,21,18,06,22,14,03,27,,,1.9,0.9,1.7*3C
$GPRMC,145655.000,A,3352.0108,N,09831.5589,W,0.10,50.15,030412,,,D*47
$GPGGA,145656.000,3352.0108,N,09831.5588,W,2,10,0.9,287.8,M,-23.7,M,0.8,0000*45
$GPGSA,A,3,29,15,09,21,18,06,22,14,03,27,,,1.9,0.9,1.7*3C
$GPRMC,145656.000,A,3352.0108,N,09831.5588,W,0.09,42.33,030412,,,D*4A
$GPGGA,145657.000,3352.0108,N,09831.5587,W,2,10,0.9,287.8,M,-23.7,M,0.8,0000*4B
$GPGSA,A,3,29,15,09,21,18,06,22,14,03,27,,,1.9,0.9,1.7*3C
$GPRMC,145657.000,A,3352.0108,N,09831.5587,W,0.09,35.58,030412,,,D*49
$GPGGA,145658.000,3352.0108,N,09831.5587,W,2,10,0.9,287.8,M,-23.7,M,1.8,0000*45
$GPGSA,A,3,29,15,09,21,18,06,22,14,03,27,,,1.9,0.9,1.7*3C
$GPRMC,145658.000,A,3352.0108,N,09831.5587,W,0.09,43.72,030412,,,D*4F
$GPGGA,145659.000,3352.0108,N,09831.5586,W,2,10,0.9,287.8,M,-23.7,M,2.8,0000*46
$GPGSA,A,3,29,15,09,21,18,06,22,14,03,27,,,1.9,0.9,1.7*3C
$GPGSV,3,1,12,21,82,071,25,18,65,344,36,15,44,046,37,22,35,283,29*7A
$GPGSV,3,2,12,09,30,110,25,06,29,294,31,27,29,081,30,14,21,213,28*7E
$GPGSV,3,3,12,03,20,303,30,29,15,178,31,26,01,038,16,51,49,195,35*70
$GPRMC,145659.000,A,3352.0108,N,09831.5586,W,0.10,41.46,030412,,,D*42
$GPGGA,145700.000,3352.0107,N,09831.5586,W,2,10,0.9,287.9,M,-23.7,M,0.8,0000*47
$GPGSA,A,3,29,15,09,21,18,06,22,14,03,27,,,1.9,0.9,1.7*3C
$GPRMC,145700.000,A,3352.0107,N,09831.5586,W,0.09,19.60,030412,,,D*41
$GPGGA,145701.000,3352.0107,N,09831.5585,W,2,10,0.9,288.0,M,-23.7,M,0.8,0000*43
$GPGSA,A,3,29,15,09,21,18,06,22,14,03,27,,,1.9,0.9,1.7*3C
$GPRMC,145701.000,A,3352.0107,N,09831.5585,W,0.07,36.63,030412,,,D*43
$GPGGA,145702.000,3352.0107,N,09831.5585,W,2,10,0.9,288.0,M,-23.7,M,0.8,0000*40
$GPGSA,A,3,29,15,09,21,18,06,22,14,03,27,,,1.9,0.9,1.7*3C
$GPRMC,145702.000,A,3352.0107,N,09831.5585,W,0.08,42.52,030412,,,D*4E
$GPGGA,145703.000,3352.0107,N,09831.5584,W,2,10,0.9,288.1,M,-23.7,M,1.8,0000*40
$GPGSA,A,3,29,15,09,21,18,06,22,14,03,27,,,1.9,0.9,1.7*3C
$GPRMC,145703.000,A,3352.0107,N,09831.5584,W,0.09,72.05,030412,,,D*4E
$GPGGA,145704.000,3352.0107,N,09831.5584,W,2,10,0.9,288.2,M,-23.7,M,2.8,0000*47
$GPGSA,A,3,29,15,09,21,18,06,22,14,03,27,,,1.9,0.9,1.7*3C
$GPGSV,3,1,12,21,82,071,25,18,65,344,36,15,44,046,37,22,35,283,29*7A
$GPGSV,3,2,12,09,30,110,25,06,29,294,31,27,29,081,30,14,21,213,28*7E
$GPGSV,3,3,12,03,20,303,30,29,15,178,31,26,01,038,,51,49,195,35*77
$GPRMC,145704.000,A,3352.0107,N,09831.5584,W,0.07,42.65,030412,,,D*42
$GPGGA,145705.000,3352.0106,N,09831.5584,W,2,10,0.9,288.2,M,-23.7,M,3.8,0000*46
$GPGSA,A,3,29,15,09,21,18,06,22,14,03,27,,,1.9,0.9,1.7*3C
$GPRMC,145705.000,A,3352.0106,N,09831.5584,W,0.07,67.34,030412,,,D*41
$GPGGA,145706.000,3352.0106,N,09831.5583,W,2,10,0.9,288.2,M,-23.7,M,0.8,0000*41
$GPGSA,A,3,29,15,09,21,18,06,22,14,03,27,,,1.9,0.9,1.7*3C
$GPRMC,145706.000,A,3352.0106,N,09831.5583,W,0.07,20.51,030412,,,D*45
$GPGGA,145707.000,3352.0106,N,09831.5583,W,2,10,0.9,288.2,M,-23.7,M,0.8,0000*40
$GPGSA,A,3,29,15,09,21,18,06,22,14,03,27,,,1.9,0.9,1.7*3C
$GPRMC,145707.000,A,3352.0106,N,09831.5583,W,0.11,359.07,030412,,,D*7D
$GPGGA,145708.000,3352.0106,N,09831.5583,W,2,10,0.9,288.3,M,-23.7,M,0.8,0000*4E
$GPGSA,A,3,29,15,09,21,18,06,22,14,03,27,,,1.9,0.9,1.7*3C
$GPRMC,145708.000,A,3352.0106,N,09831.5583,W,0.13,354.37,030412,,,D*7E
$GPGGA,145709.000,3352.0106,N,09831.5582,W,2,10,0.9,288.2,M,-23.7,M,1.8,0000*4E
$GPGSA,A,3,29,15,09,21,18,06,22,14,03,27,,,1.9,0.9,1.7*3C
$GPGSV,3,1,12,21,82,071,25,18,65,344,36,15,44,046,37,22,35,283,29*7A
$GPGSV,3,2,12,09,30,110,24,06,29,294,31,27,29,081,30,14,21,213,28*7F
$GPGSV,3,3,12,03,20,303,31,29,15,178,31,26,01,038,,51,49,195,35*76
$GPRMC,145709.000,A,3352.0106,N,09831.5582,W,0.08,18.90,030412,,,D*42
$GPGGA,145710.000,3352.0106,N,09831.5582,W,2,10,0.9,288.2,M,-23.7,M,2.8,0000*45
$GPGSA,A,3,29,15,09,21,18,06,22,14,03,27,,,1.9,0.9,1.7*3C
$GPRMC,145710.000,A,3352.0106,N,09831.5582,W,0.10,30.32,030412,,,D*41
$GPGGA,145711.000,3352.0106,N,09831.5582,W,2,10,0.9,288.1,M,-23.7,M,3.8,0000*46
$GPGSA,A,3,29,15,09,21,18,06,22,14,03,27,,,1.9,0.9,1.7*3C
$GPRMC,145711.000,A,3352.0106,N,09831.5582,W,0.11,37.70,030412,,,D*40
$GPGGA,145712.000,3352.0106,N,09831.5581,W,2,10,0.9,288.2,M,-23.7,M,0.8,0000*46
$GPGSA,A,3,29,15,09,21,18,06,22,14,03,27,,,1.9,0.9,1.7*3C
$GPRMC,145712.000,A,3352.0106,N,09831.5581,W,0.08,3.50,030412,,,D*7D
$GPGGA,145713.000,3352.0106,N,09831.5581,W,2,10,0.9,288.2,M,-23.7,M,0.8,0000*47
$GPGSA,A,3,29,15,09,21,18,06,22,14,03,27,,,1.9,0.9,1.7*3C
$GPRMC,145713.000,A,3352.0106,N,09831.5581,W,0.05,21.34,030412,,,D*43
$GPGGA,145714.000,3352.0106,N,09831.5581,W,2,10,0.9,288.2,M,-23.7,M,0.8,0000*40
$GPGSA,A,3,29,15,09,21,18,06,22,14,03,27,,,1.9,0.9,1.7*3C
$GPGSV,3,1,12,21,82,072,25,18,65,344,37,15,43,046,37,22,36,283,29*7C
$GPGSV,3,2,12,09,31,109,24,06,29,294,31,27,29,081,30,14,21,213,28*76
$GPGSV,3,3,12,03,20,302,31,29,15,178,32,26,01,038,,51,49,195,35*74
$GPRMC,145714.000,A,3352.0106,N,09831.5581,W,0.13,91.22,030412,,,D*4F
$GPGGA,145715.000,3352.0106,N,09831.5581,W,2,10,0.9,288.0,M,-23.7,M,0.8,0000*43
$GPGSA,A,3,29,15,09,21,18,06,22,14,03,27,,,1.9,0.9,1.7*3C
$GPRMC,145715.000,A,3352.0106,N,09831.5581,W,0.08,2.30,030412,,,D*7D
$GPGGA,145716.000,3352.0106,N,09831.5581,W,2,10,0.9,287.8,M,-23.7,M,1.8,0000*46
$GPGSA,A,3,29,15,09,21,18,06,22,14,03,27,,,1.9,0.9,1.7*3C
$GPRMC,145716.000,A,3352.0106,N,09831.5581,W,0.10,355.14,030412,,,D*70
$GPGGA,145717.000,3352.0107,N,09831.5582,W,2,10,0.9,287.7,M,-23.7,M,2.8,0000*49
$GPGSA,A,3,29,15,09,21,18,06,22,14,03,27,,,1.9,0.9,1.7*3C
$GPRMC,145717.000,A,3352.0107,N,09831.5582,W,0.10,345.50,030412,,,D*72
$GPGGA,145718.000,3352.0107,N,09831.5582,W,2,10,0.9,287.4,M,-23.7,M,0.8,0000*47
$GPGSA,A,3,29,15,09,21,18,06,22,14,03,27,,,1.9,0.9,1.7*3C
$GPRMC,145718.000,A,3352.0107,N,09831.5582,W,0.15,79.65,030412,,,D*42
$GPGGA,145719.000,3352.0107,N,09831.5581,W,2,10,0.9,287.2,M,-23.7,M,0.8,0000*43
$GPGSA,A,3,29,15,09,21,18,06,22,14,03,27,,,1.9,0.9,1.7*3C
$GPGSV,3,1,12,21,82,073,26,18,65,344,37,15,43,046,37,22,36,284,29*79
$GPGSV,3,2,12,09,31,109,23,06,29,294,31,27,29,080,29,14,21,213,28*78
$GPGSV,3,3,12,03,20,302,31,29,15,178,32,26,01,038,,51,49,195,35*74
$GPRMC,145719.000,A,3352.0107,N,09831.5581,W,0.16,82.07,030412,,,D*43
$GPGGA,145720.000,3352.0108,N,09831.5581,W,2,10,0.9,287.0,M,-23.7,M,0.8,0000*44
$GPGSA,A,3,29,15,09,21,18,06,22,14,03,27,,,1.9,0.9,1.7*3C
$GPRMC,145720.000,A,3352.0108,N,09831.5581,W,0.12,2.59,030412,,,D*71
$GPGGA,145721.000,3352.0108,N,09831.5582,W,2,10,0.9,286.8,M,-23.7,M,1.8,0000*4E
$GPGSA,A,3,29,15,09,21,18,06,22,14,03,27,,,1.9,0.9,1.7*3C
$GPRMC,145721.000,A,3352.0108,N,09831.5582,W,0.14,354.54,030412,,,D*78
$GPGGA,145722.000,3352.0109,N,09831.5582,W,2,10,0.9,286.5,M,-23.7,M,0.8,0000*40
$GPGSA,A,3,29,15,09,21,18,06,22,14,03,27,,,1.9,0.9,1.7*3C
$GPRMC,145722.000,A,3352.0109,N,09831.5582,W,0.13,61.07,030412,,,D*4E
$GPGGA,145723.000,3352.0109,N,09831.5582,W,2,10,0.9,286.3,M,-23.7,M,0.8,0000*47
$GPGSA,A,3,29,15,09,21,18,06,22,14,03,27,,,1.9,0.9,1.7*3C
$GPRMC,145723.000,A,3352.0109,N,09831.5582,W,0.12,21.70,030412,,,D*4A
$GPGGA,145724.000,3352.0109,N,09831.5582,W,2,10,0.9,286.2,M,-23.7,M,0.8,0000*41
$GPGSA,A,3,29,15,09,21,18,06,22,14,03,27,,,1.9,0.9,1.7*3C
$GPGSV,3,1,12,21,82,073,26,18,65,344,37,15,43,046,37,22,36,284,29*79
$GPGSV,3,2,12,09,31,109,23,06,29,294,31,27,29,080,29,14,21,213,29*79
$GPGSV,3,3,12,03,20,302,32,29,15,178,32,26,01,038,,51,49,195,35*77
$GPRMC,145724.000,A,3352.0109,N,09831.5582,W,0.17,348.65,030412,,,D*70
$GPGGA,145725.000,3352.0110,N,09831.5582,W,2,10,0.9,286.0,M,-23.7,M,0.8,0000*4A
$GPGSA,A,3,29,15,09,21,18,06,22,14,03,27,,,1.9,0.9,1.7*3C
$GPRMC,145725.000,A,3352.0110,N,09831.5582,W,0.14,49.18,030412,,,D*42
$GPGGA,145726.000,3352.0110,N,09831.5582,W,2,10,0.9,285.9,M,-23.7,M,0.8,0000*43
$GPGSA,A,3,29,15,09,21,18,06,22,14,03,27,,,1.9,0.9,1.7*3C
$GPRMC,145726.000,A,3352.0110,N,09831.5582,W,0.16,75.88,030412,,,D*45
$GPGGA,145727.000,3352.0110,N,09831.5582,W,2,10,0.9,285.8,M,-23.7,M,1.8,0000*42
$GPGSA,A,3,29,15,09,21,18,06,22,14,03,27,,,1.9,0.9,1.7*3C
$GPRMC,145727.000,A,3352.0110,N,09831.5582,W,0.12,10.86,030412,,,D*4D
$GPGGA,145728.000,3352.0110,N,09831.5582,W,2,10,0.9,285.7,M,-23.7,M,2.8,0000*41
$GPGSA,A,3,29,15,09,21,18,06,22,14,03,27,,,1.9,0.9,1.7*3C
$GPRMC,145728.000,A,3352.0110,N,09831.5582,W,0.17,73.18,030412,,,D*45
$GPGGA,145729.000,3352.0110,N,09831.5581,W,2,10,0.9,285.5,M,-23.7,M,3.8,0000*40
$GPGSA,A,3,29,15,09,21,18,06,22,14,03,27,,,1.9,0.9,1.7*3C
$GPGSV,3,1,12,21,82,073,26,18,65,344,37,15,43,046,37,22,36,284,29*79
$GPGSV,3,2,12,09,31,109,23,06,29,294,30,27,29,080,29,14,21,213,29*78
$GPGSV,3,3,12,03,20,302,32,29,15,178,32,26,01,038,,51,49,195,35*77
$GPRMC,145729.000,A,3352.0110,N,09831.5581,W,0.15,76.12,030412,,,D*4A
$GPGGA,145730.000,3352.0110,N,09831.5581,W,2,10,0.9,285.5,M,-23.7,M,0.8,0000*4B
$GPGSA,A,3,29,15,09,21,18,06,22,14,03,27,,,1.9,0.9,1.7*3C
$GPRMC,145730.000,A,3352.0110,N,09831.5581,W,0.17,90.13,030412,,,D*49
$GPGGA,145731.000,3352.0110,N,09831.5581,W,2,10,0.9,285.5,M,-23.7,M,0.8,0000*4A
$GPGSA,A,3,29,15,09,21,18,06,22,14,03,27,,,1.9,0.9,1.7*3C
$GPRMC,145731.000,A,3352.0110,N,09831.5581,W,0.11,19.00,030412,,,D*4D
$GPGGA,145732.000,3352.0111,N,09831.5581,W,2,10,0.9,285.4,M,-23.7,M,0.8,0000*49
$GPGSA,A,3,29,15,09,21,18,06,22,14,03,27,,,1.9,0.9,1.7*3C
$GPRMC,145732.000,A,3352.0111,N,09831.5581,W,0.13,353.46,030412,,,D*72
$GPGGA,145733.000,3352.0111,N,09831.5581,W,2,10,0.9,285.3,M,-23.7,M,0.8,0000*4F
$GPGSA,A,3,29,15,09,21,18,06,22,14,03,27,,,1.9,0.9,1.7*3C
$GPRMC,145733.000,A,3352.0111,N,09831.5581,W,0.11,11.42,030412,,,D*40
$GPGGA,145734.000,3352.0111,N,09831.5582,W,2,10,0.9,285.3,M,-23.7,M,1.8,0000*4A
$GPGSA,A,3,29,15,09,21,18,06,22,14,03,27,,,1.9,0.9,1.7*3C
$GPGSV,3,1,12,21,82,073,26,18,65,344,37,15,43,046,37,22,36,284,29*79
$GPGSV,3,2,12,09,31,109,23,06,29,294,30,27,29,080,29,14,21,213,29*78
$GPGSV,3,3,12,03,20,302,32,29,15,178,32,26,01,038,,51,49,195,35*77
$GPRMC,145734.000,A,3352.0111,N,09831.5582,W,0.12,58.75,030412,,,D*4E
$GPGGA,145735.000,3352.0111,N,09831.5582,W,2,10,0.9,285.2,M,-23.7,M,2.8,0000*49
$GPGSA,A,3,29,15,09,21,18,06,22,14,03,27,,,1.9,0.9,1.7*3C
$GPRMC,145735.000,A,3352.0111,N,09831.5582,W,0.13,352.26,030412,,,D*71
$GPGGA,145736.000,3352.0112,N,09831.5582,W,2,10,0.9,285.2,M,-23.7,M,0.8,0000*4B
$GPGSA,A,3,29,15,09,21,18,06,22,14,03,27,,,1.9,0.9,1.7*3C
$GPRMC,145736.000,A,3352.0112,N,09831.5582,W,0.11,62.08,030412,,,D*4F
$GPGGA,145737.000,3352.0112,N,09831.5582,W,2,10,0.9,285.1,M,-23.7,M,0.8,0000*49
$GPGSA,A,3,29,15,09,21,18,06,22,14,03,27,,,1.9,0.9,1.7*3C
$GPRMC,145737.000,A,3352.0112,N,09831.5582,W,0.15,82.18,030412,,,D*45
$GPGGA,145738.000,3352.0112,N,09831.5581,W,2,10,0.9,285.0,M,-23.7,M,0.8,0000*44
$GPGSA,A,3,29,15,09,21,18,06,22,14,03,27,,,1.9,0.9,1.7*3C
$GPRMC,145738.000,A,3352.0112,N,09831.5581,W,0.16,92.37,030412,,,D*46
$GPGGA,145739.000,3352.0112,N,09831.5581,W,2,10,0.9,285.0,M,-23.7,M,1.8,0000*44
$GPGSA,A,3,29,15,09,21,18,06,22,14,03,27,,,1.9,0.9,1.7*3C
$GPGSV,3,1,12,21,82,073,27,18,65,344,37,15,43,046,37,22,36,284,29*78
$GPGSV,3,2,12,09,31,109,23,06,29,294,30,27,29,080,28,14,21,213,30*71
$GPGSV,3,3,12,03,20,302,33,29,15,178,32,26,01,038,,51,49,195,35*76
$GPRMC,145739.000,A,3352.0112,N,09831.5581,W,0.08,16.19,030412,,,D*48
$GPGGA,145740.000,3352.0112,N,09831.5581,W,2,10,0.9,284.9,M,-23.7,M,2.8,0000*41
$GPGSA,A,3,29,15,09,21,18,06,22,14,03,27,,,1.9,0.9,1.7*3C
$GPRMC,145740.000,A,3352.0112,N,09831.5581,W,0.08,52.84,030412,,,D*42
$GPGGA,145741.000,3352.0112,N,09831.5581,W,2,10,0.9,284.9,M,-23.7,M,3.8,0000*41
$GPGSA,A,3,29,15,09,21,18,06,22,14,03,27,,,1.9,0.9,1.7*3C
$GPRMC,145741.000,A,3352.0112,N,09831.5581,W,0.10,61.68,030412,,,D*48
$GPGGA,145742.000,3352.0112,N,09831.5581,W,2,10,0.9,284.9,M,-23.7,M,0.8,0000*41
$GPGSA,A,3,29,15,09,21,18,06,22,14,03,27,,,1.9,0.9,1.7*3C
$GPRMC,145742.000,A,3352.0112,N,09831.5581,W,0.10,62.66,030412,,,D*46
$GPGGA,145743.000,3352.0112,N,09831.5581,W,2,10,0.9,284.9,M,-23.7,M,0.8,0000*40
$GPGSA,A,3,29,15,09,21,18,06,22,14,03,27,,,1.9,0.9,1.7*3C
$GPRMC,145743.000,A,3352.0112,N,09831.5581,W,0.10,51.83,030412,,,D*4C
$GPGGA,145744.000,3352.0112,N,09831.5581,W,2,10,0.9,284.9,M,-23.7,M,0.8,0000*47
$GPGSA,A,3,29,15,09,21,18,06,22,14,03,27,,,1.9,0.9,1.7*3C
$GPGSV,3,1,12,21,82,073,27,18,65,344,37,15,43,046,37,22,36,284,29*78
$GPGSV,3,2,12,09,31,109,23,06,29,294,31,27,29,080,28,14,21,213,30*70
$GPGSV,3,3,12,03,20,302,33,29,15,178,32,26,01,038,,51,49,195,35*76
$GPRMC,145744.000,A,3352.0112,N,09831.5581,W,0.10,27.49,030412,,,D*4C
$GPGGA,145745.000,3352.0112,N,09831.5581,W,2,10,0.9,285.0,M,-23.7,M,0.8,0000*4E
$GPGSA,A,3,29,15,09,21,18,06,22,14,03,27,,,1.9,0.9,1.7*3C
$GPRMC,145745.000,A,3352.0112,N,09831.5581,W,0.13,350.70,030412,,,D*77
$GPGGA,145746.000,3352.0112,N,09831.5581,W,2,10,0.9,285.0,M,-23.7,M,1.8,0000*4C
$GPGSA,A,3,29,15,09,21,18,06,22,14,03,27,,,1.9,0.9,1.7*3C
$GPRMC,145746.000,A,3352.0112,N,09831.5581,W,0.11,62.74,030412,,,D*40
$GPGGA,145747.000,3352.0112,N,09831.5582,W,2,10,0.9,285.0,M,-23.7,M,2.8,0000*4D
$GPGSA,A,3,29,15,09,21,18,06,22,14,03,27,,,1.9,0.9,1.7*3C
$GPRMC,145747.000,A,3352.0112,N,09831.5582,W,0.10,17.16,030412,,,D*45
$GPGGA,145748.000,3352.0112,N,09831.5582,W,2,10,0.9,285.0,M,-23.7,M,0.8,0000*40
$GPGSA,A,3,29,15,09,21,18,06,22,14,03,27,,,1.9,0.9,1.7*3C
$GPRMC,145748.000,A,3352.0112,N,09831.5582,W,0.10,340.91,030412,,,D*74
$GPGGA,145749.000,3352.0113,N,09831.5582,W,2,10,0.9,284.9,M,-23.7,M,0.8,0000*48
$GPGSA,A,3,29,15,09,21,18,06,22,14,03,27,,,1.9,0.9,1.7*3C
$GPGSV,3,1,12,21,82,074,27,18,65,345,37,15,43,046,37,22,36,284,29*7E
$GPGSV,3,2,12,09,31,109,23,06,29,294,31,27,29,080,28,14,21,213,30*70
$GPGSV,3,3,12,03,20,302,33,29,15,178,32,26,01,038,,51,49,195,35*76
$GPRMC,145749.000,A,3352.0113,N,09831.5582,W,0.08,24.56,030412,,,D*47
$GPGGA,145750.000,3352.0113,N,09831.5582,W,2,10,0.9,284.9,M,-23.7,M,0.8,0000*40
$GPGSA,A,3,29,15,09,21,18,06,22,14,03,27,,,1.9,0.9,1.7*3C
$GPRMC,145750.000,A,3352.0113,N,09831.5582,W,0.05,7.30,030412,,,D*73
$GPGGA,145751.000,3352.0113,N,09831.5582,W,2,10,0.9,284.9,M,-23.7,M,1.8,0000*40
$GPGSA,A,3,29,15,09,21,18,06,22,14,03,27,,,1.9,0.9,1.7*3C
$GPRMC,145751.000,A,3352.0113,N,09831.5582,W,0.07,28.38,030412,,,D*45
$GPGGA,145752.000,3352.0113,N,09831.5582,W,2,10,0.9,284.9,M,-23.7,M,2.8,0000*40
$GPGSA,A,3,29,15,09,21,18,06,22,14,03,27,,,1.9,0.9,1.7*3C
$GPRMC,145752.000,A,3352.0113,N,09831.5582,W,0.06,16.93,030412,,,D*4B
$GPGGA,145753.000,3352.0113,N,09831.5582,W,2,10,0.9,284.8,M,-23.7,M,3.8,0000*41
$GPGSA,A,3,29,15,09,21,18,06,22,14,03,27,,,1.9,0.9,1.7*3C
$GPRMC,145753.000,A,3352.0113,N,09831.5582,W,0.12,83.51,030412,,,D*4D
$GPGGA,145754.000,3352.0113,N,09831.5582,W,2,10,0.9,284.9,M,-23.7,M,0.8,0000*44
$GPGSA,A,3,29,15,09,21,18,06,22,14,03,27,,,1.9,0.9,1.7*3C
$GPGSV,3,1,12,21,82,074,27,18,65,345,37,15,43,046,37,22,36,284,29*7E
$GPGSV,3,2,12,09,31,109,23,06,29,294,31,27,29,080,28,14,21,213,30*70
$GPGSV,3,3,12,03,20,302,33,29,15,178,32,26,01,038,,51,49,195,35*76
$GPRMC,145754.000,A,3352.0113,N,09831.5582,W,0.08,13.96,030412,,,D*43
$GPGGA,145755.000,3352.0113,N,09831.5582,W,2,10,0.9,284.9,M,-23.7,M,0.8,0000*45
$GPGSA,A,3,29,15,09,21,18,06,22,14,03,27,,,1.9,0.9,1.7*3C
$GPRMC,145755.000,A,3352.0113,N,09831.5582,W,0.12,348.81,030412,,,D*72
$GPGGA,145756.000,3352.0113,N,09831.5582,W,2,10,0.9,285.0,M,-23.7,M,0.8,0000*4E
$GPGSA,A,3,29,15,09,21,18,06,22,14,03,27,,,1.9,0.9,1.7*3C
$GPRMC,145756.000,A,3352.0113,N,09831.5582,W,0.13,342.74,030412,,,D*70
$GPGGA,145757.000,3352.0113,N,09831.5583,W,2,10,0.9,285.1,M,-23.7,M,0.8,0000*4F
$GPGSA,A,3,29,15,09,21,18,06,22,14,03,27,,,1.9,0.9,1.7*3C
$GPRMC,145757.000,A,3352.0113,N,09831.5583,W,0.10,340.86,030412,,,D*7C
$GPGGA,145758.000,3352.0113,N,09831.5583,W,2,10,0.9,285.2,M,-23.7,M,1.8,0000*42
$GPGSA,A,3,29,15,09,21,18,06,22,14,03,27,,,1.9,0.9,1.7*3C
$GPRMC,145758.000,A,3352.0113,N,09831.5583,W,0.09,67.38,030412,,,D*48
$GPGGA,145759.000,3352.0113,N,09831.5583,W,2,10,0.9,285.2,M,-23.7,M,2.8,0000*40
$GPGSA,A,3,29,15,09,21,18,06,22,14,03,27,,,1.9,0.9,1.7*3C
$GPGSV,3,1,12,21,82,074,27,18,65,345,37,15,43,046,37,22,36,284,29*7E
$GPGSV,3,2,12,09,31,109,23,06,29,294,32,27,29,080,28,14,21,213,30*73
$GPGSV,3,3,12,03,20,302,33,29,15,178,32,26,01,038,,51,49,195,35*76
$GPRMC,145759.000,A,3352.0113,N,09831.5583,W,0.14,76.45,030412,,,D*4F
$GPGGA,145800.000,3352.0113,N,09831.5582,W,2,10,0.9,285.2,M,-23.7,M,0.8,0000*40
$GPGSA,A,3,29,15,09,21,18,06,22,14,03,27,,,1.9,0.9,1.7*3C
$GPRMC,145800.000,A,3352.0113,N,09831.5582,W,0.09,350.19,030412,,,D*7F
$GPGGA,145801.000,3352.0113,N,09831.5582,W,2,10,0.9,285.2,M,-23.7,M,0.8,0000*41
$GPGSA,A,3,29,15,09,21,18,06,22,14,03,27,,,1.9,0.9,1.7*3C
$GPRMC,145801.000,A,3352.0113,N,09831.5582,W,0.11,86.78,030412,,,D*48
$GPGGA,145802.000,3352.0113,N,09831.5582,W,2,10,0.9,285.1,M,-23.7,M,0.8,0000*41
$GPGSA,A,3,29,15,09,21,18,06,22,14,03,27,,,1.9,0.9,1.7*3C
$GPRMC,145802.000,A,3352.0113,N,09831.5582,W,0.16,93.85,030412,,,D*4A
$GPGGA,145803.000,3352.0113,N,09831.5582,W,2,10,0.9,285.1,M,-23.7,M,0.8,0000*40
$GPGSA,A,3,29,15,09,21,18,06,22,14,03,27,,,1.9,0.9,1.7*3C
$GPRMC,145803.000,A,3352.0113,N,09831.5582,W,0.07,23.11,030412,,,D*4D
$GPGGA,145804.000,3352.0113,N,09831.5582,W,2,10,0.9,285.0,M,-23.7,M,1.8,0000*47
$GPGSA,A,3,29,15,09,21,18,06,22,14,03,27,,,1.9,0.9,1.7*3C
$GPGSV,3,1,12,21,82,074,27,18,65,345,37,15,43,046,37,22,36,284,29*7E
$GPGSV,3,2,12,09,31,109,23,06,29,294,32,27,29,080,28,14,21,213,30*73
$GPGSV,3,3,12,03,20,302,34,29,15,178,32,26,01,038,,51,49,195,35*71
$GPRMC,145804.000,A,3352.0113,N,09831.5582,W,0.07,9.29,030412,,,D*79
$GPGGA,145805.000,3352.0113,N,09831.5581,W,2,10,0.9,285.0,M,-23.7,M,0.8,0000*44
$GPGSA,A,3,29,15,09,21,18,06,22,14,03,27,,,1.9,0.9,1.7*3C
$GPRMC,145805.000,A,3352.0113,N,09831.5581,W,0.13,84.91,030412,,,D*48
$GPGGA,145806.000,3352.0113,N,09831.5581,W,2,10,0.9,285.1,M,-23.7,M,0.8,0000*46
$GPGSA,A,3,29,15,09,21,18,06,22,14,03,27,,,1.9,0.9,1.7*3C
$GPRMC,145806.000,A,3352.0113,N,09831.5581,W,0.08,358.67,030412,,,D*7A
$GPGGA,145807.000,3352.0113,N,09831.5581,W,2,10,0.9,285.2,M,-23.7,M,0.8,0000*44
$GPGSA,A,3,29,15,09,21,18,06,22,14,03,27,,,1.9,0.9,1.7*3C
$GPRMC,145807.000,A,3352.0113,N,09831.5581,W,0.12,60.92,030412,,,D*42
$GPGGA,145808.000,3352.0113,N,09831.5580,W,2,10,0.9,285.3,M,-23.7,M,0.8,0000*4B
$GPGSA,A,3,29,15,09,21,18,06,22,14,03,27,,,1.9,0.9,1.7*3C
$GPRMC,145808.000,A,3352.0113,N,09831.5580,W,0.10,64.50,030412,,,D*44
$GPGGA,145809.000,3352.0112,N,09831.5580,W,2,10,0.9,285.3,M,-23.7,M,1.8,0000*4A
$GPGSA,A,3,29,15,09,21,18,06,22,14,03,27,,,1.9,0.9,1.7*3C
$GPGSV,3,1,12,21,82,074,27,18,65,345,37,15,43,046,37,22,36,284,29*7E
$GPGSV,3,2,12,09,31,109,23,06,29,294,32,27,29,080,28,14,21,213,30*73
$GPGSV,3,3,12,03,20,302,34,29,15,178,32,26,01,038,17,51,49,195,35*77
$GPRMC,145809.000,A,3352.0112,N,09831.5580,W,0.10,21.53,030412,,,D*46
$GPGGA,145810.000,3352.0112,N,09831.5580,W,2,10,0.9,285.4,M,-23.7,M,2.8,0000*46
$GPGSA,A,3,29,15,09,21,18,06,22,14,03,27,,,1.9,0.9,1.7*3C
$GPRMC,145810.000,A,3352.0112,N,09831.5580,W,0.08,3.39,030412,,,D*7B
$GPGGA,145811.000,3352.0112,N,09831.5580,W,2,10,0.9,285.5,M,-23.7,M,3.8,0000*47
$GPGSA,A,3,29,15,09,21,18,06,22,14,03,27,,,1.9,0.9,1.7*3C
$GPRMC,145811.000,A,3352.0112,N,09831.5580,W,0.08,53.90,030412,,,D*4C
$GPGGA,145812.000,3352.0112,N,09831.5579,W,2,10,0.9,285.5,M,-23.7,M,0.8,0000*41
$GPGSA,A,3,29,15,09,21,18,06,22,14,03,27,,,1.9,0.9,1.7*3C
$GPRMC,145812.000,A,3352.0112,N,09831.5579,W,0.10,350.81,030412,,,D*70
$GPGGA,145813.000,3352.0112,N,09831.5579,W,2,10,0.9,285.5,M,-23.7,M,0.8,0000*40
$GPGSA,A,3,29,15,09,21,18,06,22,14,03,27,,,1.9,0.9,1.7*3C
$GPRMC,145813.000,A,3352.0112,N,09831.5579,W,0.05,39.27,030412,,,D*45
$GPGGA,145814.000,3352.0112,N,09831.5579,W,2,10,0.9,285.5,M,-23.7,M,0.8,0000*47
$GPGSA,A,3,29,15,09,21,18,06,22,14,03,27,,,1.9,0.9,1.7*3C
$GPGSV,3,1,12,21,82,076,27,18,65,345,38,15,43,046,37,22,36,284,29*73
$GPGSV,3,2,12,09,31,109,23,06,29,293,32,27,29,080,28,14,22,213,30*77
$GPGSV,3,3,12,03,20,302,34,29,15,178,32,26,01,038,17,51,49,195,35*77
$GPRMC,145814.000,A,3352.0112,N,09831.5579,W,0.12,90.58,030412,,,D*4F
$GPGGA,145815.000,3352.0112,N,09831.5578,W,2,10,0.9,285.4,M,-23.7,M,1.8,0000*47
$GPGSA,A,3,29,15,09,21,18,06,22,14,03,27,,,1.9,0.9,1.7*3C
$GPRMC,145815.000,A,3352.0112,N,09831.5578,W,0.13,86.97,030412,,,D*4A
$GPGGA,145816.000,3352.0112,N,09831.5578,W,2,10,0.9,285.4,M,-23.7,M,2.8,0000*47
$GPGSA,A,3,29,15,09,21,18,06,22,14,03,27,,,1.9,0.9,1.7*3C
$GPRMC,145816.000,A,3352.0112,N,09831.5578,W,0.11,80.83,030412,,,D*48
$GPGGA,145817.000,3352.0112,N,09831.5578,W,2,10,0.9,285.3,M,-23.7,M,0.8,0000*43
$GPGSA,A,3,29,15,09,21,18,06,22,14,03,27,,,1.9,0.9,1.7*3C
$GPRMC,145817.000,A,3352.0112,N,09831.5578,W,0.07,37.92,030412,,,D*42
$GPGGA,145818.000,3352.0112,N,09831.5578,W,2,10,0.9,285.3,M,-23.7,M,0.8,0000*4C
$GPGSA,A,3,29,15,09,21,18,06,22,14,03,27,,,1.9,0.9,1.7*3C
$GPRMC,145818.000,A,3352.0112,N,09831.5578,W,0.08,61.42,030412,,,D*4C
$GPGGA,145819.000,3352.0112,N,09831.5578,W,2,10,0.9,285.3,M,-23.7,M,0.8,0000*4D
$GPGSA,A,3,29,15,09,21,18,06,22,14,03,27,,,1.9,0.9,1.7*3C
$GPGSV,3,1,12,21,82,076,27,18,65,345,37,15,43,046,37,22,36,284,29*7C
$GPGSV,3,2,12,09,31,109,23,06,29,293,33,27,29,080,28,14,22,213,30*76
$GPGSV,3,3,12,03,20,302,34,29,15,178,32,26,01,038,16,51,49,195,35*76
$GPRMC,145819.000,A,3352.0112,N,09831.5578,W,0.11,350.30,030412,,,D*71
$GPGGA,145820.000,3352.0112,N,09831.5578,W,2,10,0.9,285.4,M,-23.7,M,0.8,0000*40
$GPGSA,A,3,29,15,09,21,18,06,22,14,03,27,,,1.9,0.9,1.7*3C
$GPRMC,145820.000,A,3352.0112,N,09831.5578,W,0.11,348.30,030412,,,D*72
$GPGGA,145821.000,3352.0112,N,09831.5578,W,2,10,0.9,285.5,M,-23.7,M,0.8,0000*40
$GPGSA,A,3,29,15,09,21,18,06,22,14,03,27,,,1.9,0.9,1.7*3C
$GPRMC,145821.000,A,3352.0112,N,09831.5578,W,0.08,5.57,030412,,,D*70
$GPGGA,145822.000,3352.0112,N,09831.5578,W,2,10,0.9,285.5,M,-23.7,M,0.8,0000*43
$GPGSA,A,3,29,15,09,21,18,06,22,14,03,27,,,1.9,0.9,1.7*3C
$GPRMC,145822.000,A,3352.0112,N,09831.5578,W,0.09,58.97,030412,,,D*46
$GPGGA,145823.000,3352.0112,N,09831.5578,W,2,10,0.9,285.6,M,-23.7,M,1.8,0000*40
$GPGSA,A,3,29,15,09,21,18,06,22,14,03,27,,,1.9,0.9,1.7*3C
$GPRMC,145823.000,A,3352.0112,N,09831.5578,W,0.08,50.28,030412,,,D*4A
$GPGGA,145824.000,3352.0112,N,09831.5577,W,2,10,0.9,285.6,M,-23.7,M,0.8,0000*49
$GPGSA,A,3,29,15,09,21,18,06,22,14,03,27,,,1.9,0.9,1.7*3C
