$GPGGA,141153.373,3353.2733,N,09833.3595,W,1,03,3.9,334.8,M,-23.7,M,,0000*6C
$GPGSA,A,2,18,21,29,,,,,,,,,,4.0,3.9,1.0*3D
$GPRMC,141153.373,A,3353.2733,N,09833.3595,W,21.20,246.24,290312,,,A*4C
$GPGGA,141154.373,3353.2659,N,09833.3766,W,1,03,3.9,334.8,M,-23.7,M,,0000*68
$GPGSA,A,2,18,21,29,,,,,,,,,,4.0,3.9,1.0*3D
$GPRMC,141154.373,A,3353.2659,N,09833.3766,W,16.96,245.88,290312,,,A*44
$GPGGA,141155.373,3353.2649,N,09833.3795,W,1,03,3.9,334.8,M,-23.7,M,,0000*64
$GPGSA,A,2,18,21,29,,,,,,,,,,4.0,3.9,1.0*3D
$GPRMC,141155.373,A,3353.2649,N,09833.3795,W,11.50,245.22,290312,,,A*45
$GPGGA,141156.373,3353.2643,N,09833.3818,W,1,03,3.9,334.8,M,-23.7,M,,0000*67
$GPGSA,A,2,18,21,29,,,,,,,,,,4.0,3.9,1.0*3D
$GPRMC,141156.373,A,3353.2643,N,09833.3818,W,6.98,244.96,290312,,,A*7A
$GPGGA,141157.373,3353.2641,N,09833.3828,W,1,03,3.9,334.8,M,-23.7,M,,0000*67
$GPGSA,A,2,18,21,29,,,,,,,,,,4.0,3.9,1.0*3D
$GPRMC,141157.373,A,3353.2641,N,09833.3828,W,3.69,245.02,290312,,,A*7D
$GPGGA,141158.373,3353.2635,N,09833.3861,W,1,03,3.9,334.8,M,-23.7,M,,0000*66
$GPGSA,A,2,18,21,29,,,,,,,,,,4.0,3.9,1.0*3D
$GPGSV,3,1,12,21,61,331,28,18,56,284,23,29,45,183,41,15,65,084,31*7E
$GPGSV,3,2,12,26,27,044,26,22,17,258,27,27,16,111,31,06,14,317,30*76
$GPGSV,3,3,12,09,11,135,,16,05,295,20,05,03,063,,03,03,323,*7B
$GPRMC,141158.373,A,3353.2635,N,09833.3861,W,2.49,233.08,290312,,,A*74
$GPGGA,141159.373,3353.2654,N,09833.3822,W,1,03,3.9,334.8,M,-23.7,M,,0000*67
$GPGSA,A,2,18,21,29,,,,,,,,,,4.0,3.9,1.0*3D
$GPGSV,3,1,12,21,61,331,28,18,56,284,29,29,45,183,41,15,65,084,25*71
$GPGSV,3,2,12,26,27,044,25,22,17,258,27,27,16,111,32,06,14,317,30*76
$GPGSV,3,3,12,09,11,135,,16,05,295,20,05,03,063,27,03,03,323,*7E
$GPRMC,141159.373,A,3353.2654,N,09833.3822,W,5.50,229.53,290312,,,A*7F
$GPGGA,141200.373,3353.2571,N,09833.3947,W,1,03,3.9,334.8,M,-23.7,M,,0000*6E
$GPGSA,A,2,18,21,29,,,,,,,,,,4.0,3.9,1.0*3D
$GPRMC,141200.373,A,3353.2571,N,09833.3947,W,6.20,201.28,290312,,,A*74
$GPGGA,141201.373,3353.2604,N,09833.3828,W,1,03,3.9,334.8,M,-23.7,M,,0000*66
$GPGSA,A,2,18,21,29,,,,,,,,,,4.0,3.9,1.0*3D
$GPRMC,141201.373,A,3353.2604,N,09833.3828,W,9.49,183.55,290312,,,A*7F
$GPGGA,141202.373,3353.2586,N,09833.3806,W,1,03,3.9,334.8,M,-23.7,M,,0000*60
$GPGSA,A,2,18,21,29,,,,,,,,,,4.0,3.9,1.0*3D
$GPRMC,141202.373,A,3353.2586,N,09833.3806,W,11.46,169.39,290312,,,A*41
$GPGGA,141203.373,3353.2519,N,09833.3897,W,1,03,2.2,334.8,M,-23.7,M,,0000*65
$GPGSA,A,2,18,15,29,,,,,,,,,,2.4,2.2,1.0*32
$GPRMC,141203.373,A,3353.2519,N,09833.3897,W,12.49,157.45,290312,,,A*44
$GPGGA,141204.373,3353.2491,N,09833.3879,W,1,03,2.2,334.8,M,-23.7,M,,0000*63
$GPGSA,A,2,18,15,29,,,,,,,,,,2.4,2.2,1.0*32
$GPGSV,3,1,12,15,65,084,36,21,62,331,,18,56,284,33,29,45,183,35*72
$GPGSV,3,2,12,26,27,044,37,22,17,258,34,27,16,111,31,06,14,317,30*74
$GPGSV,3,3,12,09,11,134,26,16,05,295,23,03,03,323,,05,03,063,22*7D
$GPRMC,141204.373,A,3353.2491,N,09833.3879,W,13.83,153.27,290312,,,A*45
$GPGGA,141205.373,3353.2463,N,09833.3847,W,1,04,2.0,328.4,M,-23.7,M,,0000*66
$GPGSA,A,3,18,15,29,21,,,,,,,,,2.2,2.0,1.0*34
$GPRMC,141205.373,A,3353.2463,N,09833.3847,W,15.48,153.93,290312,,,A*4A
$GPGGA,141206.373,3353.2394,N,09833.3832,W,1,04,2.0,347.2,M,-23.7,M,,0000*67
$GPGSA,A,3,18,15,29,21,,,,,,,,,2.2,2.0,1.0*34
$GPRMC,141206.373,A,3353.2394,N,09833.3832,W,16.46,153.62,290312,,,A*47
$GPGGA,141207.000,3353.2369,N,09833.3815,W,1,04,2.0,346.6,M,-23.7,M,,0000*63
$GPGSA,A,3,18,15,29,21,,,,,,,,,2.2,2.0,1.0*34
$GPRMC,141207.000,A,3353.2369,N,09833.3815,W,17.19,153.04,290312,,,A*4D
$GPGGA,141208.000,3353.2326,N,09833.3786,W,1,04,2.0,345.6,M,-23.7,M,,0000*61
$GPGSA,A,3,18,15,29,21,,,,,,,,,2.2,2.0,1.0*34
$GPRMC,141208.000,A,3353.2326,N,09833.3786,W,18.10,152.16,290312,,,A*48
$GPGGA,141209.000,3353.2281,N,09833.3754,W,1,04,2.0,344.2,M,-23.7,M,,0000*66
$GPGSA,A,3,18,15,29,21,,,,,,,,,2.2,2.0,1.0*34
$GPGSV,3,1,12,15,65,084,38,21,62,331,30,18,56,284,33,29,45,183,36*7C
$GPGSV,3,2,12,26,27,044,38,22,17,258,35,27,16,111,32,06,14,317,25*7D
$GPGSV,3,3,12,09,11,134,22,16,05,295,,03,03,323,,05,03,063,*78
$GPRMC,141209.000,A,3353.2281,N,09833.3754,W,19.11,151.81,290312,,,A*47
$GPGGA,141210.000,3353.2233,N,09833.3721,W,1,04,2.0,342.9,M,-23.7,M,,0000*68
$GPGSA,A,3,18,15,29,21,,,,,,,,,2.2,2.0,1.0*34
$GPRMC,141210.000,A,3353.2233,N,09833.3721,W,20.15,151.94,290312,,,A*4E
$GPGGA,141211.000,3353.2183,N,09833.3688,W,1,04,2.0,341.9,M,-23.7,M,,0000*60
$GPGSA,A,3,18,15,29,21,,,,,,,,,2.2,2.0,1.0*34
$GPRMC,141211.000,A,3353.2183,N,09833.3688,W,21.07,152.39,290312,,,A*43
$GPGGA,141212.000,3353.2140,N,09833.3643,W,2,04,2.0,335.2,M,-23.7,M,0.8,0000*46
$GPGSA,A,3,18,15,29,21,,,,,,,,,2.2,2.0,1.0*34
$GPRMC,141212.000,A,3353.2140,N,09833.3643,W,22.03,152.38,290312,,,D*4B
$GPGGA,141213.000,3353.2082,N,09833.3609,W,2,04,2.0,337.1,M,-23.7,M,0.8,0000*47
$GPGSA,A,3,18,15,29,21,,,,,,,,,2.2,2.0,1.0*34
$GPRMC,141213.000,A,3353.2082,N,09833.3609,W,22.73,152.04,290312,,,D*43
$GPGGA,141214.000,3353.2021,N,09833.3573,W,2,04,2.0,339.8,M,-23.7,M,0.8,0000*40
$GPGSA,A,3,18,15,29,21,,,,,,,,,2.2,2.0,1.0*34
$GPGSV,3,1,12,15,65,084,38,21,62,331,31,18,56,284,33,29,45,183,35*7E
$GPGSV,3,2,12,26,27,044,31,22,17,258,29,27,16,111,31,06,14,317,27*78
$GPGSV,3,3,12,09,11,134,23,16,05,295,,03,03,323,,05,03,063,*79
$GPRMC,141214.000,A,3353.2021,N,09833.3573,W,23.65,151.42,290312,,,D*44
$GPGGA,141215.000,3353.1958,N,09833.3534,W,2,04,2.0,342.6,M,-23.7,M,0.8,0000*44
$GPGSA,A,3,18,15,29,21,,,,,,,,,2.2,2.0,1.0*34
$GPRMC,141215.000,A,3353.1958,N,09833.3534,W,24.71,150.51,290312,,,D*43
$GPGGA,141216.000,3353.1895,N,09833.3491,W,2,04,2.0,343.9,M,-23.7,M,1.8,0000*46
$GPGSA,A,3,18,15,29,21,,,,,,,,,2.2,2.0,1.0*34
$GPRMC,141216.000,A,3353.1895,N,09833.3491,W,25.53,149.33,290312,,,D*43
$GPGGA,141217.000,3353.1831,N,09833.3445,W,2,04,2.0,344.9,M,-23.7,M,2.8,0000*44
$GPGSA,A,3,18,15,29,21,,,,,,,,,2.2,2.0,1.0*34
$GPRMC,141217.000,A,3353.1831,N,09833.3445,W,26.43,147.46,290312,,,D*4B
$GPGGA,141218.000,3353.1773,N,09833.3392,W,2,04,2.0,342.7,M,-23.7,M,3.8,0000*46
$GPGSA,A,3,18,15,29,21,,,,,,,,,2.2,2.0,1.0*34
$GPRMC,141218.000,A,3353.1773,N,09833.3392,W,26.99,144.43,290312,,,D*41
$GPGGA,141219.000,3353.1718,N,09833.3334,W,2,03,2.5,339.4,M,-23.7,M,4.8,0000*4C
$GPGSA,A,2,15,29,21,,,,,,,,,,2.7,2.5,1.0*3C
$GPGSV,3,1,12,15,65,084,38,21,62,331,24,18,56,284,,29,45,183,26*78
$GPGSV,3,2,12,26,27,044,34,22,17,258,30,27,16,111,23,06,14,317,21*70
$GPGSV,3,3,12,09,11,134,20,16,05,295,,03,03,323,19,05,03,063,*72
$GPRMC,141219.000,A,3353.1718,N,09833.3334,W,27.68,141.14,290312,,,D*49
$GPGGA,141220.000,3353.1662,N,09833.3271,W,2,04,2.0,338.9,M,-23.7,M,0.8,0000*40
$GPGSA,A,3,18,15,29,21,,,,,,,,,2.2,2.0,1.0*34
$GPRMC,141220.000,A,3353.1662,N,09833.3271,W,28.59,136.91,290312,,,D*4F
$GPGGA,141221.000,3353.1614,N,09833.3199,W,2,04,2.0,336.6,M,-23.7,M,0.8,0000*44
$GPGSA,A,3,18,15,29,21,,,,,,,,,2.2,2.0,1.0*34
$GPRMC,141221.000,A,3353.1614,N,09833.3199,W,28.50,134.78,290312,,,D*46
$GPGGA,141222.000,3353.1560,N,09833.3123,W,2,04,2.0,331.5,M,-23.7,M,1.8,0000*43
$GPGSA,A,3,18,15,29,21,,,,,,,,,2.2,2.0,1.0*34
$GPRMC,141222.000,A,3353.1560,N,09833.3123,W,29.36,133.96,290312,,,D*42
$GPGGA,141223.000,3353.1507,N,09833.3049,W,2,04,2.0,331.6,M,-23.7,M,2.8,0000*4E
$GPGSA,A,3,18,15,29,21,,,,,,,,,2.2,2.0,1.0*34
$GPRMC,141223.000,A,3353.1507,N,09833.3049,W,29.55,131.28,290312,,,D*4D
$GPGGA,141224.000,3353.1455,N,09833.2971,W,2,03,4.3,330.5,M,-23.7,M,3.8,0000*4D
$GPGSA,A,2,18,15,21,,,,,,,,,,4.4,4.3,1.0*3B
$GPGSV,3,1,12,15,65,084,38,21,62,331,33,18,56,284,31,29,45,183,*78
$GPGSV,3,2,12,26,27,044,35,22,17,258,25,27,16,111,31,06,14,317,20*77
$GPGSV,3,3,12,09,11,134,34,16,05,295,,03,03,323,25,05,03,063,*78
$GPRMC,141224.000,A,3353.1455,N,09833.2971,W,30.20,129.59,290312,,,D*4A
$GPGGA,141225.000,3353.1404,N,09833.2889,W,2,03,4.3,329.7,M,-23.7,M,0.8,0000*47
$GPGSA,A,2,18,15,21,,,,,,,,,,4.4,4.3,1.0*3B
$GPRMC,141225.000,A,3353.1404,N,09833.2889,W,30.62,127.48,290312,,,D*41
$GPGGA,141226.000,3353.1355,N,09833.2806,W,2,04,2.0,330.0,M,-23.7,M,1.8,0000*4C
$GPGSA,A,3,18,15,29,21,,,,,,,,,2.2,2.0,1.0*34
$GPRMC,141226.000,A,3353.1355,N,09833.2806,W,30.82,124.38,290312,,,D*4C
$GPGGA,141227.000,3353.1301,N,09833.2719,W,2,04,2.0,328.1,M,-23.7,M,0.8,0000*44
$GPGSA,A,3,18,15,29,21,,,,,,,,,2.2,2.0,1.0*34
$GPRMC,141227.000,A,3353.1301,N,09833.2719,W,31.05,121.13,290312,,,D*4F
$GPGGA,141228.000,3353.1262,N,09833.2622,W,2,04,2.0,325.2,M,-23.7,M,0.8,0000*48
$GPGSA,A,3,18,15,29,21,,,,,,,,,2.2,2.0,1.0*34
$GPRMC,141228.000,A,3353.1262,N,09833.2622,W,31.79,118.06,290312,,,D*48
$GPGGA,141229.000,3353.1236,N,09833.2513,W,2,04,2.0,316.2,M,-23.7,M,0.8,0000*49
$GPGSA,A,3,18,15,29,21,,,,,,,,,2.2,2.0,1.0*34
$GPGSV,3,1,12,15,65,084,39,21,62,331,22,18,56,284,24,29,45,183,32*7C
$GPGSV,3,2,12,26,27,044,36,22,17,258,28,27,16,111,22,06,14,317,21*7A
$GPGSV,3,3,12,09,11,134,24,16,05,295,,03,03,323,13,05,03,063,*7C
$GPRMC,141229.000,A,3353.1236,N,09833.2513,W,31.80,115.16,290312,,,D*43
$GPGGA,141230.000,3353.1198,N,09833.2414,W,2,04,2.0,316.8,M,-23.7,M,1.8,0000*4B
$GPGSA,A,3,18,15,29,21,,,,,,,,,2.2,2.0,1.0*34
$GPRMC,141230.000,A,3353.1198,N,09833.2414,W,32.16,112.66,290312,,,D*46
$GPGGA,141231.000,3353.1163,N,09833.2312,W,2,04,2.0,317.7,M,-23.7,M,2.8,0000*42
$GPGSA,A,3,18,15,29,21,,,,,,,,,2.2,2.0,1.0*34
$GPRMC,141231.000,A,3353.1163,N,09833.2312,W,32.62,109.83,290312,,,D*40
$GPGGA,141232.000,3353.1138,N,09833.2206,W,2,04,2.0,318.6,M,-23.7,M,3.8,0000*44
$GPGSA,A,3,18,15,29,21,,,,,,,,,2.2,2.0,1.0*34
$GPRMC,141232.000,A,3353.1138,N,09833.2206,W,32.95,106.97,290312,,,D*4B
$GPGGA,141233.000,3353.1120,N,09833.2097,W,2,04,2.0,319.6,M,-23.7,M,4.8,0000*40
$GPGSA,A,3,18,15,29,21,,,,,,,,,2.2,2.0,1.0*34
$GPRMC,141233.000,A,3353.1120,N,09833.2097,W,33.20,102.74,290312,,,D*4F
$GPGGA,141234.000,3353.1102,N,09833.1987,W,2,04,2.0,321.3,M,-23.7,M,5.8,0000*43
$GPGSA,A,3,18,15,29,21,,,,,,,,,2.2,2.0,1.0*34
$GPGSV,3,1,12,15,65,084,39,21,62,331,27,18,56,284,33,29,45,183,29*75
$GPGSV,3,2,12,26,27,044,40,22,17,258,27,27,16,111,31,06,14,317,30*76
$GPGSV,3,3,12,09,11,134,21,16,05,295,,03,03,323,13,05,03,063,*79
$GPRMC,141234.000,A,3353.1102,N,09833.1987,W,33.53,100.94,290312,,,D*4B
$GPGGA,141235.000,3353.1083,N,09833.1876,W,2,04,2.0,323.5,M,-23.7,M,6.8,0000*42
$GPGSA,A,3,18,15,29,21,,,,,,,,,2.2,2.0,1.0*34
$GPRMC,141235.000,A,3353.1083,N,09833.1876,W,33.76,99.69,290312,,,D*79
$GPGGA,141236.000,3353.1072,N,09833.1763,W,2,04,2.0,322.1,M,-23.7,M,7.8,0000*40
$GPGSA,A,3,18,15,29,21,,,,,,,,,2.2,2.0,1.0*34
$GPRMC,141236.000,A,3353.1072,N,09833.1763,W,34.02,99.07,290312,,,D*73
$GPGGA,141237.000,3353.1057,N,09833.1651,W,2,04,2.0,323.8,M,-23.7,M,0.8,0000*49
$GPGSA,A,3,18,15,29,21,,,,,,,,,2.2,2.0,1.0*34
$GPRMC,141237.000,A,3353.1057,N,09833.1651,W,34.25,97.94,290312,,,D*74
$GPGGA,141238.000,3353.1044,N,09833.1537,W,2,03,2.2,324.3,M,-23.7,M,0.8,0000*4E
$GPGSA,A,2,18,15,29,,,,,,,,,,2.4,2.2,1.0*32
$GPRMC,141238.000,A,3353.1044,N,09833.1537,W,34.40,98.56,290312,,,D*78
$GPGGA,141239.000,3353.1027,N,09833.1424,W,2,04,2.0,325.1,M,-23.7,M,0.8,0000*4F
$GPGSA,A,3,18,15,29,21,,,,,,,,,2.2,2.0,1.0*34
$GPGSV,3,1,12,15,65,084,39,21,62,331,18,18,56,284,34,29,45,183,30*76
$GPGSV,3,2,12,26,27,044,39,22,17,258,28,27,16,111,,06,14,317,21*75
$GPGSV,3,3,12,09,11,134,23,16,05,295,17,03,03,323,13,05,03,063,*7D
$GPRMC,141239.000,A,3353.1027,N,09833.1424,W,34.69,98.11,290312,,,D*77
$GPGGA,141240.000,3353.1009,N,09833.1311,W,2,04,2.0,327.8,M,-23.7,M,1.8,0000*46
$GPGSA,A,3,18,15,29,21,,,,,,,,,2.2,2.0,1.0*34
$GPRMC,141240.000,A,3353.1009,N,09833.1311,W,34.58,98.42,290312,,,D*70
$GPGGA,141241.000,3353.1001,N,09833.1196,W,2,04,2.0,326.7,M,-23.7,M,0.8,0000*4D
$GPGSA,A,3,18,15,29,21,,,,,,,,,2.2,2.0,1.0*34
$GPRMC,141241.000,A,3353.1001,N,09833.1196,W,34.90,97.20,290312,,,D*7B
$GPGGA,141242.000,3353.0988,N,09833.1082,W,2,04,2.0,328.1,M,-23.7,M,1.8,0000*4A
$GPGSA,A,3,18,15,29,21,,,,,,,,,2.2,2.0,1.0*34
$GPRMC,141242.000,A,3353.0988,N,09833.1082,W,35.15,98.88,290312,,,D*74
$GPGGA,141243.000,3353.0972,N,09833.0968,W,2,04,2.0,328.7,M,-23.7,M,2.8,0000*47
$GPGSA,A,3,18,15,29,21,,,,,,,,,2.2,2.0,1.0*34
$GPRMC,141243.000,A,3353.0972,N,09833.0968,W,34.88,100.93,290312,,,D*43
$GPGGA,141244.000,3353.0945,N,09833.0857,W,2,04,2.0,329.2,M,-23.7,M,3.8,0000*4C
$GPGSA,A,3,18,15,29,21,,,,,,,,,2.2,2.0,1.0*34
$GPGSV,3,1,12,15,65,084,39,21,62,331,32,18,56,284,34,29,45,183,37*79
$GPGSV,3,2,12,26,27,044,38,22,17,258,21,27,16,111,33,06,14,317,27*7B
$GPGSV,3,3,12,09,11,134,19,16,05,295,17,03,03,323,,05,03,063,*76
$GPRMC,141244.000,A,3353.0945,N,09833.0857,W,34.65,105.98,290312,,,D*40
$GPGGA,141245.000,3353.0905,N,09833.0752,W,2,04,2.0,330.1,M,-23.7,M,0.8,0000*4B
$GPGSA,A,3,18,15,29,21,,,,,,,,,2.2,2.0,1.0*34
$GPRMC,141245.000,A,3353.0905,N,09833.0752,W,34.33,111.68,290312,,,D*46
$GPGGA,141246.000,3353.0858,N,09833.0650,W,2,04,2.0,330.5,M,-23.7,M,1.8,0000*47
$GPGSA,A,3,18,15,29,21,,,,,,,,,2.2,2.0,1.0*34
$GPRMC,141246.000,A,3353.0858,N,09833.0650,W,34.01,116.36,290312,,,D*42
$GPGGA,141247.000,3353.0808,N,09833.0553,W,2,04,2.0,331.2,M,-23.7,M,2.8,0000*46
$GPGSA,A,3,18,15,29,21,,,,,,,,,2.2,2.0,1.0*34
$GPRMC,141247.000,A,3353.0808,N,09833.0553,W,33.79,119.77,290312,,,D*44
$GPGGA,141248.000,3353.0748,N,09833.0464,W,2,04,2.0,332.0,M,-23.7,M,3.8,0000*47
$GPGSA,A,3,18,15,29,21,,,,,,,,,2.2,2.0,1.0*34
$GPRMC,141248.000,A,3353.0748,N,09833.0464,W,33.68,126.29,290312,,,D*42
$GPGGA,141249.000,3353.0686,N,09833.0379,W,2,04,2.0,332.5,M,-23.7,M,4.8,0000*4C
$GPGSA,A,3,18,15,29,21,,,,,,,,,2.2,2.0,1.0*34
$GPGSV,3,1,12,15,65,083,39,21,62,332,32,18,56,285,31,29,45,183,24*7B
$GPGSV,3,2,12,26,27,044,35,22,17,258,27,27,17,111,29,06,14,317,24*79
$GPGSV,3,3,12,09,11,134,34,16,05,294,16,03,03,322,,05,03,063,*78
$GPRMC,141249.000,A,3353.0686,N,09833.0379,W,33.15,130.58,290312,,,D*40
$GPGGA,141250.000,3353.0618,N,09833.0303,W,2,04,2.0,333.0,M,-23.7,M,0.8,0000*4E
$GPGSA,A,3,18,15,29,21,,,,,,,,,2.2,2.0,1.0*34
$GPRMC,141250.000,A,3353.0618,N,09833.0303,W,32.60,135.96,290312,,,D*46
$GPGGA,141251.000,3353.0542,N,09833.0236,W,2,04,2.0,333.4,M,-23.7,M,0.8,0000*40
$GPGSA,A,3,18,15,29,21,,,,,,,,,2.2,2.0,1.0*34
$GPRMC,141251.000,A,3353.0542,N,09833.0236,W,32.98,142.90,290312,,,D*4D
$GPGGA,141252.000,3353.0462,N,09833.0175,W,2,03,2.5,332.9,M,-23.7,M,1.8,0000*4B
$GPGSA,A,2,15,29,21,,,,,,,,,,2.7,2.5,1.0*3C
$GPRMC,141252.000,A,3353.0462,N,09833.0175,W,33.39,147.34,290312,,,D*48
$GPGGA,141253.000,3353.0377,N,09833.0121,W,2,04,2.0,332.7,M,-23.7,M,2.8,0000*47
$GPGSA,A,3,18,15,29,21,,,,,,,,,2.2,2.0,1.0*34
$GPRMC,141253.000,A,3353.0377,N,09833.0121,W,33.46,151.69,290312,,,D*4C
$GPGGA,141254.000,3353.0292,N,09833.0072,W,2,04,2.0,332.6,M,-23.7,M,3.8,0000*4D
$GPGSA,A,3,18,15,29,21,,,,,,,,,2.2,2.0,1.0*34
$GPGSV,3,1,12,15,65,083,39,21,62,332,28,18,56,285,21,29,45,183,36*72
$GPGSV,3,2,12,26,27,044,36,22,17,258,35,27,17,111,29,06,14,317,30*7C
$GPGSV,3,3,12,09,11,134,26,16,05,294,,03,03,322,,05,03,063,*7C
$GPRMC,141254.000,A,3353.0292,N,09833.0072,W,33.13,153.31,290312,,,D*49
$GPGGA,141255.000,3353.0208,N,09833.0018,W,2,04,2.0,330.8,M,-23.7,M,0.8,0000*4C
$GPGSA,A,3,18,15,29,21,,,,,,,,,2.2,2.0,1.0*34
$GPRMC,141255.000,A,3353.0208,N,09833.0018,W,33.50,152.52,290312,,,D*44
$GPGGA,141256.000,3353.0125,N,09832.9965,W,2,04,2.0,329.2,M,-23.7,M,0.8,0000*4A
$GPGSA,A,3,18,15,29,21,,,,,,,,,2.2,2.0,1.0*34
$GPRMC,141256.000,A,3353.0125,N,09832.9965,W,33.08,152.94,290312,,,D*47
$GPGGA,141257.000,3353.0042,N,09832.9921,W,2,04,2.0,330.1,M,-23.7,M,0.8,0000*40
$GPGSA,A,3,18,15,29,21,,,,,,,,,2.2,2.0,1.0*34
$GPRMC,141257.000,A,3353.0042,N,09832.9921,W,32.68,153.52,290312,,,D*4A
$GPGGA,141258.000,3352.9960,N,09832.9868,W,2,04,2.0,328.6,M,-23.7,M,0.8,0000*4C
$GPGSA,A,3,18,15,29,21,,,,,,,,,2.2,2.0,1.0*34
$GPRMC,141258.000,A,3352.9960,N,09832.9868,W,33.08,152.91,290312,,,D*41
$GPGGA,141259.000,3352.9877,N,09832.9818,W,2,04,2.0,328.2,M,-23.7,M,1.8,0000*48
$GPGSA,A,3,18,15,29,21,,,,,,,,,2.2,2.0,1.0*34
$GPGSV,3,1,12,15,65,083,39,21,62,332,28,18,56,285,21,29,45,183,37*73
$GPGSV,3,2,12,26,27,044,35,22,17,258,35,27,17,111,31,06,14,317,29*7E
$GPGSV,3,3,12,09,11,134,28,16,05,294,,03,03,322,,05,03,063,*72
$GPRMC,141259.000,A,3352.9877,N,09832.9818,W,33.18,152.83,290312,,,D*42
$GPGGA,141300.000,3352.9794,N,09832.9770,W,2,04,2.0,328.4,M,-23.7,M,2.8,0000*43
$GPGSA,A,3,18,15,29,21,,,,,,,,,2.2,2.0,1.0*34
$GPRMC,141300.000,A,3352.9794,N,09832.9770,W,32.84,153.50,290312,,,D*47
$GPGGA,141301.000,3352.9710,N,09832.9728,W,2,04,2.0,329.8,M,-23.7,M,0.8,0000*4C
$GPGSA,A,3,18,15,29,21,,,,,,,,,2.2,2.0,1.0*34
$GPRMC,141301.000,A,3352.9710,N,09832.9728,W,32.72,153.66,290312,,,D*4B
$GPGGA,141302.000,3352.9628,N,09832.9683,W,2,04,2.0,330.5,M,-23.7,M,0.8,0000*40
$GPGSA,A,3,18,15,29,21,,,,,,,,,2.2,2.0,1.0*34
$GPRMC,141302.000,A,3352.9628,N,09832.9683,W,32.50,153.61,290312,,,D*45
$GPGGA,141303.000,3352.9547,N,09832.9638,W,2,04,2.0,331.2,M,-23.7,M,0.8,0000*4D
$GPGSA,A,3,18,15,29,21,,,,,,,,,2.2,2.0,1.0*34
$GPRMC,141303.000,A,3352.9547,N,09832.9638,W,31.89,152.77,290312,,,D*4F
$GPGGA,141304.000,3352.9470,N,09832.9588,W,2,04,2.0,330.3,M,-23.7,M,1.8,0000*46
$GPGSA,A,3,18,15,29,21,,,,,,,,,2.2,2.0,1.0*34
$GPGSV,3,1,12,15,65,083,38,21,62,332,29,18,56,285,20,29,45,183,37*72
$GPGSV,3,2,12,26,27,044,35,22,17,258,37,27,17,111,32,06,14,317,29*7F
$GPGSV,3,3,12,09,11,134,25,16,05,294,,03,03,322,,05,03,063,*7F
$GPRMC,141304.000,A,3352.9470,N,09832.9588,W,30.87,152.58,290312,,,D*47
$GPGGA,141305.000,3352.9396,N,09832.9541,W,2,04,2.0,329.6,M,-23.7,M,2.8,0000*43
$GPGSA,A,3,18,15,29,21,,,,,,,,,2.2,2.0,1.0*34
$GPRMC,141305.000,A,3352.9396,N,09832.9541,W,30.10,152.20,290312,,,D*4D
$GPGGA,141306.000,3352.9323,N,09832.9500,W,2,04,2.0,330.0,M,-23.7,M,3.8,0000*44
$GPGSA,A,3,18,15,29,21,,,,,,,,,2.2,2.0,1.0*34
$GPRMC,141306.000,A,3352.9323,N,09832.9500,W,28.90,152.91,290312,,,D*4E
$GPGGA,141307.000,3352.9252,N,09832.9459,W,2,04,2.0,330.1,M,-23.7,M,0.8,0000*4D
$GPGSA,A,3,18,15,29,21,,,,,,,,,2.2,2.0,1.0*34
$GPRMC,141307.000,A,3352.9252,N,09832.9459,W,28.17,153.52,290312,,,D*44
$GPGGA,141308.000,3352.9183,N,09832.9420,W,2,04,2.0,330.3,M,-23.7,M,0.8,0000*41
$GPGSA,A,3,18,15,29,21,,,,,,,,,2.2,2.0,1.0*34
$GPRMC,141308.000,A,3352.9183,N,09832.9420,W,28.08,153.15,290312,,,D*47
$GPGGA,141309.000,3352.9113,N,09832.9384,W,2,04,2.0,331.5,M,-23.7,M,0.8,0000*47
$GPGSA,A,3,18,15,29,21,,,,,,,,,2.2,2.0,1.0*34
$GPGSV,3,1,12,15,65,083,38,21,62,332,29,18,56,285,25,29,45,183,37*77
$GPGSV,3,2,12,26,27,044,36,22,17,258,29,27,17,111,32,06,14,317,26*7C
$GPGSV,3,3,12,09,11,134,27,16,05,294,,03,03,322,,05,03,063,*7D
$GPRMC,141309.000,A,3352.9113,N,09832.9384,W,27.83,153.69,290312,,,D*41
$GPGGA,141310.000,3352.9043,N,09832.9347,W,2,04,2.0,332.2,M,-23.7,M,1.8,0000*41
$GPGSA,A,3,18,15,29,21,,,,,,,,,2.2,2.0,1.0*34
$GPRMC,141310.000,A,3352.9043,N,09832.9347,W,27.94,153.78,290312,,,D*44
$GPGGA,141311.000,3352.8973,N,09832.9310,W,2,04,2.0,332.8,M,-23.7,M,2.8,0000*40
$GPGSA,A,3,18,15,29,21,,,,,,,,,2.2,2.0,1.0*34
$GPRMC,141311.000,A,3352.8973,N,09832.9310,W,27.81,153.74,290312,,,D*44
$GPGGA,141312.000,3352.8904,N,09832.9271,W,2,04,2.0,333.0,M,-23.7,M,3.8,0000*4D
$GPGSA,A,3,18,15,29,21,,,,,,,,,2.2,2.0,1.0*34
$GPRMC,141312.000,A,3352.8904,N,09832.9271,W,27.62,153.55,290312,,,D*4F
$GPGGA,141313.000,3352.8836,N,09832.9233,W,2,04,2.0,333.2,M,-23.7,M,0.8,0000*4B
$GPGSA,A,3,18,15,29,21,,,,,,,,,2.2,2.0,1.0*34
$GPRMC,141313.000,A,3352.8836,N,09832.9233,W,27.42,153.47,290312,,,D*49
$GPGGA,141314.000,3352.8768,N,09832.9193,W,2,04,2.0,333.3,M,-23.7,M,0.8,0000*40
$GPGSA,A,3,18,15,29,21,,,,,,,,,2.2,2.0,1.0*34
$GPGSV,3,1,12,15,65,082,37,21,62,332,29,18,57,285,27,29,45,183,37*7A
$GPGSV,3,2,12,26,26,044,36,22,17,258,36,27,17,111,29,06,14,317,29*76
$GPGSV,3,3,12,09,11,134,27,16,05,294,,03,04,322,16,05,03,063,*7D
$GPRMC,141314.000,A,3352.8768,N,09832.9193,W,27.33,153.21,290312,,,D*45
$GPGGA,141315.000,3352.8700,N,09832.9154,W,2,04,2.0,333.6,M,-23.7,M,0.8,0000*41
$GPGSA,A,3,18,15,29,21,,,,,,,,,2.2,2.0,1.0*34
$GPRMC,141315.000,A,3352.8700,N,09832.9154,W,27.56,153.04,290312,,,D*45
$GPGGA,141316.000,3352.8631,N,09832.9113,W,2,04,2.0,333.9,M,-23.7,M,0.8,0000*4D
$GPGSA,A,3,18,15,29,21,,,,,,,,,2.2,2.0,1.0*34
$GPRMC,141316.000,A,3352.8631,N,09832.9113,W,27.89,152.96,290312,,,D*4E
$GPGGA,141317.000,3352.8561,N,09832.9072,W,2,04,2.0,334.0,M,-23.7,M,0.8,0000*42
$GPGSA,A,3,18,15,29,21,,,,,,,,,2.2,2.0,1.0*34
$GPRMC,141317.000,A,3352.8561,N,09832.9072,W,28.22,153.34,290312,,,D*48
$GPGGA,141318.000,3352.8491,N,09832.9032,W,2,04,2.0,334.2,M,-23.7,M,1.8,0000*44
$GPGSA,A,3,18,15,29,21,,,,,,,,,2.2,2.0,1.0*34
$GPRMC,141318.000,A,3352.8491,N,09832.9032,W,28.34,154.12,290312,,,D*49
$GPGGA,141319.000,3352.8420,N,09832.8992,W,2,04,2.0,334.3,M,-23.7,M,0.8,0000*4D
$GPGSA,A,3,18,15,29,21,,,,,,,,,2.2,2.0,1.0*34
$GPGSV,3,1,12,15,65,082,37,21,62,332,29,18,57,285,27,29,45,183,37*7A
$GPGSV,3,2,12,26,26,044,35,22,18,258,37,27,17,111,36,06,14,317,29*75
$GPGSV,3,3,12,09,11,134,26,16,05,294,,03,04,322,16,05,03,063,*7C
$GPRMC,141319.000,A,3352.8420,N,09832.8992,W,28.19,154.81,290312,,,D*45
$GPGGA,141320.000,3352.8349,N,09832.8955,W,2,04,2.0,334.5,M,-23.7,M,0.8,0000*42
$GPGSA,A,3,18,15,29,21,,,,,,,,,2.2,2.0,1.0*34
$GPRMC,141320.000,A,3352.8349,N,09832.8955,W,27.75,155.70,290312,,,D*46
$GPGGA,141321.000,3352.8302,N,09832.8902,W,2,05,1.7,314.0,M,-23.7,M,0.8,0000*4C
$GPGSA,A,3,18,15,29,26,21,,,,,,,,3.7,1.7,3.3*31
$GPRMC,141321.000,A,3352.8302,N,09832.8902,W,27.12,156.80,290312,,,D*47
$GPGGA,141322.000,3352.8237,N,09832.8867,W,2,05,1.7,310.3,M,-23.7,M,0.8,0000*4D
$GPGSA,A,3,18,15,29,26,21,,,,,,,,3.7,1.7,3.3*31
$GPRMC,141322.000,A,3352.8237,N,09832.8867,W,26.62,158.40,290312,,,D*45
$GPGGA,141323.000,3352.8170,N,09832.8837,W,2,05,1.7,308.7,M,-23.7,M,1.8,0000*45
$GPGSA,A,3,18,15,29,26,21,,,,,,,,3.7,1.7,3.3*31
$GPRMC,141323.000,A,3352.8170,N,09832.8837,W,26.03,160.55,290312,,,D*49
$GPGGA,141324.000,3352.8104,N,09832.8811,W,2,05,1.7,307.7,M,-23.7,M,2.8,0000*49
$GPGSA,A,3,18,15,29,26,21,,,,,,,,3.7,1.7,3.3*31
$GPGSV,3,1,12,15,65,082,37,21,62,332,31,18,57,285,32,29,45,183,28*79
$GPGSV,3,2,12,26,26,044,36,22,18,258,33,27,17,111,27,06,14,317,29*72
$GPGSV,3,3,12,09,11,134,26,16,05,294,,03,04,322,,05,03,063,*7B
$GPRMC,141324.000,A,3352.8104,N,09832.8811,W,25.44,162.55,290312,,,D*4B
$GPGGA,141325.000,3352.8038,N,09832.8787,W,2,05,1.7,307.0,M,-23.7,M,0.8,0000*43
$GPGSA,A,3,18,15,29,26,21,,,,,,,,3.7,1.7,3.3*31
$GPRMC,141325.000,A,3352.8038,N,09832.8787,W,24.91,164.31,290312,,,D*49
$GPGGA,141326.000,3352.7973,N,09832.8767,W,2,05,1.7,306.0,M,-23.7,M,0.8,0000*46
$GPGSA,A,3,18,15,29,26,21,,,,,,,,3.7,1.7,3.2*30
$GPRMC,141326.000,A,3352.7973,N,09832.8767,W,24.48,165.45,290312,,,D*4B
$GPGGA,141327.000,3352.7910,N,09832.8748,W,2,05,1.7,306.2,M,-23.7,M,0.8,0000*4D
$GPGSA,A,3,18,15,29,26,21,,,,,,,,3.7,1.7,3.2*30
$GPRMC,141327.000,A,3352.7910,N,09832.8748,W,22.88,166.50,290312,,,D*4F
$GPGGA,141328.000,3352.7853,N,09832.8733,W,2,05,1.7,306.0,M,-23.7,M,1.8,0000*4B
$GPGSA,A,3,18,15,29,26,21,,,,,,,,3.7,1.7,3.2*30
$GPRMC,141328.000,A,3352.7853,N,09832.8733,W,20.37,167.81,290312,,,D*41
$GPGGA,141329.000,3352.7803,N,09832.8723,W,2,05,1.7,305.6,M,-23.7,M,2.8,0000*48
$GPGSA,A,3,18,15,29,26,21,,,,,,,,3.6,1.7,3.2*31
$GPGSV,3,1,12,15,65,082,29,21,62,332,23,18,57,285,22,29,45,183,37*7A
$GPGSV,3,2,12,26,26,044,35,22,18,258,27,27,17,111,,06,14,317,22*7A
$GPGSV,3,3,12,09,11,134,26,16,05,294,,03,04,322,,05,03,063,*7B
$GPRMC,141329.000,A,3352.7803,N,09832.8723,W,17.63,169.22,290312,,,D*46
$GPGGA,141330.000,3352.7760,N,09832.8717,W,2,05,1.7,305.0,M,-23.7,M,3.8,0000*4A
$GPGSA,A,3,18,15,29,26,21,,,,,,,,3.6,1.7,3.2*31
$GPRMC,141330.000,A,3352.7760,N,09832.8717,W,15.41,170.55,290312,,,D*49
$GPGGA,141331.000,3352.7724,N,09832.8713,W,2,05,1.7,304.3,M,-23.7,M,4.8,0000*4A
$GPGSA,A,3,18,15,29,26,21,,,,,,,,3.6,1.7,3.2*31
$GPRMC,141331.000,A,3352.7724,N,09832.8713,W,13.11,170.39,290312,,,D*45
$GPGGA,141332.000,3352.7697,N,09832.8712,W,2,05,1.7,304.0,M,-23.7,M,5.8,0000*43
$GPGSA,A,3,18,15,29,26,21,,,,,,,,3.6,1.7,3.2*31
$GPRMC,141332.000,A,3352.7697,N,09832.8712,W,10.29,171.67,290312,,,D*4C
$GPGGA,141333.000,3352.7680,N,09832.8713,W,2,05,1.7,303.9,M,-23.7,M,6.8,0000*48
$GPGSA,A,3,18,15,29,26,21,,,,,,,,3.6,1.7,3.2*31
$GPRMC,141333.000,A,3352.7680,N,09832.8713,W,7.24,173.60,290312,,,D*74
$GPGGA,141334.000,3352.7673,N,09832.8715,W,2,05,1.7,303.8,M,-23.7,M,7.8,0000*45
$GPGSA,A,3,18,15,29,26,21,,,,,,,,3.6,1.7,3.2*31
$GPGSV,3,1,12,15,65,082,30,21,62,332,30,18,57,285,30,29,45,183,36*72
$GPGSV,3,2,12,26,26,044,27,22,18,258,22,27,17,111,,06,14,317,27*79
$GPGSV,3,3,12,09,11,134,32,16,05,294,,03,04,322,,05,03,063,*7E
$GPRMC,141334.000,A,3352.7673,N,09832.8715,W,3.88,175.13,290312,,,D*79
$GPGGA,141335.000,3352.7675,N,09832.8718,W,2,05,1.7,304.1,M,-23.7,M,8.8,0000*4E
$GPGSA,A,3,18,15,29,26,21,,,,,,,,3.6,1.7,3.2*31
$GPRMC,141335.000,A,3352.7675,N,09832.8718,W,1.31,171.00,290312,,,D*75
$GPGGA,141336.000,3352.7677,N,09832.8720,W,2,05,1.7,303.9,M,-23.7,M,9.8,0000*4A
$GPGSA,A,3,18,15,29,26,21,,,,,,,,3.6,1.7,3.2*31
$GPRMC,141336.000,A,3352.7677,N,09832.8720,W,0.28,165.77,290312,,,D*73
$GPGGA,141337.000,3352.7682,N,09832.8722,W,2,05,1.7,303.5,M,-23.7,M,10.8,0000*77
$GPGSA,A,3,18,15,29,26,21,,,,,,,,3.6,1.7,3.2*31
$GPRMC,141337.000,A,3352.7682,N,09832.8722,W,0.25,63.39,290312,,,D*4A
$GPGGA,141338.000,3352.7687,N,09832.8722,W,2,05,1.7,301.6,M,-23.7,M,11.8,0000*7D
$GPGSA,A,3,18,15,29,26,21,,,,,,,,3.6,1.7,3.2*31
$GPRMC,141338.000,A,3352.7687,N,09832.8722,W,0.08,106.91,290312,,,D*7F
$GPGGA,141339.000,3352.7690,N,09832.8722,W,2,05,1.7,300.5,M,-23.7,M,12.8,0000*7B
$GPGSA,A,3,18,15,29,26,21,,,,,,,,3.6,1.7,3.2*31
$GPGSV,3,1,12,15,65,082,30,21,62,332,23,18,57,285,29,29,45,183,35*7B
$GPGSV,3,2,12,26,26,044,26,22,18,258,23,27,17,111,33,06,14,317,27*79
$GPGSV,3,3,12,09,11,134,30,16,05,294,,03,04,322,,05,03,063,*7C
$GPRMC,141339.000,A,3352.7690,N,09832.8722,W,0.21,292.75,290312,,,D*77
$GPGGA,141340.000,3352.7691,N,09832.8724,W,2,05,1.7,300.2,M,-23.7,M,13.8,0000*74
$GPGSA,A,3,18,15,29,26,21,,,,,,,,3.6,1.7,3.2*31
$GPRMC,141340.000,A,3352.7691,N,09832.8724,W,0.17,119.76,290312,,,D*78
$GPGGA,141341.000,3352.7692,N,09832.8724,W,2,05,1.7,299.3,M,-23.7,M,14.8,0000*71
$GPGSA,A,3,18,15,29,26,21,,,,,,,,3.6,1.7,3.2*31
$GPRMC,141341.000,A,3352.7692,N,09832.8724,W,0.36,181.14,290312,,,D*7C
$GPGGA,141342.000,3352.7692,N,09832.8724,W,2,05,1.7,299.3,M,-23.7,M,15.8,0000*73
$GPGSA,A,3,18,15,29,26,21,,,,,,,,3.6,1.7,3.2*31
$GPRMC,141342.000,A,3352.7692,N,09832.8724,W,0.37,159.14,290312,,,D*7B
$GPGGA,141343.000,3352.7692,N,09832.8725,W,2,05,1.7,299.6,M,-23.7,M,16.8,0000*75
$GPGSA,A,3,18,15,29,26,21,,,,,,,,3.6,1.7,3.2*31
$GPRMC,141343.000,A,3352.7692,N,09832.8725,W,0.07,164.67,290312,,,D*72
$GPGGA,141344.000,3352.7692,N,09832.8725,W,2,05,1.7,299.8,M,-23.7,M,17.8,0000*7D
$GPGSA,A,3,18,15,29,26,21,,,,,,,,3.6,1.7,3.2*31
$GPGSV,3,1,12,15,65,082,29,21,62,332,23,18,57,285,29,29,44,183,35*72
$GPGSV,3,2,12,26,26,044,25,22,18,259,23,27,17,111,33,06,15,317,28*75
$GPGSV,3,3,12,09,11,134,30,16,05,294,,03,04,322,,05,03,064,*7B
$GPRMC,141344.000,A,3352.7692,N,09832.8725,W,0.18,145.58,290312,,,D*74
$GPGGA,141345.000,3352.7693,N,09832.8726,W,1,05,1.7,300.2,M,-23.7,M,18.8,0000*79
$GPGSA,A,3,18,15,29,26,21,,,,,,,,3.6,1.7,3.2*31
$GPRMC,141345.000,A,3352.7693,N,09832.8726,W,0.25,140.00,290312,,,A*74
$GPGGA,141346.000,3352.7693,N,09832.8726,W,1,05,1.7,300.2,M,-23.7,M,18.8,0000*7A
$GPGSA,A,3,18,15,29,26,21,,,,,,,,3.6,1.7,3.2*31
$GPRMC,141346.000,A,3352.7693,N,09832.8726,W,0.04,55.36,290312,,,A*44
$GPGGA,141347.000,3352.7692,N,09832.8726,W,1,05,1.7,300.3,M,-23.7,M,18.8,0000*7B
$GPGSA,A,3,18,15,29,26,21,,,,,,,,3.6,1.7,3.2*31
$GPRMC,141347.000,A,3352.7692,N,09832.8726,W,0.37,178.33,290312,,,A*7F
$GPGGA,141348.000,3352.7687,N,09832.8725,W,1,05,1.7,300.4,M,-23.7,M,18.8,0000*74
$GPGSA,A,3,18,15,29,26,21,,,,,,,,3.6,1.7,3.2*31
$GPRMC,141348.000,A,3352.7687,N,09832.8725,W,1.79,172.01,290312,,,A*77
$GPGGA,141349.000,3352.7676,N,09832.8723,W,1,05,1.7,300.7,M,-23.7,M,18.8,0000*7E
$GPGSA,A,3,18,15,29,26,21,,,,,,,,3.6,1.7,3.2*31
$GPGSV,3,1,12,15,65,082,29,21,62,332,30,18,57,285,28,29,44,183,34*70
$GPGSV,3,2,12,26,26,044,31,22,18,259,23,27,17,111,33,06,15,317,28*70
$GPGSV,3,3,12,09,11,134,31,16,05,294,,03,04,322,20,05,03,064,*78
$GPRMC,141349.000,A,3352.7676,N,09832.8723,W,4.17,170.72,290312,,,A*75
$GPGGA,141350.000,3352.7656,N,09832.8719,W,1,05,1.7,300.9,M,-23.7,M,18.8,0000*73
$GPGSA,A,3,18,15,29,26,21,,,,,,,,3.6,1.7,3.2*31
$GPRMC,141350.000,A,3352.7656,N,09832.8719,W,7.35,171.22,290312,,,A*71
$GPGGA,141351.000,3352.7626,N,09832.8714,W,1,05,1.7,301.3,M,-23.7,M,18.8,0000*73
$GPGSA,A,3,18,15,29,26,21,,,,,,,,3.6,1.7,3.2*31
$GPRMC,141351.000,A,3352.7626,N,09832.8714,W,10.86,172.06,290312,,,A*41
$GPGGA,141352.000,3352.7586,N,09832.8707,W,1,05,1.7,301.6,M,-23.7,M,18.8,0000*7E
$GPGSA,A,3,18,15,29,26,21,,,,,,,,3.6,1.7,3.2*31
$GPRMC,141352.000,A,3352.7586,N,09832.8707,W,14.28,172.86,290312,,,A*41
$GPGGA,141353.000,3352.7538,N,09832.8701,W,1,05,1.7,301.9,M,-23.7,M,18.8,0000*73
$GPGSA,A,3,18,15,29,26,21,,,,,,,,3.6,1.7,3.2*31
$GPRMC,141353.000,A,3352.7538,N,09832.8701,W,17.14,173.84,290312,,,A*4C
$GPGGA,141354.000,3352.7484,N,09832.8694,W,1,05,1.7,302.0,M,-23.7,M,18.8,0000*75
$GPGSA,A,3,18,15,29,26,21,,,,,,,,3.6,1.7,3.2*31
$GPGSV,3,1,12,15,65,082,30,21,62,332,32,18,57,285,21,29,44,183,35*72
$GPGSV,3,2,12,26,26,044,25,22,18,259,26,27,17,111,23,06,15,317,31*79
$GPGSV,3,3,12,09,11,134,20,16,05,294,,03,04,322,16,05,03,064,*7D
$GPRMC,141354.000,A,3352.7484,N,09832.8694,W,19.48,174.26,290312,,,A*48
$GPGGA,141355.000,3352.7424,N,09832.8688,W,1,05,1.7,302.1,M,-23.7,M,18.8,0000*72
$GPGSA,A,3,18,15,29,26,21,,,,,,,,3.6,1.7,3.2*31
$GPRMC,141355.000,A,3352.7424,N,09832.8688,W,21.36,174.67,290312,,,A*49
$GPGGA,141356.000,3352.7361,N,09832.8675,W,1,04,3.7,302.2,M,-23.7,M,18.8,0000*75
$GPGSA,A,3,18,29,26,21,,,,,,,,,9.3,3.7,8.5*34
$GPRMC,141356.000,A,3352.7361,N,09832.8675,W,22.75,170.76,290312,,,A*4E
$GPGGA,141357.000,3352.7298,N,09832.8662,W,1,05,1.7,302.4,M,-23.7,M,18.8,0000*70
$GPGSA,A,3,18,15,29,26,21,,,,,,,,3.6,1.7,3.2*31
$GPRMC,141357.000,A,3352.7298,N,09832.8662,W,22.94,170.03,290312,,,A*43
$GPGGA,141358.000,3352.7236,N,09832.8653,W,1,05,1.7,302.6,M,-23.7,M,18.8,0000*7B
$GPGSA,A,3,18,15,29,26,21,,,,,,,,3.6,1.7,3.2*31
$GPRMC,141358.000,A,3352.7236,N,09832.8653,W,22.32,173.37,290312,,,A*42
$GPGGA,141359.000,3352.7167,N,09832.8650,W,1,05,1.7,302.7,M,-23.7,M,18.8,0000*7F
$GPGSA,A,3,18,15,29,26,21,,,,,,,,3.6,1.7,3.2*31
$GPGSV,3,1,12,15,65,082,21,21,62,332,18,18,57,285,21,29,44,183,22*7C
$GPGSV,3,2,12,26,26,044,22,22,18,259,20,27,17,111,18,06,15,317,19*7A
$GPGSV,3,3,12,09,11,134,32,16,05,294,,03,04,322,18,05,03,064,*70
$GPRMC,141359.000,A,3352.7167,N,09832.8650,W,24.43,177.88,290312,,,A*47
$GPGGA,141400.000,3352.7090,N,09832.8651,W,1,04,1.8,302.6,M,-23.7,M,18.8,0000*73
$GPGSA,A,3,18,15,29,26,,,,,,,,,3.9,1.8,3.4*34
$GPRMC,141400.000,A,3352.7090,N,09832.8651,W,27.24,179.83,290312,,,A*43
$GPGGA,141401.000,3352.7011,N,09832.8652,W,1,05,1.7,302.1,M,-23.7,M,18.8,0000*71
$GPGSA,A,3,18,15,29,26,21,,,,,,,,3.6,1.7,3.2*31
$GPRMC,141401.000,A,3352.7011,N,09832.8652,W,27.86,179.21,290312,,,A*48
$GPGGA,141402.000,3352.6931,N,09832.8650,W,1,05,1.7,301.8,M,-23.7,M,18.8,0000*70
$GPGSA,A,3,18,15,29,26,21,,,,,,,,3.6,1.7,3.2*31
$GPRMC,141402.000,A,3352.6931,N,09832.8650,W,28.26,177.70,290312,,,A*4C
$GPGGA,141403.000,3352.6850,N,09832.8646,W,1,05,1.7,301.8,M,-23.7,M,18.8,0000*70
$GPGSA,A,3,18,15,29,26,21,,,,,,,,3.6,1.7,3.2*31
$GPRMC,141403.000,A,3352.6850,N,09832.8646,W,28.31,176.69,290312,,,A*43
$GPGGA,141404.000,3352.6768,N,09832.8644,W,1,05,1.7,302.1,M,-23.7,M,18.8,0000*7B
$GPGSA,A,3,18,15,29,26,21,,,,,,,,3.6,1.7,3.2*31
$GPGSV,3,1,12,15,65,082,28,21,62,332,34,18,57,285,36,29,44,183,30*7E
$GPGSV,3,2,12,26,26,044,27,22,18,259,24,27,17,111,25,06,15,317,29*76
$GPGSV,3,3,12,09,11,134,31,16,05,294,,03,04,322,,05,03,064,*7A
$GPRMC,141404.000,A,3352.6768,N,09832.8644,W,28.57,177.65,290312,,,A*4F
$GPGGA,141405.000,3352.6687,N,09832.8639,W,1,05,1.7,302.7,M,-23.7,M,18.8,0000*76
$GPGSA,A,3,18,15,29,26,21,,,,,,,,3.6,1.7,3.2*31
$GPRMC,141405.000,A,3352.6687,N,09832.8639,W,28.43,176.11,290312,,,A*43
$GPGGA,141406.000,3352.6605,N,09832.8636,W,1,05,1.7,303.1,M,-23.7,M,18.8,0000*77
$GPGSA,A,3,18,15,29,26,21,,,,,,,,3.6,1.7,3.2*31
$GPRMC,141406.000,A,3352.6605,N,09832.8636,W,28.59,177.58,290312,,,A*42
$GPGGA,141407.000,3352.6522,N,09832.8636,W,1,05,1.7,303.3,M,-23.7,M,18.8,0000*72
$GPGSA,A,3,18,15,29,26,21,,,,,,,,3.6,1.7,3.2*31
$GPRMC,141407.000,A,3352.6522,N,09832.8636,W,28.68,179.16,290312,,,A*43
$GPGGA,141408.000,3352.6439,N,09832.8638,W,1,05,1.7,303.5,M,-23.7,M,18.8,0000*7E
$GPGSA,A,3,18,15,29,26,21,,,,,,,,3.6,1.7,3.2*31
$GPRMC,141408.000,A,3352.6439,N,09832.8638,W,28.85,180.15,290312,,,A*4F
$GPGGA,141409.000,3352.6356,N,09832.8642,W,1,05,1.7,303.7,M,-23.7,M,18.8,0000*7E
$GPGSA,A,3,18,15,29,26,21,,,,,,,,3.6,1.7,3.2*31
$GPGSV,3,1,12,15,65,082,32,21,62,332,34,18,57,285,36,29,44,183,29*7D
$GPGSV,3,2,12,26,26,044,31,22,18,259,28,27,17,111,19,06,15,317,30*7A
$GPGSV,3,3,12,09,11,134,31,16,05,294,,03,04,322,,05,03,064,*7A
$GPRMC,141409.000,A,3352.6356,N,09832.8642,W,29.05,181.34,290312,,,A*46
$GPGGA,141410.000,3352.6273,N,09832.8648,W,1,05,1.7,303.9,M,-23.7,M,18.8,0000*74
$GPGSA,A,3,18,15,29,26,21,,,,,,,,3.6,1.7,3.2*31
$GPRMC,141410.000,A,3352.6273,N,09832.8648,W,29.15,182.54,290312,,,A*46
$GPGGA,141411.000,3352.6190,N,09832.8656,W,1,05,1.7,303.9,M,-23.7,M,18.8,0000*74
$GPGSA,A,3,18,15,29,26,21,,,,,,,,3.6,1.7,3.2*31
$GPRMC,141411.000,A,3352.6190,N,09832.8656,W,29.04,183.64,290312,,,A*44
$GPGGA,141412.000,3352.6108,N,09832.8664,W,1,05,1.7,303.9,M,-23.7,M,18.8,0000*77
$GPGSA,A,3,18,15,29,26,21,,,,,,,,3.6,1.7,3.2*31
$GPRMC,141412.000,A,3352.6108,N,09832.8664,W,28.84,184.27,290312,,,A*4E
$GPGGA,141413.000,3352.6026,N,09832.8674,W,1,05,1.7,303.9,M,-23.7,M,18.8,0000*7A
$GPGSA,A,3,18,15,29,26,21,,,,,,,,3.6,1.7,3.2*31
$GPRMC,141413.000,A,3352.6026,N,09832.8674,W,29.02,184.85,290312,,,A*44
$GPGGA,141414.000,3352.5943,N,09832.8684,W,1,05,1.7,303.8,M,-23.7,M,18.8,0000*7A
$GPGSA,A,3,18,15,29,26,21,,,,,,,,3.6,1.7,3.2*31
$GPGSV,3,1,12,15,65,081,33,21,62,332,33,18,57,286,35,29,44,183,33*73
$GPGSV,3,2,12,26,26,044,33,22,18,259,27,27,17,110,29,06,15,316,27*72
$GPGSV,3,3,12,09,12,134,31,16,05,294,29,03,04,322,,05,03,064,*72
$GPRMC,141414.000,A,3352.5943,N,09832.8684,W,29.20,185.16,290312,,,A*4E
$GPGGA,141415.000,3352.5861,N,09832.8695,W,1,05,1.7,303.7,M,-23.7,M,18.8,0000*75
$GPGSA,A,3,18,15,29,26,21,,,,,,,,3.6,1.7,3.2*31
$GPRMC,141415.000,A,3352.5861,N,09832.8695,W,29.20,185.53,290312,,,A*4F
$GPGGA,141416.000,3352.5778,N,09832.8706,W,1,05,1.7,303.5,M,-23.7,M,18.8,0000*78
$GPGSA,A,3,18,15,29,26,21,,,,,,,,3.6,1.7,3.2*31
$GPRMC,141416.000,A,3352.5778,N,09832.8706,W,29.50,185.99,290312,,,A*41
$GPGGA,141417.000,3352.5694,N,09832.8718,W,1,05,1.7,303.5,M,-23.7,M,18.8,0000*75
$GPGSA,A,3,18,15,29,26,21,,,,,,,,3.6,1.7,3.2*31
$GPRMC,141417.000,A,3352.5694,N,09832.8718,W,29.85,186.01,290312,,,A*46
$GPGGA,141418.000,3352.5609,N,09832.8730,W,1,05,1.7,303.4,M,-23.7,M,18.8,0000*75
$GPGSA,A,3,18,15,29,26,21,,,,,,,,3.6,1.7,3.2*31
$GPRMC,141418.000,A,3352.5609,N,09832.8730,W,30.24,185.87,290312,,,A*49
$GPGGA,141419.000,3352.5525,N,09832.8741,W,1,05,1.7,303.3,M,-23.7,M,18.8,0000*78
$GPGSA,A,3,18,15,29,26,21,,,,,,,,3.6,1.7,3.2*31
$GPGSV,3,1,12,15,65,081,34,21,62,332,32,18,57,286,36,29,44,183,34*71
$GPGSV,3,2,12,26,26,043,32,22,18,259,22,27,17,110,23,06,15,316,24*78
$GPGSV,3,3,12,09,12,134,24,16,05,294,25,03,04,322,19,05,02,064,*73
$GPRMC,141419.000,A,3352.5525,N,09832.8741,W,30.24,185.73,290312,,,A*48
$GPGGA,141420.000,3352.5440,N,09832.8752,W,1,05,1.7,303.3,M,-23.7,M,18.8,0000*72
$GPGSA,A,3,18,15,29,26,21,,,,,,,,3.6,1.7,3.2*31
$GPRMC,141420.000,A,3352.5440,N,09832.8752,W,30.25,185.46,290312,,,A*45
$GPGGA,141421.000,3352.5355,N,09832.8762,W,1,05,1.7,303.2,M,-23.7,M,18.8,0000*72
$GPGSA,A,3,18,15,29,26,21,,,,,,,,3.6,1.7,3.2*31
$GPRMC,141421.000,A,3352.5355,N,09832.8762,W,30.41,184.77,290312,,,A*45
$GPGGA,141422.000,3352.5270,N,09832.8770,W,1,05,1.7,303.2,M,-23.7,M,18.8,0000*74
$GPGSA,A,3,18,15,29,26,21,,,,,,,,3.6,1.7,3.2*31
$GPRMC,141422.000,A,3352.5270,N,09832.8770,W,30.71,183.85,290312,,,A*4A
$GPGGA,141423.000,3352.5183,N,09832.8775,W,1,05,1.7,303.2,M,-23.7,M,18.8,0000*7F
$GPGSA,A,3,18,15,29,26,21,,,,,,,,3.6,1.7,3.2*31
$GPRMC,141423.000,A,3352.5183,N,09832.8775,W,31.02,182.35,290312,,,A*4E
$GPGGA,141424.000,3352.5096,N,09832.8778,W,1,05,1.7,303.2,M,-23.7,M,18.8,0000*70
$GPGSA,A,3,18,15,29,26,21,,,,,,,,3.6,1.7,3.2*31
$GPGSV,3,1,12,15,65,081,32,21,62,332,31,18,57,286,35,29,44,183,29*7B
$GPGSV,3,2,12,26,26,043,31,22,18,259,26,27,17,110,29,06,15,316,24*75
$GPGSV,3,3,12,09,12,134,30,16,05,294,25,03,04,322,18,05,02,064,*77
$GPRMC,141424.000,A,3352.5096,N,09832.8778,W,31.41,181.03,290312,,,A*40
$GPGGA,141425.000,3352.5007,N,09832.8779,W,1,05,1.7,303.1,M,-23.7,M,18.8,0000*7B
$GPGSA,A,3,18,15,29,26,21,,,,,,,,3.6,1.7,3.2*31
$GPRMC,141425.000,A,3352.5007,N,09832.8779,W,31.67,179.94,290312,,,A*45
$GPGGA,141426.000,3352.4919,N,09832.8779,W,1,05,1.7,303.1,M,-23.7,M,18.8,0000*7F
$GPGSA,A,3,18,15,29,26,21,,,,,,,,3.6,1.7,3.2*31
$GPRMC,141426.000,A,3352.4919,N,09832.8779,W,31.92,178.94,290312,,,A*4A
$GPGGA,141427.000,3352.4829,N,09832.8775,W,1,05,1.7,303.1,M,-23.7,M,18.8,0000*70
$GPGSA,A,3,18,15,29,26,21,,,,,,,,3.6,1.7,3.2*31
$GPRMC,141427.000,A,3352.4829,N,09832.8775,W,32.13,177.79,290312,,,A*43
$GPGGA,141428.000,3352.4741,N,09832.8770,W,1,05,1.7,303.3,M,-23.7,M,18.8,0000*79
$GPGSA,A,3,18,15,29,26,21,,,,,,,,3.6,1.7,3.2*31
$GPRMC,141428.000,A,3352.4741,N,09832.8770,W,31.92,176.76,290312,,,A*4C
$GPGGA,141429.000,3352.4653,N,09832.8764,W,1,05,1.7,303.5,M,-23.7,M,18.8,0000*79
$GPGSA,A,3,18,15,29,26,21,,,,,,,,3.6,1.7,3.2*31
$GPGSV,3,1,12,15,65,081,27,21,62,332,32,18,57,286,35,29,44,183,35*71
$GPGSV,3,2,12,26,26,043,28,22,18,259,25,27,17,110,28,06,15,316,20*7B
$GPGSV,3,3,12,09,12,134,25,16,05,294,23,03,04,322,18,05,02,064,*75
$GPRMC,141429.000,A,3352.4653,N,09832.8764,W,31.66,176.87,290312,,,A*4F
$GPGGA,141430.000,3352.4565,N,09832.8762,W,1,05,1.7,303.6,M,-23.7,M,18.8,0000*72
$GPGSA,A,3,18,15,29,26,21,,,,,,,,3.6,1.7,3.2*31
$GPRMC,141430.000,A,3352.4565,N,09832.8762,W,31.30,178.64,290312,,,A*47
$GPGGA,141431.000,3352.4480,N,09832.8760,W,1,05,1.7,303.5,M,-23.7,M,18.8,0000*78
$GPGSA,A,3,18,15,29,26,21,,,,,,,,3.6,1.7,3.2*31
$GPRMC,141431.000,A,3352.4480,N,09832.8760,W,30.82,178.57,290312,,,A*46
$GPGGA,141432.000,3352.4395,N,09832.8754,W,1,05,1.7,303.5,M,-23.7,M,18.8,0000*7F
$GPGSA,A,3,18,15,29,26,21,,,,,,,,3.6,1.7,3.2*31
$GPRMC,141432.000,A,3352.4395,N,09832.8754,W,30.35,176.29,290312,,,A*4A
$GPGGA,141433.000,3352.4313,N,09832.8745,W,1,06,1.6,303.5,M,-23.7,M,,0000*6D
$GPGSA,A,3,18,15,29,27,26,21,,,,,,,3.2,1.6,2.8*3A
$GPRMC,141433.000,A,3352.4313,N,09832.8745,W,29.62,174.09,290312,,,A*4F
$GPGGA,141434.000,3352.4233,N,09832.8731,W,1,06,1.6,303.4,M,-23.7,M,,0000*6B
$GPGSA,A,3,18,15,29,27,26,21,,,,,,,3.2,1.6,2.8*3A
$GPGSV,3,1,12,15,65,081,27,21,63,333,24,18,57,286,24,29,44,183,35*76
$GPGSV,3,2,12,26,26,043,33,22,18,259,30,27,17,110,29,06,15,316,30*75
$GPGSV,3,3,12,09,12,134,26,16,05,294,10,03,04,322,17,05,02,064,*79
$GPRMC,141434.000,A,3352.4233,N,09832.8731,W,29.21,171.17,290312,,,A*45
$GPGGA,141435.000,3352.4154,N,09832.8716,W,1,06,1.6,303.3,M,-23.7,M,,0000*6A
$GPGSA,A,3,18,15,29,27,26,21,,,,,,,3.2,1.6,2.8*3A
$GPRMC,141435.000,A,3352.4154,N,09832.8716,W,28.77,171.04,290312,,,A*43
$GPGGA,141436.000,3352.4076,N,09832.8705,W,1,06,1.6,303.3,M,-23.7,M,,0000*6A
$GPGSA,A,3,18,15,29,27,26,21,,,,,,,3.2,1.6,2.8*3A
$GPRMC,141436.000,A,3352.4076,N,09832.8705,W,28.12,173.07,290312,,,A*41
$GPGGA,141437.000,3352.4000,N,09832.8699,W,1,06,1.6,303.4,M,-23.7,M,,0000*69
$GPGSA,A,3,18,15,29,27,26,21,,,,,,,3.2,1.6,2.8*3A
$GPRMC,141437.000,A,3352.4000,N,09832.8699,W,27.51,175.75,290312,,,A*4E
$GPGGA,141438.000,3352.3925,N,09832.8696,W,1,06,1.6,303.5,M,-23.7,M,,0000*61
$GPGSA,A,3,18,15,29,27,26,21,,,,,,,3.2,1.6,2.8*3A
$GPRMC,141438.000,A,3352.3925,N,09832.8696,W,26.95,178.07,290312,,,A*46
$GPGGA,141439.000,3352.3851,N,09832.8693,W,1,06,1.6,303.5,M,-23.7,M,,0000*67
$GPGSA,A,3,18,15,29,27,26,21,,,,,,,3.2,1.6,2.8*3A
$GPGSV,3,1,12,15,65,081,28,21,63,333,32,18,57,286,36,29,44,183,33*7B
$GPGSV,3,2,12,26,26,043,32,22,18,259,23,27,17,110,21,06,15,316,24*7B
$GPGSV,3,3,12,09,12,134,27,16,05,294,26,03,04,322,19,05,02,064,*73
$GPRMC,141439.000,A,3352.3851,N,09832.8693,W,26.54,178.28,290312,,,A*40
$GPGGA,141440.000,3352.3779,N,09832.8692,W,1,06,1.6,303.6,M,-23.7,M,,0000*6E
$GPGSA,A,3,18,15,29,27,26,21,,,,,,,3.2,1.6,2.8*3A
$GPRMC,141440.000,A,3352.3779,N,09832.8692,W,26.09,179.09,290312,,,A*40
$GPGGA,141441.000,3352.3706,N,09832.8691,W,1,06,1.6,303.5,M,-23.7,M,,0000*67
$GPGSA,A,3,18,15,29,27,26,21,,,,,,,3.2,1.6,2.8*3A
$GPRMC,141441.000,A,3352.3706,N,09832.8691,W,26.26,179.21,290312,,,A*4D
$GPGGA,141442.000,3352.3633,N,09832.8691,W,1,06,1.6,303.3,M,-23.7,M,,0000*65
$GPGSA,A,3,18,15,29,27,26,21,,,,,,,3.2,1.6,2.8*3A
$GPRMC,141442.000,A,3352.3633,N,09832.8691,W,26.28,179.61,290312,,,A*43
$GPGGA,141443.000,3352.3561,N,09832.8693,W,1,06,1.6,303.0,M,-23.7,M,,0000*61
$GPGSA,A,3,18,15,29,27,26,21,,,,,,,3.2,1.6,2.8*3A
$GPRMC,141443.000,A,3352.3561,N,09832.8693,W,26.03,180.91,290312,,,A*44
$GPGGA,141444.000,3352.3490,N,09832.8697,W,1,06,1.6,302.5,M,-23.7,M,,0000*69
$GPGSA,A,3,18,15,29,27,26,21,,,,,,,3.2,1.6,2.8*3A
$GPGSV,3,1,12,15,65,081,26,21,63,333,31,18,57,286,36,29,44,183,32*77
$GPGSV,3,2,12,26,26,043,31,22,18,259,23,27,17,110,21,06,15,316,18*77
$GPGSV,3,3,12,09,12,134,30,16,05,294,14,03,04,322,14,05,02,064,*79
$GPRMC,141444.000,A,3352.3490,N,09832.8697,W,25.74,181.78,290312,,,A*4D
$GPGGA,141445.000,3352.3420,N,09832.8701,W,1,06,1.6,302.0,M,-23.7,M,,0000*68
$GPGSA,A,3,18,15,29,27,26,21,,,,,,,3.2,1.6,2.8*3A
$GPRMC,141445.000,A,3352.3420,N,09832.8701,W,25.07,182.10,290312,,,A*40
$GPGGA,141446.000,3352.3358,N,09832.8706,W,1,06,1.6,301.5,M,-23.7,M,,0000*62
$GPGSA,A,3,18,15,29,27,26,21,,,,,,,3.2,1.6,2.8*3A
$GPRMC,141446.000,A,3352.3358,N,09832.8706,W,22.56,182.82,290312,,,A*44
$GPGGA,141447.000,3352.3302,N,09832.8710,W,1,06,1.6,301.0,M,-23.7,M,,0000*6E
$GPGSA,A,3,18,15,29,27,26,21,,,,,,,3.2,1.6,2.8*3A
$GPRMC,141447.000,A,3352.3302,N,09832.8710,W,20.02,182.42,290312,,,A*42
$GPGGA,141448.000,3352.3253,N,09832.8714,W,1,06,1.6,300.6,M,-23.7,M,,0000*67
$GPGSA,A,3,18,15,29,27,26,21,,,,,,,3.2,1.6,2.8*3A
$GPRMC,141448.000,A,3352.3253,N,09832.8714,W,17.57,182.68,290312,,,A*40
$GPGGA,141449.000,3352.3208,N,09832.8717,W,1,06,1.6,300.1,M,-23.7,M,,0000*6C
$GPGSA,A,3,18,15,29,27,26,21,,,,,,,3.2,1.6,2.8*3A
$GPGSV,3,1,12,15,65,081,32,21,63,333,27,18,57,286,35,29,44,183,33*77
$GPGSV,3,2,12,26,26,043,32,22,18,259,20,27,17,110,28,06,15,316,22*77
$GPGSV,3,3,12,09,12,134,,16,05,293,13,03,04,322,,05,02,064,*7F
$GPRMC,141449.000,A,3352.3208,N,09832.8717,W,16.31,182.54,290312,,,A*42
$GPGGA,141450.000,3352.3164,N,09832.8720,W,1,06,1.6,299.7,M,-23.7,M,,0000*6E
$GPGSA,A,3,18,15,29,27,26,21,,,,,,,3.2,1.6,2.8*3A
$GPRMC,141450.000,A,3352.3164,N,09832.8720,W,15.77,182.15,290312,,,A*43
$GPGGA,141451.000,3352.3121,N,09832.8723,W,1,06,1.6,299.3,M,-23.7,M,,0000*69
$GPGSA,A,3,18,15,29,27,26,21,,,,,,,3.2,1.6,2.8*3A
$GPRMC,141451.000,A,3352.3121,N,09832.8723,W,15.48,182.77,290312,,,A*48
$GPGGA,141452.000,3352.3077,N,09832.8727,W,1,06,1.6,298.9,M,-23.7,M,,0000*67
$GPGSA,A,3,18,15,29,27,26,21,,,,,,,3.2,1.6,2.8*3A
$GPRMC,141452.000,A,3352.3077,N,09832.8727,W,15.88,183.40,290312,,,A*44
$GPGGA,141453.000,3352.3030,N,09832.8730,W,1,06,1.6,298.6,M,-23.7,M,,0000*6C
$GPGSA,A,3,18,15,29,27,26,21,,,,,,,3.2,1.6,2.8*3A
$GPRMC,141453.000,A,3352.3030,N,09832.8730,W,16.89,182.74,290312,,,A*44
$GPGGA,141454.000,3352.2981,N,09832.8733,W,1,06,1.6,298.4,M,-23.7,M,,0000*68
$GPGSA,A,3,18,15,29,27,26,21,,,,,,,3.2,1.6,2.8*3A
$GPGSV,3,1,12,15,65,081,31,21,63,333,28,18,57,286,35,29,44,183,33*7B
$GPGSV,3,2,12,26,26,043,31,22,18,259,25,27,17,110,25,06,15,316,28*76
$GPGSV,3,3,12,09,12,134,25,16,05,293,25,03,04,322,14,05,02,064,*78
$GPRMC,141454.000,A,3352.2981,N,09832.8733,W,17.75,182.28,290312,,,A*49
$GPGGA,141455.000,3352.2929,N,09832.8734,W,1,06,1.6,298.2,M,-23.7,M,,0000*6A
$GPGSA,A,3,18,15,29,27,26,21,,,,,,,3.2,1.6,2.8*3A
$GPRMC,141455.000,A,3352.2929,N,09832.8734,W,18.86,180.47,290312,,,A*45
$GPGGA,141456.000,3352.2875,N,09832.8735,W,1,06,1.6,298.0,M,-23.7,M,,0000*62
$GPGSA,A,3,18,15,29,27,26,21,,,,,,,3.2,1.6,2.8*3A
$GPRMC,141456.000,A,3352.2875,N,09832.8735,W,19.58,180.99,290312,,,A*4E
$GPGGA,141457.000,3352.2817,N,09832.8737,W,1,06,1.6,297.8,M,-23.7,M,,0000*62
$GPGSA,A,3,18,15,29,27,26,21,,,,,,,3.2,1.6,2.8*3A
$GPRMC,141457.000,A,3352.2817,N,09832.8737,W,20.83,181.52,290312,,,A*43
$GPGGA,141458.000,3352.2757,N,09832.8738,W,1,06,1.6,297.5,M,-23.7,M,,0000*64
$GPGSA,A,3,18,15,29,27,26,21,,,,,,,3.2,1.6,2.8*3A
$GPRMC,141458.000,A,3352.2757,N,09832.8738,W,21.79,180.16,290312,,,A*4D
$GPGGA,141459.000,3352.2695,N,09832.8738,W,1,06,1.6,297.1,M,-23.7,M,,0000*6E
$GPGSA,A,3,18,15,29,27,26,21,,,,,,,3.2,1.6,2.8*3A
$GPGSV,3,1,12,15,65,080,28,21,63,333,33,18,57,286,31,29,44,183,30*7F
$GPGSV,3,2,12,26,26,043,22,22,18,259,28,27,17,110,24,06,15,316,29*79
$GPGSV,3,3,12,09,12,134,30,16,05,293,20,03,04,322,,05,02,064,*7C
$GPRMC,141459.000,A,3352.2695,N,09832.8738,W,22.42,180.04,290312,,,A*4B
$GPGGA,141500.000,3352.2632,N,09832.8740,W,1,06,1.6,296.8,M,-23.7,M,,0000*69
$GPGSA,A,3,18,15,29,27,26,21,,,,,,,3.2,1.6,2.8*3A
$GPRMC,141500.000,A,3352.2632,N,09832.8740,W,22.88,181.15,290312,,,A*43
$GPGGA,141501.000,3352.2567,N,09832.8741,W,1,06,1.6,296.4,M,-23.7,M,,0000*66
$GPGSA,A,3,18,15,29,27,26,21,,,,,,,3.2,1.6,2.8*3A
$GPRMC,141501.000,A,3352.2567,N,09832.8741,W,23.39,180.69,290312,,,A*41
$GPGGA,141502.000,3352.2501,N,09832.8742,W,1,06,1.6,295.9,M,-23.7,M,,0000*68
$GPGSA,A,3,18,15,29,27,26,21,,,,,,,3.2,1.6,2.8*3A
$GPRMC,141502.000,A,3352.2501,N,09832.8742,W,23.94,180.19,290312,,,A*41
$GPGGA,141503.000,3352.2433,N,09832.8742,W,1,07,1.1,295.6,M,-23.7,M,96.8,0000*79
$GPGSA,A,3,18,15,29,27,26,21,06,,,,,,1.9,1.1,1.5*3C
$GPRMC,141503.000,A,3352.2433,N,09832.8742,W,24.61,179.76,290312,,,A*42
$GPGGA,141504.000,3352.2363,N,09832.8742,W,1,07,1.1,295.2,M,-23.7,M,96.8,0000*78
$GPGSA,A,3,18,15,29,27,26,21,06,,,,,,1.9,1.1,1.5*3C
$GPGSV,3,1,12,15,65,080,27,21,63,333,32,18,57,286,32,29,44,183,29*7A
$GPGSV,3,2,12,26,26,043,17,22,18,259,28,27,17,110,25,06,15,316,29*7E
$GPGSV,3,3,12,09,12,134,28,16,05,293,19,03,04,322,14,05,02,064,*7A
$GPRMC,141504.000,A,3352.2363,N,09832.8742,W,25.26,179.86,290312,,,A*4A
$GPGGA,141505.000,3352.2291,N,09832.8743,W,1,07,1.1,295.0,M,-23.7,M,96.8,0000*76
$GPGSA,A,3,18,15,29,27,26,21,06,,,,,,1.9,1.1,1.5*3C
$GPRMC,141505.000,A,3352.2291,N,09832.8743,W,25.96,180.37,290312,,,A*41
$GPGGA,141506.000,3352.2218,N,09832.8743,W,1,07,1.1,294.7,M,-23.7,M,96.8,0000*72
$GPGSA,A,3,18,15,29,27,26,21,06,,,,,,1.9,1.1,1.5*3C
$GPRMC,141506.000,A,3352.2218,N,09832.8743,W,26.36,179.67,290312,,,A*49
$GPGGA,141507.000,3352.2143,N,09832.8742,W,1,07,1.1,294.5,M,-23.7,M,96.8,0000*7D
$GPGSA,A,3,18,15,29,27,26,21,06,,,,,,1.9,1.1,1.5*3C
$GPRMC,141507.000,A,3352.2143,N,09832.8742,W,27.10,179.59,290312,,,A*4C
$GPGGA,141508.000,3352.2066,N,09832.8742,W,1,07,1.1,294.5,M,-23.7,M,96.8,0000*74
$GPGSA,A,3,18,15,29,27,26,21,06,,,,,,1.9,1.1,1.5*3C
$GPRMC,141508.000,A,3352.2066,N,09832.8742,W,27.77,179.77,290312,,,A*48
$GPGGA,141509.000,3352.1988,N,09832.8742,W,1,07,1.1,294.5,M,-23.7,M,96.8,0000*7F
$GPGSA,A,3,18,15,29,27,26,21,06,,,,,,1.9,1.1,1.5*3C
$GPGSV,3,1,12,15,65,080,28,21,63,333,32,18,57,286,31,29,44,183,29*76
$GPGSV,3,2,12,26,26,043,18,22,18,259,28,27,17,110,25,06,15,316,27*7F
$GPGSV,3,3,12,09,12,134,29,16,05,293,19,03,04,322,15,05,02,064,*7A
$GPRMC,141509.000,A,3352.1988,N,09832.8742,W,27.96,179.71,290312,,,A*4A
$GPGGA,141510.000,3352.1911,N,09832.8740,W,1,07,1.1,294.5,M,-23.7,M,96.8,0000*75
$GPGSA,A,3,18,15,29,27,26,21,06,,,,,,1.9,1.1,1.5*3C
$GPRMC,141510.000,A,3352.1911,N,09832.8740,W,27.89,178.87,290312,,,A*46
$GPGGA,141511.000,3352.1833,N,09832.8740,W,1,07,1.1,294.5,M,-23.7,M,96.8,0000*75
$GPGSA,A,3,18,15,29,27,26,21,06,,,,,,1.9,1.1,1.5*3C
$GPRMC,141511.000,A,3352.1833,N,09832.8740,W,27.87,179.52,290312,,,A*41
$GPGGA,141512.000,3352.1756,N,09832.8740,W,1,07,1.1,294.6,M,-23.7,M,96.8,0000*79
$GPGSA,A,3,18,15,29,27,26,21,06,,,,,,1.9,1.1,1.5*3C
$GPRMC,141512.000,A,3352.1756,N,09832.8740,W,27.88,179.89,290312,,,A*47
$GPGGA,141513.000,3352.1679,N,09832.8741,W,1,07,1.1,294.6,M,-23.7,M,,0000*6C
$GPGSA,A,3,18,15,29,27,26,21,06,,,,,,1.9,1.1,1.5*3C
$GPRMC,141513.000,A,3352.1679,N,09832.8741,W,27.69,180.61,290312,,,A*44
$GPGGA,141514.000,3352.1602,N,09832.8743,W,1,07,1.1,294.6,M,-23.7,M,,0000*65
$GPGSA,A,3,18,15,29,27,26,21,06,,,,,,1.9,1.1,1.5*3C
$GPGSV,3,1,12,15,65,080,32,21,63,333,32,18,57,286,28,29,44,183,29*75
$GPGSV,3,2,12,26,26,043,27,22,18,259,27,27,17,110,24,06,15,316,24*7E
$GPGSV,3,3,12,09,12,134,29,16,05,293,21,03,04,322,16,05,02,064,*72
$GPRMC,141514.000,A,3352.1602,N,09832.8743,W,27.60,181.08,290312,,,A*4A
$GPGGA,141515.000,3352.1524,N,09832.8746,W,2,07,1.1,295.6,M,-23.7,M,0.8,0000*42
$GPGSA,A,3,18,15,29,27,26,21,06,,,,,,1.9,1.1,1.5*3C
$GPRMC,141515.000,A,3352.1524,N,09832.8746,W,27.85,180.24,290312,,,D*48
$GPGGA,141516.000,3352.1445,N,09832.8749,W,2,07,1.1,295.3,M,-23.7,M,0.8,0000*4D
$GPGSA,A,3,18,15,29,27,26,21,06,,,,,,1.9,1.1,1.5*3C
$GPRMC,141516.000,A,3352.1445,N,09832.8749,W,27.81,180.08,290312,,,D*48
$GPGGA,141517.000,3352.1367,N,09832.8751,W,2,07,1.1,294.8,M,-23.7,M,1.8,0000*49
$GPGSA,A,3,18,15,29,27,26,21,06,,,,,,1.9,1.1,1.5*3C
$GPRMC,141517.000,A,3352.1367,N,09832.8751,W,27.65,180.13,290312,,,D*47
$GPGGA,141518.000,3352.1290,N,09832.8752,W,2,07,1.1,294.6,M,-23.7,M,2.8,0000*41
$GPGSA,A,3,18,15,29,27,26,21,06,,,,,,1.9,1.1,1.5*3C
$GPRMC,141518.000,A,3352.1290,N,09832.8752,W,27.34,180.28,290312,,,D*4E
$GPGGA,141519.000,3352.1215,N,09832.8753,W,2,07,1.1,294.4,M,-23.7,M,0.8,0000*4C
$GPGSA,A,3,18,15,29,27,26,21,06,,,,,,1.9,1.1,1.5*3C
$GPGSV,3,1,12,15,65,080,32,21,63,333,32,18,57,286,33,29,44,183,28*7E
$GPGSV,3,2,12,26,26,043,28,22,18,259,27,27,17,110,21,06,15,316,27*77
$GPGSV,3,3,12,09,12,133,30,16,05,293,24,03,04,322,15,05,02,064,*7B
$GPRMC,141519.000,A,3352.1215,N,09832.8753,W,27.08,179.98,290312,,,D*41
$GPGGA,141520.000,3352.1140,N,09832.8754,W,2,07,1.1,294.4,M,-23.7,M,0.8,0000*42
$GPGSA,A,3,18,15,29,27,26,21,06,,,,,,1.9,1.1,1.5*3C
$GPRMC,141520.000,A,3352.1140,N,09832.8754,W,26.78,180.52,290312,,,D*49
$GPGGA,141521.000,3352.1066,N,09832.8756,W,2,07,1.1,294.3,M,-23.7,M,0.8,0000*43
$GPGSA,A,3,18,15,29,27,26,21,06,,,,,,1.9,1.1,1.5*3C
$GPRMC,141521.000,A,3352.1066,N,09832.8756,W,26.40,180.79,290312,,,D*4D
$GPGGA,141522.000,3352.0993,N,09832.8758,W,2,07,1.1,294.1,M,-23.7,M,0.8,0000*4E
$GPGSA,A,3,18,15,29,27,26,21,06,,,,,,1.9,1.1,1.5*3C
$GPRMC,141522.000,A,3352.0993,N,09832.8758,W,26.20,181.19,290312,,,D*43
$GPGGA,141523.000,3352.0920,N,09832.8760,W,2,07,1.1,294.1,M,-23.7,M,1.8,0000*4D
$GPGSA,A,3,18,15,29,27,26,21,06,,,,,,1.9,1.1,1.5*3C
$GPRMC,141523.000,A,3352.0920,N,09832.8760,W,26.57,180.97,290312,,,D*46
$GPGGA,141524.000,3352.0846,N,09832.8761,W,2,07,1.1,294.0,M,-23.7,M,0.8,0000*4A
$GPGSA,A,3,18,15,29,27,26,21,06,,,,,,1.9,1.1,1.5*3C
$GPGSV,3,1,12,15,65,080,31,21,63,333,32,18,57,286,34,29,44,183,29*7B
$GPGSV,3,2,12,26,26,043,28,22,18,259,27,27,17,110,22,06,15,316,27*74
$GPGSV,3,3,12,09,12,133,25,16,05,293,16,03,04,322,,05,02,064,*7A
$GPRMC,141524.000,A,3352.0846,N,09832.8761,W,27.00,180.64,290312,,,D*4E
$GPGGA,141525.000,3352.0771,N,09832.8764,W,2,07,1.1,294.2,M,-23.7,M,1.8,0000*46
$GPGSA,A,3,18,15,29,27,26,21,06,,,,,,1.9,1.1,1.5*3C
$GPRMC,141525.000,A,3352.0771,N,09832.8764,W,26.82,180.78,290312,,,D*47
$GPGGA,141526.000,3352.0696,N,09832.8766,W,2,07,1.1,294.4,M,-23.7,M,0.8,0000*48
$GPGSA,A,3,18,15,29,27,26,21,06,,,,,,1.9,1.1,1.5*3C
$GPRMC,141526.000,A,3352.0696,N,09832.8766,W,26.96,180.00,290312,,,D*44
$GPGGA,141527.000,3352.0621,N,09832.8767,W,2,07,1.1,294.8,M,-23.7,M,0.8,0000*48
$GPGSA,A,3,18,15,29,27,26,21,06,,,,,,1.9,1.1,1.5*3C
$GPRMC,141527.000,A,3352.0621,N,09832.8767,W,26.65,180.32,290312,,,D*45
$GPGGA,141528.000,3352.0547,N,09832.8771,W,2,07,1.1,294.8,M,-23.7,M,1.8,0000*42
$GPGSA,A,3,18,15,29,27,26,21,06,,,,,,1.9,1.1,1.5*3C
$GPRMC,141528.000,A,3352.0547,N,09832.8771,W,26.50,181.50,290312,,,D*4D
$GPGGA,141529.000,3352.0474,N,09832.8777,W,2,07,1.1,294.5,M,-23.7,M,2.8,0000*4A
$GPGSA,A,3,18,15,29,27,26,21,06,,,,,,1.9,1.1,1.5*3C
$GPGSV,3,1,12,15,65,080,31,21,63,333,32,18,57,286,30,29,44,183,37*70
$GPGSV,3,2,12,26,26,043,28,22,18,259,26,27,17,110,23,06,15,316,24*77
$GPGSV,3,3,12,09,12,133,27,16,05,293,17,03,04,322,,05,02,064,*79
$GPRMC,141529.000,A,3352.0474,N,09832.8777,W,26.35,184.50,290312,,,D*4D
$GPGGA,141530.000,3352.0402,N,09832.8787,W,2,07,1.1,294.5,M,-23.7,M,3.8,0000*4D
$GPGSA,A,3,18,15,29,27,26,21,06,,,,,,1.9,1.1,1.5*3C
$GPRMC,141530.000,A,3352.0402,N,09832.8787,W,26.27,188.19,290312,,,D*49
$GPGGA,141531.000,3352.0334,N,09832.8800,W,2,07,1.1,295.2,M,-23.7,M,0.8,0000*4B
$GPGSA,A,3,18,15,29,27,26,21,06,,,,,,1.9,1.1,1.5*3C
$GPRMC,141531.000,A,3352.0334,N,09832.8800,W,24.43,191.69,290312,,,D*45
$GPGGA,141532.000,3352.0273,N,09832.8821,W,2,06,1.2,295.6,M,-23.7,M,0.8,0000*4F
$GPGSA,A,3,15,29,27,26,21,06,,,,,,,2.0,1.2,1.6*3F
$GPRMC,141532.000,A,3352.0273,N,09832.8821,W,22.01,195.95,290312,,,D*40
$GPGGA,141533.000,3352.0224,N,09832.8850,W,2,06,1.2,295.6,M,-23.7,M,0.8,0000*4A
$GPGSA,A,3,15,29,27,26,21,06,,,,,,,2.0,1.2,1.6*3F
$GPRMC,141533.000,A,3352.0224,N,09832.8850,W,18.91,205.94,290312,,,D*4E
$GPGGA,141534.000,3352.0188,N,09832.8879,W,2,07,1.1,296.3,M,-23.7,M,1.8,0000*46
$GPGSA,A,3,18,15,29,27,26,21,06,,,,,,1.9,1.1,1.5*3C
$GPGSV,3,1,12,15,65,080,24,21,63,333,30,18,57,286,29,29,44,183,32*7B
$GPGSV,3,2,12,26,26,043,28,22,18,259,25,27,17,110,29,06,15,316,30*7B
$GPGSV,3,3,12,09,12,133,24,16,05,293,,03,04,322,15,05,02,064,*78
$GPRMC,141534.000,A,3352.0188,N,09832.8879,W,15.44,211.41,290312,,,D*4F
$GPGGA,141535.000,3352.0165,N,09832.8896,W,2,07,1.1,297.4,M,-23.7,M,2.8,0000*40
$GPGSA,A,3,18,15,29,27,26,21,06,,,,,,1.9,1.1,1.5*3C
$GPRMC,141535.000,A,3352.0165,N,09832.8896,W,11.44,211.88,290312,,,D*4D
$GPGGA,141536.000,3352.0154,N,09832.8902,W,2,07,1.1,298.2,M,-23.7,M,3.8,0000*45
$GPGSA,A,3,18,15,29,27,26,21,06,,,,,,1.9,1.1,1.5*3C
$GPRMC,141536.000,A,3352.0154,N,09832.8902,W,6.93,209.66,290312,,,D*75
$GPGGA,141537.000,3352.0148,N,09832.8904,W,2,07,1.1,297.8,M,-23.7,M,0.8,0000*49
$GPGSA,A,3,18,15,29,27,26,21,06,,,,,,1.9,1.1,1.5*3C
$GPRMC,141537.000,A,3352.0148,N,09832.8904,W,4.18,211.23,290312,,,D*76
$GPGGA,141538.000,3352.0148,N,09832.8910,W,2,07,1.1,298.2,M,-23.7,M,0.8,0000*46
$GPGSA,A,3,18,15,29,27,26,21,06,,,,,,1.9,1.1,1.5*3C
$GPRMC,141538.000,A,3352.0148,N,09832.8910,W,2.79,216.24,290312,,,D*7D
$GPGGA,141539.000,3352.0144,N,09832.8912,W,2,07,1.1,298.3,M,-23.7,M,0.8,0000*48
$GPGSA,A,3,18,15,29,27,26,21,06,,,,,,1.9,1.1,1.5*3C
$GPGSV,3,1,12,15,65,080,24,21,63,333,33,18,57,286,26,29,44,183,25*71
$GPGSV,3,2,12,26,26,043,21,22,18,259,24,27,17,110,25,06,15,316,35*7A
$GPGSV,3,3,12,09,12,133,30,16,05,293,,03,04,322,16,05,02,064,*7E
$GPRMC,141539.000,A,3352.0144,N,09832.8912,W,1.40,207.36,290312,,,D*78
$GPGGA,141540.000,3352.0141,N,09832.8914,W,2,07,1.1,298.3,M,-23.7,M,0.8,0000*45
$GPGSA,A,3,18,15,29,27,26,21,06,,,,,,1.9,1.1,1.5*3C
$GPRMC,141540.000,A,3352.0141,N,09832.8914,W,1.59,206.78,290312,,,D*76
$GPGGA,141541.000,3352.0132,N,09832.8921,W,2,07,1.1,298.8,M,-23.7,M,0.8,0000*4D
$GPGSA,A,3,18,15,29,27,26,21,06,,,,,,1.9,1.1,1.5*3C
$GPRMC,141541.000,A,3352.0132,N,09832.8921,W,3.26,211.10,290312,,,D*77
$GPGGA,141542.000,3352.0131,N,09832.8924,W,2,07,1.1,299.1,M,-23.7,M,1.8,0000*41
$GPGSA,A,3,18,15,29,27,26,21,06,,,,,,1.9,1.1,1.5*3C
$GPRMC,141542.000,A,3352.0131,N,09832.8924,W,4.44,210.57,290312,,,D*73
$GPGGA,141543.000,3352.0122,N,09832.8930,W,2,07,1.1,298.9,M,-23.7,M,0.8,0000*4F
$GPGSA,A,3,18,15,29,27,26,21,06,,,,,,1.9,1.1,1.5*3C
$GPRMC,141543.000,A,3352.0122,N,09832.8930,W,4.89,212.01,290312,,,D*75
$GPGGA,141544.000,3352.0111,N,09832.8940,W,2,07,1.1,298.1,M,-23.7,M,0.8,0000*47
$GPGSA,A,3,18,15,29,27,26,21,06,,,,,,1.9,1.1,1.5*3C
$GPGSV,3,1,12,15,65,080,25,21,63,333,31,18,57,286,27,29,44,183,27*71
$GPGSV,3,2,12,26,26,043,26,22,18,259,31,27,17,110,26,06,15,316,23*7D
$GPGSV,3,3,12,09,12,133,33,16,05,293,,03,04,322,16,05,02,064,*7D
$GPRMC,141544.000,A,3352.0111,N,09832.8940,W,4.73,210.59,290312,,,D*7F
$GPGGA,141545.000,3352.0095,N,09832.8951,W,2,07,1.1,297.9,M,-23.7,M,0.8,0000*4C
$GPGSA,A,3,18,15,29,27,26,21,06,,,,,,1.9,1.1,1.5*3C
$GPRMC,141545.000,A,3352.0095,N,09832.8951,W,6.51,202.17,290312,,,D*78
$GPGGA,141546.000,3352.0075,N,09832.8957,W,2,07,1.1,297.9,M,-23.7,M,1.8,0000*46
$GPGSA,A,3,18,15,29,27,26,21,06,,,,,,1.9,1.1,1.5*3C
$GPRMC,141546.000,A,3352.0075,N,09832.8957,W,7.96,187.82,290312,,,D*7B
$GPGGA,141547.000,3352.0049,N,09832.8956,W,2,07,1.1,298.5,M,-23.7,M,2.8,0000*49
$GPGSA,A,3,18,15,29,27,26,21,06,,,,,,1.9,1.1,1.5*3C
$GPRMC,141547.000,A,3352.0049,N,09832.8956,W,9.57,168.47,290312,,,D*7F
$GPGGA,141548.000,3352.0022,N,09832.8944,W,2,07,1.1,298.7,M,-23.7,M,3.8,0000*4B
$GPGSA,A,3,18,15,29,27,26,21,06,,,,,,1.9,1.1,1.5*3C
$GPRMC,141548.000,A,3352.0022,N,09832.8944,W,10.53,147.84,290312,,,D*40
$GPGGA,141549.000,3351.9997,N,09832.8917,W,2,07,1.1,298.3,M,-23.7,M,4.8,0000*42
$GPGSA,A,3,18,15,29,27,26,21,06,,,,,,1.9,1.1,1.5*3C
$GPGSV,3,1,12,15,65,080,38,21,63,333,31,18,57,286,33,29,44,183,27*78
$GPGSV,3,2,12,26,26,043,35,22,18,259,31,27,17,110,30,06,15,316,21*7A
$GPGSV,3,3,12,09,12,133,21,16,05,293,20,03,04,322,16,05,02,064,*7C
$GPRMC,141549.000,A,3351.9997,N,09832.8917,W,12.19,133.74,290312,,,D*4A
$GPGGA,141550.000,3351.9972,N,09832.8885,W,2,07,1.1,297.8,M,-23.7,M,0.8,0000*4B
$GPGSA,A,3,18,15,29,27,26,21,06,,,,,,1.9,1.1,1.5*3C
$GPRMC,141550.000,A,3351.9972,N,09832.8885,W,13.16,131.87,290312,,,D*43
$GPGGA,141551.000,3351.9943,N,09832.8850,W,2,07,1.1,297.9,M,-23.7,M,0.8,0000*41
$GPGSA,A,3,18,15,29,27,26,21,06,,,,,,1.9,1.1,1.5*3C
$GPRMC,141551.000,A,3351.9943,N,09832.8850,W,15.09,136.80,290312,,,D*40
$GPGGA,141552.000,3351.9907,N,09832.8816,W,2,07,1.1,297.6,M,-23.7,M,1.8,0000*4E
$GPGSA,A,3,18,15,29,27,26,21,06,,,,,,1.9,1.1,1.5*3C
$GPRMC,141552.000,A,3351.9907,N,09832.8816,W,16.29,143.77,290312,,,D*4A
$GPGGA,141553.000,3351.9858,N,09832.8788,W,2,07,1.1,297.0,M,-23.7,M,2.8,0000*49
$GPGSA,A,3,18,15,29,27,26,21,06,,,,,,1.9,1.1,1.5*3C
$GPRMC,141553.000,A,3351.9858,N,09832.8788,W,18.24,151.68,290312,,,D*46
$GPGGA,141554.000,3351.9806,N,09832.8763,W,2,07,1.1,296.7,M,-23.7,M,3.8,0000*47
$GPGSA,A,3,18,15,29,27,26,21,06,,,,,,1.9,1.1,1.5*3C
$GPGSV,3,1,12,15,65,080,36,21,63,333,32,18,57,286,28,29,44,183,33*7A
$GPGSV,3,2,12,26,26,043,36,22,18,259,33,27,17,110,32,06,15,316,26*7E
$GPGSV,3,3,12,09,12,133,30,16,05,293,24,03,04,322,,05,02,064,*7F
$GPRMC,141554.000,A,3351.9806,N,09832.8763,W,19.51,157.80,290312,,,D*4C
$GPGGA,141555.000,3351.9753,N,09832.8742,W,2,07,1.1,296.4,M,-23.7,M,0.8,0000*4A
$GPGSA,A,3,18,15,29,27,26,21,06,,,,,,1.9,1.1,1.5*3C
$GPRMC,141555.000,A,3351.9753,N,09832.8742,W,19.80,163.62,290312,,,D*46
$GPGGA,141556.000,3351.9697,N,09832.8727,W,2,07,1.1,296.2,M,-23.7,M,0.8,0000*45
$GPGSA,A,3,18,15,29,27,26,21,06,,,,,,1.9,1.1,1.5*3C
$GPRMC,141556.000,A,3351.9697,N,09832.8727,W,19.75,169.74,290312,,,D*48
$GPGGA,141557.000,3351.9640,N,09832.8720,W,2,07,1.1,296.7,M,-23.7,M,1.8,0000*4D
$GPGSA,A,3,18,15,29,27,26,21,06,,,,,,1.9,1.1,1.5*3C
$GPRMC,141557.000,A,3351.9640,N,09832.8720,W,19.77,174.36,290312,,,D*4C
$GPGGA,141558.000,3351.9583,N,09832.8718,W,2,07,1.1,297.0,M,-23.7,M,2.8,0000*40
$GPGSA,A,3,18,15,29,27,26,21,06,,,,,,1.9,1.1,1.5*3C
$GPRMC,141558.000,A,3351.9583,N,09832.8718,W,20.24,178.78,290312,,,D*4E
