$GPGGA,021639.000,3353.7548,N,09832.0227,W,2,08,1.2,320.7,M,-23.7,M,0.8,0000*4D
$GPGSA,A,3,08,11,19,07,23,03,13,01,,,,,2.1,1.2,1.8*3D
$GPGSV,3,1,12,07,72,028,30,19,50,061,33,13,45,184,37,08,44,322,29*73
$GPGSV,3,2,12,28,30,266,,11,30,127,32,03,17,044,31,23,17,168,37*7D
$GPGSV,3,3,12,01,12,139,25,06,06,040,25,17,06,207,,26,06,324,*75
$GPRMC,021639.000,A,3353.7548,N,09832.0227,W,0.12,164.46,010412,,,D*7D
$GPGGA,021640.000,3353.7549,N,09832.0227,W,2,08,1.2,321.1,M,-23.7,M,0.8,0000*45
$GPGSA,A,3,08,11,19,07,23,03,13,01,,,,,2.1,1.2,1.8*3D
$GPRMC,021640.000,A,3353.7549,N,09832.0227,W,0.16,124.95,010412,,,D*7C
$GPGGA,021641.000,3353.7549,N,09832.0227,W,2,08,1.2,321.2,M,-23.7,M,0.8,0000*47
$GPGSA,A,3,08,11,19,07,23,03,13,01,,,,,2.1,1.2,1.8*3D
$GPRMC,021641.000,A,3353.7549,N,09832.0227,W,0.17,108.99,010412,,,D*7E
$GPGGA,021642.000,3353.7549,N,09832.0228,W,2,08,1.2,321.3,M,-23.7,M,0.8,0000*4A
$GPGSA,A,3,08,11,19,07,23,03,13,01,,,,,2.1,1.2,1.8*3D
$GPRMC,021642.000,A,3353.7549,N,09832.0228,W,0.12,111.58,010412,,,D*72
$GPGGA,021643.000,3353.7549,N,09832.0229,W,2,08,1.2,321.2,M,-23.7,M,1.8,0000*4A
$GPGSA,A,3,08,11,19,07,23,03,13,01,,,,,2.1,1.2,1.8*3D
$GPRMC,021643.000,A,3353.7549,N,09832.0229,W,0.04,89.47,010412,,,D*4B
$GPGGA,021644.000,3353.7549,N,09832.0229,W,2,08,1.2,321.2,M,-23.7,M,0.8,0000*4C
$GPGSA,A,3,08,11,19,07,23,03,13,01,,,,,2.1,1.2,1.8*3D
$GPGSV,3,1,12,07,72,028,30,19,50,061,32,13,45,184,36,08,44,322,29*73
$GPGSV,3,2,12,28,30,266,,11,30,127,32,03,17,044,31,23,17,168,37*7D
$GPGSV,3,3,12,01,12,139,25,06,06,040,25,17,06,207,,26,06,324,*75
$GPRMC,021644.000,A,3353.7549,N,09832.0229,W,0.07,102.30,010412,,,D*7D
$GPGGA,021645.000,3353.7549,N,09832.0230,W,2,08,1.2,321.1,M,-23.7,M,0.8,0000*46
$GPGSA,A,3,08,11,19,07,23,03,13,01,,,,,2.1,1.2,1.8*3D
$GPRMC,021645.000,A,3353.7549,N,09832.0230,W,0.12,104.35,010412,,,D*73
$GPGGA,021646.000,3353.7549,N,09832.0230,W,2,08,1.2,321.2,M,-23.7,M,0.8,0000*46
$GPGSA,A,3,08,11,19,07,23,03,13,01,,,,,2.1,1.2,1.8*3D
$GPRMC,021646.000,A,3353.7549,N,09832.0230,W,0.13,97.45,010412,,,D*4D
$GPGGA,021647.000,3353.7549,N,09832.0231,W,2,08,1.2,321.2,M,-23.7,M,0.8,0000*46
$GPGSA,A,3,08,11,19,07,23,03,13,01,,,,,2.1,1.2,1.8*3D
$GPRMC,021647.000,A,3353.7549,N,09832.0231,W,0.06,158.36,010412,,,D*7F
$GPGGA,021648.000,3353.7549,N,09832.0232,W,2,08,1.2,321.2,M,-23.7,M,1.8,0000*4B
$GPGSA,A,3,08,11,19,07,23,03,13,01,,,,,2.1,1.2,1.8*3D
$GPRMC,021648.000,A,3353.7549,N,09832.0232,W,0.05,201.95,010412,,,D*76
$GPGGA,021649.000,3353.7549,N,09832.0232,W,2,08,1.2,321.3,M,-23.7,M,0.8,0000*4A
$GPGSA,A,3,08,11,19,07,23,03,13,01,,,,,2.1,1.2,1.8*3D
$GPGSV,3,1,12,07,72,028,30,19,50,061,33,13,45,184,36,08,44,322,29*72
$GPGSV,3,2,12,28,30,266,16,11,30,127,32,03,17,044,31,23,17,168,37*7A
$GPGSV,3,3,12,01,12,139,25,06,06,040,24,17,06,207,,26,06,324,*74
$GPRMC,021649.000,A,3353.7549,N,09832.0232,W,0.11,135.32,010412,,,D*7B
$GPGGA,021650.000,3353.7549,N,09832.0232,W,2,08,1.2,321.4,M,-23.7,M,1.8,0000*44
$GPGSA,A,3,08,11,19,07,23,03,13,01,,,,,2.1,1.2,1.8*3D
$GPRMC,021650.000,A,3353.7549,N,09832.0232,W,0.06,148.50,010412,,,D*7B
$GPGGA,021651.000,3353.7549,N,09832.0233,W,2,08,1.2,321.5,M,-23.7,M,0.8,0000*44
$GPGSA,A,3,08,11,19,07,23,03,13,01,,,,,2.1,1.2,1.8*3D
$GPRMC,021651.000,A,3353.7549,N,09832.0233,W,0.07,154.16,010412,,,D*75
$GPGGA,021652.000,3353.7548,N,09832.0233,W,2,08,1.2,321.5,M,-23.7,M,0.8,0000*46
$GPGSA,A,3,08,11,19,07,23,03,13,01,,,,,2.1,1.2,1.8*3D
$GPRMC,021652.000,A,3353.7548,N,09832.0233,W,0.08,155.50,010412,,,D*7B
$GPGGA,021653.000,3353.7548,N,09832.0233,W,2,08,1.2,321.5,M,-23.7,M,0.8,0000*47
$GPGSA,A,3,08,11,19,07,23,03,13,01,,,,,2.1,1.2,1.8*3D
$GPRMC,021653.000,A,3353.7548,N,09832.0233,W,0.13,98.78,010412,,,D*4A
$GPGGA,021654.000,3353.7548,N,09832.0234,W,2,08,1.2,321.5,M,-23.7,M,1.8,0000*46
$GPGSA,A,3,08,11,19,07,23,03,13,01,,,,,2.1,1.2,1.8*3D
$GPGSV,3,1,12,07,72,028,30,19,50,061,32,13,45,184,36,08,44,322,29*73
$GPGSV,3,2,12,28,30,266,15,11,30,127,32,03,17,044,31,23,17,168,37*79
$GPGSV,3,3,12,01,12,139,26,06,06,040,24,17,06,207,,26,06,324,*77
$GPRMC,021654.000,A,3353.7548,N,09832.0234,W,0.07,87.96,010412,,,D*41
$GPGGA,021655.000,3353.7549,N,09832.0234,W,2,08,1.2,321.6,M,-23.7,M,2.8,0000*46
$GPGSA,A,3,08,11,19,07,23,03,13,01,,,,,2.1,1.2,1.8*3D
$GPRMC,021655.000,A,3353.7549,N,09832.0234,W,0.07,86.10,010412,,,D*4E
$GPGGA,021656.000,3353.7549,N,09832.0234,W,2,08,1.2,321.6,M,-23.7,M,3.8,0000*44
$GPGSA,A,3,08,11,19,07,23,03,13,01,,,,,2.1,1.2,1.8*3D
$GPRMC,021656.000,A,3353.7549,N,09832.0234,W,0.06,90.95,010412,,,D*46
$GPGGA,021657.000,3353.7549,N,09832.0234,W,2,08,1.2,321.6,M,-23.7,M,0.8,0000*46
$GPGSA,A,3,08,11,19,07,23,03,13,01,,,,,2.1,1.2,1.8*3D
$GPRMC,021657.000,A,3353.7549,N,09832.0234,W,0.07,66.78,010412,,,D*4C
$GPGGA,021658.000,3353.7549,N,09832.0233,W,2,08,1.2,321.6,M,-23.7,M,0.8,0000*4E
$GPGSA,A,3,08,11,19,07,23,03,13,01,,,,,2.1,1.2,1.8*3D
$GPRMC,021658.000,A,3353.7549,N,09832.0233,W,0.07,90.65,010412,,,D*41
$GPGGA,021659.000,3353.7549,N,09832.0233,W,2,08,1.2,321.7,M,-23.7,M,0.8,0000*4E
$GPGSA,A,3,08,11,19,07,23,03,13,01,,,,,2.1,1.2,1.8*3D
$GPGSV,3,1,12,07,72,028,30,19,50,061,32,13,45,184,35,08,44,322,29*70
$GPGSV,3,2,12,28,30,266,14,11,30,127,33,03,17,044,31,23,17,168,36*78
$GPGSV,3,3,12,01,12,139,26,06,06,040,24,17,06,207,,26,06,324,*77
$GPRMC,021659.000,A,3353.7549,N,09832.0233,W,0.06,138.12,010412,,,D*72
$GPGGA,021700.000,3353.7549,N,09832.0233,W,2,08,1.2,321.7,M,-23.7,M,0.8,0000*43
$GPGSA,A,3,08,11,19,07,23,03,13,01,,,,,2.1,1.2,1.8*3D
$GPRMC,021700.000,A,3353.7549,N,09832.0233,W,0.05,132.01,010412,,,D*74
$GPGGA,021701.000,3353.7549,N,09832.0234,W,2,08,1.2,321.7,M,-23.7,M,1.8,0000*44
$GPGSA,A,3,08,11,19,07,23,03,13,01,,,,,2.1,1.2,1.8*3D
$GPRMC,021701.000,A,3353.7549,N,09832.0234,W,0.06,133.76,010412,,,D*70
$GPGGA,021702.000,3353.7549,N,09832.0234,W,2,08,1.2,321.8,M,-23.7,M,2.8,0000*4B
$GPGSA,A,3,08,11,19,07,23,03,13,01,,,,,2.1,1.2,1.8*3D
$GPRMC,021702.000,A,3353.7549,N,09832.0234,W,0.07,135.48,010412,,,D*79
$GPGGA,021703.000,3353.7549,N,09832.0234,W,2,08,1.2,321.8,M,-23.7,M,0.8,0000*48
$GPGSA,A,3,08,11,19,07,23,03,13,01,,,,,2.1,1.2,1.8*3D
$GPRMC,021703.000,A,3353.7549,N,09832.0234,W,0.07,132.14,010412,,,D*76
$GPGGA,021704.000,3353.7549,N,09832.0234,W,2,08,1.2,321.9,M,-23.7,M,0.8,0000*4E
$GPGSA,A,3,08,11,19,07,23,03,13,01,,,,,2.1,1.2,1.8*3D
$GPGSV,3,1,12,07,72,028,30,19,50,061,32,13,45,184,35,08,44,322,29*70
$GPGSV,3,2,12,28,30,266,14,11,30,127,33,03,17,044,31,23,17,168,36*78
$GPGSV,3,3,12,01,12,139,26,06,06,040,24,17,06,207,,26,06,324,*77
$GPRMC,021704.000,A,3353.7549,N,09832.0234,W,0.10,139.77,010412,,,D*79
$GPGGA,021705.000,3353.7549,N,09832.0233,W,2,08,1.2,321.9,M,-23.7,M,0.8,0000*48
$GPGSA,A,3,08,11,19,07,23,03,13,01,,,,,2.1,1.2,1.8*3D
$GPRMC,021705.000,A,3353.7549,N,09832.0233,W,0.07,88.14,010412,,,D*47
$GPGGA,021706.000,3353.7549,N,09832.0233,W,2,08,1.2,321.9,M,-23.7,M,0.8,0000*4B
$GPGSA,A,3,08,11,19,07,23,03,13,01,,,,,2.1,1.2,1.8*3D
$GPRMC,021706.000,A,3353.7549,N,09832.0233,W,0.12,95.45,010412,,,D*48
$GPGGA,021707.000,3353.7549,N,09832.0233,W,2,08,1.2,321.9,M,-23.7,M,0.8,0000*4A
$GPGSA,A,3,08,11,19,07,23,03,13,01,,,,,2.1,1.2,1.8*3D
$GPRMC,021707.000,A,3353.7549,N,09832.0233,W,0.08,90.79,010412,,,D*48
$GPGGA,021708.000,3353.7549,N,09832.0232,W,2,08,1.2,321.9,M,-23.7,M,1.8,0000*45
$GPGSA,A,3,08,11,19,07,23,03,13,01,,,,,2.1,1.2,1.8*3D
$GPRMC,021708.000,A,3353.7549,N,09832.0232,W,0.09,91.00,010412,,,D*48
$GPGGA,021709.000,3353.7549,N,09832.0232,W,2,08,1.2,321.9,M,-23.7,M,0.8,0000*45
$GPGSA,A,3,08,11,19,07,23,03,13,01,,,,,2.1,1.2,1.8*3D
$GPGSV,3,1,12,07,72,028,30,19,50,061,31,13,45,184,35,08,44,322,29*73
$GPGSV,3,2,12,28,30,266,13,11,30,127,33,03,17,044,31,23,17,168,36*7F
$GPGSV,3,3,12,01,12,139,27,06,06,040,24,17,06,207,,26,06,324,*76
$GPRMC,021709.000,A,3353.7549,N,09832.0232,W,0.08,75.64,010412,,,D*40
$GPGGA,021710.000,3353.7549,N,09832.0232,W,2,08,1.2,321.9,M,-23.7,M,0.8,0000*4D
$GPGSA,A,3,08,11,19,07,23,03,13,01,,,,,2.1,1.2,1.8*3D
$GPRMC,021710.000,A,3353.7549,N,09832.0232,W,0.11,80.02,010412,,,D*4A
$GPGGA,021711.000,3353.7549,N,09832.0232,W,2,08,1.2,322.0,M,-23.7,M,0.8,0000*46
$GPGSA,A,3,08,11,19,07,23,03,13,01,,,,,2.1,1.2,1.8*3D
$GPRMC,021711.000,A,3353.7549,N,09832.0232,W,0.04,154.21,010412,,,D*76
$GPGGA,021712.000,3353.7549,N,09832.0232,W,2,08,1.2,322.0,M,-23.7,M,1.8,0000*44
$GPGSA,A,3,08,11,19,07,23,03,13,01,,,,,2.1,1.2,1.8*3D
$GPRMC,021712.000,A,3353.7549,N,09832.0232,W,0.01,199.66,010412,,,D*72
$GPGGA,021713.000,3353.7549,N,09832.0232,W,2,08,1.2,322.0,M,-23.7,M,0.8,0000*44
$GPGSA,A,3,08,11,19,07,23,03,13,01,,,,,2.1,1.2,1.8*3D
$GPRMC,021713.000,A,3353.7549,N,09832.0232,W,0.04,159.02,010412,,,D*78
$GPGGA,021714.000,3353.7549,N,09832.0232,W,2,08,1.2,322.0,M,-23.7,M,1.8,0000*42
$GPGSA,A,3,08,11,19,07,23,03,13,01,,,,,2.1,1.2,1.8*3D
$GPGSV,3,1,12,07,72,028,30,19,50,061,31,13,45,184,34,08,44,322,30*7A
$GPGSV,3,2,12,28,30,266,,11,30,127,33,03,17,044,31,23,17,168,36*7D
$GPGSV,3,3,12,01,12,139,28,06,06,040,25,17,06,207,,26,06,324,*78
$GPRMC,021714.000,A,3353.7549,N,09832.0232,W,0.04,128.01,010412,,,D*7A
$GPGGA,021715.000,3353.7549,N,09832.0233,W,2,08,1.2,322.1,M,-23.7,M,0.8,0000*42
$GPGSA,A,3,08,11,19,07,23,03,13,01,,,,,2.1,1.2,1.8*3D
$GPRMC,021715.000,A,3353.7549,N,09832.0233,W,0.05,157.96,010412,,,D*7D
$GPGGA,021716.000,3353.7549,N,09832.0233,W,2,08,1.2,322.1,M,-23.7,M,0.8,0000*41
$GPGSA,A,3,08,11,19,07,23,03,13,01,,,,,2.1,1.2,1.8*3D
$GPRMC,021716.000,A,3353.7549,N,09832.0233,W,0.05,152.13,010412,,,D*76
$GPGGA,021717.000,3353.7549,N,09832.0233,W,2,08,1.2,322.1,M,-23.7,M,0.8,0000*40
$GPGSA,A,3,08,11,19,07,23,03,13,01,,,,,2.1,1.2,1.8*3D
$GPRMC,021717.000,A,3353.7549,N,09832.0233,W,0.07,85.05,010412,,,D*49
$GPGGA,021718.000,3353.7549,N,09832.0232,W,2,08,1.2,322.1,M,-23.7,M,1.8,0000*4F
$GPGSA,A,3,08,11,19,07,23,03,13,01,,,,,2.1,1.2,1.8*3D
$GPRMC,021718.000,A,3353.7549,N,09832.0232,W,0.08,89.71,010412,,,D*47
$GPGGA,021719.000,3353.7550,N,09832.0232,W,2,08,1.2,322.1,M,-23.7,M,2.8,0000*45
$GPGSA,A,3,08,11,19,07,23,03,13,01,,,,,2.1,1.2,1.8*3D
$GPGSV,3,1,12,07,72,028,30,19,50,061,31,13,45,184,34,08,44,322,30*7A
$GPGSV,3,2,12,28,30,266,,11,30,127,33,03,17,044,31,23,17,168,36*7D
$GPGSV,3,3,12,01,12,139,28,06,06,040,25,17,06,207,,26,06,324,*78
$GPRMC,021719.000,A,3353.7550,N,09832.0232,W,0.09,93.44,010412,,,D*42
$GPGGA,021720.000,3353.7550,N,09832.0232,W,2,08,1.2,322.2,M,-23.7,M,3.8,0000*4D
$GPGSA,A,3,08,11,19,07,23,03,13,01,,,,,2.1,1.2,1.8*3D
$GPRMC,021720.000,A,3353.7550,N,09832.0232,W,0.09,86.55,010412,,,D*4C
$GPGGA,021721.000,3353.7550,N,09832.0231,W,2,08,1.2,322.2,M,-23.7,M,0.8,0000*4C
$GPGSA,A,3,08,11,19,07,23,03,13,01,,,,,2.1,1.2,1.8*3D
$GPRMC,021721.000,A,3353.7550,N,09832.0231,W,0.11,66.70,010412,,,D*4E
$GPGGA,021722.000,3353.7550,N,09832.0231,W,2,08,1.2,322.3,M,-23.7,M,0.8,0000*4E
$GPGSA,A,3,08,11,19,07,23,03,13,01,,,,,2.1,1.2,1.8*3D
$GPRMC,021722.000,A,3353.7550,N,09832.0231,W,0.10,82.42,010412,,,D*47
$GPGGA,021723.000,3353.7550,N,09832.0230,W,2,08,1.2,322.3,M,-23.7,M,0.8,0000*4E
$GPGSA,A,3,08,11,19,07,23,03,13,01,,,,,2.1,1.2,1.8*3D
$GPRMC,021723.000,A,3353.7550,N,09832.0230,W,0.06,116.37,010412,,,D*7E
$GPGGA,021724.000,3353.7550,N,09832.0230,W,2,08,1.2,322.4,M,-23.7,M,0.8,0000*4E
$GPGSA,A,3,08,11,19,07,23,03,13,01,,,,,2.1,1.2,1.8*3D
$GPGSV,3,1,12,07,72,028,30,19,50,061,31,13,45,184,34,08,44,322,30*7A
$GPGSV,3,2,12,28,30,266,,11,30,127,33,03,17,044,31,23,17,168,36*7D
$GPGSV,3,3,12,01,12,139,27,06,06,040,26,17,06,207,,26,06,324,*74
$GPRMC,021724.000,A,3353.7550,N,09832.0230,W,0.08,109.30,010412,,,D*7E
$GPGGA,021725.000,3353.7550,N,09832.0230,W,2,08,1.2,322.4,M,-23.7,M,1.8,0000*4E
$GPGSA,A,3,08,11,19,07,23,03,13,01,,,,,2.1,1.2,1.8*3D
$GPRMC,021725.000,A,3353.7550,N,09832.0230,W,0.06,133.15,010412,,,D*7F
$GPGGA,021726.000,3353.7550,N,09832.0230,W,2,08,1.2,322.4,M,-23.7,M,2.8,0000*4E
$GPGSA,A,3,08,11,19,07,23,03,13,01,,,,,2.1,1.2,1.8*3D
$GPRMC,021726.000,A,3353.7550,N,09832.0230,W,0.06,116.82,010412,,,D*75
$GPGGA,021727.000,3353.7550,N,09832.0230,W,2,08,1.2,322.5,M,-23.7,M,0.8,0000*4C
$GPGSA,A,3,08,11,19,07,23,03,13,01,,,,,2.1,1.2,1.8*3D
$GPRMC,021727.000,A,3353.7550,N,09832.0230,W,0.09,155.23,010412,,,D*77
$GPGGA,021728.000,3353.7549,N,09832.0230,W,2,08,1.2,322.5,M,-23.7,M,0.8,0000*4B
$GPGSA,A,3,08,11,19,07,23,03,13,01,,,,,2.1,1.2,1.8*3D
$GPRMC,021728.000,A,3353.7549,N,09832.0230,W,0.07,146.37,010412,,,D*79
$GPGGA,021729.000,3353.7549,N,09832.0231,W,2,08,1.2,322.5,M,-23.7,M,0.8,0000*4B
$GPGSA,A,3,08,11,19,07,23,03,13,01,,,,,2.1,1.2,1.8*3D
$GPGSV,3,1,12,07,72,028,31,19,50,061,31,13,45,184,34,08,44,322,30*7B
$GPGSV,3,2,12,28,30,266,,11,30,127,34,03,17,044,31,23,17,168,36*7A
$GPGSV,3,3,12,01,12,139,27,06,06,040,26,17,06,207,,26,06,324,*74
$GPRMC,021729.000,A,3353.7549,N,09832.0231,W,0.05,123.98,010412,,,D*7D
$GPGGA,021730.000,3353.7549,N,09832.0231,W,2,08,1.2,322.5,M,-23.7,M,0.8,0000*43
$GPGSA,A,3,08,11,19,07,23,03,13,01,,,,,2.1,1.2,1.8*3D
$GPRMC,021730.000,A,3353.7549,N,09832.0231,W,0.01,124.29,010412,,,D*7C
$GPGGA,021731.000,3353.7549,N,09832.0231,W,2,08,1.2,322.5,M,-23.7,M,1.8,0000*43
$GPGSA,A,3,08,11,19,07,23,03,13,01,,,,,2.1,1.2,1.8*3D
$GPRMC,021731.000,A,3353.7549,N,09832.0231,W,0.02,146.49,010412,,,D*7C
$GPGGA,021732.000,3353.7549,N,09832.0231,W,2,08,1.2,322.6,M,-23.7,M,0.8,0000*42
$GPGSA,A,3,08,11,19,07,23,03,13,01,,,,,2.1,1.2,1.8*3D
$GPRMC,021732.000,A,3353.7549,N,09832.0231,W,0.04,117.94,010412,,,D*7D
$GPGGA,021733.000,3353.7549,N,09832.0231,W,2,08,1.2,322.6,M,-23.7,M,0.8,0000*43
$GPGSA,A,3,08,11,19,07,23,03,13,01,,,,,2.1,1.2,1.8*3D
$GPRMC,021733.000,A,3353.7549,N,09832.0231,W,0.04,40.78,010412,,,D*4D
$GPGGA,021734.000,3353.7549,N,09832.0231,W,2,08,1.2,322.6,M,-23.7,M,0.8,0000*44
$GPGSA,A,3,08,11,19,07,23,03,13,01,,,,,2.1,1.2,1.8*3D
$GPGSV,3,1,12,07,72,028,31,19,50,061,32,13,45,184,34,08,44,322,30*78
$GPGSV,3,2,12,28,30,266,19,11,30,127,34,03,17,044,30,23,17,168,36*73
$GPGSV,3,3,12,01,12,139,26,06,06,040,26,17,06,207,,26,06,324,*75
$GPRMC,021734.000,A,3353.7549,N,09832.0231,W,0.05,70.52,010412,,,D*40
$GPGGA,021735.000,3353.7549,N,09832.0231,W,2,08,1.2,322.6,M,-23.7,M,0.8,0000*45
$GPGSA,A,3,08,11,19,07,23,03,13,01,,,,,2.1,1.2,1.8*3D
$GPRMC,021735.000,A,3353.7549,N,09832.0231,W,0.06,95.18,010412,,,D*47
$GPGGA,021736.000,3353.7549,N,09832.0231,W,2,08,1.2,322.6,M,-23.7,M,1.8,0000*47
$GPGSA,A,3,08,11,19,07,23,03,13,01,,,,,2.1,1.2,1.8*3D
$GPRMC,021736.000,A,3353.7549,N,09832.0231,W,0.07,97.48,010412,,,D*42
$GPGGA,021737.000,3353.7549,N,09832.0231,W,2,08,1.2,322.6,M,-23.7,M,0.8,0000*47
$GPGSA,A,3,08,11,19,07,23,03,13,01,,,,,2.1,1.2,1.8*3D
$GPRMC,021737.000,A,3353.7549,N,09832.0231,W,0.06,109.05,010412,,,D*7D
$GPGGA,021738.000,3353.7549,N,09832.0232,W,2,08,1.2,322.6,M,-23.7,M,1.8,0000*4A
$GPGSA,A,3,08,11,19,07,23,03,13,01,,,,,2.1,1.2,1.8*3D
$GPRMC,021738.000,A,3353.7549,N,09832.0232,W,0.02,85.59,010412,,,D*49
$GPGGA,021739.000,3353.7549,N,09832.0232,W,2,08,1.2,322.6,M,-23.7,M,0.8,0000*4A
$GPGSA,A,3,08,11,19,07,23,03,13,01,,,,,2.1,1.2,1.8*3D
$GPGSV,3,1,12,07,72,028,31,19,50,061,32,13,45,184,34,08,44,322,29*70
$GPGSV,3,2,12,28,30,266,18,11,30,127,35,03,17,044,30,23,17,168,36*73
$GPGSV,3,3,12,01,12,139,25,06,06,040,26,17,06,207,16,26,06,324,*71
$GPRMC,021739.000,A,3353.7549,N,09832.0232,W,0.04,166.91,010412,,,D*76
$GPGGA,021740.000,3353.7549,N,09832.0232,W,2,08,1.2,322.5,M,-23.7,M,0.8,0000*47
$GPGSA,A,3,08,11,19,07,23,03,13,01,,,,,2.1,1.2,1.8*3D
$GPRMC,021740.000,A,3353.7549,N,09832.0232,W,0.05,136.01,010412,,,D*75
$GPGGA,021741.000,3353.7549,N,09832.0232,W,2,08,1.2,322.5,M,-23.7,M,0.8,0000*46
$GPGSA,A,3,08,11,19,07,23,03,13,01,,,,,2.1,1.2,1.8*3D
$GPRMC,021741.000,A,3353.7549,N,09832.0232,W,0.04,124.42,010412,,,D*71
$GPGGA,021742.000,3353.7549,N,09832.0233,W,2,08,1.2,322.4,M,-23.7,M,1.8,0000*44
$GPGSA,A,3,08,11,19,07,23,03,13,01,,,,,2.1,1.2,1.8*3D
$GPRMC,021742.000,A,3353.7549,N,09832.0233,W,0.01,344.45,010412,,,D*75
$GPGGA,021743.000,3353.7550,N,09832.0233,W,2,08,1.2,322.3,M,-23.7,M,2.8,0000*49
$GPGSA,A,3,08,11,19,07,23,03,13,01,,,,,2.1,1.2,1.8*3D
$GPRMC,021743.000,A,3353.7550,N,09832.0233,W,0.03,73.91,010412,,,D*40
$GPGGA,021744.000,3353.7550,N,09832.0233,W,2,08,1.2,322.3,M,-23.7,M,3.8,0000*4F
$GPGSA,A,3,08,11,19,07,23,03,13,01,,,,,2.1,1.2,1.8*3D
$GPGSV,3,1,12,07,72,028,31,19,50,061,33,13,45,184,34,08,44,322,29*71
$GPGSV,3,2,12,28,30,266,15,11,30,127,36,03,17,044,30,23,17,168,36*7D
$GPGSV,3,3,12,01,12,139,25,06,06,040,27,17,06,207,16,26,06,324,*70
$GPRMC,021744.000,A,3353.7550,N,09832.0233,W,0.01,107.87,010412,,,D*70
$GPGGA,021745.000,3353.7550,N,09832.0234,W,2,08,1.2,322.3,M,-23.7,M,0.8,0000*4A
$GPGSA,A,3,08,11,19,07,23,03,13,01,,,,,2.1,1.2,1.8*3D
$GPRMC,021745.000,A,3353.7550,N,09832.0234,W,0.06,44.71,010412,,,D*4E
$GPGGA,021746.000,3353.7550,N,09832.0234,W,2,08,1.2,322.3,M,-23.7,M,0.8,0000*49
$GPGSA,A,3,08,11,19,07,23,03,13,01,,,,,2.1,1.2,1.8*3D
$GPRMC,021746.000,A,3353.7550,N,09832.0234,W,0.05,36.11,010412,,,D*4D
$GPGGA,021747.000,3353.7550,N,09832.0234,W,2,08,1.2,322.2,M,-23.7,M,0.8,0000*49
$GPGSA,A,3,08,11,19,07,23,03,13,01,,,,,2.1,1.2,1.8*3D
$GPRMC,021747.000,A,3353.7550,N,09832.0234,W,0.02,119.45,010412,,,D*76
$GPGGA,021748.000,3353.7550,N,09832.0234,W,2,08,1.2,322.2,M,-23.7,M,0.8,0000*46
$GPGSA,A,3,08,11,19,07,23,03,13,01,,,,,2.1,1.2,1.8*3D
$GPRMC,021748.000,A,3353.7550,N,09832.0234,W,0.04,67.54,010412,,,D*47
$GPGGA,021749.000,3353.7550,N,09832.0235,W,2,08,1.2,322.2,M,-23.7,M,0.8,0000*46
$GPGSA,A,3,08,11,19,07,23,03,13,01,,,,,2.1,1.2,1.8*3D
$GPGSV,3,1,12,07,72,032,31,19,50,059,32,08,45,323,28,13,44,184,34*70
$GPGSV,3,2,12,28,31,268,14,11,30,126,36,03,16,043,30,23,16,168,36*75
$GPGSV,3,3,12,01,13,139,25,17,07,207,16,26,07,324,,06,05,040,27*72
$GPRMC,021749.000,A,3353.7550,N,09832.0235,W,0.02,106.51,010412,,,D*72
$GPGGA,021750.000,3353.7550,N,09832.0235,W,2,08,1.2,322.2,M,-23.7,M,1.8,0000*4F
$GPGSA,A,3,08,11,19,07,23,03,13,01,,,,,2.1,1.2,1.8*3D
$GPRMC,021750.000,A,3353.7550,N,09832.0235,W,0.01,42.28,010412,,,D*46
$GPGGA,021751.000,3353.7550,N,09832.0236,W,2,08,1.2,322.1,M,-23.7,M,0.8,0000*4F
$GPGSA,A,3,08,11,19,07,23,03,13,01,,,,,2.1,1.2,1.8*3D
$GPRMC,021751.000,A,3353.7550,N,09832.0236,W,0.03,213.85,010412,,,D*77
$GPGGA,021752.000,3353.7550,N,09832.0236,W,2,08,1.2,322.0,M,-23.7,M,0.8,0000*4D
$GPGSA,A,3,08,11,19,07,23,03,13,01,,,,,2.1,1.2,1.8*3D
$GPRMC,021752.000,A,3353.7550,N,09832.0236,W,0.04,175.10,010412,,,D*7C
$GPGGA,021753.000,3353.7550,N,09832.0237,W,2,08,1.2,321.9,M,-23.7,M,0.8,0000*47
$GPGSA,A,3,08,11,19,07,23,03,13,01,,,,,2.1,1.2,1.8*3D
$GPRMC,021753.000,A,3353.7550,N,09832.0237,W,0.02,217.30,010412,,,D*7F
$GPGGA,021754.000,3353.7551,N,09832.0237,W,2,08,1.2,321.8,M,-23.7,M,1.8,0000*41
$GPGSA,A,3,08,11,19,07,23,03,13,01,,,,,2.1,1.2,1.8*3D
$GPGSV,3,1,12,07,72,032,31,19,50,059,32,08,45,323,28,13,44,184,34*70
$GPGSV,3,2,12,28,31,268,16,11,30,126,37,03,16,043,30,23,16,168,36*76
$GPGSV,3,3,12,01,13,139,25,17,07,207,16,26,07,324,,06,05,040,27*72
$GPRMC,021754.000,A,3353.7551,N,09832.0237,W,0.00,16.77,010412,,,D*4B
$GPGGA,021755.000,3353.7551,N,09832.0238,W,2,08,1.2,321.8,M,-23.7,M,2.8,0000*4C
$GPGSA,A,3,08,11,19,07,23,03,13,01,,,,,2.1,1.2,1.8*3D
$GPRMC,021755.000,A,3353.7551,N,09832.0238,W,0.01,64.51,010412,,,D*45
$GPGGA,021756.000,3353.7551,N,09832.0238,W,2,08,1.2,321.7,M,-23.7,M,3.8,0000*41
$GPGSA,A,3,08,11,19,07,23,03,13,01,,,,,2.1,1.2,1.8*3D
$GPRMC,021756.000,A,3353.7551,N,09832.0238,W,0.01,117.09,010412,,,D*7E
$GPGGA,021757.000,3353.7551,N,09832.0238,W,2,08,1.2,321.6,M,-23.7,M,0.8,0000*42
$GPGSA,A,3,08,11,19,07,23,03,13,01,,,,,2.1,1.2,1.8*3D
$GPRMC,021757.000,A,3353.7551,N,09832.0238,W,0.05,21.27,010412,,,D*43
$GPGGA,021758.000,3353.7551,N,09832.0238,W,2,08,1.2,321.6,M,-23.7,M,0.8,0000*4D
$GPGSA,A,3,08,11,19,07,23,03,13,01,,,,,2.1,1.2,1.8*3D
$GPRMC,021758.000,A,3353.7551,N,09832.0238,W,0.05,46.33,010412,,,D*48
$GPGGA,021759.000,3353.7551,N,09832.0239,W,2,08,1.2,321.6,M,-23.7,M,0.8,0000*4D
$GPGSA,A,3,08,11,19,07,23,03,13,01,,,,,2.1,1.2,1.8*3D
$GPGSV,3,1,12,07,72,032,31,19,50,059,32,08,45,323,28,13,44,184,34*70
$GPGSV,3,2,12,28,31,268,18,11,30,126,37,03,16,043,30,23,16,168,36*78
$GPGSV,3,3,12,01,13,139,26,17,07,207,15,26,07,324,,06,05,040,27*72
$GPRMC,021759.000,A,3353.7551,N,09832.0239,W,0.01,277.01,010412,,,D*7D
$GPGGA,021800.000,3353.7552,N,09832.0239,W,2,08,1.2,321.5,M,-23.7,M,1.8,0000*4F
$GPGSA,A,3,08,11,19,07,23,03,13,01,,,,,2.1,1.2,1.8*3D
$GPRMC,021800.000,A,3353.7552,N,09832.0239,W,0.03,315.06,010412,,,D*7D
$GPGGA,021801.000,3353.7552,N,09832.0240,W,2,08,1.2,321.5,M,-23.7,M,0.8,0000*41
$GPGSA,A,3,08,11,19,07,23,03,13,01,,,,,2.1,1.2,1.8*3D
$GPRMC,021801.000,A,3353.7552,N,09832.0240,W,0.02,317.98,010412,,,D*76
$GPGGA,021802.000,3353.7552,N,09832.0240,W,2,08,1.2,321.5,M,-23.7,M,0.8,0000*42
$GPGSA,A,3,08,11,19,07,23,03,13,01,,,,,2.1,1.2,1.8*3D
$GPRMC,021802.000,A,3353.7552,N,09832.0240,W,0.02,330.99,010412,,,D*71
$GPGGA,021803.000,3353.7552,N,09832.0241,W,2,08,1.2,321.4,M,-23.7,M,0.8,0000*43
$GPGSA,A,3,08,11,19,07,23,03,13,01,,,,,2.1,1.2,1.8*3D
$GPRMC,021803.000,A,3353.7552,N,09832.0241,W,0.04,251.48,010412,,,D*7D
$GPGGA,021804.000,3353.7552,N,09832.0241,W,2,08,1.2,321.3,M,-23.7,M,0.8,0000*43
$GPGSA,A,3,08,11,19,07,23,03,13,01,,,,,2.1,1.2,1.8*3D
$GPGSV,3,1,12,07,72,032,31,19,50,059,32,08,45,323,28,13,44,184,34*70
$GPGSV,3,2,12,28,31,268,20,11,30,126,37,03,16,043,30,23,16,168,36*73
$GPGSV,3,3,12,01,13,139,27,17,07,207,15,26,07,324,,06,05,040,27*73
$GPRMC,021804.000,A,3353.7552,N,09832.0241,W,0.06,250.81,010412,,,D*7C
$GPGGA,021805.000,3353.7552,N,09832.0242,W,2,08,1.2,321.3,M,-23.7,M,0.8,0000*41
$GPGSA,A,3,08,11,19,07,23,03,13,01,,,,,2.1,1.2,1.8*3D
$GPRMC,021805.000,A,3353.7552,N,09832.0242,W,0.01,60.33,010412,,,D*41
$GPGGA,021806.000,3353.7553,N,09832.0242,W,2,08,1.2,321.2,M,-23.7,M,1.8,0000*43
$GPGSA,A,3,08,11,19,07,23,03,13,01,,,,,2.1,1.2,1.8*3D
$GPRMC,021806.000,A,3353.7553,N,09832.0242,W,0.02,74.47,010412,,,D*46
$GPGGA,021807.000,3353.7553,N,09832.0242,W,2,08,1.2,321.1,M,-23.7,M,2.8,0000*42
$GPGSA,A,3,08,11,19,07,23,03,13,01,,,,,2.1,1.2,1.8*3D
$GPRMC,021807.000,A,3353.7553,N,09832.0242,W,0.01,23.59,010412,,,D*49
$GPGGA,021808.000,3353.7553,N,09832.0243,W,2,08,1.2,321.0,M,-23.7,M,3.8,0000*4C
$GPGSA,A,3,08,11,19,07,23,03,13,01,,,,,2.1,1.2,1.8*3D
$GPRMC,021808.000,A,3353.7553,N,09832.0243,W,0.02,17.92,010412,,,D*44
$GPGGA,021809.000,3353.7553,N,09832.0243,W,2,08,1.2,320.9,M,-23.7,M,0.8,0000*46
$GPGSA,A,3,08,11,19,07,23,03,13,01,,,,,2.1,1.2,1.8*3D
$GPGSV,3,1,12,07,72,032,31,19,50,059,33,08,45,323,27,13,44,184,34*7E
$GPGSV,3,2,12,28,31,268,20,11,30,126,37,03,16,043,30,23,16,168,36*73
$GPGSV,3,3,12,01,13,139,27,17,07,207,15,26,07,324,,06,05,040,27*73
$GPRMC,021809.000,A,3353.7553,N,09832.0243,W,0.06,21.50,010412,,,D*4A
$GPGGA,021810.000,3353.7554,N,09832.0243,W,2,08,1.2,320.9,M,-23.7,M,0.8,0000*49
$GPGSA,A,3,08,11,19,07,23,03,13,01,,,,,2.1,1.2,1.8*3D
$GPRMC,021810.000,A,3353.7554,N,09832.0243,W,0.03,22.82,010412,,,D*4C
$GPGGA,021811.000,3353.7554,N,09832.0244,W,2,08,1.2,320.8,M,-23.7,M,0.8,0000*4E
$GPGSA,A,3,08,11,19,07,23,03,13,01,,,,,2.1,1.2,1.8*3D
$GPRMC,021811.000,A,3353.7554,N,09832.0244,W,0.04,301.48,010412,,,D*79
$GPGGA,021812.000,3353.7554,N,09832.0245,W,2,08,1.2,320.7,M,-23.7,M,1.8,0000*42
$GPGSA,A,3,08,11,19,07,23,03,13,01,,,,,2.1,1.2,1.8*3D
$GPRMC,021812.000,A,3353.7554,N,09832.0245,W,0.07,281.67,010412,,,D*7C
$GPGGA,021813.000,3353.7554,N,09832.0245,W,2,08,1.2,320.6,M,-23.7,M,2.8,0000*41
$GPGSA,A,3,08,11,19,07,23,03,13,01,,,,,2.1,1.2,1.7*32
$GPRMC,021813.000,A,3353.7554,N,09832.0245,W,0.05,292.29,010412,,,D*77
$GPGGA,021814.000,3353.7554,N,09832.0246,W,2,08,1.2,320.6,M,-23.7,M,3.8,0000*44
$GPGSA,A,3,08,11,19,07,23,03,13,01,,,,,2.1,1.2,1.7*32
$GPGSV,3,1,12,07,72,033,31,19,50,059,33,08,45,323,26,13,43,184,34*79
$GPGSV,3,2,12,28,31,268,21,11,31,125,37,03,16,043,29,23,15,168,36*7B
$GPGSV,3,3,12,01,13,138,27,17,07,207,14,26,07,324,,06,05,040,27*73
$GPRMC,021814.000,A,3353.7554,N,09832.0246,W,0.06,295.71,010412,,,D*7A
$GPGGA,021815.000,3353.7555,N,09832.0247,W,2,08,1.2,320.5,M,-23.7,M,0.8,0000*45
$GPGSA,A,3,08,11,19,07,23,03,13,01,,,,,2.1,1.2,1.7*32
$GPRMC,021815.000,A,3353.7555,N,09832.0247,W,0.09,248.75,010412,,,D*70
$GPGGA,021816.000,3353.7555,N,09832.0247,W,2,08,1.2,320.4,M,-23.7,M,0.8,0000*47
$GPGSA,A,3,08,11,19,07,23,03,13,01,,,,,2.1,1.2,1.7*32
$GPRMC,021816.000,A,3353.7555,N,09832.0247,W,0.08,271.74,010412,,,D*79
$GPGGA,021817.000,3353.7555,N,09832.0248,W,2,08,1.2,320.3,M,-23.7,M,0.8,0000*4E
$GPGSA,A,3,08,11,19,07,23,03,13,01,,,,,2.1,1.2,1.7*32
$GPRMC,021817.000,A,3353.7555,N,09832.0248,W,0.01,286.24,010412,,,D*73
$GPGGA,021818.000,3353.7555,N,09832.0248,W,2,08,1.2,320.2,M,-23.7,M,0.8,0000*40
$GPGSA,A,3,08,11,19,07,23,03,13,01,,,,,2.1,1.2,1.7*32
$GPRMC,021818.000,A,3353.7555,N,09832.0248,W,0.03,288.87,010412,,,D*79
$GPGGA,021819.000,3353.7555,N,09832.0248,W,2,08,1.2,320.1,M,-23.7,M,1.8,0000*43
$GPGSA,A,3,08,11,19,07,23,03,13,01,,,,,2.1,1.2,1.7*32
$GPGSV,3,1,12,07,72,033,31,19,50,059,33,08,45,323,26,13,43,184,34*79
$GPGSV,3,2,12,28,31,268,21,11,31,125,37,03,16,043,29,23,15,168,36*7B
$GPGSV,3,3,12,01,13,138,27,17,07,207,15,26,07,324,,06,05,040,27*72
$GPRMC,021819.000,A,3353.7555,N,09832.0248,W,0.04,329.78,010412,,,D*75
$GPGGA,021820.000,3353.7556,N,09832.0249,W,2,08,1.2,320.0,M,-23.7,M,2.8,0000*49
$GPGSA,A,3,08,11,19,07,23,03,13,01,,,,,2.1,1.2,1.7*32
$GPRMC,021820.000,A,3353.7556,N,09832.0249,W,0.01,328.24,010412,,,D*70
$GPGGA,021821.000,3353.7556,N,09832.0249,W,2,08,1.2,319.9,M,-23.7,M,0.8,0000*49
$GPGSA,A,3,08,11,19,07,23,03,13,01,,,,,2.1,1.2,1.7*32
$GPRMC,021821.000,A,3353.7556,N,09832.0249,W,0.06,340.08,010412,,,D*76
$GPGGA,021822.000,3353.7556,N,09832.0249,W,2,08,1.2,319.9,M,-23.7,M,0.8,0000*4A
$GPGSA,A,3,08,11,19,07,23,03,13,01,,,,,2.1,1.2,1.7*32
$GPRMC,021822.000,A,3353.7556,N,09832.0249,W,0.04,23.07,010412,,,D*4E
$GPGGA,021823.000,3353.7557,N,09832.0249,W,2,08,1.2,319.8,M,-23.7,M,0.8,0000*4B
$GPGSA,A,3,08,11,19,07,23,03,13,01,,,,,2.1,1.2,1.7*32
$GPRMC,021823.000,A,3353.7557,N,09832.0249,W,0.05,319.02,010412,,,D*70
$GPGGA,021824.000,3353.7557,N,09832.0250,W,2,08,1.2,319.7,M,-23.7,M,1.8,0000*4A
$GPGSA,A,3,08,11,19,07,23,03,13,01,,,,,2.1,1.2,1.7*32
$GPGSV,3,1,12,07,72,033,32,19,50,059,33,08,45,323,26,13,43,184,34*7A
$GPGSV,3,2,12,28,31,268,22,11,31,125,37,03,16,043,28,23,15,168,36*79
$GPGSV,3,3,12,01,13,138,27,17,07,207,17,26,07,324,,06,05,040,27*70
$GPRMC,021824.000,A,3353.7557,N,09832.0250,W,0.06,291.18,010412,,,D*76
$GPGGA,021825.000,3353.7557,N,09832.0250,W,2,08,1.2,319.6,M,-23.7,M,2.8,0000*49
$GPGSA,A,3,08,11,19,07,23,03,13,01,,,,,2.1,1.2,1.7*32
$GPRMC,021825.000,A,3353.7557,N,09832.0250,W,0.06,301.03,010412,,,D*75
$GPGGA,021826.000,3353.7557,N,09832.0251,W,2,08,1.2,319.5,M,-23.7,M,3.8,0000*49
$GPGSA,A,3,08,11,19,07,23,03,13,01,,,,,2.1,1.2,1.7*32
$GPRMC,021826.000,A,3353.7557,N,09832.0251,W,0.07,295.93,010412,,,D*73
$GPGGA,021827.000,3353.7557,N,09832.0252,W,2,08,1.2,319.3,M,-23.7,M,0.8,0000*4E
$GPGSA,A,3,08,11,19,07,23,03,13,01,,,,,2.1,1.2,1.7*32
$GPRMC,021827.000,A,3353.7557,N,09832.0252,W,0.06,277.05,010412,,,D*73
$GPGGA,021828.000,3353.7558,N,09832.0252,W,2,08,1.2,319.2,M,-23.7,M,0.8,0000*4F
$GPGSA,A,3,08,11,19,07,23,03,13,01,,,,,2.1,1.2,1.7*32
$GPRMC,021828.000,A,3353.7558,N,09832.0252,W,0.07,287.40,010412,,,D*7C
$GPGGA,021829.000,3353.7558,N,09832.0253,W,2,08,1.2,319.0,M,-23.7,M,0.8,0000*4D
$GPGSA,A,3,08,11,19,07,23,03,13,01,,,,,2.1,1.2,1.7*32
$GPGSV,3,1,12,07,72,033,32,19,50,059,33,08,45,323,26,13,43,184,34*7A
$GPGSV,3,2,12,28,31,268,22,11,31,125,36,03,16,043,28,23,15,168,36*78
$GPGSV,3,3,12,01,13,138,26,17,07,207,19,26,07,324,,06,05,040,27*7F
$GPRMC,021829.000,A,3353.7558,N,09832.0253,W,0.02,267.84,010412,,,D*7F
$GPGGA,021830.000,3353.7558,N,09832.0253,W,2,08,1.2,319.0,M,-23.7,M,1.8,0000*44
$GPGSA,A,3,08,11,19,07,23,03,13,01,,,,,2.1,1.2,1.7*32
$GPRMC,021830.000,A,3353.7558,N,09832.0253,W,0.05,277.16,010412,,,D*7A
$GPGGA,021831.000,3353.7558,N,09832.0253,W,2,08,1.2,318.9,M,-23.7,M,0.8,0000*4C
$GPGSA,A,3,08,11,19,07,23,03,13,01,,,,,2.1,1.2,1.7*32
$GPRMC,021831.000,A,3353.7558,N,09832.0253,W,0.02,278.55,010412,,,D*74
$GPGGA,021832.000,3353.7558,N,09832.0253,W,2,08,1.2,318.9,M,-23.7,M,1.8,0000*4E
$GPGSA,A,3,08,11,19,07,23,03,13,01,,,,,2.1,1.2,1.7*32
$GPRMC,021832.000,A,3353.7558,N,09832.0253,W,0.03,292.96,010412,,,D*7D
$GPGGA,021833.000,3353.7558,N,09832.0252,W,2,08,1.2,318.9,M,-23.7,M,0.8,0000*4F
$GPGSA,A,3,08,11,19,07,23,03,13,01,,,,,2.1,1.2,1.7*32
$GPRMC,021833.000,A,3353.7558,N,09832.0252,W,0.02,341.43,010412,,,D*7B
$GPGGA,021834.000,3353.7558,N,09832.0252,W,2,08,1.2,318.9,M,-23.7,M,0.8,0000*48
$GPGSA,A,3,08,11,19,07,23,03,13,01,,,,,2.1,1.2,1.7*32
$GPGSV,3,1,12,07,72,033,33,19,50,059,33,08,45,323,27,13,43,184,34*7A
$GPGSV,3,2,12,28,31,268,20,11,31,125,35,03,16,043,29,23,15,168,36*78
$GPGSV,3,3,12,01,13,138,26,17,07,207,19,26,07,324,,06,05,040,27*7F
$GPRMC,021834.000,A,3353.7558,N,09832.0252,W,0.03,15.11,010412,,,D*48
$GPGGA,021835.000,3353.7558,N,09832.0252,W,2,08,1.2,318.8,M,-23.7,M,0.8,0000*48
$GPGSA,A,3,08,11,19,07,23,03,13,01,,,,,2.1,1.2,1.7*32
$GPRMC,021835.000,A,3353.7558,N,09832.0252,W,0.04,4.64,010412,,,D*7C
$GPGGA,021836.000,3353.7558,N,09832.0253,W,2,08,1.2,318.6,M,-23.7,M,0.8,0000*44
$GPGSA,A,3,08,11,19,07,23,03,13,01,,,,,2.1,1.2,1.7*32
$GPRMC,021836.000,A,3353.7558,N,09832.0253,W,0.05,333.68,010412,,,D*74
$GPGGA,021837.000,3353.7559,N,09832.0253,W,2,08,1.2,318.5,M,-23.7,M,0.8,0000*47
$GPGSA,A,3,08,11,19,07,23,03,13,01,,,,,2.1,1.2,1.7*32
$GPRMC,021837.000,A,3353.7559,N,09832.0253,W,0.05,318.65,010412,,,D*70
$GPGGA,021838.000,3353.7559,N,09832.0253,W,2,08,1.2,318.4,M,-23.7,M,1.8,0000*48
$GPGSA,A,3,08,11,19,07,23,03,13,01,,,,,2.1,1.2,1.7*32
$GPRMC,021838.000,A,3353.7559,N,09832.0253,W,0.02,359.32,010412,,,D*7F
$GPGGA,021839.000,3353.7559,N,09832.0253,W,2,08,1.2,318.3,M,-23.7,M,0.8,0000*4F
$GPGSA,A,3,08,11,19,07,23,03,13,01,,,,,2.1,1.2,1.7*32
$GPGSV,3,1,12,07,72,033,33,19,50,059,33,08,45,323,28,13,43,184,35*74
$GPGSV,3,2,12,28,31,268,14,11,31,125,35,03,16,043,29,23,15,168,36*7F
$GPGSV,3,3,12,01,13,138,25,17,07,207,19,26,07,324,,06,05,040,27*7C
$GPRMC,021839.000,A,3353.7559,N,09832.0253,W,0.04,277.15,010412,,,D*70
$GPGGA,021840.000,3353.7559,N,09832.0254,W,2,08,1.2,318.1,M,-23.7,M,0.8,0000*44
$GPGSA,A,3,08,11,19,07,23,03,13,01,,,,,2.1,1.2,1.7*32
$GPRMC,021840.000,A,3353.7559,N,09832.0254,W,0.02,270.45,010412,,,D*7D
$GPGGA,021841.000,3353.7559,N,09832.0254,W,2,08,1.2,318.1,M,-23.7,M,0.8,0000*45
$GPGSA,A,3,08,11,19,07,23,03,13,01,,,,,2.1,1.2,1.7*32
$GPRMC,021841.000,A,3353.7559,N,09832.0254,W,0.01,266.31,010412,,,D*7B
$GPGGA,021842.000,3353.7559,N,09832.0254,W,2,08,1.2,318.0,M,-23.7,M,0.8,0000*47
$GPGSA,A,3,08,11,19,07,23,03,13,01,,,,,2.1,1.2,1.7*32
$GPRMC,021842.000,A,3353.7559,N,09832.0254,W,0.00,33.13,010412,,,D*4B
$GPGGA,021843.000,3353.7559,N,09832.0254,W,2,08,1.2,317.9,M,-23.7,M,1.8,0000*41
$GPGSA,A,3,08,11,19,07,23,03,13,01,,,,,2.1,1.2,1.7*32
$GPRMC,021843.000,A,3353.7559,N,09832.0254,W,0.02,264.82,010412,,,D*70
$GPGGA,021844.000,3353.7559,N,09832.0254,W,2,08,1.2,317.8,M,-23.7,M,2.8,0000*44
$GPGSA,A,3,08,11,19,07,23,03,13,01,,,,,2.1,1.2,1.7*32
$GPGSV,3,1,12,07,72,034,33,19,49,059,33,08,45,323,29,13,43,184,34*7B
$GPGSV,3,2,12,28,31,268,15,11,31,125,35,03,16,043,30,23,15,168,36*76
$GPGSV,3,3,12,01,14,138,25,17,08,207,19,26,07,324,,06,05,040,27*74
$GPRMC,021844.000,A,3353.7559,N,09832.0254,W,0.02,282.98,010412,,,D*74
$GPGGA,021845.000,3353.7559,N,09832.0254,W,2,08,1.2,317.8,M,-23.7,M,0.8,0000*47
$GPGSA,A,3,08,11,19,07,23,03,13,01,,,,,2.1,1.2,1.7*32
$GPRMC,021845.000,A,3353.7559,N,09832.0254,W,0.03,64.50,010412,,,D*4A
$GPGGA,021846.000,3353.7559,N,09832.0254,W,2,08,1.2,317.7,M,-23.7,M,0.8,0000*4B
$GPGSA,A,3,08,11,19,07,23,03,13,01,,,,,2.1,1.2,1.7*32
$GPRMC,021846.000,A,3353.7559,N,09832.0254,W,0.04,301.54,010412,,,D*7A
$GPGGA,021847.000,3353.7559,N,09832.0255,W,2,08,1.2,317.6,M,-23.7,M,0.8,0000*4A
$GPGSA,A,3,08,11,19,07,23,03,13,01,,,,,2.1,1.2,1.7*32
$GPRMC,021847.000,A,3353.7559,N,09832.0255,W,0.03,23.29,010412,,,D*44
$GPGGA,021848.000,3353.7560,N,09832.0255,W,2,08,1.2,317.5,M,-23.7,M,0.8,0000*4C
$GPGSA,A,3,08,11,19,07,23,03,13,01,,,,,2.1,1.2,1.7*32
$GPRMC,021848.000,A,3353.7560,N,09832.0255,W,0.05,12.02,010412,,,D*4C
$GPGGA,021849.000,3353.7560,N,09832.0256,W,2,08,1.2,317.4,M,-23.7,M,0.8,0000*4F
$GPGSA,A,3,08,11,19,07,23,03,13,01,,,,,2.1,1.2,1.7*32
$GPGSV,3,1,12,07,72,034,34,19,49,059,33,08,45,323,30,13,43,184,34*74
$GPGSV,3,2,12,28,31,268,16,11,31,125,35,03,16,043,30,23,15,168,36*75
$GPGSV,3,3,12,01,14,138,25,17,08,207,19,26,07,324,,06,05,040,27*74
$GPRMC,021849.000,A,3353.7560,N,09832.0256,W,0.03,1.07,010412,,,D*7F
$GPGGA,021850.000,3353.7560,N,09832.0256,W,2,08,1.2,317.3,M,-23.7,M,1.8,0000*41
$GPGSA,A,3,08,11,19,07,23,03,13,01,,,,,2.1,1.2,1.7*32
$GPRMC,021850.000,A,3353.7560,N,09832.0256,W,0.03,353.53,010412,,,D*72
$GPGGA,021851.000,3353.7560,N,09832.0256,W,2,08,1.2,317.2,M,-23.7,M,0.8,0000*40
$GPGSA,A,3,08,11,19,07,23,03,13,01,,,,,2.1,1.2,1.7*32
$GPRMC,021851.000,A,3353.7560,N,09832.0256,W,0.02,35.24,010412,,,D*41
$GPGGA,021852.000,3353.7560,N,09832.0256,W,2,08,1.2,317.1,M,-23.7,M,0.8,0000*40
$GPGSA,A,3,08,11,19,07,23,03,13,01,,,,,2.1,1.2,1.7*32
$GPRMC,021852.000,A,3353.7560,N,09832.0256,W,0.02,67.14,010412,,,D*46
$GPGGA,021853.000,3353.7560,N,09832.0257,W,2,08,1.2,317.1,M,-23.7,M,0.8,0000*40
$GPGSA,A,3,08,11,19,07,23,03,13,01,,,,,2.1,1.2,1.7*32
$GPRMC,021853.000,A,3353.7560,N,09832.0257,W,0.01,52.88,010412,,,D*46
$GPGGA,021854.000,3353.7560,N,09832.0257,W,2,08,1.2,317.0,M,-23.7,M,1.8,0000*47
$GPGSA,A,3,08,11,19,07,23,03,13,01,,,,,2.1,1.2,1.7*32
$GPGSV,3,1,12,07,72,034,34,19,49,059,33,08,45,323,29,13,43,184,34*7C
$GPGSV,3,2,12,28,31,268,17,11,31,125,36,03,16,043,31,23,15,168,36*76
$GPGSV,3,3,12,01,14,138,25,17,08,207,18,26,07,324,,06,05,040,27*75
$GPRMC,021854.000,A,3353.7560,N,09832.0257,W,0.01,216.46,010412,,,D*71
$GPGGA,021855.000,3353.7560,N,09832.0257,W,2,08,1.2,317.0,M,-23.7,M,2.8,0000*45
$GPGSA,A,3,08,11,19,07,23,03,13,01,,,,,2.1,1.2,1.7*32
$GPRMC,021855.000,A,3353.7560,N,09832.0257,W,0.01,218.68,010412,,,D*72
$GPGGA,021856.000,3353.7560,N,09832.0257,W,2,08,1.2,317.0,M,-23.7,M,3.8,0000*47
$GPGSA,A,3,08,11,19,07,23,03,13,01,,,,,2.1,1.2,1.7*32
$GPRMC,021856.000,A,3353.7560,N,09832.0257,W,0.02,167.89,010412,,,D*76
$GPGGA,021857.000,3353.7560,N,09832.0257,W,2,08,1.2,317.0,M,-23.7,M,0.8,0000*45
$GPGSA,A,3,08,11,19,07,23,03,13,01,,,,,2.1,1.2,1.7*32
$GPRMC,021857.000,A,3353.7560,N,09832.0257,W,0.01,352.14,010412,,,D*74
$GPGGA,021858.000,3353.7560,N,09832.0258,W,2,08,1.2,317.0,M,-23.7,M,0.8,0000*45
$GPGSA,A,3,08,11,19,07,23,03,13,01,,,,,2.1,1.2,1.7*32
$GPRMC,021858.000,A,3353.7560,N,09832.0258,W,0.00,47.78,010412,,,D*48
$GPGGA,021859.000,3353.7560,N,09832.0258,W,2,08,1.2,316.9,M,-23.7,M,0.8,0000*4C
$GPGSA,A,3,08,11,19,07,23,03,13,01,,,,,2.1,1.2,1.7*32
$GPGSV,3,1,12,07,72,034,34,19,49,059,33,08,45,323,29,13,43,184,34*7C
$GPGSV,3,2,12,28,31,268,18,11,31,125,36,03,16,043,31,23,15,168,36*79
$GPGSV,3,3,12,01,14,138,25,17,08,207,17,26,07,324,,06,05,040,27*7A
$GPRMC,021859.000,A,3353.7560,N,09832.0258,W,0.02,55.18,010412,,,D*4E
$GPGGA,021900.000,3353.7561,N,09832.0258,W,2,08,1.2,316.8,M,-23.7,M,0.8,0000*41
$GPGSA,A,3,08,11,19,07,23,03,13,01,,,,,2.1,1.2,1.7*32
$GPRMC,021900.000,A,3353.7561,N,09832.0258,W,0.04,79.14,010412,,,D*46
$GPGGA,021901.000,3353.7561,N,09832.0259,W,2,08,1.2,316.7,M,-23.7,M,1.8,0000*4F
$GPGSA,A,3,08,11,19,07,23,03,13,01,,,,,2.1,1.2,1.7*32
$GPRMC,021901.000,A,3353.7561,N,09832.0259,W,0.03,56.80,010412,,,D*41
$GPGGA,021902.000,3353.7561,N,09832.0259,W,2,08,1.2,316.6,M,-23.7,M,2.8,0000*4E
$GPGSA,A,3,08,11,19,07,23,03,13,01,,,,,2.1,1.2,1.7*32
$GPRMC,021902.000,A,3353.7561,N,09832.0259,W,0.03,47.34,010412,,,D*4D
$GPGGA,021903.000,3353.7561,N,09832.0259,W,2,08,1.2,316.5,M,-23.7,M,0.8,0000*4E
$GPGSA,A,3,08,11,19,07,23,03,13,01,,,,,2.1,1.2,1.7*32
$GPRMC,021903.000,A,3353.7561,N,09832.0259,W,0.02,73.85,010412,,,D*40
$GPGGA,021904.000,3353.7561,N,09832.0259,W,2,08,1.2,316.4,M,-23.7,M,0.8,0000*48
$GPGSA,A,3,08,11,19,07,23,03,13,01,,,,,2.1,1.2,1.7*32
$GPGSV,3,1,12,07,72,034,34,19,49,059,32,08,45,323,28,13,43,184,34*7C
$GPGSV,3,2,12,28,31,268,19,11,31,125,35,03,16,043,31,23,15,168,36*7B
$GPGSV,3,3,12,01,14,138,24,17,08,207,16,26,07,324,,06,05,040,27*7A
$GPRMC,021904.000,A,3353.7561,N,09832.0259,W,0.10,108.66,010412,,,D*74
$GPGGA,021905.000,3353.7561,N,09832.0259,W,2,08,1.2,316.3,M,-23.7,M,0.8,0000*4E
$GPGSA,A,3,08,11,19,07,23,03,13,01,,,,,2.1,1.2,1.7*32
$GPRMC,021905.000,A,3353.7561,N,09832.0259,W,0.12,113.88,010412,,,D*7D
$GPGGA,021906.000,3353.7561,N,09832.0259,W,2,08,1.2,316.3,M,-23.7,M,0.8,0000*4D
$GPGSA,A,3,08,11,19,07,23,03,13,01,,,,,2.1,1.2,1.7*32
$GPRMC,021906.000,A,3353.7561,N,09832.0259,W,0.03,304.72,010412,,,D*7F
$GPGGA,021907.000,3353.7562,N,09832.0259,W,2,08,1.2,316.3,M,-23.7,M,0.8,0000*4F
$GPGSA,A,3,08,11,19,07,23,03,13,01,,,,,2.1,1.2,1.7*32
$GPRMC,021907.000,A,3353.7562,N,09832.0259,W,0.07,311.66,010412,,,D*78
$GPGGA,021908.000,3353.7562,N,09832.0260,W,2,08,1.2,316.2,M,-23.7,M,1.8,0000*4A
$GPGSA,A,3,08,11,19,07,23,03,13,01,,,,,2.1,1.2,1.7*32
$GPRMC,021908.000,A,3353.7562,N,09832.0260,W,0.06,301.95,010412,,,D*71
$GPGGA,021909.000,3353.7562,N,09832.0260,W,2,08,1.2,316.2,M,-23.7,M,0.8,0000*4A
$GPGSA,A,3,08,11,19,07,23,03,13,01,,,,,2.1,1.2,1.7*32
$GPGSV,3,1,12,07,72,034,34,19,49,059,32,08,45,323,28,13,43,184,34*7C
$GPGSV,3,2,12,28,31,268,20,11,31,125,35,03,16,043,32,23,15,168,35*71
$GPGSV,3,3,12,01,14,138,23,17,08,207,15,26,07,324,,06,05,040,27*7E
$GPRMC,021909.000,A,3353.7562,N,09832.0260,W,0.07,298.71,010412,,,D*7A
$GPGGA,021910.000,3353.7562,N,09832.0260,W,2,08,1.2,316.1,M,-23.7,M,0.8,0000*41
$GPGSA,A,3,08,11,19,07,23,03,13,01,,,,,2.1,1.2,1.7*32
$GPRMC,021910.000,A,3353.7562,N,09832.0260,W,0.12,117.68,010412,,,D*7A
$GPGGA,021911.000,3353.7562,N,09832.0260,W,2,08,1.2,316.0,M,-23.7,M,0.8,0000*41
$GPGSA,A,3,08,11,19,07,23,03,13,01,,,,,2.1,1.2,1.7*32
$GPRMC,021911.000,A,3353.7562,N,09832.0260,W,0.17,120.85,010412,,,D*79
$GPGGA,021912.000,3353.7562,N,09832.0260,W,2,08,1.2,315.9,M,-23.7,M,1.8,0000*49
$GPGSA,A,3,08,11,19,07,23,03,13,01,,,,,2.1,1.2,1.7*32
$GPRMC,021912.000,A,3353.7562,N,09832.0260,W,0.09,304.33,010412,,,D*7C
$GPGGA,021913.000,3353.7562,N,09832.0261,W,2,08,1.2,315.8,M,-23.7,M,2.8,0000*4B
$GPGSA,A,3,08,11,19,07,23,03,13,01,,,,,2.1,1.2,1.7*32
$GPRMC,021913.000,A,3353.7562,N,09832.0261,W,0.13,304.12,010412,,,D*74
$GPGGA,021914.000,3353.7563,N,09832.0261,W,2,08,1.2,315.6,M,-23.7,M,0.8,0000*41
$GPGSA,A,3,08,11,19,07,23,03,13,01,,,,,2.1,1.2,1.7*32
$GPGSV,3,1,12,07,72,034,34,19,49,059,32,08,45,324,27,13,43,184,34*74
$GPGSV,3,2,12,28,31,268,19,11,31,125,35,03,16,043,32,23,15,168,35*7B
$GPGSV,3,3,12,01,14,138,22,17,08,207,15,26,07,324,,06,05,040,26*7E
$GPRMC,021914.000,A,3353.7563,N,09832.0261,W,0.11,127.13,010412,,,D*72
$GPGGA,021915.000,3353.7563,N,09832.0261,W,2,08,1.2,315.5,M,-23.7,M,0.8,0000*43
$GPGSA,A,3,08,11,19,07,23,03,13,01,,,,,2.1,1.2,1.7*32
$GPRMC,021915.000,A,3353.7563,N,09832.0261,W,0.15,122.81,010412,,,D*79
$GPGGA,021916.000,3353.7563,N,09832.0261,W,2,08,1.2,315.3,M,-23.7,M,0.8,0000*46
$GPGSA,A,3,08,11,19,07,23,03,13,01,,,,,2.1,1.2,1.7*32
$GPRMC,021916.000,A,3353.7563,N,09832.0261,W,0.12,119.03,010412,,,D*7F
$GPGGA,021917.000,3353.7563,N,09832.0261,W,2,08,1.2,315.3,M,-23.7,M,0.8,0000*47
$GPGSA,A,3,08,11,19,07,23,03,13,01,,,,,2.1,1.2,1.7*32
$GPRMC,021917.000,A,3353.7563,N,09832.0261,W,0.02,336.70,010412,,,D*74
$GPGGA,021918.000,3353.7563,N,09832.0261,W,2,08,1.2,315.3,M,-23.7,M,1.8,0000*49
$GPGSA,A,3,08,11,19,07,23,03,13,01,,,,,2.1,1.2,1.7*32
$GPRMC,021918.000,A,3353.7563,N,09832.0261,W,0.11,313.70,010412,,,D*7E
$GPGGA,021919.000,3353.7563,N,09832.0261,W,2,08,1.2,315.3,M,-23.7,M,2.8,0000*4B
$GPGSA,A,3,08,11,19,07,23,03,13,01,,,,,2.1,1.2,1.7*32
$GPGSV,3,1,12,07,72,034,34,19,49,059,32,08,45,324,27,13,43,184,34*74
$GPGSV,3,2,12,28,31,268,19,11,31,125,34,03,16,043,32,23,15,168,35*7A
$GPGSV,3,3,12,01,14,138,23,17,08,207,14,26,07,324,,06,05,040,26*7E
$GPRMC,021919.000,A,3353.7563,N,09832.0261,W,0.01,310.78,010412,,,D*75
$GPGGA,021920.000,3353.7563,N,09832.0260,W,2,08,1.2,315.3,M,-23.7,M,3.8,0000*41
$GPGSA,A,3,08,11,19,07,23,03,13,01,,,,,2.1,1.2,1.7*32
$GPRMC,021920.000,A,3353.7563,N,09832.0260,W,0.02,102.31,010412,,,D*71
$GPGGA,021921.000,3353.7563,N,09832.0260,W,2,08,1.2,315.4,M,-23.7,M,0.8,0000*44
$GPGSA,A,3,08,11,19,07,23,03,13,01,,,,,2.1,1.2,1.7*32
$GPRMC,021921.000,A,3353.7563,N,09832.0260,W,0.11,313.00,010412,,,D*72
$GPGGA,021922.000,3353.7563,N,09832.0260,W,2,08,1.2,315.4,M,-23.7,M,0.8,0000*47
$GPGSA,A,3,08,11,19,07,23,03,13,01,,,,,2.1,1.2,1.7*32
$GPRMC,021922.000,A,3353.7563,N,09832.0260,W,0.09,328.31,010412,,,D*72
$GPGGA,021923.000,3353.7564,N,09832.0260,W,2,08,1.2,315.4,M,-23.7,M,0.8,0000*41
$GPGSA,A,3,08,11,19,07,23,03,13,01,,,,,2.1,1.2,1.7*32
$GPRMC,021923.000,A,3353.7564,N,09832.0260,W,0.03,69.92,010412,,,D*41
$GPGGA,021924.000,3353.7564,N,09832.0260,W,2,08,1.2,315.3,M,-23.7,M,0.8,0000*41
$GPGSA,A,3,08,11,19,07,23,03,13,01,,,,,2.1,1.2,1.7*32
$GPGSV,3,1,12,07,72,034,34,19,49,059,33,08,45,324,27,13,43,184,34*75
$GPGSV,3,2,12,28,31,268,21,11,31,125,34,03,16,043,32,23,15,168,35*71
$GPGSV,3,3,12,01,14,138,23,17,08,207,14,26,07,324,,06,05,040,25*7D
$GPRMC,021924.000,A,3353.7564,N,09832.0260,W,0.07,335.33,010412,,,D*73
$GPGGA,021925.000,3353.7564,N,09832.0260,W,2,08,1.2,315.3,M,-23.7,M,1.8,0000*41
$GPGSA,A,3,08,11,19,07,23,03,13,01,,,,,2.1,1.2,1.7*32
$GPRMC,021925.000,A,3353.7564,N,09832.0260,W,0.09,321.08,010412,,,D*71
$GPGGA,021926.000,3353.7564,N,09832.0260,W,2,08,1.2,315.3,M,-23.7,M,2.8,0000*41
$GPGSA,A,3,08,11,19,07,23,03,13,01,,,,,2.1,1.2,1.7*32
$GPRMC,021926.000,A,3353.7564,N,09832.0260,W,0.06,325.68,010412,,,D*7F
$GPGGA,021927.000,3353.7564,N,09832.0260,W,2,08,1.2,315.3,M,-23.7,M,0.8,0000*42
$GPGSA,A,3,08,11,19,07,23,03,13,01,,,,,2.1,1.2,1.7*32
$GPRMC,021927.000,A,3353.7564,N,09832.0260,W,0.04,308.98,010412,,,D*7C
$GPGGA,021928.000,3353.7565,N,09832.0261,W,2,08,1.2,315.3,M,-23.7,M,0.8,0000*4D
$GPGSA,A,3,08,11,19,07,23,03,13,01,,,,,2.1,1.2,1.7*32
$GPRMC,021928.000,A,3353.7565,N,09832.0261,W,0.10,308.33,010412,,,D*77
$GPGGA,021929.000,3353.7565,N,09832.0260,W,2,08,1.2,315.3,M,-23.7,M,0.8,0000*4D
$GPGSA,A,3,08,11,19,07,23,03,13,01,,,,,2.1,1.2,1.7*32
$GPGSV,3,1,12,07,72,034,34,19,49,059,33,08,45,324,27,13,43,184,34*75
$GPGSV,3,2,12,28,31,268,22,11,31,125,34,03,16,043,33,23,15,168,34*72
$GPGSV,3,3,12,01,14,138,24,17,08,207,15,26,07,324,,06,05,040,25*7B
$GPRMC,021929.000,A,3353.7565,N,09832.0260,W,0.11,300.83,010412,,,D*75
$GPGGA,021930.000,3353.7565,N,09832.0260,W,2,08,1.2,315.3,M,-23.7,M,0.8,0000*45
$GPGSA,A,3,08,11,19,07,23,03,13,01,,,,,2.1,1.2,1.7*32
$GPRMC,021930.000,A,3353.7565,N,09832.0260,W,0.01,196.63,010412,,,D*7F
$GPGGA,021931.000,3353.7565,N,09832.0260,W,2,08,1.2,315.3,M,-23.7,M,1.8,0000*45
$GPGSA,A,3,08,11,19,07,23,03,13,01,,,,,2.1,1.2,1.7*32
$GPRMC,021931.000,A,3353.7565,N,09832.0260,W,0.07,311.71,010412,,,D*76
$GPGGA,021932.000,3353.7565,N,09832.0260,W,2,08,1.2,315.4,M,-23.7,M,2.8,0000*42
$GPGSA,A,3,08,11,19,07,23,03,13,01,,,,,2.1,1.2,1.7*32
$GPRMC,021932.000,A,3353.7565,N,09832.0260,W,0.00,175.63,010412,,,D*71
$GPGGA,021933.000,3353.7565,N,09832.0259,W,2,08,1.2,315.4,M,-23.7,M,0.8,0000*4B
$GPGSA,A,3,08,11,19,07,23,03,13,01,,,,,2.1,1.2,1.7*32
$GPRMC,021933.000,A,3353.7565,N,09832.0259,W,0.06,327.58,010412,,,D*71
$GPGGA,021934.000,3353.7565,N,09832.0259,W,2,08,1.2,315.5,M,-23.7,M,0.8,0000*4D
$GPGSA,A,3,08,11,19,07,23,03,13,01,,,,,2.1,1.2,1.7*32
$GPGSV,3,1,12,07,72,034,34,19,49,059,33,08,45,324,27,13,43,184,33*72
$GPGSV,3,2,12,28,31,268,22,11,31,125,34,03,16,043,33,23,15,168,34*72
$GPGSV,3,3,12,01,14,138,24,17,08,207,18,26,07,324,,06,05,040,25*76
$GPRMC,021934.000,A,3353.7565,N,09832.0259,W,0.04,85.38,010412,,,D*49
$GPGGA,021935.000,3353.7565,N,09832.0259,W,2,08,1.2,315.5,M,-23.7,M,0.8,0000*4C
$GPGSA,A,3,08,11,19,07,23,03,13,01,,,,,2.1,1.2,1.7*32
$GPRMC,021935.000,A,3353.7565,N,09832.0259,W,0.05,60.15,010412,,,D*4D
$GPGGA,021936.000,3353.7565,N,09832.0258,W,2,08,1.2,315.5,M,-23.7,M,1.8,0000*4F
$GPGSA,A,3,08,11,19,07,23,03,13,01,,,,,2.1,1.2,1.7*32
$GPRMC,021936.000,A,3353.7565,N,09832.0258,W,0.03,56.90,010412,,,D*41
$GPGGA,021937.000,3353.7565,N,09832.0258,W,2,08,1.2,315.4,M,-23.7,M,2.8,0000*4C
$GPGSA,A,3,08,11,19,07,23,03,13,01,,,,,2.1,1.2,1.7*32
$GPRMC,021937.000,A,3353.7565,N,09832.0258,W,0.03,43.20,010412,,,D*4F
$GPGGA,021938.000,3353.7565,N,09832.0258,W,2,08,1.2,315.4,M,-23.7,M,0.8,0000*41
$GPGSA,A,3,08,11,19,07,23,03,13,01,,,,,2.1,1.2,1.7*32
$GPRMC,021938.000,A,3353.7565,N,09832.0258,W,0.03,60.48,010412,,,D*4F
$GPGGA,021939.000,3353.7565,N,09832.0258,W,2,08,1.2,315.3,M,-23.7,M,0.8,0000*47
$GPGSA,A,3,08,11,19,07,23,03,13,01,,,,,2.1,1.2,1.7*32
$GPGSV,3,1,12,07,72,034,34,19,49,059,33,08,45,324,27,13,43,184,33*72
$GPGSV,3,2,12,28,31,268,22,11,31,125,35,03,16,043,33,23,15,168,34*73
$GPGSV,3,3,12,01,14,138,25,17,08,207,19,26,07,324,,06,05,040,25*76
$GPRMC,021939.000,A,3353.7565,N,09832.0258,W,0.02,96.02,010412,,,D*48
$GPGGA,021940.000,3353.7565,N,09832.0258,W,2,08,1.2,315.3,M,-23.7,M,0.8,0000*49
$GPGSA,A,3,08,11,19,07,23,03,13,01,,,,,2.1,1.2,1.7*32
$GPRMC,021940.000,A,3353.7565,N,09832.0258,W,0.01,252.93,010412,,,D*77
$GPGGA,021941.000,3353.7565,N,09832.0258,W,2,08,1.2,315.3,M,-23.7,M,0.8,0000*48
$GPGSA,A,3,08,11,19,07,23,03,13,01,,,,,2.1,1.2,1.7*32
$GPRMC,021941.000,A,3353.7565,N,09832.0258,W,0.01,71.88,010412,,,D*4F
$GPGGA,021942.000,3353.7565,N,09832.0258,W,2,08,1.2,315.3,M,-23.7,M,1.8,0000*4A
$GPGSA,A,3,08,11,19,07,23,03,13,01,,,,,2.1,1.2,1.7*32
$GPRMC,021942.000,A,3353.7565,N,09832.0258,W,0.02,135.81,010412,,,D*77
$GPGGA,021943.000,3353.7565,N,09832.0258,W,2,08,1.2,315.3,M,-23.7,M,2.8,0000*48
$GPGSA,A,3,08,11,19,07,23,03,13,01,,,,,2.1,1.2,1.7*32
$GPRMC,021943.000,A,3353.7565,N,09832.0258,W,0.01,122.18,010412,,,D*73
$GPGGA,021944.000,3353.7564,N,09832.0257,W,2,08,1.2,315.3,M,-23.7,M,3.8,0000*40
$GPGSA,A,3,08,11,19,07,23,03,13,01,,,,,2.1,1.2,1.7*32
$GPGSV,3,1,12,07,72,034,34,19,49,059,33,08,45,324,27,13,43,184,32*73
$GPGSV,3,2,12,28,31,268,22,11,31,125,35,03,16,043,33,23,15,168,34*73
$GPGSV,3,3,12,01,14,138,26,17,08,207,19,26,07,324,,06,05,040,24*74
$GPRMC,021944.000,A,3353.7564,N,09832.0257,W,0.02,68.83,010412,,,D*44
$GPGGA,021945.000,3353.7564,N,09832.0257,W,2,08,1.2,315.4,M,-23.7,M,0.8,0000*45
$GPGSA,A,3,08,11,19,07,23,03,13,01,,,,,2.1,1.2,1.7*32
$GPRMC,021945.000,A,3353.7564,N,09832.0257,W,0.01,83.22,010412,,,D*48
$GPGGA,021946.000,3353.7564,N,09832.0257,W,2,08,1.2,315.4,M,-23.7,M,0.8,0000*46
$GPGSA,A,3,08,11,19,07,23,03,13,01,,,,,2.1,1.2,1.7*32
$GPRMC,021946.000,A,3353.7564,N,09832.0257,W,0.03,88.32,010412,,,D*43
$GPGGA,021947.000,3353.7564,N,09832.0257,W,2,08,1.2,315.4,M,-23.7,M,0.8,0000*47
$GPGSA,A,3,08,11,19,07,23,03,13,01,,,,,2.1,1.2,1.7*32
$GPRMC,021947.000,A,3353.7564,N,09832.0257,W,0.02,325.37,010412,,,D*72
$GPGGA,021948.000,3353.7564,N,09832.0257,W,2,08,1.2,315.4,M,-23.7,M,1.8,0000*49
$GPGSA,A,3,08,11,19,07,23,03,13,01,,,,,2.1,1.2,1.7*32
$GPRMC,021948.000,A,3353.7564,N,09832.0257,W,0.02,66.99,010412,,,D*4D
$GPGGA,021949.000,3353.7564,N,09832.0257,W,2,08,1.2,315.3,M,-23.7,M,2.8,0000*4C
$GPGSA,A,3,08,11,19,07,23,03,13,01,,,,,2.1,1.2,1.7*32
$GPGSV,3,1,12,07,72,034,34,19,49,059,33,08,45,324,27,13,43,184,31*70
$GPGSV,3,2,12,28,31,268,21,11,31,125,35,03,16,043,33,23,15,168,34*70
$GPGSV,3,3,12,01,14,138,26,17,08,207,18,26,07,324,,06,05,040,24*75
$GPRMC,021949.000,A,3353.7564,N,09832.0257,W,0.03,64.57,010412,,,D*4D
$GPGGA,021950.000,3353.7564,N,09832.0258,W,2,08,1.2,315.3,M,-23.7,M,3.8,0000*4A
$GPGSA,A,3,08,11,19,07,23,03,13,01,,,,,2.1,1.2,1.7*32
$GPRMC,021950.000,A,3353.7564,N,09832.0258,W,0.03,4.26,010412,,,D*7A
$GPGGA,021951.000,3353.7564,N,09832.0258,W,2,08,1.2,315.3,M,-23.7,M,0.8,0000*48
$GPGSA,A,3,08,11,19,07,23,03,13,01,,,,,2.1,1.2,1.7*32
$GPRMC,021951.000,A,3353.7564,N,09832.0258,W,0.02,116.42,010412,,,D*7A
$GPGGA,021952.000,3353.7564,N,09832.0258,W,2,08,1.2,315.2,M,-23.7,M,0.8,0000*4A
$GPGSA,A,3,08,11,19,07,23,03,13,01,,,,,2.1,1.2,1.7*32
$GPRMC,021952.000,A,3353.7564,N,09832.0258,W,0.02,351.18,010412,,,D*77
$GPGGA,021953.000,3353.7564,N,09832.0258,W,2,08,1.2,315.2,M,-23.7,M,0.8,0000*4B
$GPGSA,A,3,08,11,19,07,23,03,13,01,,,,,2.1,1.2,1.7*32
$GPRMC,021953.000,A,3353.7564,N,09832.0258,W,0.02,88.76,010412,,,D*49
$GPGGA,021954.000,3353.7564,N,09832.0258,W,2,08,1.2,315.3,M,-23.7,M,0.8,0000*4D
$GPGSA,A,3,08,11,19,07,23,03,13,01,,,,,2.1,1.2,1.7*32
$GPGSV,3,1,12,07,72,034,34,19,49,059,33,08,45,324,27,13,43,184,31*70
$GPGSV,3,2,12,28,31,268,20,11,31,125,35,03,16,043,33,23,15,168,34*71
$GPGSV,3,3,12,01,14,138,26,17,08,207,17,26,07,324,,06,05,040,23*7D
$GPRMC,021954.000,A,3353.7564,N,09832.0258,W,0.03,84.59,010412,,,D*4E
$GPGGA,021955.000,3353.7564,N,09832.0258,W,2,08,1.2,315.3,M,-23.7,M,0.8,0000*4C
$GPGSA,A,3,08,11,19,07,23,03,13,01,,,,,2.1,1.2,1.7*32
$GPRMC,021955.000,A,3353.7564,N,09832.0258,W,0.01,22.59,010412,,,D*41
$GPGGA,021956.000,3353.7564,N,09832.0258,W,2,08,1.2,315.4,M,-23.7,M,1.8,0000*49
$GPGSA,A,3,08,11,19,07,23,03,13,01,,,,,2.1,1.2,1.7*32
$GPRMC,021956.000,A,3353.7564,N,09832.0258,W,0.02,104.13,010412,,,D*7A
$GPGGA,021957.000,3353.7564,N,09832.0258,W,2,08,1.2,315.4,M,-23.7,M,0.8,0000*49
$GPGSA,A,3,08,11,19,07,23,03,13,01,,,,,2.1,1.2,1.7*32
$GPRMC,021957.000,A,3353.7564,N,09832.0258,W,0.04,87.78,010412,,,D*4A
$GPGGA,021958.000,3353.7563,N,09832.0258,W,2,08,1.2,315.5,M,-23.7,M,0.8,0000*40
$GPGSA,A,3,08,11,19,07,23,03,13,01,,,,,2.1,1.2,1.7*32
$GPRMC,021958.000,A,3353.7563,N,09832.0258,W,0.00,35.12,010412,,,D*43
$GPGGA,021959.000,3353.7563,N,09832.0258,W,2,08,1.2,315.5,M,-23.7,M,0.8,0000*41
$GPGSA,A,3,08,11,19,07,23,03,13,01,,,,,2.1,1.2,1.7*32
$GPGSV,3,1,12,07,72,034,34,19,49,059,33,08,45,324,27,13,43,184,30*71
$GPGSV,3,2,12,28,31,268,21,11,31,125,34,03,16,043,33,23,15,168,33*76
$GPGSV,3,3,12,01,14,138,26,17,08,207,16,26,07,324,,06,05,040,23*7C
$GPRMC,021959.000,A,3353.7563,N,09832.0258,W,0.02,347.19,010412,,,D*7D
$GPGGA,022000.000,3353.7563,N,09832.0258,W,2,08,1.2,315.5,M,-23.7,M,1.8,0000*46
$GPGSA,A,3,08,11,19,07,23,03,13,01,,,,,2.1,1.2,1.7*32
$GPRMC,022000.000,A,3353.7563,N,09832.0258,W,0.01,55.49,010412,,,D*4D
$GPGGA,022001.000,3353.7563,N,09832.0258,W,2,08,1.2,315.4,M,-23.7,M,2.8,0000*45
$GPGSA,A,3,08,11,19,07,23,03,13,01,,,,,2.1,1.2,1.7*32
$GPRMC,022001.000,A,3353.7563,N,09832.0258,W,0.03,54.59,010412,,,D*4E
$GPGGA,022002.000,3353.7563,N,09832.0258,W,2,08,1.2,315.4,M,-23.7,M,0.8,0000*44
$GPGSA,A,3,08,11,19,07,23,03,13,01,,,,,2.1,1.2,1.7*32
$GPRMC,022002.000,A,3353.7563,N,09832.0258,W,0.01,335.12,010412,,,D*74
$GPGGA,022003.000,3353.7563,N,09832.0259,W,2,08,1.2,315.4,M,-23.7,M,0.8,0000*44
$GPGSA,A,3,08,11,19,07,23,03,13,01,,,,,2.1,1.2,1.7*32
$GPRMC,022003.000,A,3353.7563,N,09832.0259,W,0.01,40.59,010412,,,D*4A
$GPGGA,022004.000,3353.7563,N,09832.0259,W,2,08,1.2,315.4,M,-23.7,M,0.8,0000*43
$GPGSA,A,3,08,11,19,07,23,03,13,01,,,,,2.1,1.2,1.7*32
$GPGSV,3,1,12,07,72,034,34,19,49,059,33,08,45,324,27,13,43,184,30*71
$GPGSV,3,2,12,28,31,268,21,11,31,125,34,03,16,043,33,23,15,168,33*76
$GPGSV,3,3,12,01,14,138,25,17,08,207,16,26,07,324,,06,05,040,23*7F
$GPRMC,022004.000,A,3353.7563,N,09832.0259,W,0.03,90.85,010412,,,D*43
$GPGGA,022005.000,3353.7563,N,09832.0258,W,2,08,1.2,315.4,M,-23.7,M,0.8,0000*43
$GPGSA,A,3,08,11,19,07,23,03,13,01,,,,,2.1,1.2,1.7*32
$GPRMC,022005.000,A,3353.7563,N,09832.0258,W,0.00,52.30,010412,,,D*40
$GPGGA,022006.000,3353.7563,N,09832.0258,W,2,08,1.2,315.5,M,-23.7,M,1.8,0000*40
$GPGSA,A,3,08,11,19,07,23,03,13,01,,,,,2.1,1.2,1.7*32
$GPRMC,022006.000,A,3353.7563,N,09832.0258,W,0.04,82.73,010412,,,D*4D
$GPGGA,022007.000,3353.7563,N,09832.0258,W,2,08,1.2,315.6,M,-23.7,M,2.8,0000*41
$GPGSA,A,3,08,11,19,07,23,03,13,01,,,,,2.1,1.2,1.7*32
$GPRMC,022007.000,A,3353.7563,N,09832.0258,W,0.06,96.81,010412,,,D*46
$GPGGA,022008.000,3353.7563,N,09832.0257,W,2,08,1.2,315.6,M,-23.7,M,3.8,0000*40
$GPGSA,A,3,08,11,19,07,23,03,13,01,,,,,2.1,1.2,1.7*32
$GPRMC,022008.000,A,3353.7563,N,09832.0257,W,0.04,98.01,010412,,,D*42
$GPGGA,022009.000,3353.7562,N,09832.0257,W,2,08,1.2,315.7,M,-23.7,M,0.8,0000*42
$GPGSA,A,3,08,11,19,07,23,03,13,01,,,,,2.1,1.2,1.7*32
$GPGSV,3,1,12,07,72,034,34,19,49,059,32,08,45,324,27,13,43,184,29*78
$GPGSV,3,2,12,28,31,268,21,11,31,125,33,03,16,043,33,23,15,168,33*71
$GPGSV,3,3,12,01,14,138,25,17,08,207,14,26,07,324,,06,05,040,22*7C
$GPRMC,022009.000,A,3353.7562,N,09832.0257,W,0.05,76.47,010412,,,D*41
$GPGGA,022010.000,3353.7563,N,09832.0255,W,2,08,1.2,315.8,M,-23.7,M,0.8,0000*46
$GPGSA,A,3,08,11,19,07,23,03,13,01,,,,,2.1,1.2,1.7*32
$GPRMC,022010.000,A,3353.7563,N,09832.0255,W,0.05,85.45,010412,,,D*44
$GPGGA,022011.000,3353.7563,N,09832.0255,W,2,08,1.2,315.8,M,-23.7,M,0.8,0000*47
$GPGSA,A,3,08,11,19,07,23,03,13,01,,,,,2.1,1.2,1.7*32
$GPRMC,022011.000,A,3353.7563,N,09832.0255,W,0.14,62.20,010412,,,D*4F
$GPGGA,022012.000,3353.7562,N,09832.0257,W,2,08,1.2,315.7,M,-23.7,M,0.8,0000*48
$GPGSA,A,3,08,11,19,07,23,03,13,01,,,,,2.1,1.2,1.7*32
$GPRMC,022012.000,A,3353.7562,N,09832.0257,W,0.00,218.64,010412,,,D*75
$GPGGA,022013.000,3353.7561,N,09832.0255,W,2,08,1.2,315.9,M,-23.7,M,0.8,0000*46
$GPGSA,A,3,08,11,19,07,23,03,13,01,,,,,2.1,1.2,1.7*32
$GPRMC,022013.000,A,3353.7561,N,09832.0255,W,0.01,157.49,010412,,,D*73
$GPGGA,022014.000,3353.7560,N,09832.0255,W,2,08,1.2,316.1,M,-23.7,M,1.8,0000*4A
$GPGSA,A,3,08,11,19,07,23,03,13,01,,,,,2.1,1.2,1.7*32
$GPGSV,3,1,12,07,72,034,34,19,49,059,31,08,45,324,26,13,43,184,25*76
$GPGSV,3,2,12,28,31,268,22,11,31,125,32,03,16,043,32,23,15,168,32*73
$GPGSV,3,3,12,01,14,138,26,17,08,207,,26,07,324,,06,05,040,22*7A
$GPRMC,022014.000,A,3353.7560,N,09832.0255,W,0.05,85.34,010412,,,D*45
$GPGGA,022015.000,3353.7560,N,09832.0255,W,2,08,1.2,316.0,M,-23.7,M,0.8,0000*4B
$GPGSA,A,3,08,11,19,07,23,03,13,01,,,,,2.1,1.2,1.7*32
$GPRMC,022015.000,A,3353.7560,N,09832.0255,W,0.01,103.19,010412,,,D*70
$GPGGA,022016.000,3353.7559,N,09832.0256,W,2,08,1.2,316.0,M,-23.7,M,0.8,0000*41
$GPGSA,A,3,08,11,19,07,23,03,13,01,,,,,2.1,1.2,1.7*32
$GPRMC,022016.000,A,3353.7559,N,09832.0256,W,0.03,49.43,010412,,,D*48
$GPGGA,022017.000,3353.7559,N,09832.0256,W,2,08,1.2,316.0,M,-23.7,M,0.8,0000*40
$GPGSA,A,3,08,11,19,07,23,03,13,01,,,,,2.1,1.2,1.7*32
$GPRMC,022017.000,A,3353.7559,N,09832.0256,W,0.01,110.03,010412,,,D*72
$GPGGA,022018.000,3353.7559,N,09832.0257,W,2,08,1.2,316.1,M,-23.7,M,1.8,0000*4E
$GPGSA,A,3,08,11,19,07,23,03,13,01,,,,,2.1,1.2,1.7*32
$GPRMC,022018.000,A,3353.7559,N,09832.0257,W,0.10,185.69,010412,,,D*7C
$GPGGA,022019.000,3353.7558,N,09832.0258,W,2,08,1.2,316.2,M,-23.7,M,2.8,0000*41
$GPGSA,A,3,08,11,19,07,23,03,13,01,,,,,2.1,1.2,1.7*32
$GPGSV,3,1,12,07,72,034,34,19,49,059,31,08,45,324,26,13,43,184,25*76
$GPGSV,3,2,12,28,31,268,23,11,31,125,31,03,16,043,32,23,15,168,32*71
$GPGSV,3,3,12,01,14,138,27,17,08,207,,26,07,324,,06,05,040,22*7B
$GPRMC,022019.000,A,3353.7558,N,09832.0258,W,0.11,308.80,010412,,,D*72
$GPGGA,022020.000,3353.7558,N,09832.0258,W,2,08,1.2,316.3,M,-23.7,M,3.8,0000*4B
$GPGSA,A,3,08,11,19,07,23,03,13,01,,,,,2.1,1.2,1.7*32
$GPRMC,022020.000,A,3353.7558,N,09832.0258,W,0.00,142.48,010412,,,D*70
$GPGGA,022021.000,3353.7558,N,09832.0259,W,2,08,1.2,316.4,M,-23.7,M,0.8,0000*4F
$GPGSA,A,3,08,11,19,07,23,03,13,01,,,,,2.1,1.2,1.7*32
$GPRMC,022021.000,A,3353.7558,N,09832.0259,W,0.01,218.06,010412,,,D*77
$GPGGA,022022.000,3353.7558,N,09832.0259,W,2,08,1.2,316.5,M,-23.7,M,0.8,0000*4D
$GPGSA,A,3,08,11,19,07,23,03,13,01,,,,,2.1,1.2,1.7*32
$GPRMC,022022.000,A,3353.7558,N,09832.0259,W,0.08,68.37,010412,,,D*4A
$GPGGA,022023.000,3353.7557,N,09832.0260,W,2,08,1.2,316.5,M,-23.7,M,0.8,0000*49
$GPGSA,A,3,08,11,19,07,23,03,13,01,,,,,2.1,1.2,1.7*32
$GPRMC,022023.000,A,3353.7557,N,09832.0260,W,0.03,264.04,010412,,,D*7B
$GPGGA,022024.000,3353.7557,N,09832.0261,W,2,08,1.2,316.5,M,-23.7,M,1.8,0000*4E
$GPGSA,A,3,08,11,19,07,23,03,13,01,,,,,2.1,1.2,1.7*32
$GPGSV,3,1,12,07,72,034,33,19,49,059,31,08,45,324,25,13,43,184,24*73
$GPGSV,3,2,12,28,31,268,23,11,31,125,31,03,16,043,32,23,15,168,32*71
$GPGSV,3,3,12,01,14,138,28,17,08,207,,26,07,324,,06,05,040,22*74
$GPRMC,022024.000,A,3353.7557,N,09832.0261,W,0.04,307.33,010412,,,D*7A
$GPGGA,022025.000,3353.7557,N,09832.0262,W,2,08,1.2,316.5,M,-23.7,M,0.8,0000*4D
$GPGSA,A,3,08,11,19,07,23,03,13,01,,,,,2.1,1.2,1.7*32
$GPRMC,022025.000,A,3353.7557,N,09832.0262,W,0.04,330.35,010412,,,D*7A
$GPGGA,022026.000,3353.7557,N,09832.0263,W,2,08,1.2,316.5,M,-23.7,M,0.8,0000*4F
$GPGSA,A,3,08,11,19,07,23,03,13,01,,,,,2.1,1.2,1.7*32
$GPRMC,022026.000,A,3353.7557,N,09832.0263,W,0.04,319.81,010412,,,D*7C
$GPGGA,022027.000,3353.7557,N,09832.0264,W,2,08,1.2,316.4,M,-23.7,M,0.8,0000*48
$GPGSA,A,3,08,11,19,07,23,03,13,01,,,,,2.1,1.2,1.7*32
$GPRMC,022027.000,A,3353.7557,N,09832.0264,W,0.04,318.47,010412,,,D*71
$GPGGA,022028.000,3353.7557,N,09832.0265,W,2,08,1.2,316.4,M,-23.7,M,0.8,0000*46
$GPGSA,A,3,08,11,19,07,23,03,13,01,,,,,2.1,1.2,1.7*32
$GPRMC,022028.000,A,3353.7557,N,09832.0265,W,0.04,270.43,010412,,,D*74
$GPGGA,022029.000,3353.7557,N,09832.0265,W,2,08,1.2,316.5,M,-23.7,M,0.8,0000*46
$GPGSA,A,3,08,11,19,07,23,03,13,01,,,,,2.1,1.2,1.7*32
$GPGSV,3,1,12,07,72,034,33,19,49,059,31,08,45,324,25,13,43,184,25*72
$GPGSV,3,2,12,28,31,268,23,11,31,125,31,03,16,043,31,23,15,168,31*71
$GPGSV,3,3,12,01,14,138,28,17,08,207,,26,07,324,,06,05,040,22*74
$GPRMC,022029.000,A,3353.7557,N,09832.0265,W,0.12,230.05,010412,,,D*74
$GPGGA,022030.000,3353.7557,N,09832.0266,W,2,08,1.2,316.6,M,-23.7,M,0.8,0000*4E
$GPGSA,A,3,08,11,19,07,23,03,13,01,,,,,2.1,1.2,1.7*32
$GPRMC,022030.000,A,3353.7557,N,09832.0266,W,0.05,235.97,010412,,,D*77
$GPGGA,022031.000,3353.7556,N,09832.0266,W,2,08,1.2,316.7,M,-23.7,M,0.8,0000*4F
$GPGSA,A,3,08,11,19,07,23,03,13,01,,,,,2.1,1.2,1.7*32
$GPRMC,022031.000,A,3353.7556,N,09832.0266,W,0.09,225.84,010412,,,D*78
$GPGGA,022032.000,3353.7556,N,09832.0267,W,2,08,1.2,316.8,M,-23.7,M,1.8,0000*43
$GPGSA,A,3,08,11,19,07,23,03,13,01,,,,,2.1,1.2,1.7*32
$GPRMC,022032.000,A,3353.7556,N,09832.0267,W,0.05,139.73,010412,,,D*70
$GPGGA,022033.000,3353.7556,N,09832.0267,W,2,08,1.2,316.9,M,-23.7,M,0.8,0000*42
$GPGSA,A,3,08,11,19,07,23,03,13,01,,,,,2.1,1.2,1.7*32
$GPRMC,022033.000,A,3353.7556,N,09832.0267,W,0.06,74.69,010412,,,D*41
$GPGGA,022034.000,3353.7556,N,09832.0267,W,2,08,1.2,317.1,M,-23.7,M,0.8,0000*4C
$GPGSA,A,3,08,11,19,07,23,03,13,01,,,,,2.1,1.2,1.7*32
$GPGSV,3,1,12,07,72,034,33,19,49,059,31,08,45,324,26,13,43,184,25*71
$GPGSV,3,2,12,28,31,268,23,11,31,125,32,03,16,043,31,23,15,168,31*72
$GPGSV,3,3,12,01,14,138,28,17,08,207,,26,07,324,,06,05,040,21*77
$GPRMC,022034.000,A,3353.7556,N,09832.0267,W,0.05,93.13,010412,,,D*41
$GPGGA,022035.000,3353.7556,N,09832.0268,W,2,08,1.2,317.1,M,-23.7,M,0.8,0000*42
$GPGSA,A,3,08,11,19,07,23,03,13,01,,,,,2.1,1.2,1.7*32
$GPRMC,022035.000,A,3353.7556,N,09832.0268,W,0.03,327.41,010412,,,D*72
$GPGGA,022036.000,3353.7556,N,09832.0268,W,2,08,1.2,317.1,M,-23.7,M,1.8,0000*40
$GPGSA,A,3,08,11,19,07,23,03,13,01,,,,,2.1,1.2,1.7*32
$GPRMC,022036.000,A,3353.7556,N,09832.0268,W,0.04,8.36,010412,,,D*78
$GPGGA,022037.000,3353.7556,N,09832.0269,W,2,08,1.2,317.2,M,-23.7,M,2.8,0000*40
$GPGSA,A,3,08,11,19,07,23,03,13,01,,,,,2.1,1.2,1.7*32
$GPRMC,022037.000,A,3353.7556,N,09832.0269,W,0.06,314.11,010412,,,D*71
$GPGGA,022038.000,3353.7556,N,09832.0270,W,2,08,1.2,317.2,M,-23.7,M,3.8,0000*46
$GPGSA,A,3,08,11,19,07,23,03,13,01,,,,,2.1,1.2,1.7*32
$GPRMC,022038.000,A,3353.7556,N,09832.0270,W,0.06,336.91,010412,,,D*7E
$GPGGA,022039.000,3353.7556,N,09832.0271,W,2,08,1.2,317.2,M,-23.7,M,0.8,0000*45
$GPGSA,A,3,08,11,19,07,23,03,13,01,,,,,2.1,1.2,1.7*32
$GPGSV,3,1,12,07,72,034,32,19,49,059,31,08,45,324,26,13,43,184,26*73
