$GPGGA,032103.000,3353.7520,N,09832.0248,W,2,08,1.1,302.4,M,-23.7,M,1.8,0000*47
$GPGSA,A,3,01,11,08,28,07,13,17,19,,,,,2.0,1.1,1.6*3F
$GPGSV,3,1,10,08,76,357,32,07,56,126,35,28,49,305,26,11,42,084,34*7C
$GPGSV,3,2,10,17,38,220,28,01,36,109,33,26,29,301,,19,22,043,23*71
$GPGSV,3,3,10,13,10,178,26,51,49,195,36*70
$GPRMC,032103.000,A,3353.7520,N,09832.0248,W,0.23,341.64,040412,,,D*74
$GPGGA,032104.000,3353.7521,N,09832.0248,W,2,08,1.1,302.3,M,-23.7,M,2.8,0000*45
$GPGSA,A,3,01,11,08,28,07,13,17,19,,,,,2.0,1.1,1.6*3F
$GPRMC,032104.000,A,3353.7521,N,09832.0248,W,0.14,187.56,040412,,,D*7F
$GPGGA,032105.000,3353.7522,N,09832.0248,W,2,08,1.1,302.2,M,-23.7,M,3.8,0000*47
$GPGSA,A,3,01,11,08,28,07,13,17,19,,,,,2.0,1.1,1.6*3F
$GPRMC,032105.000,A,3353.7522,N,09832.0248,W,0.08,151.38,040412,,,D*73
$GPGGA,032106.000,3353.7522,N,09832.0248,W,2,08,1.1,302.1,M,-23.7,M,0.8,0000*44
$GPGSA,A,3,01,11,08,28,07,13,17,19,,,,,2.0,1.1,1.6*3F
$GPRMC,032106.000,A,3353.7522,N,09832.0248,W,0.01,26.85,040412,,,D*4E
$GPGGA,032107.000,3353.7523,N,09832.0248,W,2,08,1.1,301.9,M,-23.7,M,0.8,0000*4F
$GPGSA,A,3,01,11,08,28,07,13,17,19,,,,,2.0,1.1,1.6*3F
$GPRMC,032107.000,A,3353.7523,N,09832.0248,W,0.09,20.95,040412,,,D*41
$GPGGA,032108.000,3353.7524,N,09832.0248,W,2,08,1.1,301.7,M,-23.7,M,0.8,0000*49
$GPGSA,A,3,01,11,08,28,07,13,17,19,,,,,2.0,1.1,1.6*3F
$GPGSV,3,1,10,08,76,357,31,07,56,126,35,28,49,305,25,11,42,084,35*7D
$GPGSV,3,2,10,17,38,220,28,01,36,109,33,26,29,301,,19,22,043,23*71
$GPGSV,3,3,10,13,10,178,26,51,49,195,35*73
$GPRMC,032108.000,A,3353.7524,N,09832.0248,W,0.12,50.20,040412,,,D*4A
$GPGGA,032109.000,3353.7526,N,09832.0247,W,2,08,1.1,301.4,M,-23.7,M,1.8,0000*47
$GPGSA,A,3,01,11,08,28,07,13,17,19,,,,,2.0,1.1,1.6*3F
$GPRMC,032109.000,A,3353.7526,N,09832.0247,W,0.29,35.93,040412,,,D*45
$GPGGA,032110.000,3353.7527,N,09832.0247,W,2,08,1.1,301.0,M,-23.7,M,2.8,0000*49
$GPGSA,A,3,01,11,08,28,07,13,17,19,,,,,2.0,1.1,1.6*3F
$GPRMC,032110.000,A,3353.7527,N,09832.0247,W,0.20,33.09,040412,,,D*40
$GPGGA,032111.000,3353.7527,N,09832.0247,W,2,08,1.1,300.9,M,-23.7,M,3.8,0000*41
$GPGSA,A,3,01,11,08,28,07,13,17,19,,,,,2.0,1.1,1.6*3F
$GPRMC,032111.000,A,3353.7527,N,09832.0247,W,0.09,133.65,040412,,,D*71
$GPGGA,032112.000,3353.7528,N,09832.0247,W,2,08,1.1,300.9,M,-23.7,M,0.8,0000*4E
$GPGSA,A,3,01,11,08,28,07,13,17,19,,,,,2.0,1.1,1.6*3F
$GPRMC,032112.000,A,3353.7528,N,09832.0247,W,0.14,152.87,040412,,,D*7A
$GPGGA,032113.000,3353.7528,N,09832.0246,W,2,08,1.1,300.6,M,-23.7,M,1.8,0000*40
$GPGSA,A,3,01,11,08,28,07,13,17,19,,,,,2.0,1.1,1.6*3F
$GPGSV,3,1,10,08,76,357,32,07,56,126,35,28,49,305,25,11,42,084,35*7E
$GPGSV,3,2,10,17,38,220,28,01,36,109,33,26,29,301,,19,22,043,23*71
$GPGSV,3,3,10,13,10,178,26,51,49,195,36*70
$GPRMC,032113.000,A,3353.7528,N,09832.0246,W,0.27,57.81,040412,,,D*48
$GPGGA,032114.000,3353.7529,N,09832.0246,W,2,08,1.1,300.2,M,-23.7,M,0.8,0000*43
$GPGSA,A,3,01,11,08,28,07,13,17,19,,,,,2.0,1.1,1.6*3F
$GPRMC,032114.000,A,3353.7529,N,09832.0246,W,0.28,45.21,040412,,,D*48
$GPGGA,032115.000,3353.7530,N,09832.0247,W,2,08,1.1,299.8,M,-23.7,M,1.8,0000*41
$GPGSA,A,3,01,11,08,28,07,13,17,19,,,,,2.0,1.1,1.6*3F
$GPRMC,032115.000,A,3353.7530,N,09832.0247,W,0.32,23.16,040412,,,D*4F
$GPGGA,032116.000,3353.7531,N,09832.0247,W,2,08,1.1,299.7,M,-23.7,M,2.8,0000*4F
$GPGSA,A,3,01,11,08,28,07,13,17,19,,,,,2.0,1.1,1.6*3F
$GPRMC,032116.000,A,3353.7531,N,09832.0247,W,0.08,83.03,040412,,,D*4A
$GPGGA,032117.000,3353.7531,N,09832.0248,W,2,08,1.1,299.6,M,-23.7,M,3.8,0000*41
$GPGSA,A,3,01,11,08,28,07,13,17,19,,,,,2.0,1.1,1.6*3F
$GPRMC,032117.000,A,3353.7531,N,09832.0248,W,0.21,291.43,040412,,,D*7A
$GPGGA,032118.000,3353.7531,N,09832.0249,W,2,08,1.1,299.5,M,-23.7,M,0.8,0000*4F
$GPGSA,A,3,01,11,08,28,07,13,17,19,,,,,2.0,1.1,1.6*3F
$GPGSV,3,1,10,08,76,357,31,07,56,126,35,28,49,305,25,11,42,084,36*7E
$GPGSV,3,2,10,17,38,220,27,01,36,109,33,26,29,301,,19,22,043,22*7F
$GPGSV,3,3,10,13,10,178,26,51,49,195,36*70
$GPRMC,032118.000,A,3353.7531,N,09832.0249,W,0.24,275.25,040412,,,D*7B
$GPGGA,032119.000,3353.7532,N,09832.0251,W,2,08,1.1,299.2,M,-23.7,M,0.8,0000*43
$GPGSA,A,3,01,11,08,28,07,13,17,19,,,,,2.0,1.1,1.6*3F
$GPRMC,032119.000,A,3353.7532,N,09832.0251,W,0.35,345.25,040412,,,D*72
$GPGGA,032120.000,3353.7532,N,09832.0251,W,2,08,1.1,299.2,M,-23.7,M,0.8,0000*49
$GPGSA,A,3,01,11,08,28,07,13,17,19,,,,,2.0,1.1,1.6*3F
$GPRMC,032120.000,A,3353.7532,N,09832.0251,W,0.05,84.13,040412,,,D*40
$GPGGA,032121.000,3353.7531,N,09832.0251,W,2,08,1.1,299.2,M,-23.7,M,1.8,0000*4A
$GPGSA,A,3,01,11,08,28,07,13,17,19,,,,,2.0,1.1,1.6*3F
$GPRMC,032121.000,A,3353.7531,N,09832.0251,W,0.35,140.77,040412,,,D*7A
$GPGGA,032122.000,3353.7531,N,09832.0251,W,2,08,1.1,299.1,M,-23.7,M,2.8,0000*49
$GPGSA,A,3,01,11,08,28,07,13,17,19,,,,,2.0,1.1,1.6*3F
$GPRMC,032122.000,A,3353.7531,N,09832.0251,W,0.31,104.77,040412,,,D*7D
$GPGGA,032123.000,3353.7530,N,09832.0251,W,2,08,1.1,299.1,M,-23.7,M,3.8,0000*48
$GPGSA,A,3,01,11,08,28,07,13,17,19,,,,,2.0,1.1,1.6*3F
$GPGSV,3,1,10,08,76,357,31,07,56,126,35,28,49,305,24,11,42,084,36*7F
$GPGSV,3,2,10,17,38,220,27,01,36,109,33,26,29,301,,19,22,043,22*7F
$GPGSV,3,3,10,13,10,178,25,51,49,195,36*73
$GPRMC,032123.000,A,3353.7530,N,09832.0251,W,0.10,162.26,040412,,,D*7A
$GPGGA,032124.000,3353.7531,N,09832.0251,W,2,08,1.1,298.9,M,-23.7,M,0.8,0000*44
$GPGSA,A,3,01,11,08,28,07,13,17,19,,,,,2.0,1.1,1.6*3F
$GPRMC,032124.000,A,3353.7531,N,09832.0251,W,0.22,46.42,040412,,,D*48
$GPGGA,032125.000,3353.7532,N,09832.0251,W,2,08,1.1,298.7,M,-23.7,M,0.8,0000*48
$GPGSA,A,3,01,11,08,28,07,13,17,19,,,,,2.0,1.1,1.6*3F
$GPRMC,032125.000,A,3353.7532,N,09832.0251,W,0.37,56.63,040412,,,D*4C
$GPGGA,032126.000,3353.7532,N,09832.0251,W,2,08,1.1,298.7,M,-23.7,M,0.8,0000*4B
$GPGSA,A,3,01,11,08,28,07,13,17,19,,,,,2.0,1.1,1.6*3F
$GPRMC,032126.000,A,3353.7532,N,09832.0251,W,0.15,128.62,040412,,,D*76
$GPGGA,032127.000,3353.7531,N,09832.0251,W,2,08,1.1,298.8,M,-23.7,M,1.8,0000*47
$GPGSA,A,3,01,11,08,28,07,13,17,19,,,,,2.0,1.1,1.6*3F
$GPRMC,032127.000,A,3353.7531,N,09832.0251,W,0.23,154.10,040412,,,D*7F
$GPGGA,032128.000,3353.7532,N,09832.0251,W,2,07,1.2,298.8,M,-23.7,M,2.8,0000*44
$GPGSA,A,3,01,11,08,28,07,17,19,,,,,,2.6,1.2,2.3*3E
$GPGSV,3,1,10,08,76,357,31,07,56,126,35,28,49,305,24,11,42,084,37*7E
$GPGSV,3,2,10,17,38,220,26,01,36,109,34,26,29,301,,19,22,043,21*7A
$GPGSV,3,3,10,13,10,178,25,51,49,195,36*73
$GPRMC,032128.000,A,3353.7532,N,09832.0251,W,0.21,38.04,040412,,,D*4F
$GPGGA,032129.000,3353.7534,N,09832.0250,W,2,07,1.2,299.1,M,-23.7,M,0.8,0000*48
$GPGSA,A,3,01,11,08,28,07,17,19,,,,,,2.6,1.2,2.3*3E
$GPRMC,032129.000,A,3353.7534,N,09832.0250,W,0.44,22.12,040412,,,D*46
$GPGGA,032130.000,3353.7536,N,09832.0248,W,2,07,1.2,299.7,M,-23.7,M,0.8,0000*4D
$GPGSA,A,3,01,11,08,28,07,17,19,,,,,,2.6,1.2,2.3*3E
$GPRMC,032130.000,A,3353.7536,N,09832.0248,W,0.06,109.71,040412,,,D*7E
$GPGGA,032131.000,3353.7538,N,09832.0247,W,2,07,1.2,300.0,M,-23.7,M,0.8,0000*4B
$GPGSA,A,3,01,11,08,28,07,17,19,,,,,,2.6,1.2,2.3*3E
$GPRMC,032131.000,A,3353.7538,N,09832.0247,W,0.31,17.85,040412,,,D*4F
$GPGGA,032132.000,3353.7540,N,09832.0246,W,2,07,1.2,300.3,M,-23.7,M,0.8,0000*45
$GPGSA,A,3,01,11,08,28,07,17,19,,,,,,2.6,1.2,2.3*3E
$GPRMC,032132.000,A,3353.7540,N,09832.0246,W,0.45,24.10,040412,,,D*4D
$GPGGA,032133.000,3353.7541,N,09832.0245,W,2,07,1.2,300.6,M,-23.7,M,0.8,0000*43
$GPGSA,A,3,01,11,08,28,07,17,19,,,,,,2.6,1.2,2.3*3E
$GPGSV,3,1,10,08,76,357,31,07,56,126,35,28,49,305,24,11,42,084,37*7E
$GPGSV,3,2,10,17,38,220,25,01,36,109,34,26,29,301,,19,22,043,21*79
$GPGSV,3,3,10,13,10,178,25,51,49,195,35*70
$GPRMC,032133.000,A,3353.7541,N,09832.0245,W,0.02,222.60,040412,,,D*7E
$GPGGA,032134.000,3353.7541,N,09832.0246,W,2,07,1.2,301.1,M,-23.7,M,1.8,0000*40
$GPGSA,A,3,01,11,08,28,07,17,19,,,,,,2.6,1.2,2.3*3E
$GPRMC,032134.000,A,3353.7541,N,09832.0246,W,0.30,183.58,040412,,,D*78
$GPGGA,032135.000,3353.7542,N,09832.0248,W,2,07,1.2,300.6,M,-23.7,M,2.8,0000*49
$GPGSA,A,3,01,11,08,28,07,17,19,,,,,,2.6,1.2,2.3*3E
$GPRMC,032135.000,A,3353.7542,N,09832.0248,W,0.21,108.12,040412,,,D*79
$GPGGA,032136.000,3353.7539,N,09832.0249,W,2,07,1.2,300.8,M,-23.7,M,0.8,0000*4B
$GPGSA,A,3,01,11,08,28,07,17,19,,,,,,2.6,1.2,2.3*3E
$GPRMC,032136.000,A,3353.7539,N,09832.0249,W,0.36,27.04,040412,,,D*4A
$GPGGA,032137.000,3353.7540,N,09832.0251,W,2,07,1.2,300.6,M,-23.7,M,0.8,0000*43
$GPGSA,A,3,01,11,08,28,07,17,19,,,,,,2.6,1.2,2.3*3E
$GPRMC,032137.000,A,3353.7540,N,09832.0251,W,0.12,116.15,040412,,,D*79
$GPGGA,032138.000,3353.7540,N,09832.0254,W,2,07,1.2,300.7,M,-23.7,M,0.8,0000*48
$GPGSA,A,3,01,11,08,28,07,17,19,,,,,,2.6,1.2,2.3*3E
$GPGSV,3,1,10,08,76,357,31,07,56,126,35,28,49,305,24,11,42,084,37*7E
$GPGSV,3,2,10,17,38,220,18,01,36,109,34,26,29,301,,19,22,043,21*77
$GPGSV,3,3,10,13,10,178,24,51,49,195,36*72
$GPRMC,032138.000,A,3353.7540,N,09832.0254,W,0.67,197.82,040412,,,D*76
$GPGGA,032139.000,3353.7536,N,09832.0260,W,2,07,1.2,299.4,M,-23.7,M,0.8,0000*4D
$GPGSA,A,3,01,11,08,28,07,17,19,,,,,,2.6,1.2,2.3*3E
$GPRMC,032139.000,A,3353.7536,N,09832.0260,W,0.73,214.93,040412,,,D*7C
$GPGGA,032140.000,3353.7536,N,09832.0263,W,2,07,1.2,299.1,M,-23.7,M,1.8,0000*44
$GPGSA,A,3,01,11,08,28,07,17,19,,,,,,2.6,1.2,2.3*3E
$GPRMC,032140.000,A,3353.7536,N,09832.0263,W,0.39,220.19,040412,,,D*7A
$GPGGA,032141.000,3353.7535,N,09832.0265,W,2,06,2.3,299.2,M,-23.7,M,2.8,0000*43
$GPGSA,A,3,01,11,08,28,07,19,,,,,,,4.3,2.3,3.6*3D
$GPRMC,032141.000,A,3353.7535,N,09832.0265,W,0.43,200.41,040412,,,D*7C
$GPGGA,032142.000,3353.7534,N,09832.0266,W,2,06,2.3,299.8,M,-23.7,M,0.8,0000*4A
$GPGSA,A,3,01,11,08,28,07,19,,,,,,,4.3,2.3,3.6*3D
$GPRMC,032142.000,A,3353.7534,N,09832.0266,W,0.25,174.42,040412,,,D*7E
$GPGGA,032143.000,3353.7532,N,09832.0266,W,2,06,2.3,300.4,M,-23.7,M,0.8,0000*40
$GPGSA,A,3,01,11,08,28,07,19,,,,,,,4.3,2.3,3.6*3D
$GPGSV,3,1,10,08,76,357,31,07,56,126,35,28,49,305,25,11,42,084,37*7F
$GPGSV,3,2,10,17,38,220,18,01,36,109,34,26,29,301,,19,22,043,21*77
$GPGSV,3,3,10,13,10,178,24,51,49,195,36*72
$GPRMC,032143.000,A,3353.7532,N,09832.0266,W,0.56,197.03,040412,,,D*75
$GPGGA,032144.000,3353.7529,N,09832.0267,W,2,06,2.3,300.9,M,-23.7,M,0.8,0000*41
$GPGSA,A,3,01,11,08,28,07,19,,,,,,,4.3,2.3,3.6*3D
$GPRMC,032144.000,A,3353.7529,N,09832.0267,W,0.92,200.04,040412,,,D*7B
$GPGGA,032145.000,3353.7525,N,09832.0268,W,2,06,2.3,301.4,M,-23.7,M,1.8,0000*4E
$GPGSA,A,3,01,11,08,28,07,19,,,,,,,4.3,2.3,3.6*3D
$GPRMC,032145.000,A,3353.7525,N,09832.0268,W,0.86,206.49,040412,,,D*73
$GPGGA,032146.000,3353.7521,N,09832.0268,W,2,06,2.3,302.1,M,-23.7,M,2.8,0000*4C
$GPGSA,A,3,01,11,08,28,07,19,,,,,,,4.3,2.3,3.6*3D
$GPRMC,032146.000,A,3353.7521,N,09832.0268,W,0.86,207.44,040412,,,D*78
$GPGGA,032147.000,3353.7518,N,09832.0270,W,2,07,1.2,301.7,M,-23.7,M,3.8,0000*49
$GPGSA,A,3,01,11,08,28,07,17,19,,,,,,2.6,1.2,2.3*3E
$GPRMC,032147.000,A,3353.7518,N,09832.0270,W,0.43,205.76,040412,,,D*70
$GPGGA,032148.000,3353.7515,N,09832.0270,W,2,07,1.2,302.3,M,-23.7,M,0.8,0000*4F
$GPGSA,A,3,01,11,08,28,07,17,19,,,,,,2.6,1.2,2.3*3E
$GPGSV,3,1,10,08,76,357,31,07,56,126,35,28,49,305,25,11,42,084,37*7F
$GPGSV,3,2,10,17,38,220,17,01,36,109,34,26,29,301,,19,22,043,21*78
$GPGSV,3,3,10,13,10,178,23,51,49,195,36*75
$GPRMC,032148.000,A,3353.7515,N,09832.0270,W,0.69,202.93,040412,,,D*76
$GPGGA,032149.000,3353.7514,N,09832.0269,W,2,07,1.2,302.6,M,-23.7,M,0.8,0000*42
$GPGSA,A,3,01,11,08,28,07,17,19,,,,,,2.6,1.2,2.3*3E
$GPRMC,032149.000,A,3353.7514,N,09832.0269,W,0.57,196.77,040412,,,D*77
$GPGGA,032150.000,3353.7509,N,09832.0269,W,2,07,1.2,303.9,M,-23.7,M,0.8,0000*48
$GPGSA,A,3,01,11,08,28,07,17,19,,,,,,2.6,1.2,2.3*3E
$GPRMC,032150.000,A,3353.7509,N,09832.0269,W,0.98,195.45,040412,,,D*72
$GPGGA,032151.000,3353.7508,N,09832.0267,W,2,07,1.2,304.3,M,-23.7,M,1.8,0000*4A
$GPGSA,A,3,01,11,08,28,07,17,19,,,,,,2.6,1.2,2.3*3E
$GPRMC,032151.000,A,3353.7508,N,09832.0267,W,0.46,187.80,040412,,,D*75
$GPGGA,032152.000,3353.7506,N,09832.0266,W,2,07,1.2,305.5,M,-23.7,M,2.8,0000*42
$GPGSA,A,3,01,11,08,28,07,17,19,,,,,,2.6,1.2,2.3*3E
$GPRMC,032152.000,A,3353.7506,N,09832.0266,W,0.13,136.32,040412,,,D*7A
$GPGGA,032153.000,3353.7508,N,09832.0263,W,2,07,1.2,305.9,M,-23.7,M,3.8,0000*45
$GPGSA,A,3,01,11,08,28,07,17,19,,,,,,2.6,1.2,2.3*3E
$GPGSV,3,1,10,08,76,357,31,07,56,126,35,28,49,305,26,11,42,084,37*7C
$GPGSV,3,2,10,17,38,220,15,01,36,109,33,26,29,301,,19,22,043,20*7C
$GPGSV,3,3,10,13,10,178,22,51,49,195,36*74
$GPRMC,032153.000,A,3353.7508,N,09832.0263,W,0.50,38.38,040412,,,D*42
$GPGGA,032154.000,3353.7505,N,09832.0262,W,2,07,1.2,307.2,M,-23.7,M,0.8,0000*44
$GPGSA,A,3,01,11,08,28,07,17,19,,,,,,2.6,1.2,2.3*3E
$GPRMC,032154.000,A,3353.7505,N,09832.0262,W,0.40,38.20,040412,,,D*41
$GPGGA,032155.000,3353.7503,N,09832.0261,W,2,07,1.2,308.2,M,-23.7,M,0.8,0000*4F
$GPGSA,A,3,01,11,08,28,07,17,19,,,,,,2.6,1.2,2.3*3E
$GPRMC,032155.000,A,3353.7503,N,09832.0261,W,0.43,189.78,040412,,,D*70
$GPGGA,032156.000,3353.7501,N,09832.0261,W,2,07,1.2,308.9,M,-23.7,M,0.8,0000*45
$GPGSA,A,3,01,11,08,28,07,17,19,,,,,,2.6,1.2,2.3*3E
$GPRMC,032156.000,A,3353.7501,N,09832.0261,W,0.91,199.72,040412,,,D*75
$GPGGA,032157.000,3353.7497,N,09832.0262,W,2,07,1.2,310.0,M,-23.7,M,0.8,0000*49
$GPGSA,A,3,01,11,08,28,07,17,19,,,,,,2.6,1.2,2.3*3E
$GPRMC,032157.000,A,3353.7497,N,09832.0262,W,1.09,197.00,040412,,,D*72
$GPGGA,032158.000,3353.7496,N,09832.0261,W,2,07,1.2,310.7,M,-23.7,M,1.8,0000*42
$GPGSA,A,3,01,11,08,28,07,17,19,,,,,,2.6,1.2,2.3*3E
$GPGSV,3,1,10,08,76,357,31,07,56,126,34,28,49,305,27,11,42,084,38*73
$GPGSV,3,2,10,17,38,220,14,01,36,109,33,26,29,301,,19,22,043,20*7D
$GPGSV,3,3,10,13,10,178,21,51,49,195,37*76
$GPRMC,032158.000,A,3353.7496,N,09832.0261,W,0.85,190.62,040412,,,D*79
$GPGGA,032159.000,3353.7493,N,09832.0261,W,2,07,1.2,311.7,M,-23.7,M,2.8,0000*44
$GPGSA,A,3,01,11,08,28,07,17,19,,,,,,2.6,1.2,2.3*3E
$GPRMC,032159.000,A,3353.7493,N,09832.0261,W,0.45,184.35,040412,,,D*76
$GPGGA,032200.000,3353.7494,N,09832.0259,W,2,07,1.2,312.2,M,-23.7,M,0.8,0000*43
$GPGSA,A,3,01,11,08,28,07,17,19,,,,,,2.6,1.2,2.3*3E
$GPRMC,032200.000,A,3353.7494,N,09832.0259,W,0.34,160.54,040412,,,D*7E
$GPGGA,032201.000,3353.7494,N,09832.0258,W,2,07,1.2,312.6,M,-23.7,M,0.8,0000*47
$GPGSA,A,3,01,11,08,28,07,17,19,,,,,,2.6,1.2,2.3*3E
$GPRMC,032201.000,A,3353.7494,N,09832.0258,W,0.30,59.03,040412,,,D*43
$GPGGA,032202.000,3353.7496,N,09832.0256,W,2,07,1.2,312.9,M,-23.7,M,0.8,0000*47
$GPGSA,A,3,01,11,08,28,07,17,19,,,,,,2.6,1.2,2.3*3E
$GPRMC,032202.000,A,3353.7496,N,09832.0256,W,0.21,118.38,040412,,,D*70
$GPGGA,032203.000,3353.7495,N,09832.0255,W,2,07,1.2,313.7,M,-23.7,M,1.8,0000*48
$GPGSA,A,3,01,11,08,28,07,17,19,,,,,,2.6,1.2,2.3*3E
$GPGSV,3,1,10,08,76,357,32,07,56,126,34,28,49,305,27,11,42,084,38*70
$GPGSV,3,2,10,17,38,220,15,01,36,109,33,26,29,301,,19,22,043,19*76
$GPGSV,3,3,10,13,10,178,20,51,49,195,36*76
$GPRMC,032203.000,A,3353.7495,N,09832.0255,W,0.36,152.71,040412,,,D*74
$GPGGA,032204.000,3353.7498,N,09832.0254,W,2,07,1.2,313.6,M,-23.7,M,0.8,0000*43
$GPGSA,A,3,01,11,08,28,07,17,19,,,,,,2.6,1.2,2.3*3E
$GPRMC,032204.000,A,3353.7498,N,09832.0254,W,0.30,133.11,040412,,,D*78
$GPGGA,032205.000,3353.7500,N,09832.0253,W,2,07,1.2,313.2,M,-23.7,M,1.8,0000*40
$GPGSA,A,3,01,11,08,28,07,17,19,,,,,,2.6,1.2,2.3*3E
$GPRMC,032205.000,A,3353.7500,N,09832.0253,W,0.20,76.64,040412,,,D*4D
$GPGGA,032206.000,3353.7503,N,09832.0251,W,2,07,1.2,312.7,M,-23.7,M,0.8,0000*47
$GPGSA,A,3,01,11,08,28,07,17,19,,,,,,2.6,1.2,2.3*3E
$GPRMC,032206.000,A,3353.7503,N,09832.0251,W,0.22,151.90,040412,,,D*72
$GPGGA,032207.000,3353.7504,N,09832.0250,W,2,07,1.2,312.7,M,-23.7,M,0.8,0000*40
$GPGSA,A,3,01,11,08,28,07,17,19,,,,,,2.6,1.2,2.3*3E
$GPRMC,032207.000,A,3353.7504,N,09832.0250,W,0.17,150.57,040412,,,D*79
$GPGGA,032208.000,3353.7506,N,09832.0250,W,2,07,1.2,312.6,M,-23.7,M,0.8,0000*4C
$GPGSA,A,3,01,11,08,28,07,17,19,,,,,,2.6,1.2,2.3*3E
$GPGSV,3,1,10,08,76,357,32,07,56,126,34,28,49,305,27,11,42,084,38*70
$GPGSV,3,2,10,17,38,220,15,01,36,109,33,26,29,301,,19,22,043,18*77
$GPGSV,3,3,10,13,10,178,19,51,49,195,36*7C
$GPRMC,032208.000,A,3353.7506,N,09832.0250,W,0.32,178.69,040412,,,D*74
$GPGGA,032209.000,3353.7508,N,09832.0249,W,2,07,1.2,312.2,M,-23.7,M,1.8,0000*4E
$GPGSA,A,3,01,11,08,28,07,17,19,,,,,,2.6,1.2,2.3*3E
$GPRMC,032209.000,A,3353.7508,N,09832.0249,W,0.42,186.61,040412,,,D*7D
$GPGGA,032210.000,3353.7509,N,09832.0249,W,2,07,1.2,312.1,M,-23.7,M,0.8,0000*45
$GPGSA,A,3,01,11,08,28,07,17,19,,,,,,2.6,1.2,2.3*3E
$GPRMC,032210.000,A,3353.7509,N,09832.0249,W,0.37,183.64,040412,,,D*76
$GPGGA,032211.000,3353.7510,N,09832.0249,W,2,07,1.2,311.5,M,-23.7,M,0.8,0000*4B
$GPGSA,A,3,01,11,08,28,07,17,19,,,,,,2.6,1.2,2.3*3E
$GPRMC,032211.000,A,3353.7510,N,09832.0249,W,0.22,210.94,040412,,,D*7D
$GPGGA,032212.000,3353.7511,N,09832.0249,W,2,07,1.2,311.2,M,-23.7,M,0.8,0000*4E
$GPGSA,A,3,01,11,08,28,07,17,19,,,,,,2.6,1.2,2.3*3E
$GPRMC,032212.000,A,3353.7511,N,09832.0249,W,0.26,195.63,040412,,,D*7D
$GPGGA,032213.000,3353.7512,N,09832.0249,W,2,07,1.2,311.2,M,-23.7,M,0.8,0000*4C
$GPGSA,A,3,01,11,08,28,07,17,19,,,,,,2.6,1.2,2.3*3E
$GPGSV,3,1,10,08,76,357,32,07,56,126,34,28,49,305,27,11,42,084,38*70
$GPGSV,3,2,10,17,38,220,17,01,36,109,33,26,29,301,,19,22,043,18*75
$GPGSV,3,3,10,13,10,178,20,51,49,195,35*75
$GPRMC,032213.000,A,3353.7512,N,09832.0249,W,0.23,54.35,040412,,,D*45
$GPGGA,032214.000,3353.7514,N,09832.0248,W,2,06,2.3,311.0,M,-23.7,M,0.8,0000*4D
$GPGSA,A,3,01,11,08,28,07,19,,,,,,,4.3,2.3,3.7*3C
$GPRMC,032214.000,A,3353.7514,N,09832.0248,W,0.16,40.87,040412,,,D*4F
$GPGGA,032215.000,3353.7515,N,09832.0247,W,2,06,2.3,311.1,M,-23.7,M,1.8,0000*42
$GPGSA,A,3,01,11,08,28,07,19,,,,,,,4.3,2.3,3.7*3C
$GPRMC,032215.000,A,3353.7515,N,09832.0247,W,0.45,36.09,040412,,,D*41
$GPGGA,032216.000,3353.7515,N,09832.0246,W,2,06,2.3,311.8,M,-23.7,M,2.8,0000*4A
$GPGSA,A,3,01,11,08,28,07,19,,,,,,,4.3,2.3,3.7*3C
$GPRMC,032216.000,A,3353.7515,N,09832.0246,W,0.66,37.32,040412,,,D*4B
$GPGGA,032217.000,3353.7525,N,09832.0237,W,2,07,1.2,314.2,M,-23.7,M,3.8,0000*43
$GPGSA,A,3,01,11,08,28,07,17,19,,,,,,2.6,1.2,2.3*3E
$GPRMC,032217.000,A,3353.7525,N,09832.0237,W,1.01,31.27,040412,,,D*4D
$GPGGA,032218.000,3353.7530,N,09832.0234,W,2,07,1.2,314.8,M,-23.7,M,0.8,0000*42
$GPGSA,A,3,01,11,08,28,07,17,19,,,,,,2.6,1.2,2.3*3E
$GPGSV,3,1,10,08,76,357,32,07,56,126,34,28,49,305,27,11,42,084,38*70
$GPGSV,3,2,10,17,38,220,19,01,36,109,34,26,29,301,,19,22,043,17*73
$GPGSV,3,3,10,13,10,178,20,51,49,195,36*76
$GPRMC,032218.000,A,3353.7530,N,09832.0234,W,0.85,26.02,040412,,,D*49
$GPGGA,032219.000,3353.7537,N,09832.0228,W,2,07,1.2,316.0,M,-23.7,M,0.8,0000*43
$GPGSA,A,3,01,11,08,28,07,17,19,,,,,,2.6,1.2,2.3*3E
$GPRMC,032219.000,A,3353.7537,N,09832.0228,W,0.84,27.96,040412,,,D*4F
$GPGGA,032220.000,3353.7541,N,09832.0226,W,2,07,1.2,316.8,M,-23.7,M,0.8,0000*4E
$GPGSA,A,3,01,11,08,28,07,17,19,,,,,,2.6,1.2,2.3*3E
$GPRMC,032220.000,A,3353.7541,N,09832.0226,W,0.36,44.11,040412,,,D*49
$GPGGA,032221.000,3353.7542,N,09832.0225,W,2,07,1.2,317.1,M,-23.7,M,0.8,0000*47
$GPGSA,A,3,01,11,08,28,07,17,19,,,,,,2.6,1.2,2.3*3E
$GPRMC,032221.000,A,3353.7542,N,09832.0225,W,0.33,194.57,040412,,,D*73
$GPGGA,032222.000,3353.7545,N,09832.0222,W,2,07,1.2,318.1,M,-23.7,M,0.8,0000*4B
$GPGSA,A,3,01,11,08,28,07,17,19,,,,,,2.6,1.2,2.3*3E
$GPRMC,032222.000,A,3353.7545,N,09832.0222,W,0.23,156.02,040412,,,D*7F
$GPGGA,032223.000,3353.7545,N,09832.0223,W,2,07,1.2,318.2,M,-23.7,M,1.8,0000*49
$GPGSA,A,3,01,11,08,28,07,17,19,,,,,,2.6,1.2,2.3*3E
$GPGSV,3,1,10,08,76,357,32,07,56,126,35,28,49,305,28,11,42,084,38*7E
$GPGSV,3,2,10,17,38,220,20,01,36,109,34,26,29,301,,19,22,043,16*78
$GPGSV,3,3,10,13,10,178,21,51,49,195,36*77
$GPRMC,032223.000,A,3353.7545,N,09832.0223,W,0.66,195.34,040412,,,D*74
$GPGGA,032224.000,3353.7544,N,09832.0224,W,2,07,1.2,318.2,M,-23.7,M,0.8,0000*49
$GPGSA,A,3,01,11,08,28,07,17,19,,,,,,2.6,1.2,2.3*3E
$GPRMC,032224.000,A,3353.7544,N,09832.0224,W,0.69,194.43,040412,,,D*7B
$GPGGA,032225.000,3353.7540,N,09832.0226,W,2,07,1.2,317.7,M,-23.7,M,0.8,0000*44
$GPGSA,A,3,01,11,08,28,07,17,19,,,,,,2.6,1.2,2.3*3E
$GPRMC,032225.000,A,3353.7540,N,09832.0226,W,0.47,185.26,040412,,,D*73
$GPGGA,032226.000,3353.7537,N,09832.0229,W,2,07,1.2,317.2,M,-23.7,M,0.8,0000*4D
$GPGSA,A,3,01,11,08,28,07,17,19,,,,,,2.6,1.2,2.3*3E
$GPRMC,032226.000,A,3353.7537,N,09832.0229,W,0.92,196.25,040412,,,D*76
$GPGGA,032227.000,3353.7534,N,09832.0230,W,2,07,1.2,317.1,M,-23.7,M,1.8,0000*45
$GPGSA,A,3,01,11,08,28,07,17,19,,,,,,2.6,1.2,2.3*3E
$GPRMC,032227.000,A,3353.7534,N,09832.0230,W,1.24,198.91,040412,,,D*71
$GPGGA,032228.000,3353.7528,N,09832.0235,W,2,07,1.2,316.0,M,-23.7,M,2.8,0000*41
$GPGSA,A,3,01,11,08,28,07,17,19,,,,,,2.6,1.2,2.3*3E
$GPGSV,3,1,10,08,76,357,33,07,56,126,35,28,49,305,28,11,42,084,38*7F
$GPGSV,3,2,10,17,38,220,20,01,36,109,34,26,29,301,,19,22,043,17*79
$GPGSV,3,3,10,13,10,178,22,51,49,195,36*74
$GPRMC,032228.000,A,3353.7528,N,09832.0235,W,0.69,196.52,040412,,,D*7F
$GPGGA,032229.000,3353.7527,N,09832.0236,W,2,07,1.2,316.2,M,-23.7,M,3.8,0000*4F
$GPGSA,A,3,01,11,08,28,07,17,19,,,,,,2.6,1.2,2.3*3E
$GPRMC,032229.000,A,3353.7527,N,09832.0236,W,0.27,169.81,040412,,,D*76
$GPGGA,032230.000,3353.7526,N,09832.0238,W,2,07,1.2,315.5,M,-23.7,M,0.8,0000*4F
$GPGSA,A,3,01,11,08,28,07,17,19,,,,,,2.6,1.2,2.3*3E
$GPRMC,032230.000,A,3353.7526,N,09832.0238,W,0.31,43.02,040412,,,D*44
$GPGGA,032231.000,3353.7527,N,09832.0237,W,2,07,1.2,315.1,M,-23.7,M,0.8,0000*44
$GPGSA,A,3,01,11,08,28,07,17,19,,,,,,2.6,1.2,2.3*3E
$GPRMC,032231.000,A,3353.7527,N,09832.0237,W,0.62,29.04,040412,,,D*47
$GPGGA,032232.000,3353.7525,N,09832.0240,W,2,07,1.2,313.9,M,-23.7,M,0.8,0000*4B
$GPGSA,A,3,01,11,08,28,07,17,19,,,,,,2.6,1.2,2.3*3E
$GPRMC,032232.000,A,3353.7525,N,09832.0240,W,0.36,10.06,040412,,,D*4F
$GPGGA,032233.000,3353.7526,N,09832.0241,W,2,07,1.2,313.6,M,-23.7,M,1.8,0000*46
$GPGSA,A,3,01,11,08,28,07,17,19,,,,,,2.6,1.2,2.3*3E
$GPGSV,3,1,10,08,76,357,33,07,56,126,35,28,49,305,28,11,42,084,37*70
$GPGSV,3,2,10,17,38,220,20,01,36,109,34,26,29,301,,19,22,043,18*76
$GPGSV,3,3,10,13,10,178,22,51,49,195,36*74
$GPRMC,032233.000,A,3353.7526,N,09832.0241,W,0.03,8.74,040412,,,D*76
$GPGGA,032234.000,3353.7528,N,09832.0239,W,2,07,1.2,314.0,M,-23.7,M,0.8,0000*40
$GPGSA,A,3,01,11,08,28,07,17,19,,,,,,2.6,1.2,2.3*3E
$GPRMC,032234.000,A,3353.7528,N,09832.0239,W,0.14,191.38,040412,,,D*7F
$GPGGA,032235.000,3353.7530,N,09832.0238,W,2,07,1.2,314.2,M,-23.7,M,1.8,0000*4A
$GPGSA,A,3,01,11,08,28,07,17,19,,,,,,2.6,1.2,2.3*3E
$GPRMC,032235.000,A,3353.7530,N,09832.0238,W,0.35,41.10,040412,,,D*43
$GPGGA,032236.000,3353.7533,N,09832.0236,W,2,07,1.2,314.7,M,-23.7,M,0.8,0000*40
$GPGSA,A,3,01,11,08,28,07,17,19,,,,,,2.6,1.2,2.3*3E
$GPRMC,032236.000,A,3353.7533,N,09832.0236,W,0.38,54.83,040412,,,D*4E
$GPGGA,032237.000,3353.7535,N,09832.0234,W,2,07,1.2,315.1,M,-23.7,M,0.8,0000*42
$GPGSA,A,3,01,11,08,28,07,17,19,,,,,,2.6,1.2,2.3*3E
$GPRMC,032237.000,A,3353.7535,N,09832.0234,W,0.54,42.02,040412,,,D*4F
$GPGGA,032238.000,3353.7536,N,09832.0233,W,2,07,1.2,315.0,M,-23.7,M,0.8,0000*48
$GPGSA,A,3,01,11,08,28,07,17,19,,,,,,2.6,1.2,2.3*3E
$GPGSV,3,1,10,08,78,001,33,07,55,128,35,28,49,307,28,11,41,082,37*74
$GPGSV,3,2,10,17,40,221,21,01,36,108,34,26,29,299,,19,20,043,18*7A
$GPGSV,3,3,10,13,09,177,23,51,49,195,36*72
$GPRMC,032238.000,A,3353.7536,N,09832.0233,W,0.22,63.79,040412,,,D*4A
$GPGGA,032239.000,3353.7537,N,09832.0233,W,2,07,1.2,315.0,M,-23.7,M,1.8,0000*49
$GPGSA,A,3,01,11,08,28,07,17,19,,,,,,2.6,1.2,2.3*3E
$GPRMC,032239.000,A,3353.7537,N,09832.0233,W,0.38,57.95,040412,,,D*44
$GPGGA,032240.000,3353.7535,N,09832.0234,W,2,07,1.2,314.4,M,-23.7,M,2.8,0000*44
$GPGSA,A,3,01,11,08,28,07,17,19,,,,,,2.6,1.2,2.3*3E
$GPRMC,032240.000,A,3353.7535,N,09832.0234,W,0.21,57.64,040412,,,D*49
$GPGGA,032241.000,3353.7536,N,09832.0233,W,2,07,1.2,314.4,M,-23.7,M,3.8,0000*40
$GPGSA,A,3,01,11,08,28,07,17,19,,,,,,2.6,1.2,2.3*3E
$GPRMC,032241.000,A,3353.7536,N,09832.0233,W,0.29,41.77,040412,,,D*41
$GPGGA,032242.000,3353.7539,N,09832.0232,W,2,07,1.2,314.5,M,-23.7,M,0.8,0000*4F
$GPGSA,A,3,01,11,08,28,07,17,19,,,,,,2.6,1.2,2.3*3E
$GPRMC,032242.000,A,3353.7539,N,09832.0232,W,0.41,38.70,040412,,,D*4B
$GPGGA,032243.000,3353.7542,N,09832.0229,W,2,07,1.2,314.7,M,-23.7,M,0.8,0000*4A
$GPGSA,A,3,01,11,08,28,07,17,19,,,,,,2.6,1.2,2.3*3E
$GPGSV,3,1,10,08,78,001,34,07,55,128,35,28,49,307,28,11,41,082,37*73
$GPGSV,3,2,10,17,40,221,22,01,36,108,34,26,29,299,,19,20,043,18*79
$GPGSV,3,3,10,13,09,177,23,51,49,195,36*72
$GPRMC,032243.000,A,3353.7542,N,09832.0229,W,0.75,27.23,040412,,,D*43
$GPGGA,032244.000,3353.7544,N,09832.0229,W,2,07,1.2,314.6,M,-23.7,M,0.8,0000*4A
$GPGSA,A,3,01,11,08,28,07,17,19,,,,,,2.6,1.2,2.3*3E
$GPRMC,032244.000,A,3353.7544,N,09832.0229,W,0.86,26.04,040412,,,D*4A
$GPGGA,032245.000,3353.7546,N,09832.0228,W,2,07,1.2,314.3,M,-23.7,M,1.8,0000*4C
$GPGSA,A,3,01,11,08,28,07,17,19,,,,,,2.6,1.2,2.3*3E
$GPRMC,032245.000,A,3353.7546,N,09832.0228,W,0.50,16.64,040412,,,D*46
$GPGGA,032246.000,3353.7545,N,09832.0229,W,2,07,1.2,314.0,M,-23.7,M,2.8,0000*4D
$GPGSA,A,3,01,11,08,28,07,17,19,,,,,,2.6,1.2,2.3*3E
$GPRMC,032246.000,A,3353.7545,N,09832.0229,W,0.24,39.22,040412,,,D*4B
$GPGGA,032247.000,3353.7545,N,09832.0230,W,2,07,1.2,314.0,M,-23.7,M,3.8,0000*45
$GPGSA,A,3,01,11,08,28,07,17,19,,,,,,2.6,1.2,2.3*3E
$GPRMC,032247.000,A,3353.7545,N,09832.0230,W,0.21,55.59,040412,,,D*41
$GPGGA,032248.000,3353.7545,N,09832.0230,W,2,07,1.2,314.0,M,-23.7,M,0.8,0000*49
$GPGSA,A,3,01,11,08,28,07,17,19,,,,,,2.6,1.2,2.3*3E
$GPGSV,3,1,10,08,78,001,34,07,55,128,35,28,49,307,29,11,41,082,37*72
$GPGSV,3,2,10,17,40,221,23,01,36,108,34,26,29,299,,19,20,043,17*77
$GPGSV,3,3,10,13,09,177,24,51,49,195,38*7B
$GPRMC,032248.000,A,3353.7545,N,09832.0230,W,0.29,200.34,040412,,,D*7F
$GPGGA,032249.000,3353.7545,N,09832.0229,W,2,07,1.2,314.4,M,-23.7,M,1.8,0000*45
$GPGSA,A,3,01,11,08,28,07,17,19,,,,,,2.6,1.2,2.3*3E
$GPRMC,032249.000,A,3353.7545,N,09832.0229,W,0.29,188.56,040412,,,D*71
$GPGGA,032250.000,3353.7546,N,09832.0228,W,2,07,1.2,315.0,M,-23.7,M,0.8,0000*4B
$GPGSA,A,3,01,11,08,28,07,17,19,,,,,,2.6,1.2,2.3*3E
$GPRMC,032250.000,A,3353.7546,N,09832.0228,W,0.31,189.07,040412,,,D*77
$GPGGA,032251.000,3353.7543,N,09832.0229,W,2,07,1.2,316.1,M,-23.7,M,1.8,0000*4D
$GPGSA,A,3,01,11,08,28,07,17,19,,,,,,2.6,1.2,2.3*3E
$GPRMC,032251.000,A,3353.7543,N,09832.0229,W,0.69,195.49,040412,,,D*78
$GPGGA,032252.000,3353.7539,N,09832.0231,W,2,07,1.2,315.6,M,-23.7,M,2.8,0000*4D
$GPGSA,A,3,01,11,08,28,07,17,19,,,,,,2.6,1.2,2.3*3E
$GPRMC,032252.000,A,3353.7539,N,09832.0231,W,0.25,171.53,040412,,,D*76
$GPGGA,032253.000,3353.7537,N,09832.0233,W,2,07,1.2,315.5,M,-23.7,M,3.8,0000*42
$GPGSA,A,3,01,11,08,28,07,17,19,,,,,,2.6,1.2,2.3*3E
$GPGSV,3,1,10,08,78,001,34,07,55,128,35,28,49,307,29,11,41,082,37*72
$GPGSV,3,2,10,17,40,221,23,01,36,108,34,26,29,299,,19,20,043,16*76
$GPGSV,3,3,10,13,09,177,25,51,49,195,36*74
$GPRMC,032253.000,A,3353.7537,N,09832.0233,W,0.31,176.49,040412,,,D*72
$GPGGA,032254.000,3353.7535,N,09832.0235,W,2,07,1.2,314.8,M,-23.7,M,0.8,0000*4E
$GPGSA,A,3,01,11,08,28,07,17,19,,,,,,2.6,1.2,2.3*3E
$GPRMC,032254.000,A,3353.7535,N,09832.0235,W,0.10,195.23,040412,,,D*73
$GPGGA,032255.000,3353.7533,N,09832.0235,W,2,07,1.2,315.6,M,-23.7,M,0.8,0000*46
$GPGSA,A,3,01,11,08,28,07,17,19,,,,,,2.6,1.2,2.3*3E
$GPRMC,032255.000,A,3353.7533,N,09832.0235,W,0.36,42.68,040412,,,D*44
$GPGGA,032256.000,3353.7532,N,09832.0236,W,2,07,1.2,314.9,M,-23.7,M,0.8,0000*49
$GPGSA,A,3,01,11,08,28,07,17,19,,,,,,2.6,1.2,2.3*3E
$GPRMC,032256.000,A,3353.7532,N,09832.0236,W,0.30,28.83,040412,,,D*4A
$GPGGA,032257.000,3353.7529,N,09832.0239,W,2,07,1.2,314.0,M,-23.7,M,1.8,0000*45
$GPGSA,A,3,01,11,08,28,07,17,19,,,,,,2.6,1.2,2.3*3E
$GPRMC,032257.000,A,3353.7529,N,09832.0239,W,0.02,32.14,040412,,,D*4A
$GPGGA,032258.000,3353.7527,N,09832.0241,W,2,07,1.2,313.4,M,-23.7,M,2.8,0000*4B
$GPGSA,A,3,01,11,08,28,07,17,19,,,,,,2.6,1.2,2.3*3E
$GPGSV,3,1,10,08,78,001,35,07,55,128,35,28,49,307,29,11,41,082,37*73
$GPGSV,3,2,10,17,40,221,22,01,36,108,34,26,29,299,,19,20,043,16*77
$GPGSV,3,3,10,13,09,177,25,51,49,195,36*74
$GPRMC,032258.000,A,3353.7527,N,09832.0241,W,0.13,22.34,040412,,,D*47
$GPGGA,032259.000,3353.7527,N,09832.0241,W,2,07,1.2,313.0,M,-23.7,M,0.8,0000*4C
$GPGSA,A,3,01,11,08,28,07,17,19,,,,,,2.6,1.2,2.3*3E
$GPRMC,032259.000,A,3353.7527,N,09832.0241,W,0.13,237.75,040412,,,D*75
$GPGGA,032300.000,3353.7529,N,09832.0240,W,2,07,1.2,313.1,M,-23.7,M,0.8,0000*4F
$GPGSA,A,3,01,11,08,28,07,17,19,,,,,,2.6,1.2,2.3*3E
$GPRMC,032300.000,A,3353.7529,N,09832.0240,W,0.06,252.68,040412,,,D*7C
$GPGGA,032301.000,3353.7529,N,09832.0241,W,2,07,1.2,312.7,M,-23.7,M,0.8,0000*48
$GPGSA,A,3,01,11,08,28,07,17,19,,,,,,2.6,1.2,2.3*3E
$GPRMC,032301.000,A,3353.7529,N,09832.0241,W,0.07,247.12,040412,,,D*74
$GPGGA,032302.000,3353.7530,N,09832.0239,W,2,07,1.2,312.8,M,-23.7,M,0.8,0000*43
$GPGSA,A,3,01,11,08,28,07,17,19,,,,,,2.6,1.2,2.3*3E
$GPRMC,032302.000,A,3353.7530,N,09832.0239,W,0.51,35.90,040412,,,D*4E
$GPGGA,032303.000,3353.7527,N,09832.0242,W,2,07,1.2,311.8,M,-23.7,M,1.8,0000*4A
$GPGSA,A,3,01,11,08,28,07,17,19,,,,,,2.6,1.2,2.3*3E
$GPGSV,3,1,10,08,78,001,35,07,55,128,35,28,49,307,30,11,41,082,37*7B
$GPGSV,3,2,10,17,40,221,22,01,36,108,34,26,29,299,,19,20,043,15*74
$GPGSV,3,3,10,13,09,177,25,51,49,195,36*74
$GPRMC,032303.000,A,3353.7527,N,09832.0242,W,0.25,26.03,040412,,,D*4E
$GPGGA,032304.000,3353.7524,N,09832.0245,W,2,06,1.6,310.6,M,-23.7,M,2.8,0000*40
$GPGSA,A,3,01,11,08,28,07,17,,,,,,,3.9,1.6,3.6*38
$GPRMC,032304.000,A,3353.7524,N,09832.0245,W,0.06,256.35,040412,,,D*7C
$GPGGA,032305.000,3353.7522,N,09832.0247,W,2,07,1.2,310.0,M,-23.7,M,0.8,0000*44
$GPGSA,A,3,01,11,08,28,07,17,19,,,,,,2.6,1.2,2.3*3E
$GPRMC,032305.000,A,3353.7522,N,09832.0247,W,0.39,30.57,040412,,,D*43
$GPGGA,032306.000,3353.7524,N,09832.0244,W,2,07,1.2,310.4,M,-23.7,M,0.8,0000*46
$GPGSA,A,3,01,11,08,28,07,17,19,,,,,,2.6,1.2,2.3*3E
$GPRMC,032306.000,A,3353.7524,N,09832.0244,W,0.80,33.44,040412,,,D*46
$GPGGA,032307.000,3353.7525,N,09832.0244,W,2,07,1.2,310.0,M,-23.7,M,0.8,0000*42
$GPGSA,A,3,01,11,08,28,07,17,19,,,,,,2.6,1.2,2.3*3E
$GPRMC,032307.000,A,3353.7525,N,09832.0244,W,0.37,15.54,040412,,,D*4F
$GPGGA,032308.000,3353.7524,N,09832.0245,W,2,07,1.2,309.4,M,-23.7,M,0.8,0000*41
$GPGSA,A,3,01,11,08,28,07,17,19,,,,,,2.6,1.2,2.3*3E
$GPGSV,3,1,10,08,78,001,35,07,55,128,36,28,49,307,31,11,41,082,37*79
$GPGSV,3,2,10,17,40,221,21,01,36,108,34,26,29,299,,19,20,043,15*77
$GPGSV,3,3,10,13,09,177,25,51,49,195,37*75
$GPRMC,032308.000,A,3353.7524,N,09832.0245,W,0.12,297.50,040412,,,D*7B
$GPGGA,032309.000,3353.7521,N,09832.0247,W,2,07,1.2,309.0,M,-23.7,M,0.8,0000*43
$GPGSA,A,3,01,11,08,28,07,17,19,,,,,,2.6,1.2,2.3*3E
$GPRMC,032309.000,A,3353.7521,N,09832.0247,W,0.56,217.79,040412,,,D*7E
$GPGGA,032310.000,3353.7516,N,09832.0252,W,2,07,1.2,308.1,M,-23.7,M,1.8,0000*4A
$GPGSA,A,3,01,11,08,28,07,17,19,,,,,,2.6,1.2,2.3*3E
$GPRMC,032310.000,A,3353.7516,N,09832.0252,W,1.08,213.85,040412,,,D*7B
$GPGGA,032311.000,3353.7512,N,09832.0255,W,2,06,1.6,307.7,M,-23.7,M,2.8,0000*47
$GPGSA,A,3,01,11,08,28,07,17,,,,,,,3.9,1.6,3.6*38
$GPRMC,032311.000,A,3353.7512,N,09832.0255,W,0.83,210.72,040412,,,D*70
$GPGGA,032312.000,3353.7513,N,09832.0253,W,2,07,1.2,308.4,M,-23.7,M,0.8,0000*48
$GPGSA,A,3,01,11,08,28,07,17,19,,,,,,2.6,1.2,2.3*3E
$GPRMC,032312.000,A,3353.7513,N,09832.0253,W,0.15,194.70,040412,,,D*76
$GPGGA,032313.000,3353.7512,N,09832.0253,W,2,07,1.2,308.6,M,-23.7,M,0.8,0000*4A
$GPGSA,A,3,01,11,08,28,07,17,19,,,,,,2.6,1.2,2.3*3E
$GPGSV,3,1,10,08,78,001,35,07,55,128,36,28,49,307,31,11,41,082,37*79
$GPGSV,3,2,10,17,40,221,20,01,36,108,33,26,29,299,,19,20,043,16*72
$GPGSV,3,3,10,13,09,177,25,51,49,195,36*74
$GPRMC,032313.000,A,3353.7512,N,09832.0253,W,0.16,180.70,040412,,,D*70
$GPGGA,032314.000,3353.7512,N,09832.0252,W,2,07,1.2,308.7,M,-23.7,M,0.8,0000*4D
$GPGSA,A,3,01,11,08,28,07,17,19,,,,,,2.6,1.2,2.3*3E
$GPRMC,032314.000,A,3353.7512,N,09832.0252,W,0.24,49.98,040412,,,D*45
$GPGGA,032315.000,3353.7517,N,09832.0248,W,2,07,1.2,309.6,M,-23.7,M,0.8,0000*42
$GPGSA,A,3,01,11,08,28,07,17,19,,,,,,2.6,1.2,2.3*3E
$GPRMC,032315.000,A,3353.7517,N,09832.0248,W,0.30,34.43,040412,,,D*43
$GPGGA,032316.000,3353.7516,N,09832.0248,W,2,07,1.2,309.2,M,-23.7,M,1.8,0000*45
$GPGSA,A,3,01,11,08,28,07,17,19,,,,,,2.6,1.2,2.3*3E
$GPRMC,032316.000,A,3353.7516,N,09832.0248,W,0.41,34.61,040412,,,D*47
$GPGGA,032317.000,3353.7517,N,09832.0248,W,2,07,1.2,309.1,M,-23.7,M,2.8,0000*45
$GPGSA,A,3,01,11,08,28,07,17,19,,,,,,2.6,1.2,2.3*3E
$GPRMC,032317.000,A,3353.7517,N,09832.0248,W,0.82,34.76,040412,,,D*4E
$GPGGA,032318.000,3353.7516,N,09832.0249,W,2,07,1.2,308.5,M,-23.7,M,0.8,0000*4D
$GPGSA,A,3,01,11,08,28,07,17,19,,,,,,2.6,1.2,2.3*3E
$GPGSV,3,1,10,08,78,001,36,07,55,128,36,28,49,307,31,11,41,082,38*75
$GPGSV,3,2,10,17,40,221,20,01,36,108,33,26,29,299,21,19,20,043,16*71
$GPGSV,3,3,10,13,09,177,25,51,49,195,36*74
$GPRMC,032318.000,A,3353.7516,N,09832.0249,W,0.67,30.93,040412,,,D*45
$GPGGA,032319.000,3353.7515,N,09832.0249,W,2,07,1.2,308.2,M,-23.7,M,0.8,0000*48
$GPGSA,A,3,01,11,08,28,07,17,19,,,,,,2.6,1.2,2.3*3E
$GPRMC,032319.000,A,3353.7515,N,09832.0249,W,0.03,332.49,040412,,,D*73
$GPGGA,032320.000,3353.7520,N,09832.0246,W,2,07,1.2,309.0,M,-23.7,M,0.8,0000*48
$GPGSA,A,3,01,11,08,28,07,17,19,,,,,,2.6,1.2,2.3*3E
$GPRMC,032320.000,A,3353.7520,N,09832.0246,W,0.34,20.58,040412,,,D*44
$GPGGA,032321.000,3353.7525,N,09832.0242,W,2,07,1.2,309.8,M,-23.7,M,1.8,0000*41
$GPGSA,A,3,01,11,08,28,07,17,19,,,,,,2.6,1.2,2.3*3E
$GPRMC,032321.000,A,3353.7525,N,09832.0242,W,1.02,27.88,040412,,,D*4A
$GPGGA,032322.000,3353.7528,N,09832.0239,W,2,07,1.2,310.2,M,-23.7,M,2.8,0000*42
$GPGSA,A,3,01,11,08,28,07,17,19,,,,,,2.6,1.2,2.3*3E
$GPRMC,032322.000,A,3353.7528,N,09832.0239,W,0.69,26.73,040412,,,D*41
$GPGGA,032323.000,3353.7529,N,09832.0239,W,2,07,1.2,310.4,M,-23.7,M,0.8,0000*46
$GPGSA,A,3,01,11,08,28,07,17,19,,,,,,2.6,1.2,2.3*3E
$GPGSV,3,1,10,08,78,001,35,07,55,128,36,28,49,307,31,11,41,082,38*76
$GPGSV,3,2,10,17,40,221,20,01,36,108,32,26,29,299,21,19,20,043,17*71
$GPGSV,3,3,10,13,09,177,25,51,49,195,36*74
$GPRMC,032323.000,A,3353.7529,N,09832.0239,W,0.04,19.20,040412,,,D*40
$GPGGA,032324.000,3353.7531,N,09832.0236,W,2,07,1.2,311.4,M,-23.7,M,0.8,0000*46
$GPGSA,A,3,01,11,08,28,07,17,19,,,,,,2.6,1.2,2.3*3E
$GPRMC,032324.000,A,3353.7531,N,09832.0236,W,0.29,200.89,040412,,,D*77
$GPGGA,032325.000,3353.7528,N,09832.0238,W,2,06,1.6,311.3,M,-23.7,M,0.8,0000*43
$GPGSA,A,3,01,11,08,28,07,17,,,,,,,3.9,1.6,3.6*38
$GPRMC,032325.000,A,3353.7528,N,09832.0238,W,0.41,194.64,040412,,,D*73
$GPGGA,032326.000,3353.7528,N,09832.0237,W,2,07,1.2,311.7,M,-23.7,M,0.8,0000*4E
$GPGSA,A,3,01,11,08,28,07,17,19,,,,,,2.6,1.2,2.3*3E
$GPRMC,032326.000,A,3353.7528,N,09832.0237,W,0.30,183.30,040412,,,D*7E
$GPGGA,032327.000,3353.7529,N,09832.0236,W,2,07,1.2,312.3,M,-23.7,M,1.8,0000*49
$GPGSA,A,3,01,11,08,28,07,17,19,,,,,,2.6,1.2,2.3*3E
$GPRMC,032327.000,A,3353.7529,N,09832.0236,W,0.29,181.63,040412,,,D*73
$GPGGA,032328.000,3353.7529,N,09832.0234,W,2,07,1.2,313.0,M,-23.7,M,2.8,0000*45
$GPGSA,A,3,01,11,08,28,07,17,19,,,,,,2.6,1.2,2.3*3E
$GPGSV,3,1,10,08,78,001,35,07,55,128,36,28,49,307,32,11,41,082,38*75
$GPGSV,3,2,10,17,40,221,19,01,36,108,31,26,29,299,21,19,20,043,17*78
$GPGSV,3,3,10,13,09,177,25,51,49,195,36*74
$GPRMC,032328.000,A,3353.7529,N,09832.0234,W,0.28,168.40,040412,,,D*79
$GPGGA,032329.000,3353.7529,N,09832.0234,W,2,07,1.2,313.2,M,-23.7,M,3.8,0000*47
$GPGSA,A,3,01,11,08,28,07,17,19,,,,,,2.6,1.2,2.3*3E
$GPRMC,032329.000,A,3353.7529,N,09832.0234,W,0.23,178.58,040412,,,D*7B
$GPGGA,032330.000,3353.7527,N,09832.0235,W,2,07,1.2,313.0,M,-23.7,M,0.8,0000*41
$GPGSA,A,3,01,11,08,28,07,17,19,,,,,,2.6,1.2,2.3*3E
$GPRMC,032330.000,A,3353.7527,N,09832.0235,W,0.39,195.12,040412,,,D*7A
$GPGGA,032331.000,3353.7524,N,09832.0237,W,2,07,1.2,312.8,M,-23.7,M,0.8,0000*48
$GPGSA,A,3,01,11,08,28,07,17,19,,,,,,2.6,1.2,2.3*3E
$GPRMC,032331.000,A,3353.7524,N,09832.0237,W,0.38,194.77,040412,,,D*79
$GPGGA,032332.000,3353.7523,N,09832.0238,W,2,07,1.2,312.9,M,-23.7,M,0.8,0000*42
$GPGSA,A,3,01,11,08,28,07,17,19,,,,,,2.6,1.2,2.3*3E
$GPRMC,032332.000,A,3353.7523,N,09832.0238,W,0.65,201.13,040412,,,D*77
$GPGGA,032333.000,3353.7521,N,09832.0239,W,2,07,1.2,313.1,M,-23.7,M,0.8,0000*49
$GPGSA,A,3,01,11,08,28,07,17,19,,,,,,2.6,1.2,2.3*3E
$GPGSV,3,1,10,08,78,001,35,07,55,128,36,28,49,307,32,11,41,082,38*75
$GPGSV,3,2,10,17,40,221,18,01,36,108,31,26,29,299,20,19,20,043,17*78
$GPGSV,3,3,10,13,09,177,25,51,49,195,36*74
$GPRMC,032333.000,A,3353.7521,N,09832.0239,W,0.72,199.10,040412,,,D*72
$GPGGA,032334.000,3353.7517,N,09832.0240,W,2,06,2.3,314.0,M,-23.7,M,1.8,0000*41
$GPGSA,A,3,01,11,08,28,07,19,,,,,,,4.4,2.3,3.7*3B
$GPRMC,032334.000,A,3353.7517,N,09832.0240,W,1.13,203.88,040412,,,D*79
$GPGGA,032335.000,3353.7514,N,09832.0242,W,2,05,2.9,314.1,M,-23.7,M,2.8,0000*4A
$GPGSA,A,3,01,11,08,28,07,,,,,,,,5.0,2.9,4.1*3D
$GPRMC,032335.000,A,3353.7514,N,09832.0242,W,1.37,204.95,040412,,,D*74
$GPGGA,032336.000,3353.7509,N,09832.0244,W,2,06,2.3,315.2,M,-23.7,M,0.8,0000*4A
$GPGSA,A,3,01,11,08,28,07,19,,,,,,,4.4,2.3,3.7*3B
$GPRMC,032336.000,A,3353.7509,N,09832.0244,W,1.49,205.49,040412,,,D*74
$GPGGA,032337.000,3353.7506,N,09832.0246,W,2,05,2.9,315.3,M,-23.7,M,0.8,0000*4E
$GPGSA,A,3,01,11,08,28,07,,,,,,,,5.0,2.9,4.1*3D
$GPRMC,032337.000,A,3353.7506,N,09832.0246,W,1.12,201.01,040412,,,D*7E
$GPGGA,032338.000,3353.7503,N,09832.0246,W,2,06,2.3,316.1,M,-23.7,M,0.8,0000*4C
$GPGSA,A,3,01,11,08,28,07,19,,,,,,,4.4,2.3,3.7*3B
$GPGSV,3,1,10,08,78,001,35,07,55,128,36,28,49,307,32,11,41,082,38*75
$GPGSV,3,2,10,17,40,221,16,01,36,108,30,26,29,299,20,19,20,043,16*76
$GPGSV,3,3,10,13,09,177,25,51,49,195,35*77
$GPRMC,032338.000,A,3353.7503,N,09832.0246,W,0.76,194.53,040412,,,D*7F
$GPGGA,032339.000,3353.7502,N,09832.0246,W,2,06,2.3,316.4,M,-23.7,M,0.8,0000*49
$GPGSA,A,3,01,11,08,28,07,19,,,,,,,4.4,2.3,3.7*3B
$GPRMC,032339.000,A,3353.7502,N,09832.0246,W,0.27,160.33,040412,,,D*76
$GPGGA,032340.000,3353.7503,N,09832.0245,W,2,06,2.3,316.7,M,-23.7,M,1.8,0000*47
$GPGSA,A,3,01,11,08,28,07,19,,,,,,,4.4,2.3,3.7*3B
$GPRMC,032340.000,A,3353.7503,N,09832.0245,W,0.27,135.15,040412,,,D*7E
$GPGGA,032341.000,3353.7503,N,09832.0244,W,2,06,2.3,316.9,M,-23.7,M,0.8,0000*48
$GPGSA,A,3,01,11,08,28,07,19,,,,,,,4.4,2.3,3.7*3B
$GPRMC,032341.000,A,3353.7503,N,09832.0244,W,0.30,106.22,040412,,,D*7C
$GPGGA,032342.000,3353.7505,N,09832.0242,W,2,06,2.3,317.1,M,-23.7,M,0.8,0000*42
$GPGSA,A,3,01,11,08,28,07,19,,,,,,,4.4,2.3,3.7*3B
$GPRMC,032342.000,A,3353.7505,N,09832.0242,W,0.36,78.53,040412,,,D*47
$GPGGA,032343.000,3353.7506,N,09832.0240,W,2,06,2.3,317.5,M,-23.7,M,0.8,0000*46
$GPGSA,A,3,01,11,08,28,07,19,,,,,,,4.4,2.3,3.7*3B
$GPGSV,3,1,10,08,78,001,35,07,55,128,36,28,49,307,32,11,41,082,38*75
$GPGSV,3,2,10,17,40,221,15,01,36,108,29,26,29,299,20,19,20,043,14*7F
$GPGSV,3,3,10,13,09,177,25,51,49,195,36*74
$GPRMC,032343.000,A,3353.7506,N,09832.0240,W,0.71,46.12,040412,,,D*4C
$GPGGA,032344.000,3353.7508,N,09832.0239,W,2,07,1.2,317.6,M,-23.7,M,0.8,0000*41
$GPGSA,A,3,01,11,08,28,07,17,19,,,,,,2.6,1.2,2.3*3E
$GPRMC,032344.000,A,3353.7508,N,09832.0239,W,1.09,34.25,040412,,,D*44
$GPGGA,032345.000,3353.7514,N,09832.0234,W,2,07,1.2,318.2,M,-23.7,M,0.8,0000*4B
$GPGSA,A,3,01,11,08,28,07,17,19,,,,,,2.6,1.2,2.3*3E
$GPRMC,032345.000,A,3353.7514,N,09832.0234,W,1.32,33.18,040412,,,D*44
$GPGGA,032346.000,3353.7518,N,09832.0232,W,2,06,2.3,318.4,M,-23.7,M,1.8,0000*46
$GPGSA,A,3,01,11,08,28,07,19,,,,,,,4.4,2.3,3.7*3B
$GPRMC,032346.000,A,3353.7518,N,09832.0232,W,1.28,30.13,040412,,,D*4E
$GPGGA,032347.000,3353.7521,N,09832.0230,W,2,06,2.3,318.5,M,-23.7,M,0.8,0000*4F
$GPGSA,A,3,01,11,08,28,07,19,,,,,,,4.4,2.3,3.7*3B
$GPRMC,032347.000,A,3353.7521,N,09832.0230,W,1.54,33.10,040412,,,D*4C
$GPGGA,032348.000,3353.7524,N,09832.0228,W,2,05,2.9,318.7,M,-23.7,M,0.8,0000*47
$GPGSA,A,3,01,11,08,28,07,,,,,,,,5.0,2.9,4.1*3D
$GPGSV,3,1,10,08,78,001,35,07,55,128,36,28,49,307,33,11,41,082,38*74
$GPGSV,3,2,10,17,40,221,15,01,36,108,29,26,29,299,21,19,20,043,*7B
$GPGSV,3,3,10,13,09,177,24,51,49,195,36*75
$GPRMC,032348.000,A,3353.7524,N,09832.0228,W,1.14,34.58,040412,,,D*40
$GPGGA,032349.000,3353.7527,N,09832.0226,W,2,05,2.9,319.1,M,-23.7,M,0.8,0000*4C
$GPGSA,A,3,01,11,08,28,07,,,,,,,,5.0,2.9,4.1*3D
$GPRMC,032349.000,A,3353.7527,N,09832.0226,W,1.10,37.84,040412,,,D*4A
$GPGGA,032350.000,3353.7529,N,09832.0223,W,2,05,2.9,319.3,M,-23.7,M,0.8,0000*4D
$GPGSA,A,3,01,11,08,28,07,,,,,,,,5.0,2.9,4.1*3D
$GPRMC,032350.000,A,3353.7529,N,09832.0223,W,1.03,42.40,040412,,,D*41
$GPGGA,032351.000,3353.7531,N,09832.0221,W,2,05,2.9,319.6,M,-23.7,M,1.8,0000*43
$GPGSA,A,3,01,11,08,28,07,,,,,,,,5.0,2.9,4.1*3D
$GPRMC,032351.000,A,3353.7531,N,09832.0221,W,0.96,44.47,040412,,,D*47
$GPGGA,032352.000,3353.7532,N,09832.0220,W,2,05,2.9,319.8,M,-23.7,M,2.8,0000*4F
$GPGSA,A,3,01,11,08,28,07,,,,,,,,5.0,2.9,4.1*3D
$GPRMC,032352.000,A,3353.7532,N,09832.0220,W,0.80,45.99,040412,,,D*43
$GPGGA,032353.000,3353.7542,N,09832.0211,W,2,06,1.6,321.8,M,-23.7,M,3.8,0000*4E
$GPGSA,A,3,01,11,08,28,07,17,,,,,,,3.9,1.6,3.6*38
$GPGSV,3,1,10,08,78,001,36,07,55,128,36,28,49,307,33,11,41,082,38*77
$GPGSV,3,2,10,17,40,221,16,01,36,108,29,26,29,299,21,19,20,043,*78
$GPGSV,3,3,10,13,09,177,24,51,49,195,36*75
$GPRMC,032353.000,A,3353.7542,N,09832.0211,W,0.81,47.80,040412,,,D*4C
$GPGGA,032354.000,3353.7545,N,09832.0208,W,2,06,1.6,322.4,M,-23.7,M,0.8,0000*4A
$GPGSA,A,3,01,11,08,28,07,17,,,,,,,3.9,1.6,3.6*38
$GPRMC,032354.000,A,3353.7545,N,09832.0208,W,0.41,65.18,040412,,,D*49
$GPGGA,032355.000,3353.7544,N,09832.0208,W,2,05,2.9,322.4,M,-23.7,M,0.8,0000*45
$GPGSA,A,3,01,11,08,28,07,,,,,,,,5.1,2.9,4.1*3C
$GPRMC,032355.000,A,3353.7544,N,09832.0208,W,0.17,134.41,040412,,,D*73
$GPGGA,032356.000,3353.7544,N,09832.0209,W,2,05,2.9,322.3,M,-23.7,M,0.8,0000*40
$GPGSA,A,3,01,11,08,28,07,,,,,,,,5.1,2.9,4.1*3C
$GPRMC,032356.000,A,3353.7544,N,09832.0209,W,0.22,181.16,040412,,,D*7B
$GPGGA,032357.000,3353.7543,N,09832.0209,W,2,05,2.9,322.3,M,-23.7,M,1.8,0000*47
$GPGSA,A,3,01,11,08,28,07,,,,,,,,5.1,2.9,4.1*3C
$GPRMC,032357.000,A,3353.7543,N,09832.0209,W,0.18,176.90,040412,,,D*72
$GPGGA,032358.000,3353.7548,N,09832.0205,W,2,06,1.6,323.4,M,-23.7,M,2.8,0000*45
$GPGSA,A,3,01,11,08,28,07,17,,,,,,,3.9,1.6,3.6*38
$GPGSV,3,1,10,08,78,001,36,07,55,128,36,28,49,307,33,11,41,082,38*77
$GPGSV,3,2,10,17,40,221,17,01,36,108,29,26,29,299,20,19,20,043,*78
$GPGSV,3,3,10,13,09,177,23,51,49,195,38*7C
$GPRMC,032358.000,A,3353.7548,N,09832.0205,W,0.39,47.27,040412,,,D*46
$GPGGA,032359.000,3353.7552,N,09832.0201,W,2,06,1.6,324.0,M,-23.7,M,3.8,0000*49
$GPGSA,A,3,01,11,08,28,07,17,,,,,,,3.9,1.6,3.6*38
$GPRMC,032359.000,A,3353.7552,N,09832.0201,W,0.34,48.02,040412,,,D*4D
$GPGGA,032400.000,3353.7552,N,09832.0202,W,2,05,2.9,323.9,M,-23.7,M,0.8,0000*43
$GPGSA,A,3,01,11,08,28,07,,,,,,,,5.1,2.9,4.1*3C
$GPRMC,032400.000,A,3353.7552,N,09832.0202,W,0.11,148.98,040412,,,D*70
$GPGGA,032401.000,3353.7551,N,09832.0202,W,2,05,2.9,324.0,M,-23.7,M,0.8,0000*4F
$GPGSA,A,3,01,11,08,28,07,,,,,,,,5.1,2.9,4.1*3C
$GPRMC,032401.000,A,3353.7551,N,09832.0202,W,0.23,70.23,040412,,,D*49
$GPGGA,032402.000,3353.7557,N,09832.0197,W,2,06,1.6,325.0,M,-23.7,M,0.8,0000*4B
$GPGSA,A,3,01,11,08,28,07,17,,,,,,,3.9,1.6,3.6*38
$GPRMC,032402.000,A,3353.7557,N,09832.0197,W,0.63,49.26,040412,,,D*48
$GPGGA,032403.000,3353.7562,N,09832.0192,W,2,06,1.6,326.0,M,-23.7,M,1.8,0000*4B
$GPGSA,A,3,01,11,08,28,07,17,,,,,,,3.9,1.6,3.6*38
$GPGSV,3,1,10,08,78,001,37,07,55,128,36,28,49,307,33,11,41,082,38*76
$GPGSV,3,2,10,17,40,221,18,01,36,108,29,26,29,299,20,19,20,043,*77
$GPGSV,3,3,10,13,09,177,23,51,49,195,36*72
$GPRMC,032403.000,A,3353.7562,N,09832.0192,W,0.70,47.64,040412,,,D*40
$GPGGA,032404.000,3353.7564,N,09832.0190,W,2,06,1.6,326.3,M,-23.7,M,2.8,0000*48
$GPGSA,A,3,01,11,08,28,07,17,,,,,,,3.9,1.6,3.6*38
$GPRMC,032404.000,A,3353.7564,N,09832.0190,W,0.81,45.80,040412,,,D*45
$GPGGA,032405.000,3353.7564,N,09832.0189,W,2,05,2.9,326.5,M,-23.7,M,3.8,0000*49
$GPGSA,A,3,01,11,08,28,07,,,,,,,,5.1,2.9,4.1*3C
$GPRMC,032405.000,A,3353.7564,N,09832.0189,W,0.69,47.01,040412,,,D*41
$GPGGA,032406.000,3353.7564,N,09832.0189,W,2,05,2.9,326.4,M,-23.7,M,0.8,0000*48
$GPGSA,A,3,01,11,08,28,07,,,,,,,,5.1,2.9,4.2*3F
$GPRMC,032406.000,A,3353.7564,N,09832.0189,W,0.27,86.96,040412,,,D*4B
$GPGGA,032407.000,3353.7564,N,09832.0189,W,2,05,2.9,326.3,M,-23.7,M,0.8,0000*4E
$GPGSA,A,3,01,11,08,28,07,,,,,,,,5.1,2.9,4.2*3F
$GPRMC,032407.000,A,3353.7564,N,09832.0189,W,0.18,98.08,040412,,,D*4E
$GPGGA,032408.000,3353.7560,N,09832.0193,W,2,06,1.6,325.6,M,-23.7,M,0.8,0000*47
$GPGSA,A,3,01,11,08,28,07,17,,,,,,,3.9,1.6,3.6*38
$GPGSV,3,1,10,08,78,001,37,07,55,128,37,28,49,307,33,11,41,082,38*77
$GPGSV,3,2,10,17,40,221,17,01,36,108,30,26,29,299,20,19,20,043,*70
$GPGSV,3,3,10,13,09,177,23,51,49,195,36*72
$GPRMC,032408.000,A,3353.7560,N,09832.0193,W,0.10,97.31,040412,,,D*43
$GPGGA,032409.000,3353.7557,N,09832.0195,W,2,06,1.6,325.1,M,-23.7,M,1.8,0000*42
$GPGSA,A,3,01,11,08,28,07,17,,,,,,,3.9,1.6,3.6*38
$GPRMC,032409.000,A,3353.7557,N,09832.0195,W,0.19,51.46,040412,,,D*43
$GPGGA,032410.000,3353.7557,N,09832.0195,W,2,05,2.9,325.2,M,-23.7,M,2.8,0000*45
$GPGSA,A,3,01,11,08,28,07,,,,,,,,5.1,2.9,4.2*3F
$GPRMC,032410.000,A,3353.7557,N,09832.0195,W,0.50,37.91,040412,,,D*4C
$GPGGA,032411.000,3353.7558,N,09832.0195,W,2,05,2.9,325.2,M,-23.7,M,3.8,0000*4A
$GPGSA,A,3,01,11,08,28,07,,,,,,,,5.1,2.9,4.2*3F
$GPRMC,032411.000,A,3353.7558,N,09832.0195,W,0.61,35.72,040412,,,D*4F
$GPGGA,032412.000,3353.7559,N,09832.0195,W,2,05,2.9,325.2,M,-23.7,M,0.8,0000*4B
$GPGSA,A,3,01,11,08,28,07,,,,,,,,5.1,2.9,4.2*3F
$GPRMC,032412.000,A,3353.7559,N,09832.0195,W,0.47,36.43,040412,,,D*48
$GPGGA,032413.000,3353.7559,N,09832.0195,W,2,05,2.9,325.2,M,-23.7,M,0.8,0000*4A
$GPGSA,A,3,01,11,08,28,07,,,,,,,,5.1,2.9,4.2*3F
$GPGSV,3,1,10,08,78,001,37,07,55,128,37,28,49,307,33,11,41,082,39*76
$GPGSV,3,2,10,17,40,221,16,01,36,108,31,26,29,299,14,19,20,043,*77
$GPGSV,3,3,10,13,09,177,24,51,49,195,36*75
$GPRMC,032413.000,A,3353.7559,N,09832.0195,W,0.62,40.14,040412,,,D*4D
$GPGGA,032414.000,3353.7560,N,09832.0194,W,2,05,2.9,325.3,M,-23.7,M,0.8,0000*47
$GPGSA,A,3,01,11,08,28,07,,,,,,,,5.1,2.9,4.2*3F
$GPRMC,032414.000,A,3353.7560,N,09832.0194,W,0.69,44.48,040412,,,D*47
$GPGGA,032415.000,3353.7553,N,09832.0199,W,2,06,1.6,324.0,M,-23.7,M,1.8,0000*47
$GPGSA,A,3,01,11,08,28,07,17,,,,,,,3.9,1.6,3.6*38
$GPRMC,032415.000,A,3353.7553,N,09832.0199,W,0.59,46.63,040412,,,D*43
$GPGGA,032416.000,3353.7554,N,09832.0198,W,2,05,2.9,324.1,M,-23.7,M,2.8,0000*4F
$GPGSA,A,3,01,11,08,28,07,,,,,,,,5.1,2.9,4.2*3F
$GPRMC,032416.000,A,3353.7554,N,09832.0198,W,0.65,43.40,040412,,,D*4D
$GPGGA,032417.000,3353.7554,N,09832.0198,W,2,05,2.9,324.0,M,-23.7,M,3.8,0000*4E
$GPGSA,A,3,01,11,08,28,07,,,,,,,,5.1,2.9,4.2*3F
$GPRMC,032417.000,A,3353.7554,N,09832.0198,W,0.38,53.69,040412,,,D*4E
$GPGGA,032418.000,3353.7554,N,09832.0198,W,2,05,2.9,323.9,M,-23.7,M,0.8,0000*4C
$GPGSA,A,3,01,11,08,28,07,,,,,,,,5.1,2.9,4.2*3F
$GPGSV,3,1,10,08,78,001,37,07,55,128,37,28,49,307,32,11,41,082,39*77
$GPGSV,3,2,10,17,40,221,16,01,36,108,32,26,29,299,,19,20,043,*71
$GPGSV,3,3,10,13,09,177,24,51,49,195,36*75
$GPRMC,032418.000,A,3353.7554,N,09832.0198,W,0.16,136.84,040412,,,D*7C
$GPGGA,032419.000,3353.7553,N,09832.0199,W,2,05,2.9,323.7,M,-23.7,M,0.8,0000*45
$GPGSA,A,3,01,11,08,28,07,,,,,,,,5.1,2.9,4.2*3F
$GPRMC,032419.000,A,3353.7553,N,09832.0199,W,0.14,79.22,040412,,,D*4F
$GPGGA,032420.000,3353.7551,N,09832.0200,W,2,07,1.2,324.7,M,-23.7,M,0.8,0000*43
$GPGSA,A,3,01,11,08,28,07,17,19,,,,,,2.6,1.2,2.3*3E
$GPRMC,032420.000,A,3353.7551,N,09832.0200,W,0.27,50.18,040412,,,D*46
$GPGGA,032421.000,3353.7548,N,09832.0201,W,2,07,1.2,325.8,M,-23.7,M,1.8,0000*44
$GPGSA,A,3,01,11,08,28,07,17,19,,,,,,2.6,1.2,2.3*3E
$GPRMC,032421.000,A,3353.7548,N,09832.0201,W,0.10,103.00,040412,,,D*74
$GPGGA,032422.000,3353.7545,N,09832.0202,W,2,07,1.2,326.4,M,-23.7,M,2.8,0000*45
$GPGSA,A,3,01,11,08,28,07,17,19,,,,,,2.6,1.2,2.3*3E
$GPRMC,032422.000,A,3353.7545,N,09832.0202,W,0.13,38.34,040412,,,D*44
$GPGGA,032423.000,3353.7545,N,09832.0203,W,2,05,2.9,325.8,M,-23.7,M,3.8,0000*41
$GPGSA,A,3,01,11,08,28,07,,,,,,,,5.1,2.9,4.2*3F
$GPGSV,3,1,10,08,78,001,37,07,55,128,37,28,49,307,32,11,41,082,39*77
$GPGSV,3,2,10,17,40,221,17,01,36,108,32,26,29,299,,19,20,043,17*76
$GPGSV,3,3,10,13,09,177,24,51,49,195,36*75
$GPRMC,032423.000,A,3353.7545,N,09832.0203,W,0.09,227.52,040412,,,D*73
$GPGGA,032424.000,3353.7544,N,09832.0205,W,2,05,2.9,325.3,M,-23.7,M,0.8,0000*49
$GPGSA,A,3,01,11,08,28,07,,,,,,,,5.1,2.9,4.2*3F
$GPRMC,032424.000,A,3353.7544,N,09832.0205,W,0.14,222.28,040412,,,D*77
$GPGGA,032425.000,3353.7543,N,09832.0206,W,2,05,2.9,325.0,M,-23.7,M,1.8,0000*4E
$GPGSA,A,3,01,11,08,28,07,,,,,,,,5.1,2.9,4.2*3F
$GPRMC,032425.000,A,3353.7543,N,09832.0206,W,0.48,200.54,040412,,,D*70
$GPGGA,032426.000,3353.7534,N,09832.0215,W,2,07,1.2,322.8,M,-23.7,M,0.8,0000*4B
$GPGSA,A,3,01,11,08,28,07,17,19,,,,,,2.6,1.2,2.3*3E
$GPRMC,032426.000,A,3353.7534,N,09832.0215,W,0.88,203.08,040412,,,D*77
$GPGGA,032427.000,3353.7529,N,09832.0218,W,2,07,1.2,321.9,M,-23.7,M,0.8,0000*49
$GPGSA,A,3,01,11,08,28,07,17,19,,,,,,2.6,1.2,2.3*3E
$GPRMC,032427.000,A,3353.7529,N,09832.0218,W,0.56,194.40,040412,,,D*75
$GPGGA,032428.000,3353.7526,N,09832.0221,W,2,07,1.2,321.0,M,-23.7,M,0.8,0000*4A
$GPGSA,A,3,01,11,08,28,07,17,19,,,,,,2.6,1.2,2.3*3E
$GPGSV,3,1,10,08,78,001,37,07,55,128,37,28,49,307,32,11,41,082,39*77
$GPGSV,3,2,10,17,40,221,18,01,36,108,32,26,29,299,,19,20,043,16*78
$GPGSV,3,3,10,13,09,177,24,51,49,195,36*75
$GPRMC,032428.000,A,3353.7526,N,09832.0221,W,0.16,173.32,040412,,,D*77
$GPGGA,032429.000,3353.7526,N,09832.0222,W,2,07,1.2,320.5,M,-23.7,M,0.8,0000*4C
$GPGSA,A,3,01,11,08,28,07,17,19,,,,,,2.6,1.2,2.3*3E
$GPRMC,032429.000,A,3353.7526,N,09832.0222,W,0.44,33.15,040412,,,D*42
$GPGGA,032430.000,3353.7526,N,09832.0223,W,2,07,1.2,319.9,M,-23.7,M,0.8,0000*43
$GPGSA,A,3,01,11,08,28,07,17,19,,,,,,2.6,1.2,2.3*3E
$GPRMC,032430.000,A,3353.7526,N,09832.0223,W,0.66,26.42,040412,,,D*4D
$GPGGA,032431.000,3353.7524,N,09832.0225,W,2,07,1.2,318.7,M,-23.7,M,0.8,0000*49
$GPGSA,A,3,01,11,08,28,07,17,19,,,,,,2.6,1.2,2.3*3E
$GPRMC,032431.000,A,3353.7524,N,09832.0225,W,0.25,13.48,040412,,,D*43
$GPGGA,032432.000,3353.7523,N,09832.0227,W,2,06,1.6,318.4,M,-23.7,M,0.8,0000*49
$GPGSA,A,3,01,11,08,28,07,17,,,,,,,3.9,1.6,3.6*38
$GPRMC,032432.000,A,3353.7523,N,09832.0227,W,0.10,216.32,040412,,,D*79
$GPGGA,032433.000,3353.7523,N,09832.0226,W,2,07,1.2,318.4,M,-23.7,M,1.8,0000*4D
$GPGSA,A,3,01,11,08,28,07,17,19,,,,,,2.6,1.2,2.3*3E
$GPGSV,3,1,10,08,78,001,37,07,55,128,37,28,49,307,32,11,41,082,40*79
$GPGSV,3,2,10,17,40,221,20,01,36,108,32,26,29,299,,19,20,043,14*71
$GPGSV,3,3,10,13,09,177,24,51,49,195,36*75
$GPRMC,032433.000,A,3353.7523,N,09832.0226,W,0.13,53.91,040412,,,D*40
$GPGGA,032434.000,3353.7520,N,09832.0229,W,2,07,1.2,317.7,M,-23.7,M,2.8,0000*49
$GPGSA,A,3,01,11,08,28,07,17,19,,,,,,2.6,1.2,2.3*3E
$GPRMC,032434.000,A,3353.7520,N,09832.0229,W,0.10,194.28,040412,,,D*70
$GPGGA,032435.000,3353.7520,N,09832.0229,W,2,06,1.6,317.7,M,-23.7,M,0.8,0000*4F
$GPGSA,A,3,01,11,08,28,07,17,,,,,,,3.9,1.6,3.6*38
$GPRMC,032435.000,A,3353.7520,N,09832.0229,W,0.34,206.44,040412,,,D*75
$GPGGA,032436.000,3353.7520,N,09832.0230,W,2,06,1.6,317.7,M,-23.7,M,0.8,0000*44
$GPGSA,A,3,01,11,08,28,07,17,,,,,,,3.9,1.6,3.6*38
$GPRMC,032436.000,A,3353.7520,N,09832.0230,W,0.05,44.10,040412,,,D*49
$GPGGA,032437.000,3353.7522,N,09832.0228,W,2,06,1.6,318.2,M,-23.7,M,0.8,0000*44
$GPGSA,A,3,01,11,08,28,07,17,,,,,,,3.9,1.6,3.6*38
$GPRMC,032437.000,A,3353.7522,N,09832.0228,W,0.10,50.48,040412,,,D*4F
$GPGGA,032438.000,3353.7524,N,09832.0226,W,2,06,1.6,318.6,M,-23.7,M,0.8,0000*47
$GPGSA,A,3,01,11,08,28,07,17,,,,,,,3.9,1.6,3.6*38
$GPGSV,3,1,10,08,78,001,37,07,55,128,37,28,49,307,32,11,41,082,40*79
$GPGSV,3,2,10,17,40,221,26,01,36,108,33,26,29,299,,19,20,043,*73
$GPGSV,3,3,10,13,09,177,24,51,49,195,36*75
$GPRMC,032438.000,A,3353.7524,N,09832.0226,W,0.17,67.95,040412,,,D*4B
$GPGGA,032439.000,3353.7526,N,09832.0224,W,2,06,1.6,318.9,M,-23.7,M,1.8,0000*48
$GPGSA,A,3,01,11,08,28,07,17,,,,,,,3.9,1.6,3.6*38
$GPRMC,032439.000,A,3353.7526,N,09832.0224,W,0.16,72.73,040412,,,D*47
$GPGGA,032440.000,3353.7527,N,09832.0223,W,2,06,1.6,319.2,M,-23.7,M,2.8,0000*49
$GPGSA,A,3,01,11,08,28,07,17,,,,,,,3.9,1.6,3.6*38
$GPRMC,032440.000,A,3353.7527,N,09832.0223,W,0.18,75.20,040412,,,D*40
$GPGGA,032441.000,3353.7528,N,09832.0222,W,2,06,1.6,319.5,M,-23.7,M,3.8,0000*40
$GPGSA,A,3,01,11,08,28,07,17,,,,,,,3.9,1.6,3.6*38
$GPRMC,032441.000,A,3353.7528,N,09832.0222,W,0.17,83.59,040412,,,D*47
$GPGGA,032442.000,3353.7529,N,09832.0221,W,2,06,1.6,319.7,M,-23.7,M,0.8,0000*40
$GPGSA,A,3,01,11,08,28,07,17,,,,,,,3.9,1.6,3.6*38
$GPRMC,032442.000,A,3353.7529,N,09832.0221,W,0.14,96.35,040412,,,D*4B
$GPGGA,032443.000,3353.7530,N,09832.0220,W,2,06,1.6,319.8,M,-23.7,M,0.8,0000*47
$GPGSA,A,3,01,11,08,28,07,17,,,,,,,3.9,1.6,3.6*38
$GPGSV,3,1,10,08,78,001,37,07,55,128,37,28,49,307,31,11,41,082,40*7A
$GPGSV,3,2,10,17,40,221,26,01,36,108,33,26,29,299,,19,20,043,*73
$GPGSV,3,3,10,13,09,177,24,51,49,195,36*75
$GPRMC,032443.000,A,3353.7530,N,09832.0220,W,0.11,87.33,040412,,,D*40
$GPGGA,032444.000,3353.7531,N,09832.0220,W,2,06,1.6,320.1,M,-23.7,M,0.8,0000*42
$GPGSA,A,3,01,11,08,28,07,17,,,,,,,3.9,1.6,3.6*38
$GPRMC,032444.000,A,3353.7531,N,09832.0220,W,0.07,73.97,040412,,,D*44
$GPGGA,032445.000,3353.7532,N,09832.0219,W,2,06,1.6,320.3,M,-23.7,M,1.8,0000*49
$GPGSA,A,3,01,11,08,28,07,17,,,,,,,3.9,1.6,3.6*38
$GPRMC,032445.000,A,3353.7532,N,09832.0219,W,0.03,53.45,040412,,,D*45
$GPGGA,032446.000,3353.7533,N,09832.0219,W,2,06,1.6,320.5,M,-23.7,M,2.8,0000*4E
$GPGSA,A,3,01,11,08,28,07,17,,,,,,,3.9,1.6,3.6*38
$GPRMC,032446.000,A,3353.7533,N,09832.0219,W,0.06,65.62,040412,,,D*42
$GPGGA,032447.000,3353.7533,N,09832.0219,W,2,06,1.6,320.7,M,-23.7,M,3.8,0000*4C
$GPGSA,A,3,01,11,08,28,07,17,,,,,,,3.9,1.6,3.6*38
$GPRMC,032447.000,A,3353.7533,N,09832.0219,W,0.03,82.17,040412,,,D*4D
$GPGGA,032448.000,3353.7534,N,09832.0218,W,2,06,1.6,321.0,M,-23.7,M,0.8,0000*40
$GPGSA,A,3,01,11,08,28,07,17,,,,,,,3.9,1.6,3.6*38
$GPGSV,3,1,10,08,78,001,37,07,55,128,37,28,49,307,31,11,41,082,40*7A
$GPGSV,3,2,10,17,40,221,27,01,36,108,33,26,29,299,,19,20,043,*72
$GPGSV,3,3,10,13,09,177,24,51,49,195,36*75
$GPRMC,032448.000,A,3353.7534,N,09832.0218,W,0.10,66.90,040412,,,D*43
$GPGGA,032449.000,3353.7535,N,09832.0218,W,2,06,1.6,321.2,M,-23.7,M,0.8,0000*42
$GPGSA,A,3,01,11,08,28,07,17,,,,,,,3.9,1.6,3.6*38
$GPRMC,032449.000,A,3353.7535,N,09832.0218,W,0.08,83.12,040412,,,D*4B
$GPGGA,032450.000,3353.7535,N,09832.0218,W,2,06,1.6,321.4,M,-23.7,M,0.8,0000*4C
$GPGSA,A,3,01,11,08,28,07,17,,,,,,,3.9,1.6,3.6*38
$GPRMC,032450.000,A,3353.7535,N,09832.0218,W,0.21,91.00,040412,,,D*48
$GPGGA,032451.000,3353.7535,N,09832.0217,W,2,06,1.6,321.6,M,-23.7,M,0.8,0000*40
$GPGSA,A,3,01,11,08,28,07,17,,,,,,,3.9,1.6,3.6*38
$GPRMC,032451.000,A,3353.7535,N,09832.0217,W,0.18,92.65,040412,,,D*4C
$GPGGA,032452.000,3353.7535,N,09832.0217,W,2,06,1.6,321.7,M,-23.7,M,1.8,0000*43
$GPGSA,A,3,01,11,08,28,07,17,,,,,,,3.9,1.6,3.6*38
$GPRMC,032452.000,A,3353.7535,N,09832.0217,W,0.20,98.07,040412,,,D*4A
$GPGGA,032453.000,3353.7535,N,09832.0216,W,2,06,1.6,321.8,M,-23.7,M,2.8,0000*4F
$GPGSA,A,3,01,11,08,28,07,17,,,,,,,3.9,1.6,3.6*38
$GPGSV,3,1,10,08,78,001,38,07,55,128,37,28,49,307,31,11,41,082,40*75
$GPGSV,3,2,10,17,40,221,27,01,36,108,33,26,29,299,,19,20,043,*72
$GPGSV,3,3,10,13,09,177,24,51,49,195,36*75
$GPRMC,032453.000,A,3353.7535,N,09832.0216,W,0.20,91.35,040412,,,D*42
$GPGGA,032454.000,3353.7536,N,09832.0216,W,2,06,1.6,321.9,M,-23.7,M,0.8,0000*48
$GPGSA,A,3,01,11,08,28,07,17,,,,,,,3.9,1.6,3.6*38
$GPRMC,032454.000,A,3353.7536,N,09832.0216,W,0.17,107.50,040412,,,D*7F
$GPGGA,032455.000,3353.7536,N,09832.0216,W,2,06,1.6,322.0,M,-23.7,M,0.8,0000*43
$GPGSA,A,3,01,11,08,28,07,17,,,,,,,3.9,1.6,3.6*38
$GPRMC,032455.000,A,3353.7536,N,09832.0216,W,0.13,94.97,040412,,,D*4A
$GPGGA,032456.000,3353.7536,N,09832.0216,W,2,06,1.6,322.1,M,-23.7,M,0.8,0000*41
$GPGSA,A,3,01,11,08,28,07,17,,,,,,,3.9,1.6,3.6*38
$GPRMC,032456.000,A,3353.7536,N,09832.0216,W,0.04,119.34,040412,,,D*72
$GPGGA,032457.000,3353.7536,N,09832.0216,W,2,07,1.3,322.3,M,-23.7,M,1.8,0000*47
$GPGSA,A,3,01,11,08,28,07,19,17,,,,,,2.7,1.3,2.3*3E
$GPRMC,032457.000,A,3353.7536,N,09832.0216,W,0.19,167.73,040412,,,D*75
$GPGGA,032458.000,3353.7536,N,09832.0216,W,2,07,1.3,322.2,M,-23.7,M,0.8,0000*48
$GPGSA,A,3,01,11,08,28,07,19,17,,,,,,2.7,1.3,2.3*3E
$GPGSV,3,1,10,08,78,001,38,07,55,128,37,28,49,307,31,11,41,082,41*74
$GPGSV,3,2,10,17,40,221,27,01,36,108,33,26,29,299,,19,20,043,19*7A
$GPGSV,3,3,10,13,09,177,23,51,49,195,36*72
$GPRMC,032458.000,A,3353.7536,N,09832.0216,W,0.09,35.93,040412,,,D*43
$GPGGA,032459.000,3353.7536,N,09832.0217,W,2,07,1.3,322.2,M,-23.7,M,1.8,0000*49
$GPGSA,A,3,01,11,08,28,07,19,17,,,,,,2.7,1.3,2.3*3E
$GPRMC,032459.000,A,3353.7536,N,09832.0217,W,0.04,44.28,040412,,,D*48
$GPGGA,032500.000,3353.7536,N,09832.0217,W,2,07,1.3,322.3,M,-23.7,M,0.8,0000*44
$GPGSA,A,3,01,11,08,28,07,19,17,,,,,,2.7,1.3,2.3*3E
$GPRMC,032500.000,A,3353.7536,N,09832.0217,W,0.10,143.62,040412,,,D*78
$GPGGA,032501.000,3353.7536,N,09832.0217,W,2,07,1.3,322.3,M,-23.7,M,0.8,0000*45
$GPGSA,A,3,01,11,08,28,07,19,17,,,,,,2.7,1.3,2.3*3E
$GPRMC,032501.000,A,3353.7536,N,09832.0217,W,0.13,34.26,040412,,,D*4B
$GPGGA,032502.000,3353.7536,N,09832.0217,W,2,07,1.3,322.3,M,-23.7,M,0.8,0000*46
$GPGSA,A,3,01,11,08,28,07,19,17,,,,,,2.7,1.3,2.3*3E
$GPRMC,032502.000,A,3353.7536,N,09832.0217,W,0.21,48.17,040412,,,D*40
$GPGGA,032503.000,3353.7536,N,09832.0217,W,2,07,1.3,322.2,M,-23.7,M,1.8,0000*47
$GPGSA,A,3,01,11,08,28,07,19,17,,,,,,2.7,1.3,2.3*3E
$GPGSV,3,1,10,08,78,001,38,07,55,128,37,28,49,307,31,11,41,082,41*74
$GPGSV,3,2,10,17,40,221,27,01,36,108,33,26,29,299,,19,20,043,20*70
$GPGSV,3,3,10,13,09,177,23,51,49,195,36*72
$GPRMC,032503.000,A,3353.7536,N,09832.0217,W,0.23,41.49,040412,,,D*41
$GPGGA,032504.000,3353.7536,N,09832.0217,W,2,07,1.3,322.4,M,-23.7,M,2.8,0000*45
$GPGSA,A,3,01,11,08,28,07,19,17,,,,,,2.7,1.3,2.3*3E
$GPRMC,032504.000,A,3353.7536,N,09832.0217,W,0.20,133.21,040412,,,D*7F
$GPGGA,032505.000,3353.7536,N,09832.0217,W,2,07,1.3,322.4,M,-23.7,M,3.8,0000*45
$GPGSA,A,3,01,11,08,28,07,19,17,,,,,,2.7,1.3,2.3*3E
$GPRMC,032505.000,A,3353.7536,N,09832.0217,W,0.16,72.50,040412,,,D*49
$GPGGA,032506.000,3353.7536,N,09832.0217,W,2,07,1.3,322.3,M,-23.7,M,4.8,0000*46
$GPGSA,A,3,01,11,08,28,07,19,17,,,,,,2.7,1.3,2.3*3E
$GPRMC,032506.000,A,3353.7536,N,09832.0217,W,0.22,41.84,040412,,,D*44
$GPGGA,032507.000,3353.7536,N,09832.0217,W,2,07,1.3,322.2,M,-23.7,M,5.8,0000*47
$GPGSA,A,3,01,11,08,28,07,19,17,,,,,,2.7,1.3,2.3*3E
$GPRMC,032507.000,A,3353.7536,N,09832.0217,W,0.19,49.01,040412,,,D*48
$GPGGA,032508.000,3353.7536,N,09832.0217,W,2,07,1.3,322.2,M,-23.7,M,6.8,0000*4B
$GPGSA,A,3,01,11,08,28,07,19,17,,,,,,2.7,1.3,2.3*3E
$GPGSV,3,1,10,08,78,001,38,07,55,128,37,28,49,307,30,11,41,082,41*75
$GPGSV,3,2,10,17,40,221,27,01,36,108,33,26,29,299,,19,20,043,20*70
$GPGSV,3,3,10,13,09,177,23,51,49,195,36*72
$GPRMC,032508.000,A,3353.7536,N,09832.0217,W,0.13,84.96,040412,,,D*42
$GPGGA,032509.000,3353.7536,N,09832.0217,W,2,07,1.3,322.2,M,-23.7,M,7.8,0000*4B
$GPGSA,A,3,01,11,08,28,07,19,17,,,,,,2.7,1.3,2.3*3E
$GPRMC,032509.000,A,3353.7536,N,09832.0217,W,0.21,39.48,040412,,,D*47
$GPGGA,032510.000,3353.7536,N,09832.0217,W,2,07,1.3,322.1,M,-23.7,M,8.8,0000*4F
$GPGSA,A,3,01,11,08,28,07,19,17,,,,,,2.7,1.3,2.3*3E
$GPRMC,032510.000,A,3353.7536,N,09832.0217,W,0.23,33.53,040412,,,D*4D
$GPGGA,032511.000,3353.7537,N,09832.0217,W,2,07,1.3,322.1,M,-23.7,M,9.8,0000*4E
