$GPGGA,113200.000,3353.7332,N,09832.0259,W,1,07,1.9,367.2,M,-23.7,M,,0000*66
$GPGSA,A,3,02,05,12,25,29,26,15,,,,,,4.8,1.9,4.4*3E
$GPRMC,113200.000,A,3353.7332,N,09832.0259,W,0.95,207.14,020412,,,A*79
$GPGGA,113201.000,3353.7330,N,09832.0259,W,1,06,1.9,368.1,M,-23.7,M,,0000*68
$GPGSA,A,3,02,05,25,29,26,15,,,,,,,4.9,1.9,4.5*3D
$GPGSV,3,1,12,05,58,043,35,29,57,320,28,25,37,238,24,26,30,125,35*78
$GPGSV,3,2,12,02,29,071,15,12,21,194,15,15,17,168,35,21,17,280,*7C
$GPGSV,3,3,12,18,09,224,,10,03,044,,30,01,325,,48,36,230,29*79
$GPRMC,113201.000,A,3353.7330,N,09832.0259,W,0.72,191.04,020412,,,A*7E
$GPGGA,113202.000,3353.7329,N,09832.0259,W,1,07,1.9,369.2,M,-23.7,M,,0000*60
$GPGSA,A,3,02,05,12,25,29,26,15,,,,,,4.8,1.9,4.4*3E
$GPRMC,113202.000,A,3353.7329,N,09832.0259,W,0.64,173.87,020412,,,A*75
$GPGGA,113203.000,3353.7328,N,09832.0258,W,1,07,1.9,370.3,M,-23.7,M,,0000*68
$GPGSA,A,3,02,05,12,25,29,26,15,,,,,,4.8,1.9,4.4*3E
$GPRMC,113203.000,A,3353.7328,N,09832.0258,W,0.58,154.74,020412,,,A*72
$GPGGA,113204.000,3353.7326,N,09832.0256,W,1,07,1.9,371.5,M,-23.7,M,,0000*68
$GPGSA,A,3,02,05,12,25,29,26,15,,,,,,4.8,1.9,4.4*3E
$GPRMC,113204.000,A,3353.7326,N,09832.0256,W,0.60,156.54,020412,,,A*7E
$GPGGA,113205.000,3353.7325,N,09832.0255,W,1,07,1.9,372.6,M,-23.7,M,,0000*69
$GPGSA,A,3,02,05,12,25,29,26,15,,,,,,4.8,1.9,4.4*3E
$GPRMC,113205.000,A,3353.7325,N,09832.0255,W,0.61,162.96,020412,,,A*77
$GPGGA,113206.000,3353.7325,N,09832.0253,W,1,07,1.9,373.5,M,-23.7,M,,0000*6E
$GPGSA,A,3,02,05,12,25,29,26,15,,,,,,4.8,1.9,4.4*3E
$GPGSV,3,1,12,05,58,043,35,29,57,320,28,25,37,238,25,26,30,125,35*79
$GPGSV,3,2,12,02,29,071,23,12,21,194,15,15,17,168,34,21,17,280,*78
$GPGSV,3,3,12,18,09,224,,10,03,044,17,30,01,325,,48,36,230,27*71
$GPRMC,113206.000,A,3353.7325,N,09832.0253,W,0.47,138.25,020412,,,A*71
$GPGGA,113207.000,3353.7325,N,09832.0251,W,1,07,1.9,374.4,M,-23.7,M,,0000*6B
$GPGSA,A,3,02,05,12,25,29,26,15,,,,,,4.8,1.9,4.4*3E
$GPRMC,113207.000,A,3353.7325,N,09832.0251,W,0.41,148.27,020412,,,A*71
$GPGGA,113208.000,3353.7325,N,09832.0250,W,1,07,1.9,375.3,M,-23.7,M,,0000*63
$GPGSA,A,3,02,05,12,25,29,26,15,,,,,,4.8,1.9,4.4*3E
$GPRMC,113208.000,A,3353.7325,N,09832.0250,W,0.39,164.66,020412,,,A*7B
$GPGGA,113209.000,3353.7323,N,09832.0250,W,1,07,1.9,376.5,M,-23.7,M,,0000*61
$GPGSA,A,3,02,05,12,25,29,26,15,,,,,,4.8,1.9,4.4*3E
$GPRMC,113209.000,A,3353.7323,N,09832.0250,W,0.46,175.27,020412,,,A*71
$GPGGA,113210.000,3353.7322,N,09832.0250,W,1,07,1.9,377.8,M,-23.7,M,,0000*64
$GPGSA,A,3,02,05,12,25,29,26,15,,,,,,4.8,1.9,4.4*3E
$GPRMC,113210.000,A,3353.7322,N,09832.0250,W,0.49,162.01,020412,,,A*75
$GPGGA,113211.000,3353.7320,N,09832.0250,W,1,07,1.9,379.0,M,-23.7,M,,0000*61
$GPGSA,A,3,02,05,12,25,29,26,15,,,,,,4.8,1.9,4.4*3E
$GPGSV,3,1,12,05,58,043,35,29,57,320,28,25,37,238,25,26,30,125,35*79
$GPGSV,3,2,12,02,29,071,23,12,21,194,16,15,17,168,34,21,17,280,*7B
$GPGSV,3,3,12,18,09,224,,10,03,044,17,30,01,325,,48,36,230,29*7F
$GPRMC,113211.000,A,3353.7320,N,09832.0250,W,0.67,182.30,020412,,,A*76
$GPGGA,113212.000,3353.7319,N,09832.0250,W,1,07,1.9,380.0,M,-23.7,M,,0000*6E
$GPGSA,A,3,02,05,12,25,29,26,15,,,,,,4.8,1.9,4.4*3E
$GPRMC,113212.000,A,3353.7319,N,09832.0250,W,0.62,182.86,020412,,,A*77
$GPGGA,113213.000,3353.7317,N,09832.0250,W,1,07,1.9,380.8,M,-23.7,M,,0000*69
$GPGSA,A,3,02,05,12,25,29,26,15,,,,,,4.8,1.9,4.4*3E
$GPRMC,113213.000,A,3353.7317,N,09832.0250,W,0.56,172.75,020412,,,A*7C
$GPGGA,113214.000,3353.7317,N,09832.0249,W,1,07,1.9,381.4,M,-23.7,M,,0000*6B
$GPGSA,A,3,02,05,12,25,29,26,15,,,,,,4.8,1.9,4.4*3E
$GPRMC,113214.000,A,3353.7317,N,09832.0249,W,0.40,141.09,020412,,,A*7F
$GPGGA,113215.000,3353.7317,N,09832.0248,W,1,07,1.9,381.7,M,-23.7,M,,0000*68
$GPGSA,A,3,02,05,12,25,29,26,15,,,,,,4.8,1.9,4.4*3E
$GPRMC,113215.000,A,3353.7317,N,09832.0248,W,0.24,135.94,020412,,,A*7A
$GPGGA,113216.000,3353.7319,N,09832.0247,W,1,07,1.9,381.6,M,-23.7,M,,0000*6B
$GPGSA,A,3,02,05,12,25,29,26,15,,,,,,4.8,1.9,4.4*3E
$GPGSV,3,1,12,05,58,043,35,29,57,320,28,25,37,238,25,26,30,125,35*79
$GPGSV,3,2,12,02,29,071,23,12,21,194,21,15,17,168,33,21,17,280,*78
$GPGSV,3,3,12,18,09,224,,10,03,044,16,30,01,325,,48,36,230,28*7F
$GPRMC,113216.000,A,3353.7319,N,09832.0247,W,0.20,125.38,020412,,,A*7B
$GPGGA,113217.000,3353.7321,N,09832.0246,W,1,07,1.9,381.2,M,-23.7,M,,0000*64
$GPGSA,A,3,02,05,12,25,29,26,15,,,,,,4.8,1.9,4.4*3E
$GPRMC,113217.000,A,3353.7321,N,09832.0246,W,0.30,64.03,020412,,,A*4D
$GPGGA,113218.000,3353.7324,N,09832.0244,W,1,07,1.9,380.3,M,-23.7,M,,0000*6C
$GPGSA,A,3,02,05,12,25,29,26,15,,,,,,4.8,1.9,4.4*3E
$GPRMC,113218.000,A,3353.7324,N,09832.0244,W,0.27,43.06,020412,,,A*43
$GPGGA,113219.000,3353.7327,N,09832.0243,W,1,07,1.9,379.4,M,-23.7,M,,0000*68
$GPGSA,A,3,02,05,12,25,29,26,15,,,,,,4.8,1.9,4.4*3E
$GPRMC,113219.000,A,3353.7327,N,09832.0243,W,0.34,28.31,020412,,,A*4D
$GPGGA,113220.000,3353.7330,N,09832.0242,W,1,07,1.9,378.3,M,-23.7,M,,0000*63
$GPGSA,A,3,02,05,12,25,29,26,15,,,,,,4.8,1.9,4.4*3E
$GPRMC,113220.000,A,3353.7330,N,09832.0242,W,0.39,9.19,020412,,,A*74
$GPGGA,113221.000,3353.7334,N,09832.0241,W,1,07,1.9,377.1,M,-23.7,M,,0000*68
$GPGSA,A,3,02,05,12,25,29,26,15,,,,,,4.8,1.9,4.4*3E
$GPGSV,3,1,11,05,58,043,36,29,57,320,27,25,37,238,25,26,30,125,35*76
$GPGSV,3,2,11,02,29,071,22,12,21,194,22,15,17,168,33,21,17,280,*79
$GPGSV,3,3,11,18,09,224,,10,03,044,15,30,01,325,*4D
$GPRMC,113221.000,A,3353.7334,N,09832.0241,W,0.44,3.33,020412,,,A*7A
$GPGGA,113222.000,3353.7338,N,09832.0241,W,1,07,1.9,375.5,M,-23.7,M,,0000*61
$GPGSA,A,3,02,05,12,25,29,26,15,,,,,,4.8,1.9,4.4*3E
$GPRMC,113222.000,A,3353.7338,N,09832.0241,W,0.51,347.18,020412,,,A*7B
$GPGGA,113223.000,3353.7342,N,09832.0240,W,1,07,1.9,373.9,M,-23.7,M,,0000*66
$GPGSA,A,3,02,05,12,25,29,26,15,,,,,,4.8,1.9,4.4*3E
$GPRMC,113223.000,A,3353.7342,N,09832.0240,W,0.61,342.08,020412,,,A*71
$GPGGA,113224.000,3353.7347,N,09832.0240,W,1,07,1.9,372.0,M,-23.7,M,,0000*6C
$GPGSA,A,3,02,05,12,25,29,26,15,,,,,,4.8,1.9,4.4*3E
$GPRMC,113224.000,A,3353.7347,N,09832.0240,W,0.78,352.43,020412,,,A*75
$GPGGA,113225.000,3353.7352,N,09832.0239,W,1,07,1.9,370.1,M,-23.7,M,,0000*64
$GPGSA,A,3,02,05,12,25,29,26,15,,,,,,4.8,1.9,4.4*3E
$GPRMC,113225.000,A,3353.7352,N,09832.0239,W,0.84,0.29,020412,,,A*75
$GPGGA,113226.000,3353.7358,N,09832.0238,W,1,07,1.9,367.6,M,-23.7,M,,0000*6D
$GPGSA,A,3,02,05,12,25,29,26,15,,,,,,4.8,1.9,4.4*3E
$GPGSV,3,1,11,05,58,043,36,29,57,320,27,25,37,238,26,26,30,125,35*75
$GPGSV,3,2,11,02,29,071,21,12,21,194,22,15,17,168,32,21,17,280,*7B
$GPGSV,3,3,11,18,09,224,,10,03,044,14,30,01,325,*4C
$GPRMC,113226.000,A,3353.7358,N,09832.0238,W,1.03,357.55,020412,,,A*79
$GPGGA,113227.000,3353.7364,N,09832.0238,W,1,07,1.9,365.1,M,-23.7,M,,0000*66
$GPGSA,A,3,02,05,12,25,29,26,15,,,,,,4.8,1.9,4.4*3E
$GPRMC,113227.000,A,3353.7364,N,09832.0238,W,0.97,347.91,020412,,,A*72
$GPGGA,113228.000,3353.7371,N,09832.0238,W,1,07,1.9,362.4,M,-23.7,M,,0000*6F
$GPGSA,A,3,02,05,12,25,29,26,15,,,,,,4.8,1.9,4.4*3E
$GPRMC,113228.000,A,3353.7371,N,09832.0238,W,0.99,341.24,020412,,,A*7F
$GPGGA,113229.000,3353.7377,N,09832.0238,W,1,07,1.9,359.7,M,-23.7,M,,0000*63
$GPGSA,A,3,02,05,12,25,29,26,15,,,,,,4.8,1.9,4.4*3E
$GPRMC,113229.000,A,3353.7377,N,09832.0238,W,1.15,351.63,020412,,,A*7F
$GPGGA,113230.000,3353.7385,N,09832.0237,W,1,07,1.9,356.4,M,-23.7,M,,0000*65
$GPGSA,A,3,02,05,12,25,29,26,15,,,,,,4.8,1.9,4.4*3E
$GPRMC,113230.000,A,3353.7385,N,09832.0237,W,1.31,357.53,020412,,,A*76
$GPGGA,113231.000,3353.7392,N,09832.0236,W,1,07,1.9,353.2,M,-23.7,M,,0000*60
$GPGSA,A,3,02,05,12,25,29,26,15,,,,,,4.8,1.9,4.4*3E
$GPGSV,3,1,11,05,58,043,36,29,57,320,27,25,37,238,26,26,30,125,35*75
$GPGSV,3,2,11,02,29,071,21,12,21,194,22,15,17,168,32,21,17,280,*7B
$GPGSV,3,3,11,18,09,224,23,10,03,044,14,30,01,325,*4D
$GPRMC,113231.000,A,3353.7392,N,09832.0236,W,1.44,355.30,020412,,,A*75
$GPGGA,113232.000,3353.7400,N,09832.0236,W,1,07,1.9,350.2,M,-23.7,M,,0000*6C
$GPGSA,A,3,02,05,12,25,29,26,15,,,,,,4.8,1.9,4.4*3E
$GPRMC,113232.000,A,3353.7400,N,09832.0236,W,1.41,353.54,020412,,,A*7B
$GPGGA,113233.000,3353.7406,N,09832.0236,W,1,07,1.9,347.4,M,-23.7,M,,0000*6B
$GPGSA,A,3,02,05,12,25,29,26,15,,,,,,4.8,1.9,4.4*3E
$GPRMC,113233.000,A,3353.7406,N,09832.0236,W,1.31,351.28,020412,,,A*72
$GPGGA,113234.000,3353.7412,N,09832.0236,W,1,07,1.9,345.0,M,-23.7,M,,0000*6F
$GPGSA,A,3,02,05,12,25,29,26,15,,,,,,4.8,1.9,4.4*3E
$GPRMC,113234.000,A,3353.7412,N,09832.0236,W,1.24,347.98,020412,,,A*78
$GPGGA,113235.000,3353.7417,N,09832.0236,W,1,07,1.9,342.9,M,-23.7,M,,0000*65
$GPGSA,A,3,02,05,12,25,29,26,15,,,,,,4.8,1.9,4.4*3E
$GPRMC,113235.000,A,3353.7417,N,09832.0236,W,1.20,348.00,020412,,,A*76
$GPGGA,113236.000,3353.7421,N,09832.0237,W,1,07,1.9,340.8,M,-23.7,M,,0000*61
$GPGSA,A,3,02,05,12,25,29,26,15,,,,,,4.8,1.9,4.4*3E
$GPGSV,3,1,11,05,58,043,37,29,57,320,27,25,37,238,25,26,30,125,34*76
$GPGSV,3,2,11,02,29,071,22,12,21,194,21,15,17,168,32,21,17,280,*7B
$GPGSV,3,3,11,18,09,224,23,10,03,044,15,30,01,325,*4C
$GPRMC,113236.000,A,3353.7421,N,09832.0237,W,1.07,354.57,020412,,,A*7B
$GPGGA,113237.000,3353.7425,N,09832.0238,W,1,07,1.9,339.0,M,-23.7,M,,0000*6D
$GPGSA,A,3,02,05,12,25,29,26,15,,,,,,4.8,1.9,4.4*3E
$GPRMC,113237.000,A,3353.7425,N,09832.0238,W,0.99,332.13,020412,,,A*77
$GPGGA,113238.000,3353.7428,N,09832.0241,W,1,07,1.9,337.4,M,-23.7,M,,0000*6B
$GPGSA,A,3,02,05,12,25,29,26,15,,,,,,4.8,1.9,4.4*3E
$GPRMC,113238.000,A,3353.7428,N,09832.0241,W,1.07,318.46,020412,,,A*75
$GPGGA,113239.000,3353.7431,N,09832.0242,W,1,07,1.9,335.9,M,-23.7,M,,0000*6E
$GPGSA,A,3,02,05,12,25,29,26,15,,,,,,4.8,1.9,4.4*3E
$GPRMC,113239.000,A,3353.7431,N,09832.0242,W,0.99,336.07,020412,,,A*70
$GPGGA,113240.000,3353.7435,N,09832.0244,W,1,07,1.9,334.3,M,-23.7,M,,0000*69
$GPGSA,A,3,02,05,12,25,29,26,15,,,,,,4.8,1.9,4.4*3E
$GPRMC,113240.000,A,3353.7435,N,09832.0244,W,1.12,346.81,020412,,,A*77
$GPGGA,113241.000,3353.7438,N,09832.0245,W,1,07,1.9,332.6,M,-23.7,M,,0000*67
$GPGSA,A,3,02,05,12,25,29,26,15,,,,,,4.8,1.9,4.4*3E
$GPGSV,3,1,11,05,58,043,37,29,57,320,27,25,37,238,21,26,30,125,34*72
$GPGSV,3,2,11,02,29,071,23,12,21,194,20,15,17,168,32,21,17,280,*7B
$GPGSV,3,3,11,18,09,224,22,10,03,044,16,30,01,325,*4E
$GPRMC,113241.000,A,3353.7438,N,09832.0245,W,0.96,352.70,020412,,,A*7C
$GPGGA,113242.000,3353.7441,N,09832.0246,W,1,07,1.9,330.8,M,-23.7,M,,0000*65
$GPGSA,A,3,02,05,12,25,29,26,15,,,,,,4.8,1.9,4.4*3E
$GPRMC,113242.000,A,3353.7441,N,09832.0246,W,0.85,348.42,020412,,,A*7A
$GPGGA,113243.000,3353.7445,N,09832.0246,W,1,07,1.9,329.0,M,-23.7,M,,0000*60
$GPGSA,A,3,02,05,12,25,29,26,15,,,,,,4.8,1.9,4.4*3E
$GPRMC,113243.000,A,3353.7445,N,09832.0246,W,0.95,357.82,020412,,,A*7C
$GPGGA,113244.000,3353.7448,N,09832.0248,W,1,07,1.9,326.9,M,-23.7,M,,0000*62
$GPGSA,A,3,02,05,12,25,29,26,15,,,,,,4.8,1.9,4.4*3E
$GPRMC,113244.000,A,3353.7448,N,09832.0248,W,0.99,346.40,020412,,,A*7A
$GPGGA,113245.000,3353.7451,N,09832.0250,W,1,07,1.9,325.0,M,-23.7,M,,0000*68
$GPGSA,A,3,02,05,12,25,29,26,15,,,,,,4.8,1.9,4.4*3E
$GPRMC,113245.000,A,3353.7451,N,09832.0250,W,1.05,331.51,020412,,,A*7E
$GPGGA,113246.000,3353.7454,N,09832.0251,W,1,07,1.9,323.4,M,-23.7,M,,0000*6D
$GPGSA,A,3,02,05,12,25,29,26,15,,,,,,4.8,1.9,4.4*3E
$GPGSV,3,1,11,05,58,043,37,29,57,320,27,25,37,238,22,26,30,125,34*71
$GPGSV,3,2,11,02,29,071,24,12,21,194,19,15,17,168,32,21,17,280,*76
$GPGSV,3,3,11,18,09,224,22,10,03,044,15,30,01,325,*4D
$GPRMC,113246.000,A,3353.7454,N,09832.0251,W,1.00,351.66,020412,,,A*7E
$GPGGA,113247.000,3353.7457,N,09832.0252,W,1,07,1.9,321.9,M,-23.7,M,,0000*63
$GPGSA,A,3,02,05,12,25,29,26,15,,,,,,4.8,1.9,4.4*3E
$GPRMC,113247.000,A,3353.7457,N,09832.0252,W,0.99,2.71,020412,,,A*7D
$GPGGA,113248.000,3353.7459,N,09832.0253,W,1,07,1.9,320.5,M,-23.7,M,,0000*6E
$GPGSA,A,3,02,05,12,25,29,26,15,,,,,,4.8,1.9,4.4*3E
$GPRMC,113248.000,A,3353.7459,N,09832.0253,W,0.85,344.87,020412,,,A*78
$GPGGA,113249.000,3353.7461,N,09832.0255,W,1,06,1.9,319.3,M,-23.7,M,,0000*6F
$GPGSA,A,3,02,05,25,29,26,15,,,,,,,4.9,1.9,4.5*3D
$GPRMC,113249.000,A,3353.7461,N,09832.0255,W,0.81,333.25,020412,,,A*78
$GPGGA,113250.000,3353.7462,N,09832.0256,W,1,06,1.9,318.2,M,-23.7,M,,0000*67
$GPGSA,A,3,02,05,25,29,26,15,,,,,,,4.9,1.9,4.5*3D
$GPRMC,113250.000,A,3353.7462,N,09832.0256,W,0.74,345.42,020412,,,A*7A
$GPGGA,113251.000,3353.7463,N,09832.0257,W,1,07,1.9,317.2,M,-23.7,M,,0000*68
$GPGSA,A,3,02,05,12,25,29,26,15,,,,,,4.8,1.9,4.4*3E
$GPGSV,3,1,11,05,58,043,37,29,57,320,28,25,37,238,24,26,30,125,34*78
$GPGSV,3,2,11,02,29,071,25,12,21,194,12,15,17,168,32,21,17,280,*7C
$GPGSV,3,3,11,18,09,224,22,10,03,044,16,30,01,325,*4E
$GPRMC,113251.000,A,3353.7463,N,09832.0257,W,0.65,334.22,020412,,,A*7B
$GPGGA,113252.000,3353.7464,N,09832.0258,W,1,07,1.9,316.3,M,-23.7,M,,0000*63
$GPGSA,A,3,02,05,12,25,29,26,15,,,,,,4.8,1.9,4.4*3E
$GPRMC,113252.000,A,3353.7464,N,09832.0258,W,0.63,337.50,020412,,,A*70
$GPGGA,113253.000,3353.7465,N,09832.0259,W,1,07,1.9,315.5,M,-23.7,M,,0000*67
$GPGSA,A,3,02,05,12,25,29,26,15,,,,,,4.8,1.9,4.4*3E
$GPRMC,113253.000,A,3353.7465,N,09832.0259,W,0.59,324.02,020412,,,A*7D
$GPGGA,113254.000,3353.7465,N,09832.0260,W,1,07,1.9,314.8,M,-23.7,M,,0000*66
$GPGSA,A,3,02,05,12,25,29,26,15,,,,,,4.8,1.9,4.4*3E
$GPRMC,113254.000,A,3353.7465,N,09832.0260,W,0.53,344.36,020412,,,A*7B
$GPGGA,113255.000,3353.7465,N,09832.0262,W,1,07,1.9,314.2,M,-23.7,M,,0000*6F
$GPGSA,A,3,02,05,12,25,29,26,15,,,,,,4.8,1.9,4.4*3E
$GPRMC,113255.000,A,3353.7465,N,09832.0262,W,0.58,307.16,020412,,,A*76
$GPGGA,113256.000,3353.7465,N,09832.0263,W,1,07,1.9,313.6,M,-23.7,M,,0000*6E
$GPGSA,A,3,02,05,12,25,29,26,15,,,,,,4.8,1.9,4.4*3E
$GPGSV,3,1,11,05,58,043,37,29,57,320,28,25,37,238,24,26,30,125,34*78
$GPGSV,3,2,11,02,29,071,26,12,21,194,22,15,17,168,32,21,17,280,*7C
$GPGSV,3,3,11,18,09,224,21,10,03,044,16,30,01,325,*4D
$GPRMC,113256.000,A,3353.7465,N,09832.0263,W,0.53,327.83,020412,,,A*71
$GPGGA,113257.000,3353.7465,N,09832.0264,W,1,07,1.9,313.2,M,-23.7,M,,0000*6C
$GPGSA,A,3,02,05,12,25,29,26,15,,,,,,4.8,1.9,4.4*3E
$GPRMC,113257.000,A,3353.7465,N,09832.0264,W,0.41,337.68,020412,,,A*70
$GPGGA,113258.000,3353.7464,N,09832.0264,W,1,07,1.9,312.8,M,-23.7,M,,0000*69
$GPGSA,A,3,02,05,12,25,29,26,15,,,,,,4.8,1.9,4.4*3E
$GPRMC,113258.000,A,3353.7464,N,09832.0264,W,0.39,339.13,020412,,,A*73
$GPGGA,113259.000,3353.7464,N,09832.0264,W,1,07,1.9,312.5,M,-23.7,M,,0000*65
$GPGSA,A,3,02,05,12,25,29,26,15,,,,,,4.8,1.9,4.4*3E
$GPRMC,113259.000,A,3353.7464,N,09832.0264,W,0.47,357.38,020412,,,A*7A
$GPGGA,113300.000,3353.7464,N,09832.0265,W,1,07,1.9,312.2,M,-23.7,M,,0000*6E
$GPGSA,A,3,02,05,12,25,29,26,15,,,,,,4.8,1.9,4.4*3E
$GPRMC,113300.000,A,3353.7464,N,09832.0265,W,0.45,341.30,020412,,,A*7B
$GPGGA,113301.000,3353.7463,N,09832.0266,W,1,07,1.9,312.1,M,-23.7,M,,0000*68
$GPGSA,A,3,02,05,12,25,29,26,15,,,,,,4.8,1.9,4.4*3E
$GPGSV,3,1,11,05,58,043,37,29,57,320,29,25,37,238,24,26,30,125,34*79
$GPGSV,3,2,11,02,29,071,27,12,21,194,24,15,17,168,33,21,17,280,*7A
$GPGSV,3,3,11,18,09,224,,10,03,044,16,30,01,325,*4E
$GPRMC,113301.000,A,3353.7463,N,09832.0266,W,0.34,315.40,020412,,,A*7E
$GPGGA,113302.000,3353.7463,N,09832.0266,W,1,07,1.9,311.9,M,-23.7,M,,0000*60
$GPGSA,A,3,02,05,12,25,29,26,15,,,,,,4.8,1.9,4.4*3E
$GPRMC,113302.000,A,3353.7463,N,09832.0266,W,0.39,320.31,020412,,,A*70
$GPGGA,113303.000,3353.7462,N,09832.0267,W,1,07,1.9,311.9,M,-23.7,M,,0000*61
$GPGSA,A,3,02,05,12,25,29,26,15,,,,,,4.8,1.9,4.4*3E
$GPRMC,113303.000,A,3353.7462,N,09832.0267,W,0.38,297.43,020412,,,A*78
$GPGGA,113304.000,3353.7460,N,09832.0268,W,1,07,1.9,312.1,M,-23.7,M,,0000*60
$GPGSA,A,3,02,05,12,25,29,26,15,,,,,,4.8,1.9,4.4*3E
$GPRMC,113304.000,A,3353.7460,N,09832.0268,W,0.27,296.74,020412,,,A*79
$GPGGA,113305.000,3353.7459,N,09832.0268,W,1,07,1.9,312.6,M,-23.7,M,,0000*6C
$GPGSA,A,3,02,05,12,25,29,26,15,,,,,,4.8,1.9,4.4*3E
$GPRMC,113305.000,A,3353.7459,N,09832.0268,W,0.18,343.13,020412,,,A*76
$GPGGA,113306.000,3353.7457,N,09832.0268,W,1,07,1.9,313.2,M,-23.7,M,,0000*64
$GPGSA,A,3,02,05,12,25,29,26,15,,,,,,4.8,1.9,4.4*3E
$GPGSV,3,1,11,05,58,043,37,29,57,320,30,25,37,238,19,26,30,125,33*78
$GPGSV,3,2,11,02,29,071,29,12,21,194,24,15,17,168,34,21,17,280,*73
$GPGSV,3,3,11,18,09,224,,10,03,044,17,30,01,325,*4F
$GPRMC,113306.000,A,3353.7457,N,09832.0268,W,0.15,333.08,020412,,,A*7B
$GPGGA,113307.000,3353.7455,N,09832.0268,W,1,07,1.9,313.8,M,-23.7,M,,0000*6D
$GPGSA,A,3,02,05,12,25,29,26,15,,,,,,4.8,1.9,4.4*3E
$GPRMC,113307.000,A,3353.7455,N,09832.0268,W,0.14,299.14,020412,,,A*75
$GPGGA,113308.000,3353.7453,N,09832.0268,W,1,07,1.9,314.5,M,-23.7,M,,0000*6E
$GPGSA,A,3,02,05,12,25,29,26,15,,,,,,4.8,1.9,4.4*3E
$GPRMC,113308.000,A,3353.7453,N,09832.0268,W,0.06,109.29,020412,,,A*7B
$GPGGA,113309.000,3353.7451,N,09832.0267,W,1,07,1.9,315.2,M,-23.7,M,,0000*64
$GPGSA,A,3,02,05,12,25,29,26,15,,,,,,4.8,1.9,4.4*3E
$GPRMC,113309.000,A,3353.7451,N,09832.0267,W,0.11,55.09,020412,,,A*4B
$GPGGA,113310.000,3353.7449,N,09832.0266,W,1,07,1.9,315.9,M,-23.7,M,,0000*6F
$GPGSA,A,3,02,05,12,25,29,26,15,,,,,,4.8,1.9,4.4*3E
$GPRMC,113310.000,A,3353.7449,N,09832.0266,W,0.15,58.04,020412,,,A*4F
$GPGGA,113311.000,3353.7447,N,09832.0266,W,1,07,1.9,316.7,M,-23.7,M,,0000*6D
$GPGSA,A,3,02,05,12,25,29,26,15,,,,,,4.8,1.9,4.4*3E
$GPGSV,3,1,11,05,58,043,37,29,57,320,29,25,37,238,22,26,30,125,33*78
$GPGSV,3,2,11,02,29,071,29,12,21,194,23,15,17,168,34,21,17,280,*74
$GPGSV,3,3,11,18,09,224,,10,03,044,18,30,01,325,*40
$GPRMC,113311.000,A,3353.7447,N,09832.0266,W,0.13,59.62,020412,,,A*47
$GPGGA,113312.000,3353.7445,N,09832.0264,W,1,07,1.9,317.6,M,-23.7,M,,0000*6E
$GPGSA,A,3,02,05,12,25,29,26,15,,,,,,4.8,1.9,4.4*3E
$GPRMC,113312.000,A,3353.7445,N,09832.0264,W,0.21,107.49,020412,,,A*76
$GPGGA,113313.000,3353.7442,N,09832.0264,W,1,07,1.9,318.4,M,-23.7,M,,0000*65
$GPGSA,A,3,02,05,12,25,29,26,15,,,,,,4.8,1.9,4.4*3E
$GPRMC,113313.000,A,3353.7442,N,09832.0264,W,0.23,197.87,020412,,,A*79
$GPGGA,113314.000,3353.7440,N,09832.0264,W,1,07,1.9,319.3,M,-23.7,M,,0000*66
$GPGSA,A,3,02,05,12,25,29,26,15,,,,,,4.8,1.9,4.4*3E
$GPRMC,113314.000,A,3353.7440,N,09832.0264,W,0.24,191.88,020412,,,A*72
$GPGGA,113315.000,3353.7437,N,09832.0264,W,1,07,1.9,320.2,M,-23.7,M,,0000*6C
$GPGSA,A,3,02,05,12,25,29,26,15,,,,,,4.8,1.9,4.4*3E
$GPRMC,113315.000,A,3353.7437,N,09832.0264,W,0.27,185.84,020412,,,A*79
$GPGGA,113316.000,3353.7435,N,09832.0263,W,1,07,1.9,321.0,M,-23.7,M,,0000*69
$GPGSA,A,3,02,05,12,25,29,26,15,,,,,,4.8,1.9,4.4*3E
$GPGSV,3,1,11,05,58,043,37,29,57,320,29,25,37,238,25,26,30,125,32*7E
$GPGSV,3,2,11,02,29,071,29,12,21,194,17,15,17,168,35,21,17,280,*72
$GPGSV,3,3,11,18,09,224,,10,03,044,18,30,01,325,*40
$GPRMC,113316.000,A,3353.7435,N,09832.0263,W,0.23,175.26,020412,,,A*7C
$GPGGA,113317.000,3353.7432,N,09832.0263,W,1,07,1.9,321.8,M,-23.7,M,,0000*67
$GPGSA,A,3,02,05,12,25,29,26,15,,,,,,4.8,1.9,4.4*3E
$GPRMC,113317.000,A,3353.7432,N,09832.0263,W,0.17,184.27,020412,,,A*72
$GPGGA,113318.000,3353.7431,N,09832.0262,W,1,07,1.9,322.6,M,-23.7,M,,0000*67
$GPGSA,A,3,02,05,12,25,29,26,15,,,,,,4.8,1.9,4.4*3E
$GPRMC,113318.000,A,3353.7431,N,09832.0262,W,0.05,166.91,020412,,,A*7D
$GPGGA,113319.000,3353.7429,N,09832.0262,W,1,07,1.9,323.3,M,-23.7,M,,0000*6B
$GPGSA,A,3,02,05,12,25,29,26,15,,,,,,4.8,1.9,4.4*3E
$GPRMC,113319.000,A,3353.7429,N,09832.0262,W,0.04,245.86,020412,,,A*70
$GPGGA,113320.000,3353.7427,N,09832.0261,W,1,07,1.9,324.0,M,-23.7,M,,0000*68
$GPGSA,A,3,02,05,12,25,29,26,15,,,,,,4.8,1.9,4.4*3E
$GPRMC,113320.000,A,3353.7427,N,09832.0261,W,0.07,227.67,020412,,,A*7F
$GPGGA,113321.000,3353.7426,N,09832.0261,W,1,07,1.9,324.7,M,-23.7,M,,0000*6F
$GPGSA,A,3,02,05,12,25,29,26,15,,,,,,4.8,1.9,4.4*3E
$GPGSV,3,1,11,05,58,043,37,29,57,320,29,25,37,238,24,26,30,125,32*7F
$GPGSV,3,2,11,02,29,071,29,12,21,194,16,15,17,168,35,21,17,280,*73
$GPGSV,3,3,11,18,09,224,20,10,03,044,19,30,01,325,*43
$GPRMC,113321.000,A,3353.7426,N,09832.0261,W,0.09,102.38,020412,,,A*7F
$GPGGA,113322.000,3353.7425,N,09832.0259,W,1,07,1.9,325.3,M,-23.7,M,,0000*61
$GPGSA,A,3,02,05,12,25,29,26,15,,,,,,4.8,1.9,4.4*3E
$GPRMC,113322.000,A,3353.7425,N,09832.0259,W,0.21,86.92,020412,,,A*43
$GPGGA,113323.000,3353.7423,N,09832.0258,W,1,07,1.9,325.9,M,-23.7,M,,0000*6D
$GPGSA,A,3,02,05,12,25,29,26,15,,,,,,4.8,1.9,4.4*3E
$GPRMC,113323.000,A,3353.7423,N,09832.0258,W,0.27,88.51,020412,,,A*42
$GPGGA,113324.000,3353.7422,N,09832.0257,W,1,07,1.9,326.4,M,-23.7,M,,0000*6A
$GPGSA,A,3,02,05,12,25,29,26,15,,,,,,4.8,1.9,4.4*3E
$GPRMC,113324.000,A,3353.7422,N,09832.0257,W,0.18,70.91,020412,,,A*4C
$GPGGA,113325.000,3353.7421,N,09832.0256,W,1,07,1.9,326.9,M,-23.7,M,,0000*64
$GPGSA,A,3,02,05,12,25,29,26,15,,,,,,4.8,1.9,4.4*3E
$GPRMC,113325.000,A,3353.7421,N,09832.0256,W,0.09,80.31,020412,,,A*4A
$GPGGA,113326.000,3353.7420,N,09832.0255,W,1,07,1.9,327.3,M,-23.7,M,,0000*6E
$GPGSA,A,3,02,05,12,25,29,26,15,,,,,,4.8,1.9,4.4*3E
$GPGSV,3,1,11,05,58,043,36,29,57,320,29,25,37,238,24,26,30,125,32*7E
$GPGSV,3,2,11,02,29,071,29,12,21,194,16,15,17,168,35,21,17,280,*73
$GPGSV,3,3,11,18,09,224,20,10,03,044,20,30,01,325,*49
$GPRMC,113326.000,A,3353.7420,N,09832.0255,W,0.21,106.98,020412,,,A*7D
$GPGGA,113327.000,3353.7419,N,09832.0255,W,1,07,1.9,327.7,M,-23.7,M,,0000*61
$GPGSA,A,3,02,05,12,25,29,26,15,,,,,,4.8,1.9,4.4*3E
$GPRMC,113327.000,A,3353.7419,N,09832.0255,W,0.11,162.74,020412,,,A*75
$GPGGA,113328.000,3353.7418,N,09832.0254,W,1,07,1.9,328.1,M,-23.7,M,,0000*67
$GPGSA,A,3,02,05,12,25,29,26,15,,,,,,4.8,1.9,4.4*3E
$GPRMC,113328.000,A,3353.7418,N,09832.0254,W,0.18,105.98,020412,,,A*70
$GPGGA,113329.000,3353.7418,N,09832.0253,W,1,07,1.9,328.5,M,-23.7,M,,0000*65
$GPGSA,A,3,02,05,12,25,29,26,15,,,,,,4.8,1.9,4.4*3E
$GPRMC,113329.000,A,3353.7418,N,09832.0253,W,0.13,82.05,020412,,,A*47
$GPGGA,113330.000,3353.7417,N,09832.0252,W,1,07,1.9,328.8,M,-23.7,M,,0000*6E
$GPGSA,A,3,02,05,12,25,29,26,15,,,,,,4.8,1.9,4.4*3E
$GPRMC,113330.000,A,3353.7417,N,09832.0252,W,0.05,195.95,020412,,,A*78
$GPGGA,113331.000,3353.7416,N,09832.0252,W,1,07,1.9,329.1,M,-23.7,M,,0000*66
$GPGSA,A,3,02,05,12,25,29,26,15,,,,,,4.8,1.9,4.4*3E
$GPGSV,3,1,11,05,58,043,37,29,57,320,29,25,37,238,25,26,30,125,31*7D
$GPGSV,3,2,11,02,29,071,29,12,21,194,21,15,17,168,35,21,17,280,*77
$GPGSV,3,3,11,18,09,224,19,10,03,044,20,30,01,325,*43
$GPRMC,113331.000,A,3353.7416,N,09832.0252,W,0.07,112.88,020412,,,A*79
$GPGGA,113332.000,3353.7415,N,09832.0251,W,1,07,1.9,329.4,M,-23.7,M,,0000*60
$GPGSA,A,3,02,05,12,25,29,26,15,,,,,,4.8,1.9,4.4*3E
$GPRMC,113332.000,A,3353.7415,N,09832.0251,W,0.06,103.88,020412,,,A*7B
$GPGGA,113333.000,3353.7415,N,09832.0251,W,1,07,1.9,329.6,M,-23.7,M,,0000*63
$GPGSA,A,3,02,05,12,25,29,26,15,,,,,,4.8,1.9,4.4*3E
$GPRMC,113333.000,A,3353.7415,N,09832.0251,W,0.13,188.25,020412,,,A*7A
$GPGGA,113334.000,3353.7414,N,09832.0250,W,1,07,1.9,329.9,M,-23.7,M,,0000*6B
$GPGSA,A,3,02,05,12,25,29,26,15,,,,,,4.8,1.9,4.4*3E
$GPRMC,113334.000,A,3353.7414,N,09832.0250,W,0.12,190.44,020412,,,A*72
$GPGGA,113335.000,3353.7413,N,09832.0250,W,1,07,1.9,330.1,M,-23.7,M,,0000*6D
$GPGSA,A,3,02,05,12,25,29,26,15,,,,,,4.8,1.9,4.4*3E
$GPRMC,113335.000,A,3353.7413,N,09832.0250,W,0.12,194.98,020412,,,A*71
$GPGGA,113336.000,3353.7412,N,09832.0250,W,1,07,1.9,330.3,M,-23.7,M,,0000*6D
$GPGSA,A,3,02,05,12,25,29,26,15,,,,,,4.8,1.9,4.4*3E
$GPGSV,3,1,11,05,58,043,37,29,57,320,28,25,37,238,26,26,30,125,30*7E
$GPGSV,3,2,11,02,29,071,29,12,21,194,21,15,17,168,35,21,17,280,*77
$GPGSV,3,3,11,18,09,224,,10,03,044,20,30,01,325,*4B
$GPRMC,113336.000,A,3353.7412,N,09832.0250,W,0.17,206.55,020412,,,A*7F
$GPGGA,113337.000,3353.7412,N,09832.0250,W,1,07,1.9,330.3,M,-23.7,M,,0000*6C
$GPGSA,A,3,02,05,12,25,29,26,15,,,,,,4.8,1.9,4.4*3E
$GPRMC,113337.000,A,3353.7412,N,09832.0250,W,0.08,218.34,020412,,,A*78
$GPGGA,113338.000,3353.7411,N,09832.0250,W,1,07,1.9,330.4,M,-23.7,M,,0000*67
$GPGSA,A,3,02,05,12,25,29,26,15,,,,,,4.8,1.9,4.4*3E
$GPRMC,113338.000,A,3353.7411,N,09832.0250,W,0.05,47.70,020412,,,A*41
$GPGGA,113339.000,3353.7411,N,09832.0249,W,1,07,1.9,330.4,M,-23.7,M,,0000*6E
$GPGSA,A,3,02,05,12,25,29,26,15,,,,,,4.8,1.9,4.4*3E
$GPRMC,113339.000,A,3353.7411,N,09832.0249,W,0.11,354.66,020412,,,A*7B
$GPGGA,113340.000,3353.7411,N,09832.0250,W,1,07,1.9,330.4,M,-23.7,M,,0000*68
$GPGSA,A,3,02,05,12,25,29,26,15,,,,,,4.8,1.9,4.4*3E
$GPRMC,113340.000,A,3353.7411,N,09832.0250,W,0.20,267.30,020412,,,A*7D
$GPGGA,113341.000,3353.7411,N,09832.0250,W,1,07,1.9,330.3,M,-23.7,M,,0000*6E
$GPGSA,A,3,02,05,12,25,29,26,15,,,,,,4.8,1.9,4.4*3E
$GPGSV,3,1,11,05,58,043,37,29,57,320,28,25,37,238,17,26,30,125,26*7B
$GPGSV,3,2,11,02,29,071,28,12,21,194,22,15,17,168,34,21,17,280,*74
$GPGSV,3,3,11,18,09,224,,10,03,044,20,30,01,325,*4B
$GPRMC,113341.000,A,3353.7411,N,09832.0250,W,0.20,297.24,020412,,,A*76
$GPGGA,113342.000,3353.7411,N,09832.0250,W,1,07,1.9,330.2,M,-23.7,M,,0000*6C
$GPGSA,A,3,02,05,12,25,29,26,15,,,,,,4.8,1.9,4.4*3E
$GPRMC,113342.000,A,3353.7411,N,09832.0250,W,0.18,357.20,020412,,,A*77
$GPGGA,113343.000,3353.7412,N,09832.0250,W,1,06,1.9,329.8,M,-23.7,M,,0000*6D
$GPGSA,A,3,02,05,25,29,26,15,,,,,,,4.9,1.9,4.6*3E
$GPRMC,113343.000,A,3353.7412,N,09832.0250,W,0.24,22.34,020412,,,A*4E
$GPGGA,113344.000,3353.7413,N,09832.0250,W,1,07,1.9,329.3,M,-23.7,M,,0000*61
$GPGSA,A,3,02,05,12,25,29,26,15,,,,,,4.8,1.9,4.4*3E
$GPRMC,113344.000,A,3353.7413,N,09832.0250,W,0.21,340.70,020412,,,A*7A
$GPGGA,113345.000,3353.7414,N,09832.0249,W,1,07,1.9,328.7,M,-23.7,M,,0000*6A
$GPGSA,A,3,02,05,12,25,29,26,15,,,,,,4.8,1.9,4.4*3E
$GPRMC,113345.000,A,3353.7414,N,09832.0249,W,0.18,341.64,020412,,,A*7A
$GPGGA,113346.000,3353.7415,N,09832.0249,W,1,07,1.9,328.3,M,-23.7,M,,0000*6C
$GPGSA,A,3,02,05,12,25,29,26,15,,,,,,4.8,1.9,4.4*3E
$GPGSV,3,1,11,05,58,043,37,29,57,320,28,25,37,238,23,26,30,125,27*7D
$GPGSV,3,2,11,02,29,071,24,12,21,194,17,15,17,168,34,21,17,280,*7E
$GPGSV,3,3,11,18,09,224,,10,03,044,20,30,01,325,*4B
$GPRMC,113346.000,A,3353.7415,N,09832.0249,W,0.29,339.26,020412,,,A*73
$GPGGA,113347.000,3353.7415,N,09832.0248,W,1,07,1.9,328.2,M,-23.7,M,,0000*6D
$GPGSA,A,3,02,05,12,25,29,26,15,,,,,,4.8,1.9,4.4*3E
$GPRMC,113347.000,A,3353.7415,N,09832.0248,W,0.35,44.58,020412,,,A*4E
$GPGGA,113348.000,3353.7415,N,09832.0248,W,1,07,1.9,328.4,M,-23.7,M,,0000*64
$GPGSA,A,3,02,05,12,25,29,26,15,,,,,,4.8,1.9,4.4*3E
$GPRMC,113348.000,A,3353.7415,N,09832.0248,W,0.18,25.60,020412,,,A*42
$GPGGA,113349.000,3353.7415,N,09832.0247,W,1,07,1.9,328.7,M,-23.7,M,,0000*69
$GPGSA,A,3,02,05,12,25,29,26,15,,,,,,4.8,1.9,4.4*3E
$GPRMC,113349.000,A,3353.7415,N,09832.0247,W,0.05,342.14,020412,,,A*71
$GPGGA,113350.000,3353.7414,N,09832.0247,W,1,07,1.9,329.2,M,-23.7,M,,0000*64
$GPGSA,A,3,02,05,12,25,29,26,15,,,,,,4.8,1.9,4.4*3E
$GPRMC,113350.000,A,3353.7414,N,09832.0247,W,0.12,96.27,020412,,,A*44
$GPGGA,113351.000,3353.7412,N,09832.0247,W,1,06,1.9,329.8,M,-23.7,M,,0000*68
$GPGSA,A,3,02,05,25,29,26,15,,,,,,,4.9,1.9,4.6*3E
$GPGSV,3,1,11,05,58,043,38,29,57,320,28,25,37,238,23,26,30,125,27*72
$GPGSV,3,2,11,02,29,071,25,12,21,194,16,15,17,168,35,21,17,280,*7F
$GPGSV,3,3,11,18,09,224,,10,03,044,20,30,01,325,*4B
$GPRMC,113351.000,A,3353.7412,N,09832.0247,W,0.19,205.52,020412,,,A*72
$GPGGA,113352.000,3353.7411,N,09832.0247,W,1,06,1.9,330.5,M,-23.7,M,,0000*6D
$GPGSA,A,3,02,05,25,29,26,15,,,,,,,4.9,1.9,4.6*3E
$GPRMC,113352.000,A,3353.7411,N,09832.0247,W,0.27,209.61,020412,,,A*73
$GPGGA,113353.000,3353.7409,N,09832.0247,W,1,06,1.9,331.3,M,-23.7,M,,0000*62
$GPGSA,A,3,02,05,25,29,26,15,,,,,,,4.9,1.9,4.6*3E
$GPRMC,113353.000,A,3353.7409,N,09832.0247,W,0.30,210.88,020412,,,A*72
$GPGGA,113354.000,3353.7407,N,09832.0246,W,1,06,1.9,332.0,M,-23.7,M,,0000*6A
$GPGSA,A,3,02,05,25,29,26,15,,,,,,,4.9,1.9,4.6*3E
$GPRMC,113354.000,A,3353.7407,N,09832.0246,W,0.27,187.53,020412,,,A*77
$GPGGA,113355.000,3353.7405,N,09832.0246,W,1,06,1.9,332.8,M,-23.7,M,,0000*61
$GPGSA,A,3,02,05,25,29,26,15,,,,,,,4.9,1.9,4.6*3E
$GPRMC,113355.000,A,3353.7405,N,09832.0246,W,0.32,203.85,020412,,,A*74
$GPGGA,113356.000,3353.7404,N,09832.0245,W,1,06,1.9,333.4,M,-23.7,M,,0000*6D
$GPGSA,A,3,02,05,25,29,26,15,,,,,,,4.9,1.9,4.6*3E
$GPGSV,3,1,11,05,58,043,38,29,57,320,28,25,37,238,22,26,30,125,26*72
$GPGSV,3,2,11,02,29,071,26,12,21,194,,15,17,168,35,21,17,280,*7B
$GPGSV,3,3,11,18,09,224,,10,03,044,20,30,01,325,*4B
$GPRMC,113356.000,A,3353.7404,N,09832.0245,W,0.31,175.24,020412,,,A*7F
$GPGGA,113357.000,3353.7401,N,09832.0244,W,1,06,1.9,334.2,M,-23.7,M,,0000*69
$GPGSA,A,3,02,05,25,29,26,15,,,,,,,4.9,1.9,4.6*3E
$GPRMC,113357.000,A,3353.7401,N,09832.0244,W,0.43,169.33,020412,,,A*74
$GPGGA,113358.000,3353.7398,N,09832.0241,W,1,06,1.9,335.3,M,-23.7,M,,0000*64
$GPGSA,A,3,02,05,25,29,26,15,,,,,,,4.9,1.9,4.6*3E
$GPRMC,113358.000,A,3353.7398,N,09832.0241,W,0.40,154.43,020412,,,A*73
$GPGGA,113359.000,3353.7397,N,09832.0237,W,1,06,1.9,336.1,M,-23.7,M,,0000*6A
$GPGSA,A,3,02,05,25,29,26,15,,,,,,,4.9,1.9,4.6*3E
$GPRMC,113359.000,A,3353.7397,N,09832.0237,W,0.58,98.34,020412,,,A*44
$GPGGA,113400.000,3353.7395,N,09832.0233,W,1,07,1.9,336.8,M,-23.7,M,,0000*6F
$GPGSA,A,3,02,05,12,25,29,26,15,,,,,,4.8,1.9,4.4*3E
$GPRMC,113400.000,A,3353.7395,N,09832.0233,W,0.50,119.79,020412,,,A*70
$GPGGA,113401.000,3353.7392,N,09832.0230,W,1,07,1.9,337.7,M,-23.7,M,,0000*64
$GPGSA,A,3,02,05,12,25,29,26,15,,,,,,4.8,1.9,4.4*3E
$GPGSV,3,1,11,05,58,043,38,29,57,320,29,25,37,238,20,26,30,125,26*71
$GPGSV,3,2,11,02,29,071,25,12,21,194,17,15,17,168,35,21,17,280,*7E
$GPGSV,3,3,11,18,09,224,,10,03,044,20,30,01,325,*4B
$GPRMC,113401.000,A,3353.7392,N,09832.0230,W,0.38,142.92,020412,,,A*70
$GPGGA,113402.000,3353.7390,N,09832.0228,W,1,07,1.9,338.6,M,-23.7,M,,0000*62
$GPGSA,A,3,02,05,12,25,29,26,15,,,,,,4.8,1.9,4.4*3E
$GPRMC,113402.000,A,3353.7390,N,09832.0228,W,0.38,188.50,020412,,,A*70
$GPGGA,113403.000,3353.7387,N,09832.0226,W,1,07,1.9,339.6,M,-23.7,M,,0000*6A
$GPGSA,A,3,02,05,12,25,29,26,15,,,,,,4.8,1.9,4.4*3E
$GPRMC,113403.000,A,3353.7387,N,09832.0226,W,0.45,176.17,020412,,,A*71
$GPGGA,113404.000,3353.7385,N,09832.0222,W,1,07,1.9,340.4,M,-23.7,M,,0000*67
$GPGSA,A,3,02,05,12,25,29,26,15,,,,,,4.8,1.9,4.4*3E
$GPRMC,113404.000,A,3353.7385,N,09832.0222,W,0.42,140.05,020412,,,A*71
$GPGGA,113405.000,3353.7383,N,09832.0219,W,1,07,1.9,340.9,M,-23.7,M,,0000*65
$GPGSA,A,3,02,05,12,25,29,26,15,,,,,,4.8,1.9,4.4*3E
$GPRMC,113405.000,A,3353.7383,N,09832.0219,W,0.48,119.42,020412,,,A*7B
$GPGGA,113406.000,3353.7381,N,09832.0216,W,1,07,1.9,341.5,M,-23.7,M,,0000*66
$GPGSA,A,3,02,05,12,25,29,26,15,,,,,,4.8,1.9,4.4*3E
$GPGSV,3,1,11,29,58,320,29,05,57,043,38,25,36,236,22,26,31,123,26*7B
$GPGSV,3,2,11,02,28,072,24,12,20,194,19,15,19,167,35,21,18,281,*7D
$GPGSV,3,3,11,18,10,225,,30,02,325,,10,02,044,19*4A
$GPRMC,113406.000,A,3353.7381,N,09832.0216,W,0.32,184.88,020412,,,A*7A
$GPGGA,113407.000,3353.7379,N,09832.0213,W,1,07,1.9,342.2,M,-23.7,M,,0000*61
$GPGSA,A,3,02,05,12,25,29,26,15,,,,,,4.8,1.9,4.4*3E
$GPRMC,113407.000,A,3353.7379,N,09832.0213,W,0.42,159.14,020412,,,A*7B
$GPGGA,113408.000,3353.7376,N,09832.0209,W,1,07,1.9,343.4,M,-23.7,M,,0000*6D
$GPGSA,A,3,02,05,12,25,29,26,15,,,,,,4.8,1.9,4.4*3E
$GPRMC,113408.000,A,3353.7376,N,09832.0209,W,0.60,164.60,020412,,,A*7D
$GPGGA,113409.000,3353.7372,N,09832.0205,W,1,07,1.9,345.0,M,-23.7,M,,0000*66
$GPGSA,A,3,02,05,12,25,29,26,15,,,,,,4.8,1.9,4.4*3E
$GPRMC,113409.000,A,3353.7372,N,09832.0205,W,0.60,173.38,020412,,,A*7F
$GPGGA,113410.000,3353.7368,N,09832.0201,W,1,07,1.9,346.9,M,-23.7,M,,0000*6B
$GPGSA,A,3,02,05,12,25,29,26,15,,,,,,4.8,1.9,4.4*3E
$GPRMC,113410.000,A,3353.7368,N,09832.0201,W,0.73,169.44,020412,,,A*7A
$GPGGA,113411.000,3353.7364,N,09832.0197,W,1,07,1.9,348.9,M,-23.7,M,,0000*64
$GPGSA,A,3,02,05,12,25,29,26,15,,,,,,4.8,1.9,4.4*3E
$GPGSV,3,1,11,29,58,320,28,05,57,043,39,25,36,236,26,26,31,123,27*7E
$GPGSV,3,2,11,02,28,072,25,12,20,194,18,15,19,167,35,21,18,281,*7D
$GPGSV,3,3,11,18,10,225,19,30,02,325,,10,02,044,19*42
$GPRMC,113411.000,A,3353.7364,N,09832.0197,W,0.68,155.60,020412,,,A*78
$GPGGA,113412.000,3353.7360,N,09832.0193,W,1,07,1.9,351.2,M,-23.7,M,,0000*64
$GPGSA,A,3,02,05,12,25,29,26,15,,,,,,4.8,1.9,4.4*3E
$GPRMC,113412.000,A,3353.7360,N,09832.0193,W,0.72,151.89,020412,,,A*73
$GPGGA,113413.000,3353.7356,N,09832.0188,W,1,07,1.9,353.5,M,-23.7,M,,0000*6F
$GPGSA,A,3,02,05,12,25,29,26,15,,,,,,4.8,1.9,4.4*3E
$GPRMC,113413.000,A,3353.7356,N,09832.0188,W,0.74,151.77,020412,,,A*7A
$GPGGA,113414.000,3353.7352,N,09832.0184,W,1,07,1.9,356.0,M,-23.7,M,,0000*60
$GPGSA,A,3,02,05,12,25,29,26,15,,,,,,4.8,1.9,4.4*3E
$GPRMC,113414.000,A,3353.7352,N,09832.0184,W,0.78,154.75,020412,,,A*7E
$GPGGA,113415.000,3353.7347,N,09832.0180,W,1,07,1.9,358.5,M,-23.7,M,,0000*6A
$GPGSA,A,3,02,05,12,25,29,26,15,,,,,,4.8,1.9,4.4*3E
$GPRMC,113415.000,A,3353.7347,N,09832.0180,W,0.85,163.21,020412,,,A*78
$GPGGA,113416.000,3353.7343,N,09832.0177,W,1,07,1.9,361.0,M,-23.7,M,,0000*6A
$GPGSA,A,3,02,05,12,25,29,26,15,,,,,,4.8,1.9,4.4*3E
$GPGSV,3,1,11,29,58,320,28,05,57,043,39,25,36,236,26,26,31,123,29*70
$GPGSV,3,2,11,02,28,072,27,12,20,194,17,15,19,167,34,21,18,281,*71
$GPGSV,3,3,11,18,10,225,18,30,02,325,,10,02,044,19*43
$GPRMC,113416.000,A,3353.7343,N,09832.0177,W,0.99,172.34,020412,,,A*7E
$GPGGA,113417.000,3353.7338,N,09832.0174,W,1,07,1.9,363.5,M,-23.7,M,,0000*63
$GPGSA,A,3,02,05,12,25,29,26,15,,,,,,4.8,1.9,4.4*3E
$GPRMC,113417.000,A,3353.7338,N,09832.0174,W,1.00,161.82,020412,,,A*7E
$GPGGA,113418.000,3353.7333,N,09832.0172,W,1,07,1.9,365.9,M,-23.7,M,,0000*6B
$GPGSA,A,3,02,05,12,25,29,26,15,,,,,,4.8,1.9,4.4*3E
$GPRMC,113418.000,A,3353.7333,N,09832.0172,W,1.02,175.48,020412,,,A*7D
$GPGGA,113419.000,3353.7328,N,09832.0170,W,1,07,1.9,368.3,M,-23.7,M,,0000*65
$GPGSA,A,3,02,05,12,25,29,26,15,,,,,,4.8,1.9,4.4*3E
$GPRMC,113419.000,A,3353.7328,N,09832.0170,W,0.95,164.64,020412,,,A*75
$GPGGA,113420.000,3353.7324,N,09832.0168,W,1,07,1.9,370.4,M,-23.7,M,,0000*64
$GPGSA,A,3,02,05,12,25,29,26,15,,,,,,4.8,1.9,4.4*3E
$GPRMC,113420.000,A,3353.7324,N,09832.0168,W,0.92,165.81,020412,,,A*77
$GPGGA,113421.000,3353.7320,N,09832.0167,W,1,07,1.9,372.4,M,-23.7,M,,0000*6C
$GPGSA,A,3,02,05,12,25,29,26,15,,,,,,4.8,1.9,4.4*3E
$GPGSV,3,1,11,29,58,320,29,05,57,043,39,25,36,236,23,26,31,123,30*7C
$GPGSV,3,2,11,02,28,072,28,12,20,194,15,15,19,167,34,21,18,281,*7C
$GPGSV,3,3,11,18,10,225,17,30,02,325,,10,02,044,19*4C
$GPRMC,113421.000,A,3353.7320,N,09832.0167,W,0.90,175.06,020412,,,A*71
$GPGGA,113422.000,3353.7316,N,09832.0165,W,1,07,1.9,374.3,M,-23.7,M,,0000*69
$GPGSA,A,3,02,05,12,25,29,26,15,,,,,,4.8,1.9,4.4*3E
$GPRMC,113422.000,A,3353.7316,N,09832.0165,W,0.84,170.79,020412,,,A*7D
$GPGGA,113423.000,3353.7313,N,09832.0164,W,1,07,1.9,376.0,M,-23.7,M,,0000*6D
$GPGSA,A,3,02,05,12,25,29,26,15,,,,,,4.8,1.9,4.4*3E
$GPRMC,113423.000,A,3353.7313,N,09832.0164,W,0.80,159.81,020412,,,A*70
$GPGGA,113424.000,3353.7310,N,09832.0163,W,1,07,1.9,377.5,M,-23.7,M,,0000*6A
$GPGSA,A,3,02,05,12,25,29,26,15,,,,,,4.8,1.9,4.4*3E
$GPRMC,113424.000,A,3353.7310,N,09832.0163,W,0.73,165.99,020412,,,A*79
$GPGGA,113425.000,3353.7308,N,09832.0162,W,1,07,1.9,378.9,M,-23.7,M,,0000*60
$GPGSA,A,3,02,05,12,25,29,26,15,,,,,,4.8,1.9,4.4*3E
$GPRMC,113425.000,A,3353.7308,N,09832.0162,W,0.64,141.41,020412,,,A*75
$GPGGA,113426.000,3353.7305,N,09832.0161,W,1,07,1.9,380.1,M,-23.7,M,,0000*62
$GPGSA,A,3,02,05,12,25,29,26,15,,,,,,4.8,1.9,4.4*3E
$GPGSV,3,1,11,29,58,320,28,05,57,043,39,25,36,236,23,26,31,123,31*7C
$GPGSV,3,2,11,02,28,072,29,12,20,194,22,15,19,167,34,21,18,281,*79
$GPGSV,3,3,11,18,10,225,17,30,02,325,,10,02,044,19*4C
$GPRMC,113426.000,A,3353.7305,N,09832.0161,W,0.65,150.04,020412,,,A*78
$GPGGA,113427.000,3353.7304,N,09832.0161,W,1,07,1.9,381.2,M,-23.7,M,,0000*60
$GPGSA,A,3,02,05,12,25,29,26,15,,,,,,4.8,1.9,4.4*3E
$GPRMC,113427.000,A,3353.7304,N,09832.0161,W,0.52,138.47,020412,,,A*75
$GPGGA,113428.000,3353.7302,N,09832.0160,W,1,07,1.9,382.1,M,-23.7,M,,0000*68
$GPGSA,A,3,02,05,12,25,29,26,15,,,,,,4.8,1.9,4.4*3E
$GPRMC,113428.000,A,3353.7302,N,09832.0160,W,0.49,145.23,020412,,,A*7F
$GPGGA,113429.000,3353.7301,N,09832.0160,W,1,07,1.9,382.9,M,-23.7,M,,0000*62
$GPGSA,A,3,02,05,12,25,29,26,15,,,,,,4.8,1.9,4.4*3E
$GPRMC,113429.000,A,3353.7301,N,09832.0160,W,0.56,139.38,020412,,,A*72
$GPGGA,113430.000,3353.7300,N,09832.0160,W,1,07,1.9,383.5,M,-23.7,M,,0000*66
$GPGSA,A,3,02,05,12,25,29,26,15,,,,,,4.8,1.9,4.4*3E
$GPRMC,113430.000,A,3353.7300,N,09832.0160,W,0.42,155.21,020412,,,A*7C
$GPGGA,113431.000,3353.7299,N,09832.0160,W,1,07,1.9,383.9,M,-23.7,M,,0000*6A
$GPGSA,A,3,02,05,12,25,29,26,15,,,,,,4.8,1.9,4.4*3E
$GPGSV,3,1,11,29,58,320,28,05,57,043,39,25,36,236,24,26,31,123,32*78
$GPGSV,3,2,11,02,28,072,30,12,20,194,23,15,19,167,34,21,18,281,*70
$GPGSV,3,3,11,18,10,225,17,30,02,325,,10,02,044,19*4C
$GPRMC,113431.000,A,3353.7299,N,09832.0160,W,0.29,142.43,020412,,,A*73
$GPGGA,113432.000,3353.7299,N,09832.0161,W,1,07,1.9,384.2,M,-23.7,M,,0000*64
$GPGSA,A,3,02,05,12,25,29,26,15,,,,,,4.8,1.9,4.4*3E
$GPRMC,113432.000,A,3353.7299,N,09832.0161,W,0.25,149.63,020412,,,A*74
$GPGGA,113433.000,3353.7299,N,09832.0162,W,1,07,1.9,384.4,M,-23.7,M,,0000*60
$GPGSA,A,3,02,05,12,25,29,26,15,,,,,,4.8,1.9,4.4*3E
$GPRMC,113433.000,A,3353.7299,N,09832.0162,W,0.28,171.96,020412,,,A*7A
$GPGGA,113434.000,3353.7299,N,09832.0163,W,1,07,1.9,384.5,M,-23.7,M,,0000*67
$GPGSA,A,3,02,05,12,25,29,26,15,,,,,,4.8,1.9,4.4*3E
$GPRMC,113434.000,A,3353.7299,N,09832.0163,W,0.13,136.69,020412,,,A*77
$GPGGA,113435.000,3353.7299,N,09832.0164,W,1,07,1.9,384.5,M,-23.7,M,,0000*61
$GPGSA,A,3,02,05,12,25,29,26,15,,,,,,4.8,1.9,4.4*3E
$GPRMC,113435.000,A,3353.7299,N,09832.0164,W,0.14,117.64,020412,,,A*78
$GPGGA,113436.000,3353.7299,N,09832.0165,W,1,07,1.9,384.3,M,-23.7,M,,0000*65
$GPGSA,A,3,02,05,12,25,29,26,15,,,,,,4.8,1.9,4.4*3E
$GPGSV,3,1,11,29,58,320,27,05,57,043,39,25,36,236,24,26,31,123,33*76
$GPGSV,3,2,11,02,28,072,29,12,20,194,23,15,19,167,35,21,18,281,*79
$GPGSV,3,3,11,18,10,225,17,30,02,325,,10,02,044,19*4C
$GPRMC,113436.000,A,3353.7299,N,09832.0165,W,0.18,203.80,020412,,,A*7A
$GPGGA,113437.000,3353.7300,N,09832.0166,W,1,07,1.9,384.1,M,-23.7,M,,0000*64
$GPGSA,A,3,02,05,12,25,29,26,15,,,,,,4.8,1.9,4.4*3E
$GPRMC,113437.000,A,3353.7300,N,09832.0166,W,0.21,130.19,020412,,,A*70
$GPGGA,113438.000,3353.7301,N,09832.0167,W,1,07,1.9,383.8,M,-23.7,M,,0000*65
$GPGSA,A,3,02,05,12,25,29,26,15,,,,,,4.8,1.9,4.4*3E
$GPRMC,113438.000,A,3353.7301,N,09832.0167,W,0.36,66.12,020412,,,A*40
$GPGGA,113439.000,3353.7302,N,09832.0168,W,1,07,1.9,383.4,M,-23.7,M,,0000*64
$GPGSA,A,3,02,05,12,25,29,26,15,,,,,,4.8,1.9,4.4*3E
$GPRMC,113439.000,A,3353.7302,N,09832.0168,W,0.14,32.30,020412,,,A*4C
$GPGGA,113440.000,3353.7304,N,09832.0169,W,1,07,1.9,382.9,M,-23.7,M,,0000*61
$GPGSA,A,3,02,05,12,25,29,26,15,,,,,,4.8,1.9,4.4*3E
$GPRMC,113440.000,A,3353.7304,N,09832.0169,W,0.22,12.16,020412,,,A*46
$GPGGA,113441.000,3353.7305,N,09832.0171,W,1,07,1.9,382.4,M,-23.7,M,,0000*65
$GPGSA,A,3,02,05,12,25,29,26,15,,,,,,4.8,1.9,4.4*3E
$GPGSV,3,1,11,29,58,320,27,05,57,043,39,25,36,236,24,26,31,123,34*71
$GPGSV,3,2,11,02,28,072,30,12,20,194,15,15,19,167,34,21,18,281,*75
$GPGSV,3,3,11,18,10,225,15,30,02,325,,10,02,044,18*4F
$GPRMC,113441.000,A,3353.7305,N,09832.0171,W,0.21,350.30,020412,,,A*7D
$GPGGA,113442.000,3353.7307,N,09832.0174,W,1,07,1.9,381.7,M,-23.7,M,,0000*61
$GPGSA,A,3,02,05,12,25,29,26,15,,,,,,4.8,1.9,4.4*3E
$GPRMC,113442.000,A,3353.7307,N,09832.0174,W,0.19,312.06,020412,,,A*71
$GPGGA,113443.000,3353.7308,N,09832.0177,W,1,07,1.9,381.1,M,-23.7,M,,0000*6A
$GPGSA,A,3,02,05,12,25,29,26,15,,,,,,4.8,1.9,4.4*3E
$GPRMC,113443.000,A,3353.7308,N,09832.0177,W,0.27,290.63,020412,,,A*79
$GPGGA,113444.000,3353.7309,N,09832.0179,W,1,07,1.9,380.4,M,-23.7,M,,0000*66
$GPGSA,A,3,02,05,12,25,29,26,15,,,,,,4.8,1.9,4.4*3E
$GPRMC,113444.000,A,3353.7309,N,09832.0179,W,0.19,286.82,020412,,,A*74
$GPGGA,113445.000,3353.7310,N,09832.0182,W,1,07,1.9,379.6,M,-23.7,M,,0000*6F
$GPGSA,A,3,02,05,12,25,29,26,15,,,,,,4.8,1.9,4.4*3E
$GPRMC,113445.000,A,3353.7310,N,09832.0182,W,0.15,298.10,020412,,,A*71
$GPGGA,113446.000,3353.7312,N,09832.0183,W,1,07,1.9,378.8,M,-23.7,M,,0000*60
$GPGSA,A,3,02,05,12,25,29,26,15,,,,,,4.8,1.9,4.4*3E
$GPGSV,3,1,12,29,58,320,27,05,57,043,39,25,36,236,24,26,31,123,35*73
$GPGSV,3,2,12,02,28,072,30,12,20,194,13,15,19,167,34,21,18,281,*70
$GPGSV,3,3,12,18,10,225,,30,02,325,,10,02,044,18,48,36,230,27*75
$GPRMC,113446.000,A,3353.7312,N,09832.0183,W,0.12,334.74,020412,,,A*73
$GPGGA,113447.000,3353.7313,N,09832.0186,W,1,07,1.9,378.0,M,-23.7,M,,0000*6D
$GPGSA,A,3,02,05,12,25,29,26,15,,,,,,4.8,1.9,4.4*3E
$GPRMC,113447.000,A,3353.7313,N,09832.0186,W,0.23,295.81,020412,,,A*74
$GPGGA,113448.000,3353.7315,N,09832.0187,W,1,07,1.9,377.2,M,-23.7,M,,0000*68
$GPGSA,A,3,02,05,12,25,29,26,15,,,,,,4.8,1.9,4.4*3E
$GPRMC,113448.000,A,3353.7315,N,09832.0187,W,0.25,15.56,020412,,,A*4A
$GPGGA,113449.000,3353.7317,N,09832.0188,W,1,07,1.9,376.4,M,-23.7,M,,0000*63
$GPGSA,A,3,02,05,12,25,29,26,15,,,,,,4.8,1.9,4.4*3E
$GPRMC,113449.000,A,3353.7317,N,09832.0188,W,0.44,31.04,020412,,,A*40
$GPGGA,113450.000,3353.7319,N,09832.0190,W,1,07,1.9,375.6,M,-23.7,M,,0000*6D
$GPGSA,A,3,02,05,12,25,29,26,15,,,,,,4.8,1.9,4.4*3E
$GPRMC,113450.000,A,3353.7319,N,09832.0190,W,0.30,349.78,020412,,,A*7B
$GPGGA,113451.000,3353.7320,N,09832.0192,W,1,07,1.9,374.8,M,-23.7,M,,0000*6B
$GPGSA,A,3,02,05,12,25,29,26,15,,,,,,4.8,1.9,4.4*3E
$GPGSV,3,1,12,29,58,320,28,05,57,043,39,25,36,236,23,26,31,123,35*7B
$GPGSV,3,2,12,02,28,072,30,12,20,194,13,15,19,167,35,21,18,281,*71
$GPGSV,3,3,12,18,10,225,,30,02,325,,10,02,044,19,48,36,230,27*74
$GPRMC,113451.000,A,3353.7320,N,09832.0192,W,0.33,337.57,020412,,,A*75
$GPGGA,113452.000,3353.7322,N,09832.0194,W,1,07,1.9,374.0,M,-23.7,M,,0000*64
$GPGSA,A,3,02,05,12,25,29,26,15,,,,,,4.8,1.9,4.4*3E
$GPRMC,113452.000,A,3353.7322,N,09832.0194,W,0.39,330.34,020412,,,A*7A
$GPGGA,113453.000,3353.7324,N,09832.0195,W,1,07,1.9,373.1,M,-23.7,M,,0000*64
$GPGSA,A,3,02,05,12,25,29,26,15,,,,,,4.8,1.9,4.4*3E
$GPRMC,113453.000,A,3353.7324,N,09832.0195,W,0.43,8.89,020412,,,A*7F
$GPGGA,113454.000,3353.7326,N,09832.0196,W,1,07,1.9,372.3,M,-23.7,M,,0000*61
$GPGSA,A,3,02,05,12,25,29,26,15,,,,,,4.8,1.9,4.4*3E
$GPRMC,113454.000,A,3353.7326,N,09832.0196,W,0.38,357.32,020412,,,A*7C
$GPGGA,113455.000,3353.7327,N,09832.0198,W,1,07,1.9,371.5,M,-23.7,M,,0000*6A
$GPGSA,A,3,02,05,12,25,29,26,15,,,,,,4.8,1.9,4.4*3E
$GPRMC,113455.000,A,3353.7327,N,09832.0198,W,0.39,313.76,020412,,,A*73
$GPGGA,113456.000,3353.7329,N,09832.0200,W,1,07,1.9,370.7,M,-23.7,M,,0000*66
$GPGSA,A,3,02,05,12,25,29,26,15,,,,,,4.8,1.9,4.4*3E
$GPGSV,3,1,12,29,58,320,28,05,57,043,39,25,36,236,20,26,31,123,36*7B
$GPGSV,3,2,12,02,28,072,31,12,20,194,16,15,19,167,35,21,18,281,*75
$GPGSV,3,3,12,18,10,225,,30,02,325,,10,02,044,19,48,36,230,28*7B
$GPRMC,113456.000,A,3353.7329,N,09832.0200,W,0.32,304.48,020412,,,A*7C
$GPGGA,113457.000,3353.7330,N,09832.0201,W,1,07,1.9,369.9,M,-23.7,M,,0000*68
$GPGSA,A,3,02,05,12,25,29,26,15,,,,,,4.8,1.9,4.4*3E
$GPRMC,113457.000,A,3353.7330,N,09832.0201,W,0.42,18.39,020412,,,A*4B
$GPGGA,113458.000,3353.7332,N,09832.0201,W,1,07,1.9,369.2,M,-23.7,M,,0000*6E
$GPGSA,A,3,02,05,12,25,29,26,15,,,,,,4.8,1.9,4.4*3E
$GPRMC,113458.000,A,3353.7332,N,09832.0201,W,0.51,33.48,020412,,,A*4B
$GPGGA,113459.000,3353.7334,N,09832.0202,W,1,07,1.9,368.5,M,-23.7,M,,0000*6C
$GPGSA,A,3,02,05,12,25,29,26,15,,,,,,4.8,1.9,4.4*3E
$GPRMC,113459.000,A,3353.7334,N,09832.0202,W,0.32,9.25,020412,,,A*78
$GPGGA,113500.000,3353.7335,N,09832.0203,W,1,07,1.9,367.9,M,-23.7,M,,0000*62
$GPGSA,A,3,02,05,12,25,29,26,15,,,,,,4.8,1.9,4.4*3E
$GPRMC,113500.000,A,3353.7335,N,09832.0203,W,0.25,17.77,020412,,,A*4B
$GPGGA,113501.000,3353.7336,N,09832.0204,W,1,07,1.9,367.2,M,-23.7,M,,0000*6C
$GPGSA,A,3,02,05,12,25,29,26,15,,,,,,4.8,1.9,4.4*3E
$GPGSV,3,1,12,29,58,320,27,05,57,043,39,25,36,236,21,26,31,123,36*75
$GPGSV,3,2,12,02,28,072,31,12,20,194,22,15,19,167,35,21,18,281,*72
$GPGSV,3,3,12,18,10,225,,30,02,325,,10,02,044,18,48,36,230,27*75
$GPRMC,113501.000,A,3353.7336,N,09832.0204,W,0.26,347.44,020412,,,A*7B
$GPGGA,113502.000,3353.7337,N,09832.0205,W,1,07,1.9,366.6,M,-23.7,M,,0000*6A
$GPGSA,A,3,02,05,12,25,29,26,15,,,,,,4.8,1.9,4.4*3E
$GPRMC,113502.000,A,3353.7337,N,09832.0205,W,0.23,336.37,020412,,,A*7F
$GPGGA,113503.000,3353.7338,N,09832.0207,W,1,07,1.9,366.0,M,-23.7,M,,0000*60
$GPGSA,A,3,02,05,12,25,29,26,15,,,,,,4.8,1.9,4.4*3E
$GPRMC,113503.000,A,3353.7338,N,09832.0207,W,0.27,312.07,020412,,,A*72
$GPGGA,113504.000,3353.7339,N,09832.0209,W,1,07,1.9,365.5,M,-23.7,M,,0000*6E
$GPGSA,A,3,02,05,12,25,29,26,15,,,,,,4.8,1.9,4.4*3E
$GPRMC,113504.000,A,3353.7339,N,09832.0209,W,0.36,327.10,020412,,,A*7A
$GPGGA,113505.000,3353.7340,N,09832.0209,W,1,07,1.9,364.9,M,-23.7,M,,0000*6C
$GPGSA,A,3,02,05,12,25,29,26,15,,,,,,4.8,1.9,4.4*3E
$GPRMC,113505.000,A,3353.7340,N,09832.0209,W,0.25,9.76,020412,,,A*78
$GPGGA,113506.000,3353.7341,N,09832.0210,W,1,07,1.9,364.4,M,-23.7,M,,0000*6B
$GPGSA,A,3,02,05,12,25,29,26,15,,,,,,4.8,1.9,4.4*3E
$GPGSV,3,1,12,29,58,320,27,05,57,043,39,25,36,236,22,26,31,123,36*76
$GPGSV,3,2,12,02,28,072,31,12,20,194,21,15,19,167,35,21,18,281,*71
$GPGSV,3,3,12,18,10,225,,30,02,325,,10,02,044,18,48,36,230,25*77
$GPRMC,113506.000,A,3353.7341,N,09832.0210,W,0.21,354.82,020412,,,A*76
$GPGGA,113507.000,3353.7342,N,09832.0212,W,1,07,1.9,363.9,M,-23.7,M,,0000*61
$GPGSA,A,3,02,05,12,25,29,26,15,,,,,,4.8,1.9,4.4*3E
$GPRMC,113507.000,A,3353.7342,N,09832.0212,W,0.24,327.06,020412,,,A*7B
$GPGGA,113508.000,3353.7343,N,09832.0214,W,1,07,1.9,363.4,M,-23.7,M,,0000*64
$GPGSA,A,3,02,05,12,25,29,26,15,,,,,,4.8,1.9,4.4*3E
$GPRMC,113508.000,A,3353.7343,N,09832.0214,W,0.38,297.89,020412,,,A*73
$GPGGA,113509.000,3353.7344,N,09832.0216,W,1,07,1.9,362.9,M,-23.7,M,,0000*6C
$GPGSA,A,3,02,05,12,25,29,26,15,,,,,,4.8,1.9,4.4*3E
$GPRMC,113509.000,A,3353.7344,N,09832.0216,W,0.45,295.59,020412,,,A*72
$GPGGA,113510.000,3353.7345,N,09832.0218,W,1,07,1.9,362.4,M,-23.7,M,,0000*66
$GPGSA,A,3,02,05,12,25,29,26,15,,,,,,4.8,1.9,4.4*3E
$GPRMC,113510.000,A,3353.7345,N,09832.0218,W,0.42,312.18,020412,,,A*79
$GPGGA,113511.000,3353.7346,N,09832.0219,W,1,07,1.9,361.9,M,-23.7,M,,0000*6B
$GPGSA,A,3,02,05,12,25,29,26,15,,,,,,4.8,1.9,4.4*3E
$GPGSV,3,1,11,29,58,320,27,05,57,043,39,25,36,236,22,26,31,123,36*75
$GPGSV,3,2,11,02,28,072,31,12,20,194,21,15,19,167,36,21,18,281,*71
$GPGSV,3,3,11,18,10,225,,30,02,325,,10,02,044,18*4B
$GPRMC,113511.000,A,3353.7346,N,09832.0219,W,0.40,301.00,020412,,,A*73
$GPGGA,113512.000,3353.7346,N,09832.0221,W,1,07,1.9,361.5,M,-23.7,M,,0000*6F
$GPGSA,A,3,02,05,12,25,29,26,15,,,,,,4.8,1.9,4.4*3E
$GPRMC,113512.000,A,3353.7346,N,09832.0221,W,0.22,326.88,020412,,,A*7A
$GPGGA,113513.000,3353.7347,N,09832.0221,W,1,06,2.0,361.0,M,-23.7,M,,0000*61
$GPGSA,A,3,02,05,12,29,26,15,,,,,,,4.8,2.0,4.4*33
$GPRMC,113513.000,A,3353.7347,N,09832.0221,W,0.13,355.54,020412,,,A*7D
$GPGGA,113514.000,3353.7348,N,09832.0222,W,1,06,2.0,360.6,M,-23.7,M,,0000*6D
$GPGSA,A,3,02,05,12,29,26,15,,,,,,,4.8,2.0,4.4*33
$GPRMC,113514.000,A,3353.7348,N,09832.0222,W,0.27,0.45,020412,,,A*72
$GPGGA,113515.000,3353.7349,N,09832.0224,W,1,06,2.0,360.2,M,-23.7,M,,0000*6F
$GPGSA,A,3,02,05,12,29,26,15,,,,,,,4.8,2.0,4.4*33
$GPRMC,113515.000,A,3353.7349,N,09832.0224,W,0.27,326.15,020412,,,A*76
$GPGGA,113516.000,3353.7350,N,09832.0225,W,1,06,2.0,359.7,M,-23.7,M,,0000*6A
$GPGSA,A,3,02,05,12,29,26,15,,,,,,,4.8,2.0,4.4*33
$GPGSV,3,1,11,29,58,320,27,05,57,043,39,25,36,236,,26,31,123,36*75
$GPGSV,3,2,11,02,28,072,31,12,20,194,20,15,19,167,36,21,18,281,*70
$GPGSV,3,3,11,18,10,225,,30,02,325,,10,02,044,18*4B
$GPRMC,113516.000,A,3353.7350,N,09832.0225,W,0.28,312.83,020412,,,A*7B
$GPGGA,113517.000,3353.7351,N,09832.0226,W,1,06,2.0,359.3,M,-23.7,M,,0000*6D
$GPGSA,A,3,02,05,12,29,26,15,,,,,,,4.8,2.0,4.4*33
$GPRMC,113517.000,A,3353.7351,N,09832.0226,W,0.30,331.34,020412,,,A*7C
$GPGGA,113518.000,3353.7351,N,09832.0228,W,1,06,2.0,358.8,M,-23.7,M,,0000*66
$GPGSA,A,3,02,05,12,29,26,15,,,,,,,4.8,2.0,4.4*33
$GPRMC,113518.000,A,3353.7351,N,09832.0228,W,0.29,309.20,020412,,,A*7B
$GPGGA,113519.000,3353.7353,N,09832.0229,W,1,06,2.0,358.4,M,-23.7,M,,0000*68
$GPGSA,A,3,02,05,12,29,26,15,,,,,,,4.8,2.0,4.4*33
$GPRMC,113519.000,A,3353.7353,N,09832.0229,W,0.33,8.47,020412,,,A*71
$GPGGA,113520.000,3353.7354,N,09832.0229,W,1,06,2.0,358.0,M,-23.7,M,,0000*61
$GPGSA,A,3,02,05,12,29,26,15,,,,,,,4.8,2.0,4.4*33
$GPRMC,113520.000,A,3353.7354,N,09832.0229,W,0.35,11.46,020412,,,A*43
$GPGGA,113521.000,3353.7354,N,09832.0230,W,1,07,1.9,357.7,M,-23.7,M,,0000*6B
$GPGSA,A,3,02,05,12,25,29,26,15,,,,,,4.8,1.9,4.4*3E
$GPGSV,3,1,11,29,58,320,27,05,57,043,39,25,36,236,21,26,31,123,36*76
$GPGSV,3,2,11,02,28,072,32,12,20,194,19,15,19,167,36,21,18,281,*79
$GPGSV,3,3,11,18,10,225,,30,02,325,,10,02,044,17*44
$GPRMC,113521.000,A,3353.7354,N,09832.0230,W,0.24,340.99,020412,,,A*7F
$GPGGA,113522.000,3353.7355,N,09832.0231,W,1,07,1.9,357.3,M,-23.7,M,,0000*6C
$GPGSA,A,3,02,05,12,25,29,26,15,,,,,,4.8,1.9,4.4*3E
$GPRMC,113522.000,A,3353.7355,N,09832.0231,W,0.29,14.04,020412,,,A*47
$GPGGA,113523.000,3353.7356,N,09832.0231,W,1,07,1.9,357.0,M,-23.7,M,,0000*6D
$GPGSA,A,3,02,05,12,25,29,26,15,,,,,,4.7,1.9,4.4*31
$GPRMC,113523.000,A,3353.7356,N,09832.0231,W,0.42,34.66,020412,,,A*4E
$GPGGA,113524.000,3353.7357,N,09832.0231,W,1,07,1.9,356.8,M,-23.7,M,,0000*62
$GPGSA,A,3,02,05,12,25,29,26,15,,,,,,4.7,1.9,4.4*31
$GPRMC,113524.000,A,3353.7357,N,09832.0231,W,0.39,42.17,020412,,,A*43
$GPGGA,113525.000,3353.7358,N,09832.0231,W,1,07,1.9,356.5,M,-23.7,M,,0000*61
$GPGSA,A,3,02,05,12,25,29,26,15,,,,,,4.7,1.9,4.4*31
$GPRMC,113525.000,A,3353.7358,N,09832.0231,W,0.39,44.54,020412,,,A*4C
$GPGGA,113526.000,3353.7359,N,09832.0230,W,1,07,1.9,356.3,M,-23.7,M,,0000*64
$GPGSA,A,3,02,05,12,25,29,26,15,,,,,,4.7,1.9,4.4*31
$GPGSV,3,1,11,29,58,320,27,05,57,043,39,25,36,236,22,26,31,123,37*74
$GPGSV,3,2,11,02,28,072,32,12,20,194,18,15,19,167,36,21,18,281,*78
$GPGSV,3,3,11,18,10,225,,30,02,325,,10,02,044,17*44
$GPRMC,113526.000,A,3353.7359,N,09832.0230,W,0.32,40.29,020412,,,A*4A
$GPGGA,113527.000,3353.7359,N,09832.0231,W,1,07,1.9,356.1,M,-23.7,M,,0000*66
$GPGSA,A,3,02,05,12,25,29,26,15,,,,,,4.7,1.9,4.4*31
$GPRMC,113527.000,A,3353.7359,N,09832.0231,W,0.16,331.54,020412,,,A*73
$GPGGA,113528.000,3353.7360,N,09832.0233,W,1,07,1.9,355.9,M,-23.7,M,,0000*6A
$GPGSA,A,3,02,05,12,25,29,26,15,,,,,,4.7,1.9,4.4*31
$GPRMC,113528.000,A,3353.7360,N,09832.0233,W,0.23,300.74,020412,,,A*72
$GPGGA,113529.000,3353.7360,N,09832.0234,W,1,07,1.9,355.7,M,-23.7,M,,0000*62
$GPGSA,A,3,02,05,12,25,29,26,15,,,,,,4.7,1.9,4.4*31
$GPRMC,113529.000,A,3353.7360,N,09832.0234,W,0.18,307.64,020412,,,A*7A
$GPGGA,113530.000,3353.7360,N,09832.0234,W,1,07,1.9,355.6,M,-23.7,M,,0000*6B
$GPGSA,A,3,02,05,12,25,29,26,15,,,,,,4.7,1.9,4.4*31
$GPRMC,113530.000,A,3353.7360,N,09832.0234,W,0.18,324.26,020412,,,A*75
$GPGGA,113531.000,3353.7361,N,09832.0235,W,1,07,1.9,355.4,M,-23.7,M,,0000*68
$GPGSA,A,3,02,05,12,25,29,26,15,,,,,,4.7,1.9,4.4*31
$GPGSV,3,1,11,29,58,320,28,05,57,043,39,25,36,236,23,26,31,123,37*7A
$GPGSV,3,2,11,02,28,072,32,12,20,194,16,15,19,167,36,21,18,281,*76
$GPGSV,3,3,11,18,10,225,,30,02,325,,10,02,044,16*45
$GPRMC,113531.000,A,3353.7361,N,09832.0235,W,0.15,313.14,020412,,,A*7C
$GPGGA,113532.000,3353.7361,N,09832.0237,W,1,07,1.9,355.2,M,-23.7,M,,0000*6F
$GPGSA,A,3,02,05,12,25,29,26,15,,,,,,4.7,1.9,4.4*31
$GPRMC,113532.000,A,3353.7361,N,09832.0237,W,0.34,284.27,020412,,,A*71
$GPGGA,113533.000,3353.7361,N,09832.0238,W,1,07,1.9,355.0,M,-23.7,M,,0000*63
$GPGSA,A,3,02,05,12,25,29,26,15,,,,,,4.7,1.9,4.4*31
$GPRMC,113533.000,A,3353.7361,N,09832.0238,W,0.33,285.35,020412,,,A*7A
$GPGGA,113534.000,3353.7361,N,09832.0240,W,1,07,1.9,354.8,M,-23.7,M,,0000*62
$GPGSA,A,3,02,05,12,25,29,26,15,,,,,,4.7,1.9,4.4*31
$GPRMC,113534.000,A,3353.7361,N,09832.0240,W,0.48,280.20,020412,,,A*7F
$GPGGA,113535.000,3353.7362,N,09832.0241,W,1,07,1.9,354.6,M,-23.7,M,,0000*6F
$GPGSA,A,3,02,05,12,25,29,26,15,,,,,,4.7,1.9,4.4*31
$GPRMC,113535.000,A,3353.7362,N,09832.0241,W,0.32,287.93,020412,,,A*7E
$GPGGA,113536.000,3353.7362,N,09832.0242,W,1,07,1.9,354.3,M,-23.7,M,,0000*6A
$GPGSA,A,3,02,05,12,25,29,26,15,,,,,,4.7,1.9,4.4*31
$GPGSV,3,1,11,29,58,320,28,05,57,043,39,25,36,236,23,26,31,123,37*7A
$GPGSV,3,2,11,02,28,072,32,12,20,194,16,15,19,167,36,21,18,281,*76
$GPGSV,3,3,11,18,10,225,,30,02,325,,10,02,044,16*45
$GPRMC,113536.000,A,3353.7362,N,09832.0242,W,0.37,292.02,020412,,,A*77
$GPGGA,113537.000,3353.7362,N,09832.0243,W,1,07,1.9,354.1,M,-23.7,M,,0000*68
$GPGSA,A,3,02,05,12,25,29,26,15,,,,,,4.7,1.9,4.4*31
$GPRMC,113537.000,A,3353.7362,N,09832.0243,W,0.28,318.80,020412,,,A*70
$GPGGA,113538.000,3353.7363,N,09832.0244,W,1,07,1.9,353.8,M,-23.7,M,,0000*6F
$GPGSA,A,3,02,05,12,25,29,26,15,,,,,,4.7,1.9,4.4*31
$GPRMC,113538.000,A,3353.7363,N,09832.0244,W,0.26,333.97,020412,,,A*78
$GPGGA,113539.000,3353.7364,N,09832.0244,W,1,07,1.9,353.5,M,-23.7,M,,0000*64
$GPGSA,A,3,02,05,12,25,29,26,15,,,,,,4.7,1.9,4.4*31
$GPRMC,113539.000,A,3353.7364,N,09832.0244,W,0.26,338.54,020412,,,A*7A
$GPGGA,113540.000,3353.7364,N,09832.0244,W,1,07,1.9,353.3,M,-23.7,M,,0000*6C
$GPGSA,A,3,02,05,12,25,29,26,15,,,,,,4.7,1.9,4.4*31
$GPRMC,113540.000,A,3353.7364,N,09832.0244,W,0.27,0.43,020412,,,A*7B
$GPGGA,113541.000,3353.7365,N,09832.0244,W,1,07,1.9,353.0,M,-23.7,M,,0000*6F
$GPGSA,A,3,02,05,12,25,29,26,15,,,,,,4.7,1.9,4.4*31
$GPGSV,3,1,11,29,58,320,29,05,57,043,39,25,36,236,24,26,31,123,37*7C
$GPGSV,3,2,11,02,28,072,31,12,20,194,15,15,19,167,36,21,18,281,*76
$GPGSV,3,3,11,18,10,225,,30,02,325,,10,02,044,17*44
$GPRMC,113541.000,A,3353.7365,N,09832.0244,W,0.25,333.11,020412,,,A*7D
$GPGGA,113542.000,3353.7365,N,09832.0244,W,1,07,1.9,352.8,M,-23.7,M,,0000*65
$GPGSA,A,3,02,05,12,25,29,26,15,,,,,,4.7,1.9,4.4*31
$GPRMC,113542.000,A,3353.7365,N,09832.0244,W,0.18,340.99,020412,,,A*74
$GPGGA,113543.000,3353.7366,N,09832.0244,W,1,07,1.9,352.5,M,-23.7,M,,0000*6A
$GPGSA,A,3,02,05,12,25,29,26,15,,,,,,4.7,1.9,4.4*31
$GPRMC,113543.000,A,3353.7366,N,09832.0244,W,0.20,340.98,020412,,,A*7C
$GPGGA,113544.000,3353.7366,N,09832.0244,W,1,07,1.9,352.2,M,-23.7,M,,0000*6A
$GPGSA,A,3,02,05,12,25,29,26,15,,,,,,4.7,1.9,4.3*36
$GPRMC,113544.000,A,3353.7366,N,09832.0244,W,0.20,317.95,020412,,,A*74
$GPGGA,113545.000,3353.7366,N,09832.0244,W,1,07,1.9,352.0,M,-23.7,M,,0000*69
$GPGSA,A,3,02,05,12,25,29,26,15,,,,,,4.7,1.9,4.3*36
$GPRMC,113545.000,A,3353.7366,N,09832.0244,W,0.19,323.18,020412,,,A*7D
$GPGGA,113546.000,3353.7367,N,09832.0244,W,1,07,1.9,351.8,M,-23.7,M,,0000*60
$GPGSA,A,3,02,05,12,25,29,26,15,,,,,,4.7,1.9,4.3*36
$GPGSV,3,1,11,29,59,320,29,05,56,043,40,25,36,236,25,26,32,122,37*71
$GPGSV,3,2,11,02,27,073,32,15,19,167,36,12,19,194,16,21,18,282,*71
$GPGSV,3,3,11,18,11,225,,30,02,324,,10,01,044,17*47
$GPRMC,113546.000,A,3353.7367,N,09832.0244,W,0.18,326.01,020412,,,A*73
$GPGGA,113547.000,3353.7367,N,09832.0244,W,1,07,1.9,351.5,M,-23.7,M,,0000*6C
$GPGSA,A,3,02,05,12,25,29,26,15,,,,,,4.7,1.9,4.3*36
$GPRMC,113547.000,A,3353.7367,N,09832.0244,W,0.19,318.01,020412,,,A*7E
$GPGGA,113548.000,3353.7368,N,09832.0244,W,1,07,1.9,351.3,M,-23.7,M,,0000*6A
$GPGSA,A,3,02,05,12,25,29,26,15,,,,,,4.7,1.9,4.3*36
$GPRMC,113548.000,A,3353.7368,N,09832.0244,W,0.25,357.25,020412,,,A*7C
$GPGGA,113549.000,3353.7368,N,09832.0243,W,1,07,1.9,351.1,M,-23.7,M,,0000*6E
$GPGSA,A,3,02,05,12,25,29,26,15,,,,,,4.7,1.9,4.3*36
$GPRMC,113549.000,A,3353.7368,N,09832.0243,W,0.27,9.60,020412,,,A*71
$GPGGA,113550.000,3353.7369,N,09832.0243,W,1,07,1.9,350.9,M,-23.7,M,,0000*6E
$GPGSA,A,3,02,05,12,25,29,26,15,,,,,,4.7,1.9,4.3*36
$GPRMC,113550.000,A,3353.7369,N,09832.0243,W,0.21,358.16,020412,,,A*78
$GPGGA,113551.000,3353.7369,N,09832.0242,W,1,07,1.9,350.8,M,-23.7,M,,0000*6F
$GPGSA,A,3,02,05,12,25,29,26,15,,,,,,4.7,1.9,4.3*36
$GPGSV,3,1,11,29,59,320,30,05,56,043,40,25,36,236,26,26,32,122,37*7A
$GPGSV,3,2,11,02,27,073,32,15,19,167,35,12,19,194,18,21,18,282,*7C
$GPGSV,3,3,11,18,11,225,,30,02,324,,10,01,044,16*46
$GPRMC,113551.000,A,3353.7369,N,09832.0242,W,0.22,4.59,020412,,,A*7A
$GPGGA,113552.000,3353.7369,N,09832.0242,W,1,07,1.9,350.7,M,-23.7,M,,0000*63
$GPGSA,A,3,02,05,12,25,29,26,15,,,,,,4.7,1.9,4.3*36
$GPRMC,113552.000,A,3353.7369,N,09832.0242,W,0.24,4.75,020412,,,A*71
$GPGGA,113553.000,3353.7370,N,09832.0241,W,1,07,1.9,350.6,M,-23.7,M,,0000*68
$GPGSA,A,3,02,05,12,25,29,26,15,,,,,,4.7,1.9,4.3*36
$GPRMC,113553.000,A,3353.7370,N,09832.0241,W,0.18,0.01,020412,,,A*73
$GPGGA,113554.000,3353.7370,N,09832.0241,W,1,07,1.9,350.5,M,-23.7,M,,0000*6C
$GPGSA,A,3,02,05,12,25,29,26,15,,,,,,4.7,1.9,4.3*36
$GPRMC,113554.000,A,3353.7370,N,09832.0241,W,0.13,327.62,020412,,,A*7C
$GPGGA,113555.000,3353.7370,N,09832.0241,W,1,07,1.9,350.4,M,-23.7,M,,0000*6C
$GPGSA,A,3,02,05,12,25,29,26,15,,,,,,4.7,1.9,4.3*36
$GPRMC,113555.000,A,3353.7370,N,09832.0241,W,0.14,309.65,020412,,,A*71
$GPGGA,113556.000,3353.7370,N,09832.0241,W,1,07,1.9,350.3,M,-23.7,M,,0000*68
$GPGSA,A,3,02,05,12,25,29,26,15,,,,,,4.7,1.9,4.3*36
$GPGSV,3,1,11,29,59,320,30,05,56,043,40,25,36,236,26,26,32,122,37*7A
$GPGSV,3,2,11,02,27,073,32,15,19,167,35,12,19,194,17,21,18,282,*73
$GPGSV,3,3,11,18,11,225,,30,02,324,,10,01,044,15*45
$GPRMC,113556.000,A,3353.7370,N,09832.0241,W,0.15,321.16,020412,,,A*7D
$GPGGA,113557.000,3353.7370,N,09832.0241,W,1,06,1.9,350.1,M,-23.7,M,,0000*6A
$GPGSA,A,3,02,05,25,29,26,15,,,,,,,4.9,1.9,4.5*3D
$GPRMC,113557.000,A,3353.7370,N,09832.0241,W,0.15,346.06,020412,,,A*7C
$GPGGA,113558.000,3353.7370,N,09832.0240,W,1,07,1.9,350.0,M,-23.7,M,,0000*64
$GPGSA,A,3,02,05,12,25,29,26,15,,,,,,4.7,1.9,4.3*36
$GPRMC,113558.000,A,3353.7370,N,09832.0240,W,0.15,327.86,020412,,,A*7D
$GPGGA,113559.000,3353.7371,N,09832.0240,W,1,07,1.9,349.9,M,-23.7,M,,0000*65
$GPGSA,A,3,02,05,12,25,29,26,15,,,,,,4.7,1.9,4.3*36
$GPRMC,113559.000,A,3353.7371,N,09832.0240,W,0.14,331.81,020412,,,A*7C
$GPGGA,113600.000,3353.7371,N,09832.0240,W,1,07,1.9,349.8,M,-23.7,M,,0000*6B
$GPGSA,A,3,02,05,12,25,29,26,15,,,,,,4.7,1.9,4.3*36
$GPRMC,113600.000,A,3353.7371,N,09832.0240,W,0.15,319.42,020412,,,A*77
$GPGGA,113601.000,3353.7371,N,09832.0240,W,1,07,1.9,349.7,M,-23.7,M,,0000*65
$GPGSA,A,3,02,05,12,25,29,26,15,,,,,,4.7,1.9,4.3*36
$GPGSV,3,1,11,29,59,320,30,05,56,043,40,25,36,236,27,26,32,122,38*74
$GPGSV,3,2,11,02,27,073,32,15,19,167,35,12,19,194,13,21,18,282,*77
$GPGSV,3,3,11,18,11,225,,30,02,324,,10,01,044,15*45
$GPRMC,113601.000,A,3353.7371,N,09832.0240,W,0.14,318.82,020412,,,A*7A
$GPGGA,113602.000,3353.7371,N,09832.0240,W,1,07,1.9,349.6,M,-23.7,M,,0000*67
$GPGSA,A,3,02,05,12,25,29,26,15,,,,,,4.7,1.9,4.3*36
$GPRMC,113602.000,A,3353.7371,N,09832.0240,W,0.13,321.43,020412,,,A*79
$GPGGA,113603.000,3353.7371,N,09832.0240,W,1,07,1.9,349.5,M,-23.7,M,,0000*65
$GPGSA,A,3,02,05,12,25,29,26,15,,,,,,4.7,1.9,4.3*36
$GPRMC,113603.000,A,3353.7371,N,09832.0240,W,0.15,316.41,020412,,,A*78
$GPGGA,113604.000,3353.7371,N,09832.0240,W,1,07,1.9,349.3,M,-23.7,M,,0000*64
$GPGSA,A,3,02,05,12,25,29,26,15,,,,,,4.7,1.9,4.3*36
$GPRMC,113604.000,A,3353.7371,N,09832.0240,W,0.15,308.99,020412,,,A*75
$GPGGA,113605.000,3353.7372,N,09832.0240,W,1,07,1.9,349.2,M,-23.7,M,,0000*67
$GPGSA,A,3,02,05,12,25,29,26,15,,,,,,4.7,1.9,4.3*36
$GPRMC,113605.000,A,3353.7372,N,09832.0240,W,0.15,312.25,020412,,,A*7B
$GPGGA,113606.000,3353.7372,N,09832.0239,W,1,07,1.9,349.0,M,-23.7,M,,0000*68
$GPGSA,A,3,02,05,12,25,29,26,15,,,,,,4.7,1.9,4.3*36
$GPGSV,3,1,11,29,59,320,31,05,56,043,40,25,36,236,28,26,32,122,38*7A
$GPGSV,3,2,11,02,27,073,33,15,19,167,36,12,19,194,15,21,18,282,*73
$GPGSV,3,3,11,18,11,225,,30,02,324,,10,01,044,14*44
$GPRMC,113606.000,A,3353.7372,N,09832.0239,W,0.21,2.50,020412,,,A*71
$GPGGA,113607.000,3353.7373,N,09832.0239,W,1,07,1.9,348.9,M,-23.7,M,,0000*60
$GPGSA,A,3,02,05,12,25,29,26,15,,,,,,4.7,1.9,4.3*36
$GPRMC,113607.000,A,3353.7373,N,09832.0239,W,0.26,2.44,020412,,,A*73
