$GPGGA,193018.000,3352.3130,N,09832.4164,W,2,09,0.9,295.4,M,-23.7,M,1.8,0000*48
$GPGSA,A,3,14,25,30,31,11,22,01,20,32,,,,1.9,0.9,1.6*35
$GPRMC,193018.000,A,3352.3130,N,09832.4164,W,0.03,4.51,010412,,,D*7F
$GPGGA,193019.000,3352.3130,N,09832.4164,W,2,09,0.9,295.3,M,-23.7,M,0.8,0000*4F
$GPGSA,A,3,14,25,30,31,11,22,01,20,32,,,,1.9,0.9,1.6*35
$GPRMC,193019.000,A,3352.3130,N,09832.4164,W,0.04,51.36,010412,,,D*48
$GPGGA,193020.000,3352.3131,N,09832.4165,W,2,09,0.9,295.2,M,-23.7,M,1.8,0000*45
$GPGSA,A,3,14,25,30,31,11,22,01,20,32,,,,1.9,0.9,1.6*35
$GPRMC,193020.000,A,3352.3131,N,09832.4165,W,0.03,33.31,010412,,,D*46
$GPGGA,193021.000,3352.3131,N,09832.4165,W,2,09,0.9,295.0,M,-23.7,M,0.8,0000*47
$GPGSA,A,3,14,25,30,31,11,22,01,20,32,,,,1.9,0.9,1.6*35
$GPRMC,193021.000,A,3352.3131,N,09832.4165,W,0.08,41.80,010412,,,D*43
$GPGGA,193022.000,3352.3132,N,09832.4165,W,2,09,0.9,294.8,M,-23.7,M,0.8,0000*4E
$GPGSA,A,3,14,25,30,31,11,22,01,20,32,,,,1.9,0.9,1.6*35
$GPGSV,3,1,11,31,88,216,32,14,45,049,34,22,39,129,32,32,39,316,35*7B
$GPGSV,3,2,11,01,31,289,28,25,26,066,37,11,24,263,25,30,20,168,37*79
$GPGSV,3,3,11,20,12,314,27,12,03,033,24,51,49,195,42*4F
$GPRMC,193022.000,A,3352.3132,N,09832.4165,W,0.11,32.96,010412,,,D*48
$GPGGA,193023.000,3352.3132,N,09832.4165,W,2,09,0.9,294.7,M,-23.7,M,0.8,0000*40
$GPGSA,A,3,14,25,30,31,11,22,01,20,32,,,,1.9,0.9,1.6*35
$GPRMC,193023.000,A,3352.3132,N,09832.4165,W,0.13,38.63,010412,,,D*4B
$GPGGA,193024.000,3352.3133,N,09832.4165,W,2,09,0.9,294.5,M,-23.7,M,1.8,0000*45
$GPGSA,A,3,14,25,30,31,11,22,01,20,32,,,,1.9,0.9,1.6*35
$GPRMC,193024.000,A,3352.3133,N,09832.4165,W,0.13,39.95,010412,,,D*45
$GPGGA,193025.000,3352.3134,N,09832.4165,W,2,09,0.9,294.3,M,-23.7,M,2.8,0000*46
$GPGSA,A,3,14,25,30,31,11,22,01,20,32,,,,1.9,0.9,1.6*35
$GPRMC,193025.000,A,3352.3134,N,09832.4165,W,0.10,28.13,010412,,,D*4E
$GPGGA,193026.000,3352.3134,N,09832.4165,W,2,09,0.9,294.1,M,-23.7,M,3.8,0000*46
$GPGSA,A,3,14,25,30,31,11,22,01,20,32,,,,1.9,0.9,1.6*35
$GPRMC,193026.000,A,3352.3134,N,09832.4165,W,0.14,32.92,010412,,,D*4B
$GPGGA,193027.000,3352.3135,N,09832.4165,W,2,09,0.9,293.9,M,-23.7,M,0.8,0000*4A
$GPGSA,A,3,14,25,30,31,11,22,01,20,32,,,,1.9,0.9,1.6*35
$GPGSV,3,1,11,31,88,216,32,14,45,049,34,22,39,129,32,32,39,316,35*7B
$GPGSV,3,2,11,01,31,289,28,25,26,066,37,11,24,263,24,30,20,168,37*78
$GPGSV,3,3,11,20,12,314,27,12,03,033,24,51,49,195,42*4F
$GPRMC,193027.000,A,3352.3135,N,09832.4165,W,0.06,40.00,010412,,,D*46
$GPGGA,193028.000,3352.3135,N,09832.4165,W,2,09,0.9,293.8,M,-23.7,M,0.8,0000*44
$GPGSA,A,3,14,25,30,31,11,22,01,20,32,,,,1.9,0.9,1.6*35
$GPRMC,193028.000,A,3352.3135,N,09832.4165,W,0.04,72.83,010412,,,D*41
$GPGGA,193029.000,3352.3135,N,09832.4166,W,2,09,0.9,293.7,M,-23.7,M,0.8,0000*49
$GPGSA,A,3,14,25,30,31,11,22,01,20,32,,,,1.9,0.9,1.6*35
$GPRMC,193029.000,A,3352.3135,N,09832.4166,W,0.15,68.62,010412,,,D*47
$GPGGA,193030.000,3352.3135,N,09832.4166,W,2,09,0.9,293.6,M,-23.7,M,1.8,0000*41
$GPGSA,A,3,14,25,30,31,11,22,01,20,32,,,,1.9,0.9,1.6*35
$GPRMC,193030.000,A,3352.3135,N,09832.4166,W,0.06,89.44,010412,,,D*46
$GPGGA,193031.000,3352.3136,N,09832.4166,W,2,09,0.9,293.4,M,-23.7,M,2.8,0000*42
$GPGSA,A,3,14,25,30,31,11,22,01,20,32,,,,1.9,0.9,1.6*35
$GPRMC,193031.000,A,3352.3136,N,09832.4166,W,0.11,62.00,010412,,,D*47
$GPGGA,193032.000,3352.3136,N,09832.4166,W,2,09,0.9,293.3,M,-23.7,M,3.8,0000*47
$GPGSA,A,3,14,25,30,31,11,22,01,20,32,,,,1.9,0.9,1.6*35
$GPGSV,3,1,11,31,88,216,32,14,45,049,33,22,39,129,32,32,39,316,35*7C
$GPGSV,3,2,11,01,31,289,27,25,26,066,37,11,24,263,24,30,20,168,37*77
$GPGSV,3,3,11,20,12,314,28,12,03,033,24,51,49,195,42*40
$GPRMC,193032.000,A,3352.3136,N,09832.4166,W,0.02,259.64,010412,,,D*7E
$GPGGA,193033.000,3352.3136,N,09832.4166,W,2,09,0.9,293.2,M,-23.7,M,0.8,0000*44
$GPGSA,A,3,14,25,30,31,11,22,01,20,32,,,,1.9,0.9,1.6*35
$GPRMC,193033.000,A,3352.3136,N,09832.4166,W,0.14,66.06,010412,,,D*42
$GPGGA,193034.000,3352.3137,N,09832.4166,W,2,09,0.9,293.0,M,-23.7,M,0.8,0000*40
$GPGSA,A,3,14,25,30,31,11,22,01,20,32,,,,1.9,0.9,1.6*35
$GPRMC,193034.000,A,3352.3137,N,09832.4166,W,0.17,51.61,010412,,,D*42
$GPGGA,193035.000,3352.3137,N,09832.4166,W,2,09,0.9,292.9,M,-23.7,M,0.8,0000*49
$GPGSA,A,3,14,25,30,31,11,22,01,20,32,,,,1.9,0.9,1.6*35
$GPRMC,193035.000,A,3352.3137,N,09832.4166,W,0.09,27.86,010412,,,D*44
$GPGGA,193036.000,3352.3138,N,09832.4166,W,2,09,0.9,292.7,M,-23.7,M,0.8,0000*4B
$GPGSA,A,3,14,25,30,31,11,22,01,20,32,,,,1.9,0.9,1.6*35
$GPRMC,193036.000,A,3352.3138,N,09832.4166,W,0.07,349.08,010412,,,D*7B
$GPGGA,193037.000,3352.3138,N,09832.4166,W,2,08,1.0,292.6,M,-23.7,M,0.8,0000*42
$GPGSA,A,3,14,25,30,31,22,01,20,32,,,,,1.9,1.0,1.6*3D
$GPGSV,3,1,12,31,89,266,32,14,44,050,33,32,40,316,35,22,38,130,32*77
$GPGSV,3,2,12,01,31,287,27,25,26,064,37,11,23,262,23,30,21,167,37*77
$GPGSV,3,3,12,20,13,314,28,12,02,032,25,16,00,182,,51,49,195,42*7F
$GPRMC,193037.000,A,3352.3138,N,09832.4166,W,0.17,47.29,010412,,,D*45
$GPGGA,193038.000,3352.3139,N,09832.4166,W,2,08,1.0,292.5,M,-23.7,M,1.8,0000*4E
$GPGSA,A,3,14,25,30,31,22,01,20,32,,,,,1.9,1.0,1.6*3D
$GPRMC,193038.000,A,3352.3139,N,09832.4166,W,0.14,44.62,010412,,,D*44
$GPGGA,193039.000,3352.3139,N,09832.4166,W,2,08,1.0,292.3,M,-23.7,M,0.8,0000*48
$GPGSA,A,3,14,25,30,31,22,01,20,32,,,,,1.9,1.0,1.6*3D
$GPRMC,193039.000,A,3352.3139,N,09832.4166,W,0.09,39.51,010412,,,D*43
$GPGGA,193040.000,3352.3140,N,09832.4166,W,2,08,1.0,292.2,M,-23.7,M,0.8,0000*49
$GPGSA,A,3,14,25,30,31,22,01,20,32,,,,,1.9,1.0,1.6*3D
$GPRMC,193040.000,A,3352.3140,N,09832.4166,W,0.09,68.60,010412,,,D*45
$GPGGA,193041.000,3352.3140,N,09832.4166,W,2,08,1.0,292.1,M,-23.7,M,0.8,0000*4B
$GPGSA,A,3,14,25,30,31,22,01,20,32,,,,,1.9,1.0,1.6*3D
$GPRMC,193041.000,A,3352.3140,N,09832.4166,W,0.05,77.36,010412,,,D*45
$GPGGA,193042.000,3352.3140,N,09832.4166,W,2,08,1.0,292.0,M,-23.7,M,1.8,0000*48
$GPGSA,A,3,14,25,30,31,22,01,20,32,,,,,1.9,1.0,1.6*3D
$GPGSV,3,1,12,31,89,266,32,14,44,050,33,32,40,316,35,22,38,130,32*77
$GPGSV,3,2,12,01,31,287,26,25,26,064,37,11,23,262,,30,21,167,36*76
$GPGSV,3,3,12,20,13,314,28,12,02,032,26,16,00,182,,51,49,195,42*7C
$GPRMC,193042.000,A,3352.3140,N,09832.4166,W,0.11,77.06,010412,,,D*40
$GPGGA,193043.000,3352.3136,N,09832.4166,W,2,08,1.0,295.7,M,-23.7,M,0.8,0000*49
$GPGSA,A,3,14,25,30,31,22,01,20,32,,,,,1.9,1.0,1.6*3D
$GPRMC,193043.000,A,3352.3136,N,09832.4166,W,0.03,71.09,010412,,,D*4A
$GPGGA,193044.000,3352.3134,N,09832.4166,W,2,08,1.0,298.2,M,-23.7,M,1.8,0000*45
$GPGSA,A,3,14,25,30,31,22,01,20,32,,,,,1.9,1.0,1.6*3D
$GPRMC,193044.000,A,3352.3134,N,09832.4166,W,0.04,107.92,010412,,,D*7A
$GPGGA,193045.000,3352.3133,N,09832.4166,W,2,08,1.0,300.0,M,-23.7,M,0.8,0000*40
$GPGSA,A,3,14,25,30,31,22,01,20,32,,,,,1.9,1.0,1.6*3D
$GPRMC,193045.000,A,3352.3133,N,09832.4166,W,0.06,51.39,010412,,,D*4D
$GPGGA,193046.000,3352.3132,N,09832.4165,W,2,08,1.0,301.4,M,-23.7,M,0.8,0000*44
$GPGSA,A,3,14,25,30,31,22,01,20,32,,,,,1.9,1.0,1.6*3D
$GPRMC,193046.000,A,3352.3132,N,09832.4165,W,0.18,60.16,010412,,,D*4C
$GPGGA,193047.000,3352.3132,N,09832.4164,W,2,08,1.0,302.5,M,-23.7,M,0.8,0000*46
$GPGSA,A,3,14,25,30,31,22,01,20,32,,,,,1.9,1.0,1.6*3D
$GPGSV,3,1,12,31,89,266,33,14,44,050,32,32,40,316,35,22,38,130,32*77
$GPGSV,3,2,12,01,31,287,21,25,26,064,37,11,23,262,,30,21,167,35*72
$GPGSV,3,3,12,20,13,314,29,12,02,032,26,16,00,182,,51,49,195,42*7D
$GPRMC,193047.000,A,3352.3132,N,09832.4164,W,0.12,46.17,010412,,,D*43
$GPGGA,193048.000,3352.3132,N,09832.4164,W,2,08,1.0,303.5,M,-23.7,M,1.8,0000*49
$GPGSA,A,3,14,25,30,31,22,01,20,32,,,,,1.9,1.0,1.6*3D
$GPRMC,193048.000,A,3352.3132,N,09832.4164,W,0.13,43.47,010412,,,D*4D
$GPGGA,193049.000,3352.3132,N,09832.4163,W,2,08,1.0,304.4,M,-23.7,M,0.8,0000*48
$GPGSA,A,3,14,25,30,31,22,01,20,32,,,,,1.9,1.0,1.6*3D
$GPRMC,193049.000,A,3352.3132,N,09832.4163,W,0.28,61.16,010412,,,D*47
$GPGGA,193050.000,3352.3132,N,09832.4162,W,2,08,1.0,305.1,M,-23.7,M,1.8,0000*44
$GPGSA,A,3,14,25,30,31,22,01,20,32,,,,,1.9,1.0,1.6*3D
$GPRMC,193050.000,A,3352.3132,N,09832.4162,W,0.13,53.64,010412,,,D*42
$GPGGA,193051.000,3352.3132,N,09832.4161,W,2,08,1.0,305.8,M,-23.7,M,0.8,0000*4E
$GPGSA,A,3,14,25,30,31,22,01,20,32,,,,,1.9,1.0,1.6*3D
$GPRMC,193051.000,A,3352.3132,N,09832.4161,W,0.03,349.09,010412,,,D*72
$GPGGA,193052.000,3352.3131,N,09832.4161,W,2,08,1.0,306.4,M,-23.7,M,0.8,0000*41
$GPGSA,A,3,14,25,30,31,22,01,20,32,,,,,1.9,1.0,1.6*3D
$GPGSV,3,1,12,31,89,266,33,14,44,050,32,32,40,316,35,22,38,130,32*77
$GPGSV,3,2,12,01,31,287,19,25,26,064,36,11,23,262,,30,21,167,35*78
$GPGSV,3,3,12,20,13,314,29,12,02,032,26,16,00,182,,51,49,195,42*7D
$GPRMC,193052.000,A,3352.3131,N,09832.4161,W,0.05,213.64,010412,,,D*71
$GPGGA,193053.000,3352.3131,N,09832.4161,W,2,08,1.0,307.0,M,-23.7,M,0.8,0000*45
$GPGSA,A,3,14,25,30,31,22,01,20,32,,,,,1.9,1.0,1.6*3D
$GPRMC,193053.000,A,3352.3131,N,09832.4161,W,0.03,195.79,010412,,,D*77
$GPGGA,193054.000,3352.3130,N,09832.4160,W,2,08,1.0,307.5,M,-23.7,M,1.8,0000*46
$GPGSA,A,3,14,25,30,31,22,01,20,32,,,,,1.9,1.0,1.6*3D
$GPRMC,193054.000,A,3352.3130,N,09832.4160,W,0.05,247.89,010412,,,D*75
$GPGGA,193055.000,3352.3130,N,09832.4160,W,2,08,1.0,307.9,M,-23.7,M,2.8,0000*48
$GPGSA,A,3,14,25,30,31,22,01,20,32,,,,,1.9,1.0,1.6*3D
$GPRMC,193055.000,A,3352.3130,N,09832.4160,W,0.12,91.01,010412,,,D*4B
$GPGGA,193056.000,3352.3130,N,09832.4159,W,2,08,1.0,308.3,M,-23.7,M,3.8,0000*45
$GPGSA,A,3,14,25,30,31,22,01,20,32,,,,,1.9,1.0,1.6*3D
$GPRMC,193056.000,A,3352.3130,N,09832.4159,W,0.01,252.02,010412,,,D*7E
$GPGGA,193057.000,3352.3130,N,09832.4159,W,2,08,1.0,308.7,M,-23.7,M,0.8,0000*43
$GPGSA,A,3,14,25,30,31,22,01,20,32,,,,,1.9,1.0,1.6*3D
$GPGSV,3,1,12,31,89,266,33,14,44,050,32,32,40,316,35,22,38,130,32*77
$GPGSV,3,2,12,01,31,287,19,25,26,064,36,11,23,262,,30,21,167,34*79
$GPGSV,3,3,12,20,13,314,30,12,02,032,26,16,00,182,,51,49,195,42*75
$GPRMC,193057.000,A,3352.3130,N,09832.4159,W,0.06,55.03,010412,,,D*4C
$GPGGA,193058.000,3352.3130,N,09832.4158,W,2,08,1.0,309.0,M,-23.7,M,0.8,0000*4B
$GPGSA,A,3,14,25,30,31,22,01,20,32,,,,,1.9,1.0,1.6*3D
$GPRMC,193058.000,A,3352.3130,N,09832.4158,W,0.12,33.79,010412,,,D*4A
$GPGGA,193059.000,3352.3130,N,09832.4158,W,2,08,1.0,309.2,M,-23.7,M,0.8,0000*48
$GPGSA,A,3,14,25,30,31,22,01,20,32,,,,,1.9,1.0,1.6*3D
$GPRMC,193059.000,A,3352.3130,N,09832.4158,W,0.11,24.86,010412,,,D*4E
$GPGGA,193100.000,3352.3130,N,09832.4157,W,2,08,1.0,309.5,M,-23.7,M,1.8,0000*4C
$GPGSA,A,3,14,25,30,31,22,01,20,32,,,,,1.9,1.0,1.6*3D
$GPRMC,193100.000,A,3352.3130,N,09832.4157,W,0.27,63.11,010412,,,D*44
$GPGGA,193101.000,3352.3130,N,09832.4156,W,2,08,1.0,309.6,M,-23.7,M,2.8,0000*4C
$GPGSA,A,3,14,25,30,31,22,01,20,32,,,,,1.9,1.0,1.6*3D
$GPRMC,193101.000,A,3352.3130,N,09832.4156,W,0.24,65.20,010412,,,D*43
$GPGGA,193102.000,3352.3130,N,09832.4155,W,2,08,1.0,309.8,M,-23.7,M,3.8,0000*43
$GPGSA,A,3,14,25,30,31,22,01,20,32,,,,,1.9,1.0,1.6*3D
$GPGSV,3,1,12,31,89,266,33,14,44,050,33,32,40,316,35,22,38,130,32*76
$GPGSV,3,2,12,01,31,287,18,25,26,064,36,11,23,262,,30,21,167,33*7F
$GPGSV,3,3,12,20,13,314,30,12,02,032,26,16,00,182,,51,49,195,42*75
$GPRMC,193102.000,A,3352.3130,N,09832.4155,W,0.13,32.78,010412,,,D*48
$GPGGA,193103.000,3352.3130,N,09832.4155,W,2,08,1.0,310.0,M,-23.7,M,0.8,0000*41
$GPGSA,A,3,14,25,30,31,22,01,20,32,,,,,1.9,1.0,1.6*3D
$GPRMC,193103.000,A,3352.3130,N,09832.4155,W,0.04,340.45,010412,,,D*77
$GPGGA,193104.000,3352.3130,N,09832.4155,W,2,08,1.0,310.1,M,-23.7,M,0.8,0000*47
$GPGSA,A,3,14,25,30,31,22,01,20,32,,,,,1.9,1.0,1.6*3D
$GPRMC,193104.000,A,3352.3130,N,09832.4155,W,0.02,274.21,010412,,,D*72
$GPGGA,193105.000,3352.3130,N,09832.4155,W,2,08,1.0,310.3,M,-23.7,M,0.8,0000*44
$GPGSA,A,3,14,25,30,31,22,01,20,32,,,,,1.9,1.0,1.6*3D
$GPRMC,193105.000,A,3352.3130,N,09832.4155,W,0.06,253.55,010412,,,D*71
$GPGGA,193106.000,3352.3128,N,09832.4157,W,2,08,1.0,310.2,M,-23.7,M,0.8,0000*4D
$GPGSA,A,3,14,25,30,31,22,01,20,32,,,,,1.9,1.0,1.6*3D
$GPRMC,193106.000,A,3352.3128,N,09832.4157,W,0.13,100.85,010412,,,D*75
$GPGGA,193107.000,3352.3127,N,09832.4157,W,2,08,1.0,310.2,M,-23.7,M,1.8,0000*42
$GPGSA,A,3,14,25,30,31,22,01,20,32,,,,,1.9,1.0,1.6*3D
$GPGSV,3,1,12,31,89,266,33,14,44,050,33,32,40,316,35,22,38,130,32*76
$GPGSV,3,2,12,01,31,287,18,25,26,064,36,11,23,262,,30,21,167,33*7F
$GPGSV,3,3,12,20,13,314,31,12,02,032,26,16,00,182,,51,49,195,42*74
$GPRMC,193107.000,A,3352.3127,N,09832.4157,W,0.17,95.76,010412,,,D*4E
$GPGGA,193108.000,3352.3126,N,09832.4158,W,2,08,1.0,310.2,M,-23.7,M,2.8,0000*40
$GPGSA,A,3,14,25,30,31,22,01,20,32,,,,,1.9,1.0,1.6*3D
$GPRMC,193108.000,A,3352.3126,N,09832.4158,W,0.16,95.70,010412,,,D*48
$GPGGA,193109.000,3352.3125,N,09832.4158,W,2,08,1.0,310.2,M,-23.7,M,0.8,0000*40
$GPGSA,A,3,14,25,30,31,22,01,20,32,,,,,1.9,1.0,1.6*3D
$GPRMC,193109.000,A,3352.3125,N,09832.4158,W,0.19,77.85,010412,,,D*43
$GPGGA,193110.000,3352.3124,N,09832.4159,W,2,08,1.0,310.1,M,-23.7,M,0.8,0000*4B
$GPGSA,A,3,14,25,30,31,22,01,20,32,,,,,1.9,1.0,1.6*3D
$GPRMC,193110.000,A,3352.3124,N,09832.4159,W,0.26,70.06,010412,,,D*4B
$GPGGA,193111.000,3352.3124,N,09832.4159,W,2,08,1.0,310.0,M,-23.7,M,0.8,0000*4B
$GPGSA,A,3,14,25,30,31,22,01,20,32,,,,,1.9,1.0,1.6*3D
$GPRMC,193111.000,A,3352.3124,N,09832.4159,W,0.28,73.41,010412,,,D*44
$GPGGA,193112.000,3352.3123,N,09832.4159,W,2,08,1.0,309.9,M,-23.7,M,1.8,0000*4F
$GPGSA,A,3,14,25,30,31,22,01,20,32,,,,,1.9,1.0,1.6*3D
$GPGSV,3,1,12,31,89,266,34,14,44,050,33,32,40,316,35,22,38,130,32*71
$GPGSV,3,2,12,01,31,287,19,25,26,064,36,11,23,262,,30,21,167,32*7F
$GPGSV,3,3,12,20,13,314,32,12,02,032,26,16,00,182,,51,49,195,42*77
$GPRMC,193112.000,A,3352.3123,N,09832.4159,W,0.13,41.53,010412,,,D*4A
$GPGGA,193113.000,3352.3123,N,09832.4159,W,2,08,1.0,309.8,M,-23.7,M,0.8,0000*4E
$GPGSA,A,3,14,25,30,31,22,01,20,32,,,,,1.9,1.0,1.6*3D
$GPRMC,193113.000,A,3352.3123,N,09832.4159,W,0.21,69.51,010412,,,D*42
$GPGGA,193114.000,3352.3122,N,09832.4160,W,2,08,1.0,309.7,M,-23.7,M,0.8,0000*4D
$GPGSA,A,3,14,25,30,31,22,01,20,32,,,,,1.9,1.0,1.6*3D
$GPRMC,193114.000,A,3352.3122,N,09832.4160,W,0.10,32.15,010412,,,D*42
$GPGGA,193115.000,3352.3122,N,09832.4160,W,2,08,1.0,309.5,M,-23.7,M,0.8,0000*4E
$GPGSA,A,3,14,25,30,31,22,01,20,32,,,,,1.9,1.0,1.6*3D
$GPRMC,193115.000,A,3352.3122,N,09832.4160,W,0.04,20.37,010412,,,D*45
$GPGGA,193116.000,3352.3121,N,09832.4161,W,2,08,1.0,309.4,M,-23.7,M,0.8,0000*4E
$GPGSA,A,3,14,25,30,31,22,01,20,32,,,,,1.9,1.0,1.6*3D
$GPRMC,193116.000,A,3352.3121,N,09832.4161,W,0.16,97.63,010412,,,D*4A
$GPGGA,193117.000,3352.3120,N,09832.4162,W,2,08,1.0,309.3,M,-23.7,M,0.8,0000*4A
$GPGSA,A,3,14,25,30,31,22,01,20,32,,,,,1.9,1.0,1.6*3D
$GPGSV,3,1,12,31,89,266,34,14,44,050,33,32,40,316,35,22,38,130,31*72
$GPGSV,3,2,12,01,31,287,20,25,26,064,36,11,23,262,,30,21,167,32*75
$GPGSV,3,3,12,20,13,314,32,12,02,032,26,16,00,182,,51,49,195,42*77
$GPRMC,193117.000,A,3352.3120,N,09832.4162,W,0.02,216.52,010412,,,D*75
$GPGGA,193118.000,3352.3119,N,09832.4163,W,2,08,1.0,309.2,M,-23.7,M,1.8,0000*4E
$GPGSA,A,3,14,25,30,31,22,01,20,32,,,,,1.9,1.0,1.6*3D
$GPRMC,193118.000,A,3352.3119,N,09832.4163,W,0.06,235.47,010412,,,D*70
$GPGGA,193119.000,3352.3118,N,09832.4163,W,2,08,1.0,309.0,M,-23.7,M,2.8,0000*4F
$GPGSA,A,3,14,25,30,31,22,01,20,32,,,,,1.9,1.0,1.6*3D
$GPRMC,193119.000,A,3352.3118,N,09832.4163,W,0.05,114.73,010412,,,D*74
$GPGGA,193120.000,3352.3118,N,09832.4164,W,2,08,1.0,308.9,M,-23.7,M,3.8,0000*4B
$GPGSA,A,3,14,25,30,31,22,01,20,32,,,,,1.9,1.0,1.6*3D
$GPRMC,193120.000,A,3352.3118,N,09832.4164,W,0.06,107.45,010412,,,D*7D
$GPGGA,193121.000,3352.3117,N,09832.4164,W,2,08,1.0,308.8,M,-23.7,M,0.8,0000*47
$GPGSA,A,3,14,25,30,31,22,01,20,32,,,,,1.9,1.0,1.6*3D
$GPRMC,193121.000,A,3352.3117,N,09832.4164,W,0.15,80.56,010412,,,D*4D
$GPGGA,193122.000,3352.3117,N,09832.4164,W,2,08,1.0,308.7,M,-23.7,M,0.8,0000*4B
$GPGSA,A,3,14,25,30,31,22,01,20,32,,,,,1.9,1.0,1.6*3D
$GPGSV,3,1,12,31,89,266,34,14,44,050,33,32,40,316,35,22,38,130,31*72
$GPGSV,3,2,12,01,31,287,21,25,26,064,36,11,23,262,,30,21,167,32*74
$GPGSV,3,3,12,20,13,314,32,12,02,032,26,16,00,182,,51,49,195,42*77
$GPRMC,193122.000,A,3352.3117,N,09832.4164,W,0.27,68.40,010412,,,D*4E
$GPGGA,193123.000,3352.3116,N,09832.4164,W,2,08,1.0,308.5,M,-23.7,M,0.8,0000*49
$GPGSA,A,3,14,25,30,31,22,01,20,32,,,,,1.9,1.0,1.6*3D
$GPRMC,193123.000,A,3352.3116,N,09832.4164,W,0.14,55.99,010412,,,D*44
$GPGGA,193124.000,3352.3116,N,09832.4164,W,2,08,1.0,308.4,M,-23.7,M,1.8,0000*4E
$GPGSA,A,3,14,25,30,31,22,01,20,32,,,,,1.9,1.0,1.6*3D
$GPRMC,193124.000,A,3352.3116,N,09832.4164,W,0.12,49.14,010412,,,D*4D
$GPGGA,193125.000,3352.3116,N,09832.4164,W,2,08,1.0,308.2,M,-23.7,M,0.8,0000*48
$GPGSA,A,3,14,25,30,31,22,01,20,32,,,,,1.9,1.0,1.6*3D
$GPRMC,193125.000,A,3352.3116,N,09832.4164,W,0.10,44.19,010412,,,D*4E
$GPGGA,193126.000,3352.3115,N,09832.4164,W,2,08,1.0,308.1,M,-23.7,M,1.8,0000*4A
$GPGSA,A,3,14,25,30,31,22,01,20,32,,,,,1.9,1.0,1.6*3D
$GPRMC,193126.000,A,3352.3115,N,09832.4164,W,0.28,70.06,010412,,,D*4C
$GPGGA,193127.000,3352.3115,N,09832.4164,W,2,08,1.0,307.9,M,-23.7,M,0.8,0000*4D
$GPGSA,A,3,14,25,30,31,22,01,20,32,,,,,1.9,1.0,1.6*3D
$GPGSV,3,1,12,31,89,266,34,14,44,050,34,32,40,316,35,22,38,130,31*75
$GPGSV,3,2,12,01,31,287,22,25,26,064,36,11,23,262,,30,21,167,32*77
$GPGSV,3,3,12,20,13,314,33,12,02,032,26,16,00,182,,51,49,195,42*76
$GPRMC,193127.000,A,3352.3115,N,09832.4164,W,0.10,65.73,010412,,,D*40
$GPGGA,193128.000,3352.3114,N,09832.4164,W,2,08,1.0,307.8,M,-23.7,M,0.8,0000*42
$GPGSA,A,3,14,25,30,31,22,01,20,32,,,,,1.9,1.0,1.6*3D
$GPRMC,193128.000,A,3352.3114,N,09832.4164,W,0.05,216.24,010412,,,D*7E
$GPGGA,193129.000,3352.3114,N,09832.4165,W,2,08,1.0,307.7,M,-23.7,M,0.8,0000*4D
$GPGSA,A,3,14,25,30,31,22,01,20,32,,,,,1.9,1.0,1.6*3D
$GPRMC,193129.000,A,3352.3114,N,09832.4165,W,0.09,98.21,010412,,,D*43
$GPGGA,193130.000,3352.3113,N,09832.4165,W,2,08,1.0,307.6,M,-23.7,M,1.8,0000*42
$GPGSA,A,3,14,25,30,31,22,01,20,32,,,,,1.9,1.0,1.6*3D
$GPRMC,193130.000,A,3352.3113,N,09832.4165,W,0.14,89.90,010412,,,D*4A
$GPGGA,193131.000,3352.3112,N,09832.4165,W,2,08,1.0,307.5,M,-23.7,M,0.8,0000*40
$GPGSA,A,3,14,25,30,31,22,01,20,32,,,,,1.9,1.0,1.6*3D
$GPRMC,193131.000,A,3352.3112,N,09832.4165,W,0.02,145.62,010412,,,D*71
$GPGGA,193132.000,3352.3111,N,09832.4166,W,2,08,1.0,307.4,M,-23.7,M,1.8,0000*43
$GPGSA,A,3,14,25,30,31,22,01,20,32,,,,,1.9,1.0,1.6*3D
$GPGSV,3,1,12,31,89,266,34,14,44,050,34,32,40,316,35,22,38,130,31*75
$GPGSV,3,2,12,01,31,287,23,25,26,064,36,11,23,262,,30,21,167,31*75
$GPGSV,3,3,12,20,13,314,33,12,02,032,26,16,00,182,,51,49,195,42*76
$GPRMC,193132.000,A,3352.3111,N,09832.4166,W,0.07,94.07,010412,,,D*49
$GPGGA,193133.000,3352.3111,N,09832.4166,W,2,08,1.0,307.3,M,-23.7,M,0.8,0000*44
$GPGSA,A,3,14,25,30,31,22,01,20,32,,,,,1.9,1.0,1.6*3D
$GPRMC,193133.000,A,3352.3111,N,09832.4166,W,0.18,74.55,010412,,,D*4F
$GPGGA,193134.000,3352.3111,N,09832.4166,W,2,08,1.0,307.2,M,-23.7,M,0.8,0000*42
$GPGSA,A,3,14,25,30,31,22,01,20,32,,,,,1.9,1.0,1.6*3D
$GPRMC,193134.000,A,3352.3111,N,09832.4166,W,0.18,69.14,010412,,,D*41
$GPGGA,193135.000,3352.3110,N,09832.4166,W,2,08,1.0,307.1,M,-23.7,M,0.8,0000*41
$GPGSA,A,3,14,25,30,31,22,01,20,32,,,,,1.9,1.0,1.6*3D
$GPRMC,193135.000,A,3352.3110,N,09832.4166,W,0.13,62.26,010412,,,D*40
$GPGGA,193136.000,3352.3110,N,09832.4166,W,2,08,1.0,306.9,M,-23.7,M,1.8,0000*4A
$GPGSA,A,3,14,25,30,31,22,01,20,32,,,,,1.9,1.0,1.6*3D
$GPRMC,193136.000,A,3352.3110,N,09832.4166,W,0.09,42.84,010412,,,D*42
$GPGGA,193137.000,3352.3110,N,09832.4166,W,2,08,1.0,306.8,M,-23.7,M,0.8,0000*4B
$GPGSA,A,3,14,25,30,31,22,01,20,32,,,,,1.9,1.0,1.6*3D
$GPGSV,3,1,12,31,89,266,34,14,44,050,34,32,40,316,35,22,38,130,31*75
$GPGSV,3,2,12,01,31,287,24,25,26,064,36,11,23,262,,30,21,167,32*71
$GPGSV,3,3,12,20,13,314,33,12,02,032,25,16,00,182,,51,49,195,42*75
$GPRMC,193137.000,A,3352.3110,N,09832.4166,W,0.09,65.49,010412,,,D*47
$GPGGA,193138.000,3352.3110,N,09832.4166,W,2,08,1.0,306.7,M,-23.7,M,1.8,0000*4A
$GPGSA,A,3,14,25,30,31,22,01,20,32,,,,,1.9,1.0,1.6*3D
$GPRMC,193138.000,A,3352.3110,N,09832.4166,W,0.12,63.27,010412,,,D*4C
$GPGGA,193139.000,3352.3109,N,09832.4166,W,2,08,1.0,306.5,M,-23.7,M,0.8,0000*40
$GPGSA,A,3,14,25,30,31,22,01,20,32,,,,,1.9,1.0,1.6*3D
$GPRMC,193139.000,A,3352.3109,N,09832.4166,W,0.06,71.43,010412,,,D*41
$GPGGA,193140.000,3352.3109,N,09832.4166,W,2,08,1.0,306.5,M,-23.7,M,0.8,0000*4E
$GPGSA,A,3,14,25,30,31,22,01,20,32,,,,,1.9,1.0,1.6*3D
$GPRMC,193140.000,A,3352.3109,N,09832.4166,W,0.07,64.11,010412,,,D*4D
$GPGGA,193141.000,3352.3109,N,09832.4167,W,2,08,1.0,306.5,M,-23.7,M,0.8,0000*4E
$GPGSA,A,3,14,25,30,31,22,01,20,32,,,,,1.9,1.0,1.6*3D
$GPRMC,193141.000,A,3352.3109,N,09832.4167,W,0.05,79.30,010412,,,D*40
$GPGGA,193142.000,3352.3108,N,09832.4167,W,2,08,1.0,306.4,M,-23.7,M,1.8,0000*4C
$GPGSA,A,3,14,25,30,31,22,01,20,32,,,,,1.9,1.0,1.6*3D
$GPGSV,3,1,12,31,89,266,34,14,44,050,34,32,40,316,35,22,38,130,31*75
$GPGSV,3,2,12,01,31,287,25,25,26,064,36,11,23,262,,30,21,167,32*70
$GPGSV,3,3,12,20,13,314,32,12,02,032,24,16,00,182,,51,49,195,42*75
$GPRMC,193142.000,A,3352.3108,N,09832.4167,W,0.04,56.67,010412,,,D*4C
$GPGGA,193143.000,3352.3108,N,09832.4167,W,2,08,1.0,306.3,M,-23.7,M,2.8,0000*49
$GPGSA,A,3,14,25,30,31,22,01,20,32,,,,,1.9,1.0,1.6*3D
$GPRMC,193143.000,A,3352.3108,N,09832.4167,W,0.05,50.08,010412,,,D*43
$GPGGA,193144.000,3352.3108,N,09832.4168,W,2,08,1.0,306.3,M,-23.7,M,3.8,0000*40
$GPGSA,A,3,14,25,30,31,22,01,20,32,,,,,1.9,1.0,1.6*3D
$GPRMC,193144.000,A,3352.3108,N,09832.4168,W,0.04,76.29,010412,,,D*4D
$GPGGA,193145.000,3352.3107,N,09832.4168,W,2,08,1.0,306.3,M,-23.7,M,0.8,0000*4D
$GPGSA,A,3,14,25,30,31,22,01,20,32,,,,,1.9,1.0,1.6*3D
$GPRMC,193145.000,A,3352.3107,N,09832.4168,W,0.09,51.56,010412,,,D*43
$GPGGA,193146.000,3352.3107,N,09832.4168,W,2,08,1.0,306.1,M,-23.7,M,0.8,0000*4C
$GPGSA,A,3,14,25,30,31,22,01,20,32,,,,,1.9,1.0,1.6*3D
$GPRMC,193146.000,A,3352.3107,N,09832.4168,W,0.13,67.92,010412,,,D*46
$GPGGA,193147.000,3352.3107,N,09832.4168,W,2,08,1.0,306.0,M,-23.7,M,0.8,0000*4C
$GPGSA,A,3,14,25,30,31,22,01,20,32,,,,,1.9,1.0,1.6*3D
$GPGSV,3,1,12,31,89,266,34,14,44,050,34,32,40,316,36,22,38,130,31*76
$GPGSV,3,2,12,01,31,287,25,25,26,064,37,11,23,262,,30,21,167,33*70
$GPGSV,3,3,12,20,13,314,32,12,02,032,24,16,00,182,,51,49,195,42*75
$GPRMC,193147.000,A,3352.3107,N,09832.4168,W,0.19,74.28,010412,,,D*4E
$GPGGA,193148.000,3352.3107,N,09832.4168,W,2,08,1.0,305.9,M,-23.7,M,0.8,0000*49
$GPGSA,A,3,14,25,30,31,22,01,20,32,,,,,1.9,1.0,1.6*3D
$GPRMC,193148.000,A,3352.3107,N,09832.4168,W,0.25,69.34,010412,,,D*4F
$GPGGA,193149.000,3352.3107,N,09832.4168,W,2,08,1.0,305.8,M,-23.7,M,1.8,0000*48
$GPGSA,A,3,14,25,30,31,22,01,20,32,,,,,1.9,1.0,1.6*3D
$GPRMC,193149.000,A,3352.3107,N,09832.4168,W,0.13,69.33,010412,,,D*4C
$GPGGA,193150.000,3352.3107,N,09832.4168,W,2,08,1.0,305.7,M,-23.7,M,2.8,0000*4C
$GPGSA,A,3,14,25,30,31,22,01,20,32,,,,,1.9,1.0,1.6*3D
$GPRMC,193150.000,A,3352.3107,N,09832.4168,W,0.09,72.10,010412,,,D*44
$GPGGA,193151.000,3352.3106,N,09832.4168,W,2,08,1.0,305.6,M,-23.7,M,0.8,0000*4F
$GPGSA,A,3,14,25,30,31,22,01,20,32,,,,,1.9,1.0,1.6*3D
$GPRMC,193151.000,A,3352.3106,N,09832.4168,W,0.05,101.56,010412,,,D*7F
$GPGGA,193152.000,3352.3106,N,09832.4169,W,2,08,1.0,305.3,M,-23.7,M,0.8,0000*48
$GPGSA,A,3,14,25,30,31,22,01,20,32,,,,,1.9,1.0,1.6*3D
$GPGSV,3,1,12,31,89,266,33,14,44,050,34,32,40,316,36,22,38,130,30*70
$GPGSV,3,2,12,01,31,287,25,25,26,064,36,11,23,262,,30,21,167,33*71
$GPGSV,3,3,12,20,13,314,32,12,02,032,24,16,00,182,,51,49,195,42*75
$GPRMC,193152.000,A,3352.3106,N,09832.4169,W,0.04,88.62,010412,,,D*4B
$GPGGA,193153.000,3352.3106,N,09832.4169,W,2,08,1.0,305.0,M,-23.7,M,0.8,0000*4A
$GPGSA,A,3,14,25,30,31,22,01,20,32,,,,,1.9,1.0,1.6*3D
$GPRMC,193153.000,A,3352.3106,N,09832.4169,W,0.08,101.30,010412,,,D*71
$GPGGA,193154.000,3352.3106,N,09832.4169,W,2,08,1.0,304.7,M,-23.7,M,1.8,0000*4A
$GPGSA,A,3,14,25,30,31,22,01,20,32,,,,,1.9,1.0,1.6*3D
$GPRMC,193154.000,A,3352.3106,N,09832.4169,W,0.03,163.37,010412,,,D*7E
$GPGGA,193155.000,3352.3105,N,09832.4169,W,2,08,1.0,304.4,M,-23.7,M,2.8,0000*48
$GPGSA,A,3,14,25,30,31,22,01,20,32,,,,,1.9,1.0,1.6*3D
$GPRMC,193155.000,A,3352.3105,N,09832.4169,W,0.07,90.96,010412,,,D*4E
$GPGGA,193156.000,3352.3105,N,09832.4170,W,2,08,1.0,304.1,M,-23.7,M,0.8,0000*44
$GPGSA,A,3,14,25,30,31,22,01,20,32,,,,,1.9,1.0,1.6*3D
$GPRMC,193156.000,A,3352.3105,N,09832.4170,W,0.04,95.76,010412,,,D*4D
$GPGGA,193157.000,3352.3105,N,09832.4170,W,2,08,1.0,303.7,M,-23.7,M,0.8,0000*44
$GPGSA,A,3,14,25,30,31,22,01,20,32,,,,,1.9,1.0,1.6*3D
$GPGSV,3,1,12,31,89,266,33,14,44,050,33,32,40,316,36,22,38,130,30*77
$GPGSV,3,2,12,01,31,287,25,25,26,064,37,11,23,262,,30,21,167,34*77
$GPGSV,3,3,12,20,13,314,31,12,02,032,25,16,00,182,,51,49,195,42*77
$GPRMC,193157.000,A,3352.3105,N,09832.4170,W,0.10,85.62,010412,,,D*4D
$GPGGA,193158.000,3352.3105,N,09832.4170,W,2,08,1.0,303.4,M,-23.7,M,0.8,0000*48
$GPGSA,A,3,14,25,30,31,22,01,20,32,,,,,1.9,1.0,1.6*3D
$GPRMC,193158.000,A,3352.3105,N,09832.4170,W,0.15,51.67,010412,,,D*4B
$GPGGA,193159.000,3352.3106,N,09832.4169,W,2,08,1.0,303.0,M,-23.7,M,0.8,0000*46
$GPGSA,A,3,14,25,30,31,22,01,20,32,,,,,1.9,1.0,1.6*3D
$GPRMC,193159.000,A,3352.3106,N,09832.4169,W,0.17,52.20,010412,,,D*43
$GPGGA,193200.000,3352.3106,N,09832.4169,W,2,08,1.0,302.7,M,-23.7,M,1.8,0000*4E
$GPGSA,A,3,14,25,30,31,22,01,20,32,,,,,1.9,1.0,1.6*3D
$GPRMC,193200.000,A,3352.3106,N,09832.4169,W,0.14,58.95,010412,,,D*4B
$GPGGA,193201.000,3352.3106,N,09832.4169,W,2,08,1.0,302.3,M,-23.7,M,2.8,0000*48
$GPGSA,A,3,14,25,30,31,22,01,20,32,,,,,1.9,1.0,1.6*3D
$GPRMC,193201.000,A,3352.3106,N,09832.4169,W,0.18,54.16,010412,,,D*41
$GPGGA,193202.000,3352.3107,N,09832.4169,W,2,08,1.0,302.0,M,-23.7,M,3.8,0000*48
$GPGSA,A,3,14,25,30,31,22,01,20,32,,,,,1.9,1.0,1.6*3D
$GPGSV,3,1,12,31,89,266,32,14,44,050,33,32,40,316,36,22,38,130,30*76
$GPGSV,3,2,12,01,31,287,26,25,26,064,37,11,23,262,,30,21,167,34*74
$GPGSV,3,3,12,20,13,314,30,12,02,032,25,16,00,182,,51,49,195,42*76
$GPRMC,193202.000,A,3352.3107,N,09832.4169,W,0.17,59.31,010412,,,D*44
$GPGGA,193203.000,3352.3107,N,09832.4169,W,2,08,1.0,301.6,M,-23.7,M,0.8,0000*4F
$GPGSA,A,3,14,25,30,31,22,01,20,32,,,,,1.9,1.0,1.6*3D
$GPRMC,193203.000,A,3352.3107,N,09832.4169,W,0.08,43.36,010412,,,D*47
$GPGGA,193204.000,3352.3107,N,09832.4169,W,2,08,1.0,301.2,M,-23.7,M,0.8,0000*4C
$GPGSA,A,3,14,25,30,31,22,01,20,32,,,,,1.9,1.0,1.6*3D
$GPRMC,193204.000,A,3352.3107,N,09832.4169,W,0.15,78.81,010412,,,D*48
$GPGGA,193205.000,3352.3107,N,09832.4169,W,2,08,1.0,300.9,M,-23.7,M,0.8,0000*47
$GPGSA,A,3,14,25,30,31,22,01,20,32,,,,,1.9,1.0,1.6*3D
$GPRMC,193205.000,A,3352.3107,N,09832.4169,W,0.07,88.69,010412,,,D*43
$GPGGA,193206.000,3352.3107,N,09832.4170,W,2,08,1.0,300.5,M,-23.7,M,1.8,0000*41
$GPGSA,A,3,14,25,30,31,22,01,20,32,,,,,1.9,1.0,1.6*3D
$GPRMC,193206.000,A,3352.3107,N,09832.4170,W,0.01,269.23,010412,,,D*7D
$GPGGA,193207.000,3352.3107,N,09832.4170,W,2,08,1.0,300.2,M,-23.7,M,2.8,0000*44
$GPGSA,A,3,14,25,30,31,22,01,20,32,,,,,1.9,1.0,1.6*3D
$GPGSV,3,1,12,31,89,266,32,14,44,050,33,32,40,316,36,22,38,130,30*76
$GPGSV,3,2,12,01,31,287,25,25,26,064,38,11,23,262,,30,21,167,35*79
$GPGSV,3,3,12,20,13,314,30,12,02,032,26,16,00,182,,51,49,195,42*75
$GPRMC,193207.000,A,3352.3107,N,09832.4170,W,0.04,96.38,010412,,,D*41
$GPGGA,193208.000,3352.3107,N,09832.4170,W,2,08,1.0,299.8,M,-23.7,M,3.8,0000*41
$GPGSA,A,3,14,25,30,31,22,01,20,32,,,,,1.9,1.0,1.6*3D
$GPRMC,193208.000,A,3352.3107,N,09832.4170,W,0.03,236.91,010412,,,D*72
$GPGGA,193209.000,3352.3107,N,09832.4171,W,2,08,1.0,299.5,M,-23.7,M,0.8,0000*4F
$GPGSA,A,3,14,25,30,31,22,01,20,32,,,,,1.9,1.0,1.6*3D
$GPRMC,193209.000,A,3352.3107,N,09832.4171,W,0.06,22.11,010412,,,D*48
$GPGGA,193210.000,3352.3107,N,09832.4171,W,2,08,1.0,299.1,M,-23.7,M,0.8,0000*43
$GPGSA,A,3,14,25,30,31,22,01,20,32,,,,,1.9,1.0,1.6*3D
$GPRMC,193210.000,A,3352.3107,N,09832.4171,W,0.16,73.12,010412,,,D*46
$GPGGA,193211.000,3352.3108,N,09832.4171,W,2,08,1.0,298.7,M,-23.7,M,0.8,0000*4A
$GPGSA,A,3,14,25,30,31,22,01,20,32,,,,,1.9,1.0,1.6*3D
$GPRMC,193211.000,A,3352.3108,N,09832.4171,W,0.12,67.14,010412,,,D*4F
$GPGGA,193212.000,3352.3108,N,09832.4171,W,2,08,1.0,298.3,M,-23.7,M,0.8,0000*4D
$GPGSA,A,3,14,25,30,31,22,01,20,32,,,,,1.9,1.0,1.6*3D
$GPGSV,3,1,12,31,89,266,32,14,44,050,32,32,40,316,35,22,38,130,30*74
$GPGSV,3,2,12,01,31,287,25,25,26,064,37,11,23,262,,30,21,167,35*76
$GPGSV,3,3,12,20,13,314,29,12,02,032,26,16,00,182,,51,49,195,42*7D
$GPRMC,193212.000,A,3352.3108,N,09832.4171,W,0.17,62.52,010412,,,D*4E
$GPGGA,193213.000,3352.3108,N,09832.4170,W,2,08,1.0,298.0,M,-23.7,M,0.8,0000*4E
$GPGSA,A,3,14,25,30,31,22,01,20,32,,,,,1.9,1.0,1.6*3D
$GPRMC,193213.000,A,3352.3108,N,09832.4170,W,0.24,72.27,010412,,,D*4D
$GPGGA,193214.000,3352.3109,N,09832.4170,W,2,08,1.0,297.6,M,-23.7,M,1.8,0000*40
$GPGSA,A,3,14,25,30,31,22,01,20,32,,,,,1.9,1.0,1.6*3D
$GPRMC,193214.000,A,3352.3109,N,09832.4170,W,0.10,41.27,010412,,,D*4C
$GPGGA,193215.000,3352.3109,N,09832.4171,W,2,08,1.0,297.3,M,-23.7,M,0.8,0000*44
$GPGSA,A,3,14,25,30,31,22,01,20,32,,,,,1.9,1.0,1.6*3D
$GPRMC,193215.000,A,3352.3109,N,09832.4171,W,0.08,61.45,010412,,,D*43
$GPGGA,193216.000,3352.3110,N,09832.4171,W,2,08,1.0,296.9,M,-23.7,M,0.8,0000*44
$GPGSA,A,3,14,25,30,31,22,01,20,32,,,,,1.9,1.0,1.6*3D
$GPRMC,193216.000,A,3352.3110,N,09832.4171,W,0.14,61.19,010412,,,D*4C
$GPGGA,193217.000,3352.3110,N,09832.4171,W,2,08,1.0,296.6,M,-23.7,M,0.8,0000*4A
$GPGSA,A,3,14,25,30,31,22,01,20,32,,,,,1.9,1.0,1.6*3D
$GPGSV,3,1,12,31,89,266,32,14,44,050,32,32,40,316,35,22,38,130,29*7C
$GPGSV,3,2,12,01,31,287,24,25,26,064,37,11,23,262,,30,21,167,36*74
$GPGSV,3,3,12,20,13,314,29,12,02,032,25,16,00,182,,51,49,195,42*7E
$GPRMC,193217.000,A,3352.3110,N,09832.4171,W,0.09,34.30,010412,,,D*4A
$GPGGA,193218.000,3352.3110,N,09832.4171,W,2,08,1.0,296.3,M,-23.7,M,1.8,0000*41
$GPGSA,A,3,14,25,30,31,22,01,20,32,,,,,1.9,1.0,1.7*3C
$GPRMC,193218.000,A,3352.3110,N,09832.4171,W,0.11,49.18,010412,,,D*4C
$GPGGA,193219.000,3352.3111,N,09832.4172,W,2,08,1.0,295.9,M,-23.7,M,0.8,0000*4A
$GPGSA,A,3,14,25,30,31,22,01,20,32,,,,,1.9,1.0,1.7*3C
$GPRMC,193219.000,A,3352.3111,N,09832.4172,W,0.10,27.42,010412,,,D*49
$GPGGA,193220.000,3352.3112,N,09832.4172,W,2,08,1.0,295.6,M,-23.7,M,1.8,0000*4D
$GPGSA,A,3,14,25,30,31,22,01,20,32,,,,,1.9,1.0,1.7*3C
$GPRMC,193220.000,A,3352.3112,N,09832.4172,W,0.08,33.44,010412,,,D*4A
$GPGGA,193221.000,3352.3112,N,09832.4172,W,2,08,1.0,295.3,M,-23.7,M,0.8,0000*48
$GPGSA,A,3,14,25,30,31,22,01,20,32,,,,,1.9,1.0,1.7*3C
$GPRMC,193221.000,A,3352.3112,N,09832.4172,W,0.15,46.97,010412,,,D*4B
$GPGGA,193222.000,3352.3113,N,09832.4172,W,2,08,1.0,294.9,M,-23.7,M,0.8,0000*41
$GPGSA,A,3,14,25,30,31,22,01,20,32,,,,,1.9,1.0,1.7*3C
$GPGSV,3,1,12,31,89,266,32,14,44,050,32,32,40,316,34,22,38,130,29*7D
$GPGSV,3,2,12,01,31,287,24,25,26,064,37,11,23,262,,30,21,167,36*74
$GPGSV,3,3,12,20,13,314,29,12,02,032,,16,00,182,,51,49,195,42*79
$GPRMC,193222.000,A,3352.3113,N,09832.4172,W,0.14,53.23,010412,,,D*43
$GPGGA,193223.000,3352.3113,N,09832.4172,W,2,08,1.0,294.5,M,-23.7,M,0.8,0000*4C
$GPGSA,A,3,14,25,30,31,22,01,20,32,,,,,1.9,1.0,1.7*3C
$GPRMC,193223.000,A,3352.3113,N,09832.4172,W,0.15,61.50,010412,,,D*46
$GPGGA,193224.000,3352.3114,N,09832.4173,W,2,08,1.0,294.1,M,-23.7,M,1.8,0000*48
$GPGSA,A,3,14,25,30,31,22,01,20,32,,,,,1.9,1.0,1.7*3C
$GPRMC,193224.000,A,3352.3114,N,09832.4173,W,0.14,61.89,010412,,,D*42
$GPGGA,193225.000,3352.3115,N,09832.4173,W,2,08,1.0,293.7,M,-23.7,M,2.8,0000*4A
$GPGSA,A,3,14,25,30,31,22,01,20,32,,,,,1.9,1.0,1.7*3C
$GPRMC,193225.000,A,3352.3115,N,09832.4173,W,0.14,58.75,010412,,,D*4B
$GPGGA,193226.000,3352.3115,N,09832.4173,W,2,08,1.0,293.3,M,-23.7,M,3.8,0000*4C
$GPGSA,A,3,14,25,30,31,22,01,20,32,,,,,1.9,1.0,1.7*3C
$GPRMC,193226.000,A,3352.3115,N,09832.4173,W,0.15,62.42,010412,,,D*44
$GPGGA,193227.000,3352.3116,N,09832.4173,W,2,08,1.0,292.9,M,-23.7,M,0.8,0000*46
$GPGSA,A,3,14,25,30,31,22,01,20,32,,,,,1.9,1.0,1.7*3C
$GPGSV,3,1,12,31,89,266,32,14,44,050,32,32,40,316,34,22,38,130,28*7C
$GPGSV,3,2,12,01,31,287,25,25,26,064,37,11,23,262,,30,21,167,37*74
$GPGSV,3,3,12,20,13,314,30,12,02,032,24,16,00,182,,51,49,195,42*77
$GPRMC,193227.000,A,3352.3116,N,09832.4173,W,0.05,61.79,010412,,,D*4C
$GPGGA,193228.000,3352.3116,N,09832.4174,W,2,08,1.0,292.6,M,-23.7,M,0.8,0000*41
$GPGSA,A,3,14,25,30,31,22,01,20,32,,,,,1.9,1.0,1.7*3C
$GPRMC,193228.000,A,3352.3116,N,09832.4174,W,0.09,40.75,010412,,,D*47
$GPGGA,193229.000,3352.3117,N,09832.4174,W,2,08,1.0,292.2,M,-23.7,M,0.8,0000*45
$GPGSA,A,3,14,25,30,31,22,01,20,32,,,,,1.9,1.0,1.7*3C
$GPRMC,193229.000,A,3352.3117,N,09832.4174,W,0.11,29.91,010412,,,D*4B
$GPGGA,193230.000,3352.3116,N,09832.4174,W,2,08,1.0,294.8,M,-23.7,M,1.8,0000*41
$GPGSA,A,3,14,25,30,31,22,01,20,32,,,,,1.9,1.0,1.7*3C
$GPRMC,193230.000,A,3352.3116,N,09832.4174,W,0.10,34.48,010412,,,D*4B
$GPGGA,193231.000,3352.3116,N,09832.4174,W,2,08,1.0,296.5,M,-23.7,M,2.8,0000*4C
$GPGSA,A,3,14,25,30,31,22,01,20,32,,,,,1.9,1.0,1.7*3C
$GPRMC,193231.000,A,3352.3116,N,09832.4174,W,0.06,37.98,010412,,,D*43
$GPGGA,193232.000,3352.3116,N,09832.4173,W,2,08,1.0,297.9,M,-23.7,M,3.8,0000*44
$GPGSA,A,3,14,25,30,31,22,01,20,32,,,,,1.9,1.0,1.7*3C
$GPGSV,3,1,12,31,89,266,32,14,44,050,31,32,40,316,35,22,38,130,29*7F
$GPGSV,3,2,12,01,31,287,27,25,26,064,37,11,23,262,,30,21,167,37*76
$GPGSV,3,3,12,20,13,314,30,12,02,032,24,16,00,182,,51,49,195,42*77
$GPRMC,193232.000,A,3352.3116,N,09832.4173,W,0.09,45.73,010412,,,D*48
$GPGGA,193233.000,3352.3116,N,09832.4172,W,2,08,1.0,299.0,M,-23.7,M,0.8,0000*40
$GPGSA,A,3,14,25,30,31,22,01,20,32,,,,,1.9,1.0,1.7*3C
$GPRMC,193233.000,A,3352.3116,N,09832.4172,W,0.13,41.49,010412,,,D*4E
$GPGGA,193234.000,3352.3116,N,09832.4171,W,2,08,1.0,299.9,M,-23.7,M,0.8,0000*4D
$GPGSA,A,3,14,25,30,31,22,01,20,32,,,,,1.9,1.0,1.7*3C
$GPRMC,193234.000,A,3352.3116,N,09832.4171,W,0.08,63.64,010412,,,D*4F
$GPGGA,193235.000,3352.3116,N,09832.4170,W,2,08,1.0,300.7,M,-23.7,M,0.8,0000*42
$GPGSA,A,3,14,25,30,31,22,01,20,32,,,,,1.9,1.0,1.7*3C
$GPRMC,193235.000,A,3352.3116,N,09832.4170,W,0.14,72.58,010412,,,D*4D
$GPGGA,193236.000,3352.3117,N,09832.4169,W,2,09,0.9,301.5,M,-23.7,M,1.8,0000*43
$GPGSA,A,3,14,25,30,31,11,22,01,20,32,,,,1.9,0.9,1.6*35
$GPRMC,193236.000,A,3352.3117,N,09832.4169,W,0.26,66.97,010412,,,D*40
$GPGGA,193237.000,3352.3117,N,09832.4167,W,2,09,0.9,302.1,M,-23.7,M,2.8,0000*48
$GPGSA,A,3,14,25,30,31,11,22,01,20,32,,,,1.9,0.9,1.6*35
$GPGSV,3,1,12,31,89,266,32,14,44,050,31,32,40,316,35,22,38,130,28*7E
$GPGSV,3,2,12,01,31,287,27,25,26,064,36,11,23,262,20,30,21,167,37*75
$GPGSV,3,3,12,20,13,314,31,12,02,032,25,16,00,182,,51,49,195,42*77
$GPRMC,193237.000,A,3352.3117,N,09832.4167,W,0.06,67.65,010412,,,D*41
$GPGGA,193238.000,3352.3117,N,09832.4166,W,2,09,0.9,302.8,M,-23.7,M,3.8,0000*4E
$GPGSA,A,3,14,25,30,31,11,22,01,20,32,,,,1.9,0.9,1.6*35
$GPRMC,193238.000,A,3352.3117,N,09832.4166,W,0.04,90.05,010412,,,D*43
$GPGGA,193239.000,3352.3118,N,09832.4166,W,2,09,0.9,303.3,M,-23.7,M,0.8,0000*49
$GPGSA,A,3,14,25,30,31,11,22,01,20,32,,,,1.9,0.9,1.6*35
$GPRMC,193239.000,A,3352.3118,N,09832.4166,W,0.00,94.77,010412,,,D*48
$GPGGA,193240.000,3352.3118,N,09832.4165,W,2,09,0.9,304.0,M,-23.7,M,0.8,0000*40
$GPGSA,A,3,14,25,30,31,11,22,01,20,32,,,,1.9,0.9,1.6*35
$GPRMC,193240.000,A,3352.3118,N,09832.4165,W,0.03,335.30,010412,,,D*7D
$GPGGA,193241.000,3352.3118,N,09832.4165,W,2,09,0.9,304.5,M,-23.7,M,0.8,0000*44
$GPGSA,A,3,14,25,30,31,11,22,01,20,32,,,,1.9,0.9,1.6*35
$GPRMC,193241.000,A,3352.3118,N,09832.4165,W,0.05,307.58,010412,,,D*75
$GPGGA,193242.000,3352.3119,N,09832.4164,W,2,09,0.9,305.1,M,-23.7,M,0.8,0000*42
$GPGSA,A,3,14,25,30,31,11,22,01,20,32,,,,1.9,0.9,1.6*35
$GPGSV,3,1,12,31,89,266,32,14,44,050,30,32,40,316,36,22,38,130,27*73
$GPGSV,3,2,12,01,31,287,28,25,26,064,36,11,23,262,19,30,21,167,37*70
$GPGSV,3,3,12,20,13,314,32,12,02,032,25,16,00,182,,51,49,195,42*74
$GPRMC,193242.000,A,3352.3119,N,09832.4164,W,0.06,305.18,010412,,,D*73
$GPGGA,193243.000,3352.3119,N,09832.4164,W,2,09,0.9,305.6,M,-23.7,M,1.8,0000*45
$GPGSA,A,3,14,25,30,31,11,22,01,20,32,,,,1.9,0.9,1.6*35
$GPRMC,193243.000,A,3352.3119,N,09832.4164,W,0.06,304.22,010412,,,D*7A
$GPGGA,193244.000,3352.3120,N,09832.4163,W,2,09,0.9,305.7,M,-23.7,M,0.8,0000*4F
$GPGSA,A,3,14,25,30,31,11,22,01,20,32,,,,1.9,0.9,1.6*35
$GPRMC,193244.000,A,3352.3120,N,09832.4163,W,0.05,298.89,010412,,,D*76
$GPGGA,193245.000,3352.3120,N,09832.4163,W,2,09,0.9,305.9,M,-23.7,M,0.8,0000*40
$GPGSA,A,3,14,25,30,31,11,22,01,20,32,,,,1.9,0.9,1.6*35
$GPRMC,193245.000,A,3352.3120,N,09832.4163,W,0.05,358.14,010412,,,D*7E
$GPGGA,193246.000,3352.3121,N,09832.4162,W,2,09,0.9,306.1,M,-23.7,M,0.8,0000*48
$GPGSA,A,3,14,25,30,31,11,22,01,20,32,,,,1.9,0.9,1.6*35
$GPRMC,193246.000,A,3352.3121,N,09832.4162,W,0.02,98.42,010412,,,D*46
$GPGGA,193247.000,3352.3121,N,09832.4161,W,2,09,0.9,306.2,M,-23.7,M,0.8,0000*49
$GPGSA,A,3,14,25,30,31,11,22,01,20,32,,,,1.9,0.9,1.6*35
$GPGSV,3,1,12,31,89,266,32,14,44,050,29,32,40,316,36,22,38,130,27*7B
$GPGSV,3,2,12,01,31,287,29,25,26,064,36,11,23,262,19,30,21,167,38*7E
$GPGSV,3,3,12,20,13,314,33,12,02,032,25,16,00,182,,51,49,195,42*75
$GPRMC,193247.000,A,3352.3121,N,09832.4161,W,0.07,76.54,010412,,,D*46
$GPGGA,193248.000,3352.3121,N,09832.4160,W,2,09,0.9,306.4,M,-23.7,M,1.8,0000*40
$GPGSA,A,3,14,25,30,31,11,22,01,20,32,,,,1.9,0.9,1.6*35
$GPRMC,193248.000,A,3352.3121,N,09832.4160,W,0.10,67.19,010412,,,D*47
$GPGGA,193249.000,3352.3122,N,09832.4159,W,2,09,0.9,306.5,M,-23.7,M,2.8,0000*4A
$GPGSA,A,3,14,25,30,31,11,22,01,20,32,,,,1.9,0.9,1.6*35
$GPRMC,193249.000,A,3352.3122,N,09832.4159,W,0.07,74.23,010412,,,D*42
$GPGGA,193250.000,3352.3122,N,09832.4158,W,2,09,0.9,306.6,M,-23.7,M,0.8,0000*42
$GPGSA,A,3,14,25,30,31,11,22,01,20,32,,,,1.9,0.9,1.6*35
$GPRMC,193250.000,A,3352.3122,N,09832.4158,W,0.04,80.51,010412,,,D*46
$GPGGA,193251.000,3352.3122,N,09832.4158,W,2,09,0.9,306.7,M,-23.7,M,0.8,0000*42
$GPGSA,A,3,14,25,30,31,11,22,01,20,32,,,,1.9,0.9,1.6*35
$GPRMC,193251.000,A,3352.3122,N,09832.4158,W,0.01,154.96,010412,,,D*71
$GPGGA,193252.000,3352.3123,N,09832.4157,W,2,09,0.9,306.9,M,-23.7,M,0.8,0000*41
$GPGSA,A,3,14,25,30,31,11,22,01,20,32,,,,1.9,0.9,1.6*35
$GPGSV,3,1,12,31,89,266,32,14,44,050,28,32,40,316,36,22,38,130,28*75
$GPGSV,3,2,12,01,31,287,30,25,26,064,36,11,23,262,19,30,21,167,38*76
$GPGSV,3,3,12,20,13,314,33,12,02,032,26,16,00,182,,51,49,195,42*76
$GPRMC,193252.000,A,3352.3123,N,09832.4157,W,0.05,348.93,010412,,,D*72
$GPGGA,193253.000,3352.3123,N,09832.4157,W,2,09,0.9,307.1,M,-23.7,M,0.8,0000*49
$GPGSA,A,3,14,25,30,31,11,22,01,20,32,,,,1.9,0.9,1.6*35
$GPRMC,193253.000,A,3352.3123,N,09832.4157,W,0.07,344.77,010412,,,D*77
$GPGGA,193254.000,3352.3123,N,09832.4156,W,2,09,0.9,307.3,M,-23.7,M,1.8,0000*4C
$GPGSA,A,3,14,25,30,31,11,22,01,20,32,,,,1.9,0.9,1.6*35
$GPRMC,193254.000,A,3352.3123,N,09832.4156,W,0.06,322.89,010412,,,D*71
$GPGGA,193255.000,3352.3124,N,09832.4156,W,2,09,0.9,307.5,M,-23.7,M,2.8,0000*4F
$GPGSA,A,3,14,25,30,31,11,22,01,20,32,,,,1.9,0.9,1.6*35
$GPRMC,193255.000,A,3352.3124,N,09832.4156,W,0.11,36.11,010412,,,D*46
$GPGGA,193256.000,3352.3124,N,09832.4156,W,2,09,0.9,307.6,M,-23.7,M,3.8,0000*4E
$GPGSA,A,3,14,25,30,31,11,22,01,20,32,,,,1.9,0.9,1.6*35
$GPRMC,193256.000,A,3352.3124,N,09832.4156,W,0.07,294.68,010412,,,D*76
$GPGGA,193257.000,3352.3125,N,09832.4155,W,2,09,0.9,307.8,M,-23.7,M,0.8,0000*40
$GPGSA,A,3,14,25,30,31,11,22,01,20,32,,,,1.9,0.9,1.6*35
$GPGSV,3,1,12,31,89,266,33,14,44,050,28,32,40,316,36,22,38,130,28*74
$GPGSV,3,2,12,01,31,287,31,25,26,064,36,11,23,262,19,30,21,167,38*77
$GPGSV,3,3,12,20,13,314,34,12,02,032,27,16,00,182,,51,49,195,42*70
$GPRMC,193257.000,A,3352.3125,N,09832.4155,W,0.08,17.83,010412,,,D*46
$GPGGA,193258.000,3352.3125,N,09832.4154,W,2,09,0.9,308.0,M,-23.7,M,0.8,0000*49
$GPGSA,A,3,14,25,30,31,11,22,01,20,32,,,,1.9,0.9,1.6*35
$GPRMC,193258.000,A,3352.3125,N,09832.4154,W,0.06,57.11,010412,,,D*49
$GPGGA,193259.000,3352.3125,N,09832.4154,W,2,09,0.9,308.1,M,-23.7,M,0.8,0000*49
$GPGSA,A,3,14,25,30,31,11,22,01,20,32,,,,1.9,0.9,1.6*35
$GPRMC,193259.000,A,3352.3125,N,09832.4154,W,0.15,71.63,010412,,,D*4B
$GPGGA,193300.000,3352.3126,N,09832.4153,W,2,09,0.9,308.2,M,-23.7,M,1.8,0000*42
$GPGSA,A,3,14,25,30,31,11,22,01,20,32,,,,1.9,0.9,1.6*35
$GPRMC,193300.000,A,3352.3126,N,09832.4153,W,0.06,79.66,010412,,,D*4D
$GPGGA,193301.000,3352.3126,N,09832.4152,W,2,09,0.9,308.3,M,-23.7,M,0.8,0000*42
$GPGSA,A,3,14,25,30,31,11,22,01,20,32,,,,1.9,0.9,1.6*35
$GPRMC,193301.000,A,3352.3126,N,09832.4152,W,0.04,48.72,010412,,,D*48
$GPGGA,193302.000,3352.3126,N,09832.4151,W,2,09,0.9,308.5,M,-23.7,M,1.8,0000*45
$GPGSA,A,3,14,25,30,31,11,22,01,20,32,,,,1.9,0.9,1.6*35
$GPGSV,3,1,12,31,89,266,33,14,44,050,27,32,40,316,36,22,38,130,28*7B
$GPGSV,3,2,12,01,31,287,31,25,26,064,36,11,23,262,19,30,21,167,38*77
$GPGSV,3,3,12,20,13,314,34,12,02,032,28,16,00,182,,51,49,195,42*7F
$GPRMC,193302.000,A,3352.3126,N,09832.4151,W,0.21,70.50,010412,,,D*44
$GPGGA,193303.000,3352.3126,N,09832.4151,W,2,09,0.9,308.6,M,-23.7,M,0.8,0000*46
$GPGSA,A,3,14,25,30,31,11,22,01,20,32,,,,1.9,0.9,1.6*35
$GPRMC,193303.000,A,3352.3126,N,09832.4151,W,0.22,66.58,010412,,,D*49
$GPGGA,193304.000,3352.3127,N,09832.4150,W,2,09,0.9,308.9,M,-23.7,M,0.8,0000*4E
$GPGSA,A,3,14,25,30,31,11,22,01,20,32,,,,1.9,0.9,1.6*35
$GPRMC,193304.000,A,3352.3127,N,09832.4150,W,0.21,53.45,010412,,,D*47
$GPGGA,193305.000,3352.3127,N,09832.4149,W,2,09,0.9,309.1,M,-23.7,M,0.8,0000*4E
$GPGSA,A,3,14,25,30,31,11,22,01,20,32,,,,1.9,0.9,1.6*35
$GPRMC,193305.000,A,3352.3127,N,09832.4149,W,0.03,30.93,010412,,,D*40
$GPGGA,193306.000,3352.3127,N,09832.4149,W,2,09,0.9,309.4,M,-23.7,M,1.8,0000*49
$GPGSA,A,3,14,25,30,31,11,22,01,20,32,,,,1.9,0.9,1.6*35
$GPRMC,193306.000,A,3352.3127,N,09832.4149,W,0.08,31.10,010412,,,D*42
$GPGGA,193307.000,3352.3128,N,09832.4148,W,2,09,0.9,309.7,M,-23.7,M,0.8,0000*44
$GPGSA,A,3,14,25,30,31,11,22,01,20,32,,,,1.9,0.9,1.6*35
$GPGSV,3,1,12,31,89,266,33,14,44,050,22,32,40,316,36,22,38,130,28*7E
$GPGSV,3,2,12,01,31,287,32,25,26,064,37,11,23,262,19,30,21,167,38*75
$GPGSV,3,3,12,20,13,314,34,12,02,032,28,16,00,182,,51,49,195,42*7F
$GPRMC,193307.000,A,3352.3128,N,09832.4148,W,0.09,30.87,010412,,,D*43
$GPGGA,193308.000,3352.3128,N,09832.4148,W,2,09,0.9,309.9,M,-23.7,M,1.8,0000*44
$GPGSA,A,3,14,25,30,31,11,22,01,20,32,,,,1.9,0.9,1.6*35
$GPRMC,193308.000,A,3352.3128,N,09832.4148,W,0.05,243.67,010412,,,D*78
$GPGGA,193309.000,3352.3128,N,09832.4148,W,2,09,0.9,310.0,M,-23.7,M,0.8,0000*45
$GPGSA,A,3,14,25,30,31,11,22,01,20,32,,,,1.9,0.9,1.6*35
$GPRMC,193309.000,A,3352.3128,N,09832.4148,W,0.06,292.28,010412,,,D*7D
$GPGGA,193310.000,3352.3128,N,09832.4148,W,2,09,0.9,310.2,M,-23.7,M,0.8,0000*4F
$GPGSA,A,3,14,25,30,31,11,22,01,20,32,,,,1.9,0.9,1.6*35
$GPRMC,193310.000,A,3352.3128,N,09832.4148,W,0.03,11.48,010412,,,D*4F
$GPGGA,193311.000,3352.3128,N,09832.4148,W,2,09,0.9,310.3,M,-23.7,M,0.8,0000*4F
$GPGSA,A,3,14,25,30,31,11,22,01,20,32,,,,1.9,0.9,1.6*35
$GPRMC,193311.000,A,3352.3128,N,09832.4148,W,0.12,41.05,010412,,,D*42
$GPGGA,193312.000,3352.3129,N,09832.4147,W,2,09,0.9,310.5,M,-23.7,M,1.8,0000*45
$GPGSA,A,3,14,25,30,31,11,22,01,20,32,,,,1.9,0.9,1.6*35
$GPGSV,3,1,12,31,89,266,34,14,44,050,22,32,40,316,36,22,38,130,28*79
$GPGSV,3,2,12,01,31,287,33,25,26,064,37,11,23,262,19,30,21,167,38*74
$GPGSV,3,3,12,20,13,314,34,12,02,032,29,16,00,182,,51,49,195,42*7E
$GPRMC,193312.000,A,3352.3129,N,09832.4147,W,0.23,51.44,010412,,,D*49
$GPGGA,193313.000,3352.3129,N,09832.4146,W,2,09,0.9,310.7,M,-23.7,M,0.8,0000*46
$GPGSA,A,3,14,25,30,31,11,22,01,20,32,,,,1.9,0.9,1.6*35
$GPRMC,193313.000,A,3352.3129,N,09832.4146,W,0.28,55.64,010412,,,D*44
$GPGGA,193314.000,3352.3129,N,09832.4146,W,2,09,0.9,310.8,M,-23.7,M,1.8,0000*4F
$GPGSA,A,3,14,25,30,31,11,22,01,20,32,,,,1.9,0.9,1.6*35
$GPRMC,193314.000,A,3352.3129,N,09832.4146,W,0.02,35.74,010412,,,D*4C
$GPGGA,193315.000,3352.3129,N,09832.4146,W,2,09,0.9,310.9,M,-23.7,M,0.8,0000*4E
$GPGSA,A,3,14,25,30,31,11,22,01,20,32,,,,1.9,0.9,1.6*35
$GPRMC,193315.000,A,3352.3129,N,09832.4146,W,0.06,230.40,010412,,,D*79
$GPGGA,193316.000,3352.3129,N,09832.4146,W,2,09,0.9,311.1,M,-23.7,M,0.8,0000*44
$GPGSA,A,3,14,25,30,31,11,22,01,20,32,,,,1.9,0.9,1.6*35
$GPRMC,193316.000,A,3352.3129,N,09832.4146,W,0.02,276.27,010412,,,D*7D
$GPGGA,193317.000,3352.3130,N,09832.4145,W,2,09,0.9,311.3,M,-23.7,M,0.8,0000*4C
$GPGSA,A,3,14,25,30,31,11,22,01,20,32,,,,1.9,0.9,1.6*35
$GPGSV,3,1,12,31,89,266,34,14,44,050,22,32,40,316,36,22,38,130,28*79
$GPGSV,3,2,12,01,31,287,33,25,26,064,37,11,23,262,19,30,21,167,38*74
$GPGSV,3,3,12,20,13,314,34,12,02,032,29,16,00,182,,51,49,195,42*7E
$GPRMC,193317.000,A,3352.3130,N,09832.4145,W,0.26,58.47,010412,,,D*49
$GPGGA,193318.000,3352.3130,N,09832.4145,W,2,09,0.9,311.5,M,-23.7,M,1.8,0000*44
$GPGSA,A,3,14,25,30,31,11,22,01,20,32,,,,1.9,0.9,1.6*35
$GPRMC,193318.000,A,3352.3130,N,09832.4145,W,0.13,49.49,010412,,,D*4E
$GPGGA,193319.000,3352.3130,N,09832.4144,W,2,09,0.9,311.6,M,-23.7,M,2.8,0000*44
$GPGSA,A,3,14,25,30,31,11,22,01,20,32,,,,1.9,0.9,1.6*35
$GPRMC,193319.000,A,3352.3130,N,09832.4144,W,0.20,53.98,010412,,,D*49
$GPGGA,193320.000,3352.3130,N,09832.4144,W,2,09,0.9,311.8,M,-23.7,M,3.8,0000*41
$GPGSA,A,3,14,25,30,31,11,22,01,20,32,,,,1.9,0.9,1.6*35
$GPRMC,193320.000,A,3352.3130,N,09832.4144,W,0.07,40.80,010412,,,D*4D
$GPGGA,193321.000,3352.3131,N,09832.4143,W,2,09,0.9,312.0,M,-23.7,M,0.8,0000*4E
$GPGSA,A,3,14,25,30,31,11,22,01,20,32,,,,1.9,0.9,1.6*35
$GPRMC,193321.000,A,3352.3131,N,09832.4143,W,0.28,48.44,010412,,,D*47
$GPGGA,193322.000,3352.3131,N,09832.4143,W,2,09,0.9,311.9,M,-23.7,M,0.8,0000*47
$GPGSA,A,3,14,25,30,31,11,22,01,20,32,,,,1.9,0.9,1.6*35
$GPGSV,3,1,12,31,89,266,34,14,44,050,22,32,40,316,35,22,38,130,28*7A
$GPGSV,3,2,12,01,31,287,34,25,26,064,36,11,23,262,20,30,21,167,38*78
$GPGSV,3,3,12,20,13,314,34,12,02,032,29,16,00,182,,51,49,195,42*7E
$GPRMC,193322.000,A,3352.3131,N,09832.4143,W,0.05,52.06,010412,,,D*46
$GPGGA,193323.000,3352.3131,N,09832.4143,W,2,09,0.9,311.9,M,-23.7,M,0.8,0000*46
$GPGSA,A,3,14,25,30,31,11,22,01,20,32,,,,1.9,0.9,1.6*35
$GPRMC,193323.000,A,3352.3131,N,09832.4143,W,0.20,57.68,010412,,,D*4D
$GPGGA,193324.000,3352.3132,N,09832.4143,W,2,09,0.9,311.8,M,-23.7,M,0.8,0000*43
$GPGSA,A,3,14,25,30,31,11,22,01,20,32,,,,1.9,0.9,1.6*35
$GPRMC,193324.000,A,3352.3132,N,09832.4143,W,0.03,216.06,010412,,,D*77
$GPGGA,193325.000,3352.3132,N,09832.4143,W,2,09,0.9,311.7,M,-23.7,M,1.8,0000*4C
$GPGSA,A,3,14,25,30,31,11,22,01,20,32,,,,1.9,0.9,1.6*35
$GPRMC,193325.000,A,3352.3132,N,09832.4143,W,0.08,44.10,010412,,,D*4F
$GPGGA,193326.000,3352.3132,N,09832.4142,W,2,09,0.9,311.7,M,-23.7,M,2.8,0000*4D
$GPGSA,A,3,14,25,30,31,11,22,01,20,32,,,,1.9,0.9,1.6*35
$GPRMC,193326.000,A,3352.3132,N,09832.4142,W,0.10,50.45,010412,,,D*41
$GPGGA,193327.000,3352.3132,N,09832.4142,W,2,09,0.9,311.6,M,-23.7,M,0.8,0000*4F
$GPGSA,A,3,14,25,30,31,11,22,01,20,32,,,,1.9,0.9,1.6*35
$GPGSV,3,1,12,31,89,266,35,14,44,050,21,32,40,316,35,22,38,130,28*78
$GPGSV,3,2,12,01,31,287,34,25,26,064,36,11,23,262,21,30,21,167,37*76
$GPGSV,3,3,12,20,13,314,34,12,02,032,28,16,00,182,,51,49,195,42*7F
$GPRMC,193327.000,A,3352.3132,N,09832.4142,W,0.08,213.73,010412,,,D*79
$GPGGA,193328.000,3352.3132,N,09832.4143,W,2,09,0.9,311.6,M,-23.7,M,0.8,0000*41
$GPGSA,A,3,14,25,30,31,11,22,01,20,32,,,,1.9,0.9,1.6*35
$GPRMC,193328.000,A,3352.3132,N,09832.4143,W,0.05,24.62,010412,,,D*4C
$GPGGA,193329.000,3352.3132,N,09832.4142,W,2,09,0.9,311.7,M,-23.7,M,0.8,0000*40
$GPGSA,A,3,14,25,30,31,11,22,01,20,32,,,,1.9,0.9,1.6*35
$GPRMC,193329.000,A,3352.3132,N,09832.4142,W,0.10,54.97,010412,,,D*45
$GPGGA,193330.000,3352.3132,N,09832.4142,W,2,09,0.9,311.8,M,-23.7,M,0.8,0000*47
$GPGSA,A,3,14,25,30,31,11,22,01,20,32,,,,1.9,0.9,1.6*35
$GPRMC,193330.000,A,3352.3132,N,09832.4142,W,0.13,54.36,010412,,,D*45
$GPGGA,193331.000,3352.3132,N,09832.4142,W,2,09,0.9,311.9,M,-23.7,M,1.8,0000*46
$GPGSA,A,3,14,25,30,31,11,22,01,20,32,,,,1.9,0.9,1.6*35
$GPRMC,193331.000,A,3352.3132,N,09832.4142,W,0.29,43.49,010412,,,D*43
$GPGGA,193332.000,3352.3132,N,09832.4142,W,2,09,0.9,311.9,M,-23.7,M,2.8,0000*46
$GPGSA,A,3,14,25,30,31,11,22,01,20,32,,,,1.9,0.9,1.6*35
$GPGSV,3,1,12,31,89,266,35,14,44,050,21,32,40,316,36,22,38,130,26*75
$GPGSV,3,2,12,01,31,287,35,25,26,064,36,11,23,262,22,30,21,167,37*74
$GPGSV,3,3,12,20,13,314,34,12,02,032,28,16,00,182,,51,49,195,42*7F
$GPRMC,193332.000,A,3352.3132,N,09832.4142,W,0.03,264.41,010412,,,D*77
$GPGGA,193333.000,3352.3132,N,09832.4142,W,2,09,0.9,311.9,M,-23.7,M,0.8,0000*45
$GPGSA,A,3,14,25,30,31,11,22,01,20,32,,,,1.9,0.9,1.6*35
$GPRMC,193333.000,A,3352.3132,N,09832.4142,W,0.10,32.69,010412,,,D*4F
$GPGGA,193334.000,3352.3133,N,09832.4142,W,2,09,0.9,311.8,M,-23.7,M,0.8,0000*42
$GPGSA,A,3,14,25,30,31,11,22,01,20,32,,,,1.9,0.9,1.6*35
$GPRMC,193334.000,A,3352.3133,N,09832.4142,W,0.03,309.67,010412,,,D*7E
$GPGGA,193335.000,3352.3133,N,09832.4142,W,2,09,0.9,311.7,M,-23.7,M,0.8,0000*4C
$GPGSA,A,3,14,25,30,31,11,22,01,20,32,,,,1.9,0.9,1.7*34
$GPRMC,193335.000,A,3352.3133,N,09832.4142,W,0.01,62.81,010412,,,D*4B
$GPGGA,193336.000,3352.3133,N,09832.4141,W,2,09,0.9,311.7,M,-23.7,M,1.8,0000*4D
$GPGSA,A,3,14,25,30,31,11,22,01,20,32,,,,1.9,0.9,1.7*34
$GPRMC,193336.000,A,3352.3133,N,09832.4141,W,0.22,51.63,010412,,,D*46
$GPGGA,193337.000,3352.3133,N,09832.4141,W,2,09,0.9,311.7,M,-23.7,M,2.8,0000*4F
$GPGSA,A,3,14,25,30,31,11,22,01,20,32,,,,1.9,0.9,1.7*34
$GPGSV,3,1,12,31,88,356,35,14,43,052,22,32,41,316,36,22,37,131,27*7E
$GPGSV,3,2,12,01,31,286,35,25,25,063,36,11,23,260,22,30,22,167,37*70
$GPGSV,3,3,12,20,14,314,34,12,01,032,27,16,01,181,,51,49,195,42*76
$GPRMC,193337.000,A,3352.3133,N,09832.4141,W,0.12,37.39,010412,,,D*4B
$GPGGA,193338.000,3352.3133,N,09832.4140,W,2,09,0.9,311.7,M,-23.7,M,0.8,0000*43
$GPGSA,A,3,14,25,30,31,11,22,01,20,32,,,,1.9,0.9,1.7*34
$GPRMC,193338.000,A,3352.3133,N,09832.4140,W,0.10,45.75,010412,,,D*4A
$GPGGA,193339.000,3352.3133,N,09832.4139,W,2,09,0.9,311.8,M,-23.7,M,0.8,0000*43
$GPGSA,A,3,14,25,30,31,11,22,01,20,32,,,,1.9,0.9,1.7*34
$GPRMC,193339.000,A,3352.3133,N,09832.4139,W,0.02,125.73,010412,,,D*77
$GPGGA,193340.000,3352.3134,N,09832.4138,W,2,09,0.9,312.0,M,-23.7,M,0.8,0000*40
$GPGSA,A,3,14,25,30,31,11,22,01,20,32,,,,1.9,0.9,1.7*34
$GPRMC,193340.000,A,3352.3134,N,09832.4138,W,0.26,53.01,010412,,,D*4C
$GPGGA,193341.000,3352.3134,N,09832.4137,W,2,09,0.9,312.2,M,-23.7,M,0.8,0000*4C
$GPGSA,A,3,14,25,30,31,11,22,01,20,32,,,,1.9,0.9,1.7*34
$GPRMC,193341.000,A,3352.3134,N,09832.4137,W,0.16,59.54,010412,,,D*4B
$GPGGA,193342.000,3352.3134,N,09832.4136,W,2,09,0.9,312.3,M,-23.7,M,1.8,0000*4E
$GPGSA,A,3,14,25,30,31,11,22,01,20,32,,,,1.9,0.9,1.7*34
$GPGSV,3,1,12,31,88,356,36,14,43,052,23,32,41,316,36,22,37,131,27*7C
$GPGSV,3,2,12,01,31,286,35,25,25,063,35,11,23,260,22,30,22,167,36*72
$GPGSV,3,3,12,20,14,314,34,12,01,032,26,16,01,181,,51,49,195,42*77
$GPRMC,193342.000,A,3352.3134,N,09832.4136,W,0.06,238.97,010412,,,D*72
$GPGGA,193343.000,3352.3134,N,09832.4136,W,2,09,0.9,312.5,M,-23.7,M,2.8,0000*4A
$GPGSA,A,3,14,25,30,31,11,22,01,20,32,,,,1.9,0.9,1.7*34
$GPRMC,193343.000,A,3352.3134,N,09832.4136,W,0.17,45.51,010412,,,D*41
$GPGGA,193344.000,3352.3134,N,09832.4135,W,2,09,0.9,312.6,M,-23.7,M,3.8,0000*4C
$GPGSA,A,3,14,25,30,31,11,22,01,20,32,,,,1.9,0.9,1.7*34
$GPRMC,193344.000,A,3352.3134,N,09832.4135,W,0.09,28.50,010412,,,D*40
$GPGGA,193345.000,3352.3134,N,09832.4134,W,2,09,0.9,312.7,M,-23.7,M,0.8,0000*4E
$GPGSA,A,3,14,25,30,31,11,22,01,20,32,,,,1.9,0.9,1.7*34
$GPRMC,193345.000,A,3352.3134,N,09832.4134,W,0.05,300.07,010412,,,D*77
$GPGGA,193346.000,3352.3135,N,09832.4134,W,2,09,0.9,312.7,M,-23.7,M,0.8,0000*4C
$GPGSA,A,3,14,25,30,31,11,22,01,20,32,,,,1.9,0.9,1.7*34
$GPRMC,193346.000,A,3352.3135,N,09832.4134,W,0.10,36.57,010412,,,D*42
$GPGGA,193347.000,3352.3135,N,09832.4133,W,2,09,0.9,312.7,M,-23.7,M,0.8,0000*4A
$GPGSA,A,3,14,25,30,31,11,22,01,20,32,,,,1.9,0.9,1.7*34
$GPGSV,3,1,12,31,88,356,36,14,43,052,24,32,41,316,36,22,37,131,27*7B
$GPGSV,3,2,12,01,31,286,35,25,25,063,35,11,23,260,22,30,22,167,36*72
$GPGSV,3,3,12,20,14,314,34,12,01,032,21,16,01,181,,51,49,195,42*70
$GPRMC,193347.000,A,3352.3135,N,09832.4133,W,0.07,48.60,010412,,,D*4F
$GPGGA,193348.000,3352.3135,N,09832.4133,W,2,09,0.9,312.6,M,-23.7,M,1.8,0000*45
$GPGSA,A,3,14,25,30,31,11,22,01,20,32,,,,1.9,0.9,1.7*34
$GPRMC,193348.000,A,3352.3135,N,09832.4133,W,0.22,46.66,010412,,,D*4F
$GPGGA,193349.000,3352.3135,N,09832.4132,W,2,09,0.9,312.6,M,-23.7,M,2.8,0000*46
$GPGSA,A,3,14,25,30,31,11,22,01,20,32,,,,1.9,0.9,1.7*34
$GPRMC,193349.000,A,3352.3135,N,09832.4132,W,0.11,347.98,010412,,,D*7C
$GPGGA,193350.000,3352.3135,N,09832.4132,W,2,09,0.9,312.5,M,-23.7,M,3.8,0000*4C
$GPGSA,A,3,14,25,30,31,11,22,01,20,32,,,,1.9,0.9,1.7*34
$GPRMC,193350.000,A,3352.3135,N,09832.4132,W,0.04,5.90,010412,,,D*7D
$GPGGA,193351.000,3352.3135,N,09832.4132,W,2,09,0.9,312.5,M,-23.7,M,0.8,0000*4E
$GPGSA,A,3,14,25,30,31,11,22,01,20,32,,,,1.9,0.9,1.7*34
$GPRMC,193351.000,A,3352.3135,N,09832.4132,W,0.11,55.59,010412,,,D*48
$GPGGA,193352.000,3352.3135,N,09832.4131,W,2,09,0.9,312.5,M,-23.7,M,0.8,0000*4E
$GPGSA,A,3,14,25,30,31,11,22,01,20,32,,,,1.9,0.9,1.7*34
$GPGSV,3,1,12,31,88,356,36,14,43,052,25,32,41,316,36,22,37,131,26*7B
$GPGSV,3,2,12,01,31,286,35,25,25,063,35,11,23,260,22,30,22,167,35*71
$GPGSV,3,3,12,20,14,314,33,12,01,032,,16,01,181,,51,49,195,42*74
$GPRMC,193352.000,A,3352.3135,N,09832.4131,W,0.17,55.38,010412,,,D*49
$GPGGA,193353.000,3352.3135,N,09832.4131,W,2,09,0.9,312.5,M,-23.7,M,0.8,0000*4F
$GPGSA,A,3,14,25,30,31,11,22,01,20,32,,,,1.9,0.9,1.7*34
$GPRMC,193353.000,A,3352.3135,N,09832.4131,W,0.03,44.00,010412,,,D*46
$GPGGA,193354.000,3352.3135,N,09832.4130,W,2,09,0.9,312.6,M,-23.7,M,1.8,0000*4B
$GPGSA,A,3,14,25,30,31,11,22,01,20,32,,,,1.9,0.9,1.7*34
$GPRMC,193354.000,A,3352.3135,N,09832.4130,W,0.12,15.81,010412,,,D*4D
$GPGGA,193355.000,3352.3136,N,09832.4130,W,2,09,0.9,312.7,M,-23.7,M,0.8,0000*49
$GPGSA,A,3,14,25,30,31,11,22,01,20,32,,,,1.9,0.9,1.7*34
$GPRMC,193355.000,A,3352.3136,N,09832.4130,W,0.16,51.61,010412,,,D*45
$GPGGA,193356.000,3352.3136,N,09832.4130,W,2,09,0.9,312.7,M,-23.7,M,1.8,0000*4B
$GPGSA,A,3,14,25,30,31,11,22,01,20,32,,,,1.9,0.9,1.7*34
$GPRMC,193356.000,A,3352.3136,N,09832.4130,W,0.11,62.93,010412,,,D*4C
$GPGGA,193357.000,3352.3136,N,09832.4129,W,2,08,1.0,312.8,M,-23.7,M,0.8,0000*45
$GPGSA,A,3,25,30,31,11,22,01,20,32,,,,,1.9,1.0,1.7*39
$GPGSV,3,1,12,31,88,356,36,14,43,052,16,32,41,316,36,22,37,131,25*78
$GPGSV,3,2,12,01,31,286,35,25,25,063,36,11,23,260,21,30,22,167,35*71
$GPGSV,3,3,12,20,14,314,33,12,01,032,,16,01,181,,51,49,195,41*77
$GPRMC,193357.000,A,3352.3136,N,09832.4129,W,0.21,49.90,010412,,,D*4C
$GPGGA,193358.000,3352.3136,N,09832.4129,W,2,08,1.0,312.7,M,-23.7,M,0.8,0000*45
$GPGSA,A,3,25,30,31,11,22,01,20,32,,,,,1.9,1.0,1.7*39
$GPRMC,193358.000,A,3352.3136,N,09832.4129,W,0.04,15.96,010412,,,D*4B
$GPGGA,193359.000,3352.3136,N,09832.4128,W,2,08,1.0,312.6,M,-23.7,M,0.8,0000*44
$GPGSA,A,3,25,30,31,11,22,01,20,32,,,,,1.9,1.0,1.7*39
$GPRMC,193359.000,A,3352.3136,N,09832.4128,W,0.21,49.56,010412,,,D*49
$GPGGA,193400.000,3352.3136,N,09832.4128,W,2,08,1.0,312.5,M,-23.7,M,1.8,0000*4D
$GPGSA,A,3,25,30,31,11,22,01,20,32,,,,,1.9,1.0,1.7*39
$GPRMC,193400.000,A,3352.3136,N,09832.4128,W,0.02,1.06,010412,,,D*7A
$GPGGA,193401.000,3352.3135,N,09832.4128,W,2,08,1.0,312.3,M,-23.7,M,0.8,0000*48
$GPGSA,A,3,25,30,31,11,22,01,20,32,,,,,1.9,1.0,1.7*39
$GPRMC,193401.000,A,3352.3135,N,09832.4128,W,0.01,253.74,010412,,,D*7B
$GPGGA,193402.000,3352.3135,N,09832.4128,W,2,08,1.0,312.2,M,-23.7,M,1.8,0000*4B
$GPGSA,A,3,25,30,31,11,22,01,20,32,,,,,1.9,1.0,1.7*39
$GPGSV,3,1,12,31,88,356,37,14,43,052,,32,41,316,36,22,37,131,26*7D
$GPGSV,3,2,12,01,31,286,35,25,25,063,36,11,23,260,20,30,22,167,35*70
$GPGSV,3,3,12,20,14,314,33,12,01,032,,16,01,181,,51,49,195,42*74
$GPRMC,193402.000,A,3352.3135,N,09832.4128,W,0.00,133.73,010412,,,D*7B
$GPGGA,193403.000,3352.3135,N,09832.4128,W,2,08,1.0,312.1,M,-23.7,M,0.8,0000*48
$GPGSA,A,3,25,30,31,11,22,01,20,32,,,,,1.9,1.0,1.7*39
$GPRMC,193403.000,A,3352.3135,N,09832.4128,W,0.10,63.62,010412,,,D*4F
$GPGGA,193404.000,3352.3134,N,09832.4128,W,2,08,1.0,312.1,M,-23.7,M,0.8,0000*4E
$GPGSA,A,3,25,30,31,11,22,01,20,32,,,,,1.9,1.0,1.7*39
$GPRMC,193404.000,A,3352.3134,N,09832.4128,W,0.05,172.98,010412,,,D*79
$GPGGA,193405.000,3352.3134,N,09832.4128,W,2,08,1.0,312.0,M,-23.7,M,0.8,0000*4E
$GPGSA,A,3,25,30,31,11,22,01,20,32,,,,,1.9,1.0,1.7*39
$GPRMC,193405.000,A,3352.3134,N,09832.4128,W,0.06,214.64,010412,,,D*7B
$GPGGA,193406.000,3352.3134,N,09832.4128,W,2,08,1.0,312.0,M,-23.7,M,0.8,0000*4D
$GPGSA,A,3,25,30,31,11,22,01,20,32,,,,,1.9,1.0,1.7*39
$GPRMC,193406.000,A,3352.3134,N,09832.4128,W,0.06,189.64,010412,,,D*7F
$GPGGA,193407.000,3352.3133,N,09832.4128,W,2,08,1.0,312.0,M,-23.7,M,1.8,0000*4A
$GPGSA,A,3,25,30,31,11,22,01,20,32,,,,,1.9,1.0,1.7*39
$GPGSV,3,1,12,31,88,356,37,14,43,052,,32,41,316,36,22,37,131,26*7D
$GPGSV,3,2,12,01,31,286,35,25,25,063,36,11,23,260,19,30,22,167,34*7B
$GPGSV,3,3,12,20,14,314,32,12,01,032,,16,01,181,,51,49,195,42*75
$GPRMC,193407.000,A,3352.3133,N,09832.4128,W,0.03,156.88,010412,,,D*7C
$GPGGA,193408.000,3352.3133,N,09832.4129,W,2,08,1.0,311.9,M,-23.7,M,2.8,0000*4D
$GPGSA,A,3,25,30,31,11,22,01,20,32,,,,,1.9,1.0,1.7*39
$GPRMC,193408.000,A,3352.3133,N,09832.4129,W,0.09,204.96,010412,,,D*73
$GPGGA,193409.000,3352.3132,N,09832.4129,W,2,08,1.0,311.9,M,-23.7,M,0.8,0000*4F
$GPGSA,A,3,25,30,31,11,22,01,20,32,,,,,1.9,1.0,1.7*39
$GPRMC,193409.000,A,3352.3132,N,09832.4129,W,0.05,34.63,010412,,,D*44
$GPGGA,193410.000,3352.3132,N,09832.4129,W,2,08,1.0,311.7,M,-23.7,M,0.8,0000*49
$GPGSA,A,3,25,30,31,11,22,01,20,32,,,,,1.9,1.0,1.7*39
$GPRMC,193410.000,A,3352.3132,N,09832.4129,W,0.02,202.60,010412,,,D*7F
$GPGGA,193411.000,3352.3132,N,09832.4129,W,2,08,1.0,311.5,M,-23.7,M,0.8,0000*4A
$GPGSA,A,3,25,30,31,11,22,01,20,32,,,,,1.9,1.0,1.7*39
$GPRMC,193411.000,A,3352.3132,N,09832.4129,W,0.01,21.26,010412,,,D*4C
$GPGGA,193412.000,3352.3131,N,09832.4129,W,2,08,1.0,311.4,M,-23.7,M,1.8,0000*4A
$GPGSA,A,3,25,30,31,11,22,01,20,32,,,,,1.9,1.0,1.7*39
$GPGSV,3,1,12,31,88,356,37,14,43,052,,32,41,316,35,22,37,131,26*7E
$GPGSV,3,2,12,01,31,286,35,25,25,063,37,11,23,260,18,30,22,167,34*7B
$GPGSV,3,3,12,20,14,314,32,12,01,032,,16,01,181,,51,49,195,42*75
$GPRMC,193412.000,A,3352.3131,N,09832.4129,W,0.03,96.24,010412,,,D*40
$GPGGA,193413.000,3352.3131,N,09832.4129,W,2,08,1.0,311.2,M,-23.7,M,2.8,0000*4E
$GPGSA,A,3,25,30,31,11,22,01,20,32,,,,,1.9,1.0,1.7*39
$GPRMC,193413.000,A,3352.3131,N,09832.4129,W,0.02,110.17,010412,,,D*7F
$GPGGA,193414.000,3352.3131,N,09832.4129,W,2,08,1.0,311.0,M,-23.7,M,3.8,0000*4A
$GPGSA,A,3,25,30,31,11,22,01,20,32,,,,,1.9,1.0,1.7*39
$GPRMC,193414.000,A,3352.3131,N,09832.4129,W,0.01,109.96,010412,,,D*7A
$GPGGA,193415.000,3352.3130,N,09832.4129,W,2,08,1.0,310.9,M,-23.7,M,0.8,0000*41
$GPGSA,A,3,25,30,31,11,22,01,20,32,,,,,1.9,1.0,1.7*39
$GPRMC,193415.000,A,3352.3130,N,09832.4129,W,0.07,293.03,010412,,,D*70
$GPGGA,193416.000,3352.3130,N,09832.4129,W,2,08,1.0,310.8,M,-23.7,M,0.8,0000*43
$GPGSA,A,3,25,30,31,11,22,01,20,32,,,,,1.9,1.0,1.7*39
$GPRMC,193416.000,A,3352.3130,N,09832.4129,W,0.11,195.38,010412,,,D*79
$GPGGA,193417.000,3352.3129,N,09832.4130,W,2,08,1.0,310.8,M,-23.7,M,0.8,0000*42
$GPGSA,A,3,25,30,31,11,22,01,20,32,,,,,1.9,1.0,1.7*39
$GPGSV,3,1,12,31,88,356,37,14,43,052,,32,41,316,35,22,37,131,25*7D
$GPGSV,3,2,12,01,31,286,35,25,25,063,37,11,23,260,17,30,22,167,34*74
$GPGSV,3,3,12,20,14,314,32,12,01,032,21,16,01,181,,51,49,195,42*76
$GPRMC,193417.000,A,3352.3129,N,09832.4130,W,0.09,212.83,010412,,,D*7D
$GPGGA,193418.000,3352.3129,N,09832.4130,W,2,08,1.0,310.8,M,-23.7,M,0.8,0000*4D
$GPGSA,A,3,25,30,31,11,22,01,20,32,,,,,1.9,1.0,1.7*39
