$GPGGA,091105.000,3353.7459,N,09832.0261,W,1,06,2.2,309.1,M,-23.7,M,,0000*68
$GPGSA,A,3,05,10,04,17,02,12,,,,,,,4.2,2.2,3.5*35
$GPRMC,091105.000,A,3353.7459,N,09832.0261,W,0.22,115.54,020412,,,A*7D
$GPGGA,091106.000,3353.7459,N,09832.0259,W,1,06,2.2,309.6,M,-23.7,M,,0000*67
$GPGSA,A,3,05,10,04,17,02,12,,,,,,,4.2,2.2,3.5*35
$GPRMC,091106.000,A,3353.7459,N,09832.0259,W,0.28,91.59,020412,,,A*4F
$GPGGA,091107.000,3353.7458,N,09832.0258,W,1,06,2.2,310.0,M,-23.7,M,,0000*68
$GPGSA,A,3,05,10,04,17,02,12,,,,,,,4.2,2.2,3.5*35
$GPGSV,3,1,10,02,72,349,33,12,66,284,32,10,51,080,33,04,42,044,40*74
$GPGSV,3,2,10,05,42,172,29,25,27,315,25,17,12,098,28,09,12,226,*75
$GPGSV,3,3,10,27,06,214,,29,04,294,*7C
$GPRMC,091107.000,A,3353.7458,N,09832.0258,W,0.28,104.53,020412,,,A*79
$GPGGA,091108.000,3353.7457,N,09832.0256,W,1,06,2.2,310.6,M,-23.7,M,,0000*60
$GPGSA,A,3,05,10,04,17,02,12,,,,,,,4.2,2.2,3.5*35
$GPRMC,091108.000,A,3353.7457,N,09832.0256,W,0.35,123.52,020412,,,A*7F
$GPGGA,091109.000,3353.7456,N,09832.0254,W,1,06,2.2,311.2,M,-23.7,M,,0000*67
$GPGSA,A,3,05,10,04,17,02,12,,,,,,,4.2,2.2,3.5*35
$GPRMC,091109.000,A,3353.7456,N,09832.0254,W,0.33,105.64,020412,,,A*7A
$GPGGA,091110.000,3353.7456,N,09832.0252,W,1,06,2.2,311.8,M,-23.7,M,,0000*63
$GPGSA,A,3,05,10,04,17,02,12,,,,,,,4.2,2.2,3.5*35
$GPRMC,091110.000,A,3353.7456,N,09832.0252,W,0.36,105.28,020412,,,A*79
$GPGGA,091111.000,3353.7455,N,09832.0249,W,1,06,2.2,312.6,M,-23.7,M,,0000*66
$GPGSA,A,3,05,10,04,17,02,12,,,,,,,4.2,2.2,3.5*35
$GPRMC,091111.000,A,3353.7455,N,09832.0249,W,0.43,101.48,020412,,,A*71
$GPGGA,091112.000,3353.7454,N,09832.0247,W,1,06,2.2,313.2,M,-23.7,M,,0000*6F
$GPGSA,A,3,05,10,04,17,02,12,,,,,,,4.2,2.2,3.5*35
$GPGSV,3,1,11,02,72,349,33,12,66,284,31,10,51,080,34,04,42,044,40*71
$GPGSV,3,2,11,05,42,172,28,25,27,315,25,17,12,098,29,09,12,226,*74
$GPGSV,3,3,11,27,06,214,,29,04,294,,48,36,230,26*41
$GPRMC,091112.000,A,3353.7454,N,09832.0247,W,0.37,102.43,020412,,,A*76
$GPGGA,091113.000,3353.7454,N,09832.0245,W,1,06,2.2,313.9,M,-23.7,M,,0000*67
$GPGSA,A,3,05,10,04,17,02,12,,,,,,,4.2,2.2,3.5*35
$GPRMC,091113.000,A,3353.7454,N,09832.0245,W,0.37,100.55,020412,,,A*70
$GPGGA,091114.000,3353.7453,N,09832.0243,W,1,07,1.4,314.4,M,-23.7,M,,0000*6F
$GPGSA,A,3,05,10,09,04,17,02,12,,,,,,2.2,1.4,1.7*3F
$GPRMC,091114.000,A,3353.7453,N,09832.0243,W,0.22,121.22,020412,,,A*71
$GPGGA,091115.000,3353.7453,N,09832.0241,W,1,07,1.4,315.0,M,-23.7,M,,0000*69
$GPGSA,A,3,05,10,09,04,17,02,12,,,,,,2.2,1.4,1.7*3F
$GPRMC,091115.000,A,3353.7453,N,09832.0241,W,0.23,113.19,020412,,,A*7A
$GPGGA,091116.000,3353.7453,N,09832.0239,W,1,07,1.4,315.6,M,-23.7,M,,0000*63
$GPGSA,A,3,05,10,09,04,17,02,12,,,,,,2.2,1.4,1.7*3F
$GPRMC,091116.000,A,3353.7453,N,09832.0239,W,0.40,86.53,020412,,,A*40
$GPGGA,091117.000,3353.7453,N,09832.0237,W,1,07,1.4,316.1,M,-23.7,M,,0000*68
$GPGSA,A,3,05,10,09,04,17,02,12,,,,,,2.2,1.4,1.7*3F
$GPGSV,3,1,11,02,72,349,34,12,66,284,31,10,51,080,34,04,42,044,40*76
$GPGSV,3,2,11,05,42,172,29,25,27,315,25,17,12,098,30,09,12,226,17*7B
$GPGSV,3,3,11,27,06,214,19,29,04,294,,48,36,230,28*47
$GPRMC,091117.000,A,3353.7453,N,09832.0237,W,0.21,120.54,020412,,,A*72
$GPGGA,091118.000,3353.7453,N,09832.0236,W,1,07,1.4,316.5,M,-23.7,M,,0000*62
$GPGSA,A,3,05,10,09,04,17,02,12,,,,,,2.2,1.4,1.7*3F
$GPRMC,091118.000,A,3353.7453,N,09832.0236,W,0.16,122.15,020412,,,A*7F
$GPGGA,091119.000,3353.7452,N,09832.0234,W,1,07,1.4,316.9,M,-23.7,M,,0000*6C
$GPGSA,A,3,05,10,09,04,17,02,12,,,,,,2.2,1.4,1.7*3F
$GPRMC,091119.000,A,3353.7452,N,09832.0234,W,0.13,130.48,020412,,,A*73
$GPGGA,091120.000,3353.7452,N,09832.0233,W,1,07,1.4,317.2,M,-23.7,M,,0000*6B
$GPGSA,A,3,05,10,09,04,17,02,12,,,,,,2.2,1.4,1.7*3F
$GPRMC,091120.000,A,3353.7452,N,09832.0233,W,0.10,145.98,020412,,,A*72
$GPGGA,091121.000,3353.7453,N,09832.0232,W,1,07,1.4,317.5,M,-23.7,M,,0000*6D
$GPGSA,A,3,05,10,09,04,17,02,12,,,,,,2.2,1.4,1.7*3F
$GPRMC,091121.000,A,3353.7453,N,09832.0232,W,0.03,128.10,020412,,,A*7A
$GPGGA,091122.000,3353.7453,N,09832.0232,W,1,07,1.4,317.7,M,-23.7,M,,0000*6C
$GPGSA,A,3,05,10,09,04,17,02,12,,,,,,2.2,1.4,1.7*3F
$GPGSV,3,1,11,02,72,349,34,12,66,284,31,10,51,080,34,04,42,044,39*78
$GPGSV,3,2,11,05,42,172,29,25,27,315,24,17,12,098,31,09,12,226,18*74
$GPGSV,3,3,11,27,06,214,19,29,04,294,,48,36,230,26*49
$GPRMC,091122.000,A,3353.7453,N,09832.0232,W,0.10,213.48,020412,,,A*7D
$GPGGA,091123.000,3353.7453,N,09832.0231,W,1,07,1.4,317.9,M,-23.7,M,,0000*60
$GPGSA,A,3,05,10,09,04,17,02,12,,,,,,2.2,1.4,1.7*3F
$GPRMC,091123.000,A,3353.7453,N,09832.0231,W,0.04,250.10,020412,,,A*70
$GPGGA,091124.000,3353.7453,N,09832.0230,W,1,07,1.4,318.1,M,-23.7,M,,0000*61
$GPGSA,A,3,05,10,09,04,17,02,12,,,,,,2.2,1.4,1.7*3F
$GPRMC,091124.000,A,3353.7453,N,09832.0230,W,0.21,59.03,020412,,,A*48
$GPGGA,091125.000,3353.7454,N,09832.0229,W,1,07,1.4,318.3,M,-23.7,M,,0000*6D
$GPGSA,A,3,05,10,09,04,17,02,12,,,,,,2.2,1.4,1.7*3F
$GPRMC,091125.000,A,3353.7454,N,09832.0229,W,0.25,68.15,020412,,,A*47
$GPGGA,091126.000,3353.7454,N,09832.0228,W,1,07,1.4,318.5,M,-23.7,M,,0000*69
$GPGSA,A,3,05,10,09,04,17,02,12,,,,,,2.2,1.4,1.7*3F
$GPRMC,091126.000,A,3353.7454,N,09832.0228,W,0.03,187.00,020412,,,A*75
$GPGGA,091127.000,3353.7454,N,09832.0228,W,1,07,1.4,318.6,M,-23.7,M,,0000*6B
$GPGSA,A,3,05,10,09,04,17,02,12,,,,,,2.2,1.4,1.7*3F
$GPGSV,3,1,11,02,72,349,34,12,66,284,30,10,51,080,35,04,42,044,39*78
$GPGSV,3,2,11,05,42,172,29,25,27,315,24,17,12,098,31,09,12,226,20*7F
$GPGSV,3,3,11,27,06,214,18,29,04,294,,48,36,230,26*48
$GPRMC,091127.000,A,3353.7454,N,09832.0228,W,0.12,243.30,020412,,,A*7C
$GPGGA,091128.000,3353.7454,N,09832.0228,W,1,07,1.4,318.6,M,-23.7,M,,0000*64
$GPGSA,A,3,05,10,09,04,17,02,12,,,,,,2.2,1.4,1.7*3F
$GPRMC,091128.000,A,3353.7454,N,09832.0228,W,0.17,248.83,020412,,,A*75
$GPGGA,091129.000,3353.7455,N,09832.0228,W,1,07,1.4,318.6,M,-23.7,M,,0000*64
$GPGSA,A,3,05,10,09,04,17,02,12,,,,,,2.2,1.4,1.7*3F
$GPRMC,091129.000,A,3353.7455,N,09832.0228,W,0.11,32.26,020412,,,A*43
$GPGGA,091130.000,3353.7455,N,09832.0227,W,1,07,1.4,318.7,M,-23.7,M,,0000*62
$GPGSA,A,3,05,10,09,04,17,02,12,,,,,,2.2,1.4,1.7*3F
$GPRMC,091130.000,A,3353.7455,N,09832.0227,W,0.19,53.29,020412,,,A*44
$GPGGA,091131.000,3353.7456,N,09832.0227,W,1,07,1.4,318.7,M,-23.7,M,,0000*60
$GPGSA,A,3,05,10,09,04,17,02,12,,,,,,2.2,1.4,1.7*3F
$GPRMC,091131.000,A,3353.7456,N,09832.0227,W,0.04,14.13,020412,,,A*40
$GPGGA,091132.000,3353.7456,N,09832.0227,W,1,07,1.4,318.7,M,-23.7,M,,0000*63
$GPGSA,A,3,05,10,09,04,17,02,12,,,,,,2.2,1.4,1.7*3F
$GPGSV,3,1,11,02,72,349,34,12,66,284,30,10,51,080,36,04,42,044,39*7B
$GPGSV,3,2,11,05,42,172,29,25,27,315,24,17,12,098,31,09,12,226,20*7F
$GPGSV,3,3,11,27,06,214,18,29,04,294,,48,36,230,27*49
$GPRMC,091132.000,A,3353.7456,N,09832.0227,W,0.16,254.08,020412,,,A*7C
$GPGGA,091133.000,3353.7456,N,09832.0228,W,1,07,1.4,318.6,M,-23.7,M,,0000*6C
$GPGSA,A,3,05,10,09,04,17,02,12,,,,,,2.2,1.4,1.7*3F
$GPRMC,091133.000,A,3353.7456,N,09832.0228,W,0.18,270.97,020412,,,A*7C
$GPGGA,091134.000,3353.7457,N,09832.0228,W,1,06,2.2,318.5,M,-23.7,M,,0000*6D
$GPGSA,A,3,05,10,04,17,02,12,,,,,,,4.2,2.2,3.5*35
$GPRMC,091134.000,A,3353.7457,N,09832.0228,W,0.08,294.28,020412,,,A*75
$GPGGA,091135.000,3353.7457,N,09832.0228,W,1,06,2.2,318.4,M,-23.7,M,,0000*6D
$GPGSA,A,3,05,10,04,17,02,12,,,,,,,4.2,2.2,3.5*35
$GPRMC,091135.000,A,3353.7457,N,09832.0228,W,0.08,336.10,020412,,,A*76
$GPGGA,091136.000,3353.7458,N,09832.0228,W,1,07,1.4,318.3,M,-23.7,M,,0000*62
$GPGSA,A,3,05,10,09,04,17,02,12,,,,,,2.2,1.4,1.7*3F
$GPRMC,091136.000,A,3353.7458,N,09832.0228,W,0.20,36.14,020412,,,A*47
$GPGGA,091137.000,3353.7458,N,09832.0227,W,1,07,1.4,318.3,M,-23.7,M,,0000*6C
$GPGSA,A,3,05,10,09,04,17,02,12,,,,,,2.2,1.4,1.7*3F
$GPGSV,3,1,11,02,72,349,33,12,66,284,30,10,51,080,36,04,42,044,39*7C
$GPGSV,3,2,11,05,42,172,29,25,27,315,25,17,12,098,31,09,12,226,13*7E
$GPGSV,3,3,11,27,06,214,17,29,04,294,,48,36,230,26*47
$GPRMC,091137.000,A,3353.7458,N,09832.0227,W,0.24,50.78,020412,,,A*47
$GPGGA,091138.000,3353.7459,N,09832.0227,W,1,07,1.4,318.4,M,-23.7,M,,0000*65
$GPGSA,A,3,05,10,09,04,17,02,12,,,,,,2.2,1.4,1.7*3F
$GPRMC,091138.000,A,3353.7459,N,09832.0227,W,0.25,63.05,020412,,,A*42
$GPGGA,091139.000,3353.7459,N,09832.0226,W,1,07,1.4,318.4,M,-23.7,M,,0000*65
$GPGSA,A,3,05,10,09,04,17,02,12,,,,,,2.2,1.4,1.7*3F
$GPRMC,091139.000,A,3353.7459,N,09832.0226,W,0.23,62.32,020412,,,A*41
$GPGGA,091140.000,3353.7460,N,09832.0226,W,1,07,1.4,318.5,M,-23.7,M,,0000*60
$GPGSA,A,3,05,10,09,04,17,02,12,,,,,,2.2,1.4,1.7*3F
$GPRMC,091140.000,A,3353.7460,N,09832.0226,W,0.23,63.97,020412,,,A*4B
$GPGGA,091141.000,3353.7460,N,09832.0225,W,1,07,1.4,318.6,M,-23.7,M,,0000*61
$GPGSA,A,3,05,10,09,04,17,02,12,,,,,,2.2,1.4,1.7*3F
$GPRMC,091141.000,A,3353.7460,N,09832.0225,W,0.23,70.36,020412,,,A*40
$GPGGA,091142.000,3353.7461,N,09832.0225,W,1,07,1.4,318.7,M,-23.7,M,,0000*62
$GPGSA,A,3,05,10,09,04,17,02,12,,,,,,2.2,1.4,1.7*3F
$GPGSV,3,1,11,02,72,349,34,12,66,284,29,10,51,080,36,04,42,044,38*72
$GPGSV,3,2,11,05,42,172,29,25,27,315,26,17,12,098,31,09,12,226,13*7D
$GPGSV,3,3,11,27,06,214,17,29,04,294,,48,36,230,24*45
$GPRMC,091142.000,A,3353.7461,N,09832.0225,W,0.24,71.98,020412,,,A*40
$GPGGA,091143.000,3353.7461,N,09832.0225,W,1,07,1.4,318.8,M,-23.7,M,,0000*6C
$GPGSA,A,3,05,10,09,04,17,02,12,,,,,,2.2,1.4,1.7*3F
$GPRMC,091143.000,A,3353.7461,N,09832.0225,W,0.29,69.39,020412,,,A*4E
$GPGGA,091144.000,3353.7461,N,09832.0224,W,1,07,1.4,319.0,M,-23.7,M,,0000*63
$GPGSA,A,3,05,10,09,04,17,02,12,,,,,,2.2,1.4,1.7*3F
$GPRMC,091144.000,A,3353.7461,N,09832.0224,W,0.37,74.31,020412,,,A*43
$GPGGA,091145.000,3353.7462,N,09832.0223,W,1,07,1.4,319.1,M,-23.7,M,,0000*67
$GPGSA,A,3,05,10,09,04,17,02,12,,,,,,2.2,1.4,1.7*3F
$GPRMC,091145.000,A,3353.7462,N,09832.0223,W,0.39,74.61,020412,,,A*4D
$GPGGA,091146.000,3353.7462,N,09832.0223,W,1,07,1.4,319.2,M,-23.7,M,,0000*67
$GPGSA,A,3,05,10,09,04,17,02,12,,,,,,2.2,1.4,1.7*3F
$GPRMC,091146.000,A,3353.7462,N,09832.0223,W,0.14,94.66,020412,,,A*48
$GPGGA,091147.000,3353.7461,N,09832.0224,W,1,07,1.4,319.2,M,-23.7,M,,0000*62
$GPGSA,A,3,05,10,09,04,17,02,12,,,,,,2.2,1.4,1.7*3F
$GPGSV,3,1,11,02,72,349,34,12,66,284,29,10,51,080,36,04,42,044,38*72
$GPGSV,3,2,11,05,42,172,28,25,27,315,26,17,12,098,31,09,12,226,15*7A
$GPGSV,3,3,11,27,06,214,16,29,04,294,,48,36,230,29*49
$GPRMC,091147.000,A,3353.7461,N,09832.0224,W,0.13,189.17,020412,,,A*71
$GPGGA,091148.000,3353.7461,N,09832.0225,W,1,07,1.4,319.1,M,-23.7,M,,0000*6F
$GPGSA,A,3,05,10,09,04,17,02,12,,,,,,2.2,1.4,1.7*3F
$GPRMC,091148.000,A,3353.7461,N,09832.0225,W,0.22,208.12,020412,,,A*72
$GPGGA,091149.000,3353.7461,N,09832.0226,W,1,07,1.4,319.1,M,-23.7,M,,0000*6D
$GPGSA,A,3,05,10,09,04,17,02,12,,,,,,2.2,1.4,1.7*3F
$GPRMC,091149.000,A,3353.7461,N,09832.0226,W,0.08,75.35,020412,,,A*45
$GPGGA,091150.000,3353.7461,N,09832.0226,W,1,07,1.4,319.0,M,-23.7,M,,0000*64
$GPGSA,A,3,05,10,09,04,17,02,12,,,,,,2.2,1.4,1.7*3F
$GPRMC,091150.000,A,3353.7461,N,09832.0226,W,0.26,57.54,020412,,,A*46
$GPGGA,091151.000,3353.7462,N,09832.0226,W,1,07,1.4,319.0,M,-23.7,M,,0000*66
$GPGSA,A,3,05,10,09,04,17,02,12,,,,,,2.2,1.4,1.7*3F
$GPRMC,091151.000,A,3353.7462,N,09832.0226,W,0.31,60.59,020412,,,A*4B
$GPGGA,091152.000,3353.7461,N,09832.0225,W,1,07,1.4,319.0,M,-23.7,M,,0000*65
$GPGSA,A,3,05,10,09,04,17,02,12,,,,,,2.2,1.4,1.7*3F
$GPGSV,3,1,11,02,72,353,34,12,67,281,29,10,50,077,36,05,44,172,27*79
$GPGSV,3,2,11,04,41,044,37,25,28,314,26,17,11,099,30,09,11,225,14*7E
$GPGSV,3,3,11,27,05,213,16,29,05,295,15,13,00,068,*46
$GPRMC,091152.000,A,3353.7461,N,09832.0225,W,0.37,87.60,020412,,,A*4D
$GPGGA,091153.000,3353.7460,N,09832.0224,W,1,07,1.4,319.2,M,-23.7,M,,0000*66
$GPGSA,A,3,05,10,09,04,17,02,12,,,,,,2.2,1.4,1.7*3F
$GPRMC,091153.000,A,3353.7460,N,09832.0224,W,0.44,103.55,020412,,,A*73
$GPGGA,091154.000,3353.7458,N,09832.0224,W,1,07,1.4,319.5,M,-23.7,M,,0000*6D
$GPGSA,A,3,05,10,09,04,17,02,12,,,,,,2.2,1.4,1.7*3F
$GPRMC,091154.000,A,3353.7458,N,09832.0224,W,0.47,106.80,020412,,,A*71
$GPGGA,091155.000,3353.7456,N,09832.0223,W,1,07,1.4,319.8,M,-23.7,M,,0000*68
$GPGSA,A,3,05,10,09,04,17,02,12,,,,,,2.2,1.4,1.7*3F
$GPRMC,091155.000,A,3353.7456,N,09832.0223,W,0.49,104.93,020412,,,A*77
$GPGGA,091156.000,3353.7453,N,09832.0222,W,1,07,1.4,320.1,M,-23.7,M,,0000*6C
$GPGSA,A,3,05,10,09,04,17,02,12,,,,,,2.2,1.4,1.7*3F
$GPRMC,091156.000,A,3353.7453,N,09832.0222,W,0.43,144.35,020412,,,A*72
$GPGGA,091157.000,3353.7450,N,09832.0223,W,1,07,1.4,320.3,M,-23.7,M,,0000*6D
$GPGSA,A,3,05,10,09,04,17,02,12,,,,,,2.2,1.4,1.7*3F
$GPGSV,3,1,11,02,72,353,34,12,67,281,29,10,50,077,36,05,44,172,27*79
$GPGSV,3,2,11,04,41,044,37,25,28,314,26,17,11,099,30,09,11,225,15*7F
$GPGSV,3,3,11,27,05,213,16,29,05,295,15,13,00,068,*46
$GPRMC,091157.000,A,3353.7450,N,09832.0223,W,0.46,163.88,020412,,,A*77
$GPGGA,091158.000,3353.7447,N,09832.0223,W,1,07,1.4,320.4,M,-23.7,M,,0000*63
$GPGSA,A,3,05,10,09,04,17,02,12,,,,,,2.2,1.4,1.7*3F
$GPRMC,091158.000,A,3353.7447,N,09832.0223,W,0.43,176.18,020412,,,A*76
$GPGGA,091159.000,3353.7444,N,09832.0224,W,1,07,1.4,320.4,M,-23.7,M,,0000*66
$GPGSA,A,3,05,10,09,04,17,02,12,,,,,,2.2,1.4,1.7*3F
$GPRMC,091159.000,A,3353.7444,N,09832.0224,W,0.41,183.72,020412,,,A*77
$GPGGA,091200.000,3353.7442,N,09832.0224,W,1,07,1.4,320.4,M,-23.7,M,,0000*6F
$GPGSA,A,3,05,10,09,04,17,02,12,,,,,,2.2,1.4,1.7*3F
$GPRMC,091200.000,A,3353.7442,N,09832.0224,W,0.21,107.92,020412,,,A*7A
$GPGGA,091201.000,3353.7440,N,09832.0224,W,1,07,1.4,320.4,M,-23.7,M,,0000*6C
$GPGSA,A,3,05,10,09,04,17,02,12,,,,,,2.2,1.4,1.7*3F
$GPRMC,091201.000,A,3353.7440,N,09832.0224,W,0.34,80.29,020412,,,A*43
$GPGGA,091202.000,3353.7439,N,09832.0224,W,1,07,1.4,320.4,M,-23.7,M,,0000*61
$GPGSA,A,3,05,10,09,04,17,02,12,,,,,,2.2,1.4,1.7*3F
$GPGSV,3,1,11,02,72,353,34,12,67,281,29,10,50,077,35,05,44,172,28*75
$GPGSV,3,2,11,04,41,044,37,25,28,314,26,17,11,099,30,09,11,225,16*7C
$GPGSV,3,3,11,27,05,213,17,29,05,295,14,13,00,068,*46
$GPRMC,091202.000,A,3353.7439,N,09832.0224,W,0.42,71.50,020412,,,A*4F
$GPGGA,091203.000,3353.7437,N,09832.0223,W,1,07,1.4,320.5,M,-23.7,M,,0000*68
$GPGSA,A,3,05,10,09,04,17,02,12,,,,,,2.2,1.4,1.7*3F
$GPRMC,091203.000,A,3353.7437,N,09832.0223,W,0.44,74.03,020412,,,A*42
$GPGGA,091204.000,3353.7436,N,09832.0224,W,1,07,1.4,320.5,M,-23.7,M,,0000*69
$GPGSA,A,3,05,10,09,04,17,02,12,,,,,,2.2,1.4,1.7*3F
$GPRMC,091204.000,A,3353.7436,N,09832.0224,W,0.18,110.66,020412,,,A*7A
$GPGGA,091205.000,3353.7435,N,09832.0225,W,1,07,1.4,320.4,M,-23.7,M,,0000*6B
$GPGSA,A,3,05,10,09,04,17,02,12,,,,,,2.2,1.4,1.7*3F
$GPRMC,091205.000,A,3353.7435,N,09832.0225,W,0.09,151.32,020412,,,A*7D
$GPGGA,091206.000,3353.7434,N,09832.0225,W,1,07,1.4,320.3,M,-23.7,M,,0000*6E
$GPGSA,A,3,05,10,09,04,17,02,12,,,,,,2.2,1.4,1.7*3F
$GPRMC,091206.000,A,3353.7434,N,09832.0225,W,0.15,88.71,020412,,,A*40
$GPGGA,091207.000,3353.7433,N,09832.0225,W,1,07,1.4,320.2,M,-23.7,M,,0000*69
$GPGSA,A,3,05,10,09,04,17,02,12,,,,,,2.2,1.4,1.7*3F
$GPGSV,3,1,11,02,72,353,34,12,67,281,29,10,50,077,35,05,44,172,28*75
$GPGSV,3,2,11,04,41,044,36,25,28,314,26,17,11,099,30,09,11,225,16*7D
$GPGSV,3,3,11,27,05,213,18,29,05,295,15,13,00,068,*48
$GPRMC,091207.000,A,3353.7433,N,09832.0225,W,0.28,65.78,020412,,,A*42
$GPGGA,091208.000,3353.7433,N,09832.0225,W,1,07,1.4,320.1,M,-23.7,M,,0000*65
$GPGSA,A,3,05,10,09,04,17,02,12,,,,,,2.2,1.4,1.7*3F
$GPRMC,091208.000,A,3353.7433,N,09832.0225,W,0.38,68.81,020412,,,A*47
$GPGGA,091209.000,3353.7433,N,09832.0225,W,1,07,1.4,320.1,M,-23.7,M,,0000*64
$GPGSA,A,3,05,10,09,04,17,02,12,,,,,,2.2,1.4,1.7*3F
$GPRMC,091209.000,A,3353.7433,N,09832.0225,W,0.41,67.75,020412,,,A*4C
$GPGGA,091210.000,3353.7433,N,09832.0225,W,1,07,1.4,320.0,M,-23.7,M,,0000*6D
$GPGSA,A,3,05,10,09,04,17,02,12,,,,,,2.2,1.4,1.7*3F
$GPRMC,091210.000,A,3353.7433,N,09832.0225,W,0.44,73.47,020412,,,A*45
$GPGGA,091211.000,3353.7433,N,09832.0225,W,1,07,1.4,320.1,M,-23.7,M,,0000*6D
$GPGSA,A,3,05,10,09,04,17,02,12,,,,,,2.2,1.4,1.7*3F
$GPRMC,091211.000,A,3353.7433,N,09832.0225,W,0.45,73.15,020412,,,A*42
$GPGGA,091212.000,3353.7433,N,09832.0224,W,1,07,1.4,320.1,M,-23.7,M,,0000*6F
$GPGSA,A,3,05,10,09,04,17,02,12,,,,,,2.2,1.4,1.7*3F
$GPGSV,3,1,11,02,72,353,34,12,67,281,29,10,50,077,35,05,44,172,28*75
$GPGSV,3,2,11,04,41,044,36,25,28,314,26,17,11,099,29,09,11,225,16*75
$GPGSV,3,3,11,27,05,213,18,29,05,295,14,13,00,068,*49
$GPRMC,091212.000,A,3353.7433,N,09832.0224,W,0.47,71.09,020412,,,A*4D
$GPGGA,091213.000,3353.7432,N,09832.0225,W,1,07,1.4,320.1,M,-23.7,M,,0000*6E
$GPGSA,A,3,05,10,09,04,17,02,12,,,,,,2.2,1.4,1.7*3F
$GPRMC,091213.000,A,3353.7432,N,09832.0225,W,0.14,115.97,020412,,,A*7E
$GPGGA,091214.000,3353.7432,N,09832.0226,W,1,07,1.4,319.9,M,-23.7,M,,0000*68
$GPGSA,A,3,05,10,09,04,17,02,12,,,,,,2.2,1.4,1.7*3F
$GPRMC,091214.000,A,3353.7432,N,09832.0226,W,0.11,157.09,020412,,,A*7E
$GPGGA,091215.000,3353.7432,N,09832.0228,W,1,07,1.4,319.7,M,-23.7,M,,0000*69
$GPGSA,A,3,05,10,09,04,17,02,12,,,,,,2.2,1.4,1.7*3F
$GPRMC,091215.000,A,3353.7432,N,09832.0228,W,0.16,208.30,020412,,,A*75
$GPGGA,091216.000,3353.7432,N,09832.0230,W,1,07,1.4,319.4,M,-23.7,M,,0000*60
$GPGSA,A,3,05,10,09,04,17,02,12,,,,,,2.2,1.4,1.7*3F
$GPRMC,091216.000,A,3353.7432,N,09832.0230,W,0.20,225.13,020412,,,A*74
$GPGGA,091217.000,3353.7432,N,09832.0231,W,1,07,1.4,319.1,M,-23.7,M,,0000*65
$GPGSA,A,3,05,10,09,04,17,02,12,,,,,,2.2,1.4,1.7*3F
$GPGSV,3,1,11,02,72,353,34,12,67,281,30,10,50,077,35,05,44,172,28*7D
$GPGSV,3,2,11,04,41,044,35,25,28,314,26,17,11,099,29,09,11,225,16*76
$GPGSV,3,3,11,27,05,213,17,29,05,295,,13,00,068,*43
$GPRMC,091217.000,A,3353.7432,N,09832.0231,W,0.08,42.89,020412,,,A*4E
$GPGGA,091218.000,3353.7432,N,09832.0232,W,1,07,1.4,318.9,M,-23.7,M,,0000*60
$GPGSA,A,3,05,10,09,04,17,02,12,,,,,,2.2,1.4,1.7*3F
$GPRMC,091218.000,A,3353.7432,N,09832.0232,W,0.18,66.39,020412,,,A*4E
$GPGGA,091219.000,3353.7432,N,09832.0233,W,1,07,1.5,318.6,M,-23.7,M,,0000*6E
$GPGSA,A,3,05,10,09,04,17,02,12,,,,,,2.2,1.5,1.7*3E
$GPRMC,091219.000,A,3353.7432,N,09832.0233,W,0.15,188.23,020412,,,A*79
$GPGGA,091220.000,3353.7431,N,09832.0234,W,1,07,1.5,318.3,M,-23.7,M,,0000*65
$GPGSA,A,3,05,10,09,04,17,02,12,,,,,,2.2,1.5,1.7*3E
$GPRMC,091220.000,A,3353.7431,N,09832.0234,W,0.30,206.97,020412,,,A*7A
$GPGGA,091221.000,3353.7430,N,09832.0236,W,1,07,1.5,318.1,M,-23.7,M,,0000*65
$GPGSA,A,3,05,10,09,04,17,02,12,,,,,,2.2,1.5,1.7*3E
$GPRMC,091221.000,A,3353.7430,N,09832.0236,W,0.13,214.99,020412,,,A*74
$GPGGA,091222.000,3353.7429,N,09832.0237,W,1,07,1.5,317.7,M,-23.7,M,,0000*66
$GPGSA,A,3,05,10,09,04,17,02,12,,,,,,2.2,1.5,1.7*3E
$GPGSV,3,1,11,02,72,353,34,12,67,281,30,10,50,077,34,05,44,172,28*7C
$GPGSV,3,2,11,04,41,044,35,25,28,314,25,17,11,099,29,09,11,225,17*74
$GPGSV,3,3,11,27,05,213,15,29,05,295,,13,00,068,*41
$GPRMC,091222.000,A,3353.7429,N,09832.0237,W,0.18,226.96,020412,,,A*7B
$GPGGA,091223.000,3353.7429,N,09832.0238,W,1,07,1.5,317.4,M,-23.7,M,,0000*6B
$GPGSA,A,3,05,10,09,04,17,02,12,,,,,,2.2,1.5,1.7*3E
$GPRMC,091223.000,A,3353.7429,N,09832.0238,W,0.12,30.77,020412,,,A*45
$GPGGA,091224.000,3353.7430,N,09832.0239,W,1,07,1.5,317.2,M,-23.7,M,,0000*63
$GPGSA,A,3,05,10,09,04,17,02,12,,,,,,2.2,1.5,1.7*3E
$GPRMC,091224.000,A,3353.7430,N,09832.0239,W,0.22,38.42,020412,,,A*46
$GPGGA,091225.000,3353.7430,N,09832.0240,W,1,07,1.5,316.9,M,-23.7,M,,0000*66
$GPGSA,A,3,05,10,09,04,17,02,12,,,,,,2.2,1.5,1.7*3E
$GPRMC,091225.000,A,3353.7430,N,09832.0240,W,0.08,35.79,020412,,,A*44
$GPGGA,091226.000,3353.7430,N,09832.0240,W,1,07,1.5,316.7,M,-23.7,M,,0000*6B
$GPGSA,A,3,05,10,09,04,17,02,12,,,,,,2.2,1.5,1.7*3E
$GPRMC,091226.000,A,3353.7430,N,09832.0240,W,0.13,25.41,020412,,,A*47
$GPGGA,091227.000,3353.7430,N,09832.0242,W,1,07,1.5,316.4,M,-23.7,M,,0000*6B
$GPGSA,A,3,05,10,09,04,17,02,12,,,,,,2.2,1.5,1.7*3E
$GPGSV,3,1,11,02,72,353,34,12,67,281,31,10,50,077,34,05,44,172,28*7D
$GPGSV,3,2,11,04,41,044,35,25,28,314,25,17,11,099,30,09,11,225,18*73
$GPGSV,3,3,11,27,05,213,14,29,05,295,,13,00,068,*40
$GPRMC,091227.000,A,3353.7430,N,09832.0242,W,0.12,245.14,020412,,,A*71
$GPGGA,091228.000,3353.7429,N,09832.0243,W,1,07,1.5,316.1,M,-23.7,M,,0000*68
$GPGSA,A,3,05,10,09,04,17,02,12,,,,,,2.2,1.5,1.7*3E
$GPRMC,091228.000,A,3353.7429,N,09832.0243,W,0.24,235.95,020412,,,A*7C
$GPGGA,091229.000,3353.7429,N,09832.0245,W,1,07,1.5,315.7,M,-23.7,M,,0000*6A
$GPGSA,A,3,05,10,09,04,17,02,12,,,,,,2.2,1.5,1.7*3E
$GPRMC,091229.000,A,3353.7429,N,09832.0245,W,0.34,245.06,020412,,,A*77
$GPGGA,091230.000,3353.7429,N,09832.0247,W,1,07,1.5,315.3,M,-23.7,M,,0000*64
$GPGSA,A,3,05,10,09,04,17,02,12,,,,,,2.2,1.5,1.7*3E
$GPRMC,091230.000,A,3353.7429,N,09832.0247,W,0.15,296.20,020412,,,A*74
$GPGGA,091231.000,3353.7430,N,09832.0248,W,1,07,1.5,314.9,M,-23.7,M,,0000*69
$GPGSA,A,3,05,10,09,04,17,02,12,,,,,,2.2,1.5,1.7*3E
$GPRMC,091231.000,A,3353.7430,N,09832.0248,W,0.20,2.00,020412,,,A*79
$GPGGA,091232.000,3353.7431,N,09832.0248,W,1,07,1.5,314.6,M,-23.7,M,,0000*64
$GPGSA,A,3,05,10,09,04,17,02,12,,,,,,2.2,1.5,1.7*3E
$GPGSV,3,1,11,02,72,353,35,12,67,281,31,10,50,077,34,05,44,172,28*7C
$GPGSV,3,2,11,04,41,044,35,25,28,314,25,17,11,099,30,09,11,225,17*7C
$GPGSV,3,3,11,27,05,213,15,29,05,295,,13,00,068,*41
$GPRMC,091232.000,A,3353.7431,N,09832.0248,W,0.30,17.21,020412,,,A*4D
$GPGGA,091233.000,3353.7431,N,09832.0248,W,1,07,1.5,314.4,M,-23.7,M,,0000*67
$GPGSA,A,3,05,10,09,04,17,02,12,,,,,,2.2,1.5,1.7*3E
$GPRMC,091233.000,A,3353.7431,N,09832.0248,W,0.37,30.46,020412,,,A*4F
$GPGGA,091234.000,3353.7432,N,09832.0249,W,1,07,1.5,314.2,M,-23.7,M,,0000*64
$GPGSA,A,3,05,10,09,04,17,02,12,,,,,,2.2,1.5,1.7*3E
$GPRMC,091234.000,A,3353.7432,N,09832.0249,W,0.07,310.33,020412,,,A*7A
$GPGGA,091235.000,3353.7432,N,09832.0250,W,1,07,1.5,313.9,M,-23.7,M,,0000*61
$GPGSA,A,3,05,10,09,04,17,02,12,,,,,,2.2,1.5,1.7*3E
$GPRMC,091235.000,A,3353.7432,N,09832.0250,W,0.22,248.89,020412,,,A*79
$GPGGA,091236.000,3353.7431,N,09832.0252,W,1,07,1.5,313.6,M,-23.7,M,,0000*6C
$GPGSA,A,3,05,10,09,04,17,02,12,,,,,,2.2,1.5,1.7*3E
$GPRMC,091236.000,A,3353.7431,N,09832.0252,W,0.33,244.30,020412,,,A*75
$GPGGA,091237.000,3353.7431,N,09832.0253,W,1,07,1.5,313.3,M,-23.7,M,,0000*69
$GPGSA,A,3,05,10,09,04,17,02,12,,,,,,2.2,1.5,1.7*3E
$GPGSV,3,1,11,02,72,353,35,12,67,281,31,10,50,077,33,05,44,172,28*7B
$GPGSV,3,2,11,04,41,044,34,25,28,314,25,17,11,099,30,09,11,225,15*7F
$GPGSV,3,3,11,27,05,213,15,29,05,295,,13,00,068,*41
$GPRMC,091237.000,A,3353.7431,N,09832.0253,W,0.21,267.79,020412,,,A*7A
$GPGGA,091238.000,3353.7432,N,09832.0254,W,1,07,1.5,312.9,M,-23.7,M,,0000*69
$GPGSA,A,3,05,10,09,04,17,02,12,,,,,,2.2,1.5,1.7*3E
$GPRMC,091238.000,A,3353.7432,N,09832.0254,W,0.17,281.70,020412,,,A*75
$GPGGA,091239.000,3353.7432,N,09832.0256,W,1,07,1.5,312.6,M,-23.7,M,,0000*65
$GPGSA,A,3,05,10,09,04,17,02,12,,,,,,2.2,1.5,1.7*3E
$GPRMC,091239.000,A,3353.7432,N,09832.0256,W,0.23,280.24,020412,,,A*71
$GPGGA,091240.000,3353.7432,N,09832.0257,W,1,07,1.5,312.3,M,-23.7,M,,0000*6F
$GPGSA,A,3,05,10,09,04,17,02,12,,,,,,2.2,1.5,1.7*3E
$GPRMC,091240.000,A,3353.7432,N,09832.0257,W,0.19,289.53,020412,,,A*7E
$GPGGA,091241.000,3353.7433,N,09832.0258,W,1,06,2.3,312.0,M,-23.7,M,,0000*67
$GPGSA,A,3,05,10,04,17,02,12,,,,,,,4.2,2.3,3.5*34
$GPRMC,091241.000,A,3353.7433,N,09832.0258,W,0.18,303.14,020412,,,A*70
$GPGGA,091242.000,3353.7433,N,09832.0259,W,1,06,2.3,311.7,M,-23.7,M,,0000*61
$GPGSA,A,3,05,10,04,17,02,12,,,,,,,4.2,2.3,3.5*34
$GPGSV,3,1,11,02,72,353,35,12,67,281,31,10,50,077,34,05,44,172,28*7C
$GPGSV,3,2,11,04,41,044,34,25,28,314,25,17,11,099,29,09,11,225,*73
$GPGSV,3,3,11,27,05,213,14,29,05,295,,13,00,068,*40
$GPRMC,091242.000,A,3353.7433,N,09832.0259,W,0.19,315.45,020412,,,A*70
$GPGGA,091243.000,3353.7434,N,09832.0259,W,1,06,2.3,311.4,M,-23.7,M,,0000*64
$GPGSA,A,3,05,10,04,17,02,12,,,,,,,4.2,2.3,3.5*34
$GPRMC,091243.000,A,3353.7434,N,09832.0259,W,0.17,328.16,020412,,,A*70
$GPGGA,091244.000,3353.7434,N,09832.0260,W,1,06,2.3,311.2,M,-23.7,M,,0000*6F
$GPGSA,A,3,05,10,04,17,02,12,,,,,,,4.2,2.3,3.5*34
$GPRMC,091244.000,A,3353.7434,N,09832.0260,W,0.19,322.51,020412,,,A*7A
$GPGGA,091245.000,3353.7435,N,09832.0260,W,1,06,2.3,311.0,M,-23.7,M,,0000*6D
$GPGSA,A,3,05,10,04,17,02,12,,,,,,,4.2,2.3,3.5*34
$GPRMC,091245.000,A,3353.7435,N,09832.0260,W,0.15,327.45,020412,,,A*76
$GPGGA,091246.000,3353.7435,N,09832.0261,W,1,06,2.3,310.8,M,-23.7,M,,0000*66
$GPGSA,A,3,05,10,04,17,02,12,,,,,,,4.2,2.3,3.5*34
$GPRMC,091246.000,A,3353.7435,N,09832.0261,W,0.17,317.91,020412,,,A*7C
$GPGGA,091247.000,3353.7436,N,09832.0261,W,1,06,2.3,310.6,M,-23.7,M,,0000*6A
$GPGSA,A,3,05,10,04,17,02,12,,,,,,,4.2,2.3,3.5*34
$GPGSV,3,1,11,02,72,353,35,12,67,281,31,10,50,077,34,05,44,172,29*7D
$GPGSV,3,2,11,04,41,044,33,25,28,314,26,17,11,099,29,09,11,225,*77
$GPGSV,3,3,11,27,05,213,14,29,05,295,,13,00,068,*40
$GPRMC,091247.000,A,3353.7436,N,09832.0261,W,0.11,323.46,020412,,,A*75
$GPGGA,091248.000,3353.7436,N,09832.0262,W,1,06,2.3,310.5,M,-23.7,M,,0000*65
$GPGSA,A,3,05,10,04,17,02,12,,,,,,,4.2,2.3,3.5*34
$GPRMC,091248.000,A,3353.7436,N,09832.0262,W,0.12,327.64,020412,,,A*7E
$GPGGA,091249.000,3353.7437,N,09832.0262,W,1,06,2.3,310.3,M,-23.7,M,,0000*63
$GPGSA,A,3,05,10,04,17,02,12,,,,,,,4.2,2.3,3.5*34
$GPRMC,091249.000,A,3353.7437,N,09832.0262,W,0.11,334.94,020412,,,A*70
$GPGGA,091250.000,3353.7437,N,09832.0262,W,1,06,2.3,310.2,M,-23.7,M,,0000*6A
$GPGSA,A,3,05,10,04,17,02,12,,,,,,,4.2,2.3,3.5*34
$GPRMC,091250.000,A,3353.7437,N,09832.0262,W,0.11,335.15,020412,,,A*70
$GPGGA,091251.000,3353.7437,N,09832.0262,W,1,06,2.3,310.1,M,-23.7,M,,0000*68
$GPGSA,A,3,05,10,04,17,02,12,,,,,,,4.2,2.3,3.5*34
$GPRMC,091251.000,A,3353.7437,N,09832.0262,W,0.11,337.18,020412,,,A*7E
$GPGGA,091252.000,3353.7437,N,09832.0262,W,1,06,2.3,310.1,M,-23.7,M,,0000*6B
$GPGSA,A,3,05,10,04,17,02,12,,,,,,,4.2,2.3,3.5*34
$GPGSV,3,1,11,02,72,353,35,12,67,281,31,10,50,077,34,05,44,172,29*7D
$GPGSV,3,2,11,04,41,044,33,25,28,314,25,17,11,099,29,09,11,225,*74
$GPGSV,3,3,11,27,05,213,14,29,05,295,,13,00,068,*40
$GPRMC,091252.000,A,3353.7437,N,09832.0262,W,0.08,323.34,020412,,,A*7E
$GPGGA,091253.000,3353.7438,N,09832.0263,W,1,06,2.3,310.0,M,-23.7,M,,0000*65
$GPGSA,A,3,05,10,04,17,02,12,,,,,,,4.2,2.3,3.5*34
$GPRMC,091253.000,A,3353.7438,N,09832.0263,W,0.09,339.50,020412,,,A*79
$GPGGA,091254.000,3353.7438,N,09832.0263,W,1,06,2.3,309.9,M,-23.7,M,,0000*63
$GPGSA,A,3,05,10,04,17,02,12,,,,,,,4.2,2.3,3.5*34
$GPRMC,091254.000,A,3353.7438,N,09832.0263,W,0.09,354.02,020412,,,A*72
$GPGGA,091255.000,3353.7438,N,09832.0263,W,1,06,2.3,309.9,M,-23.7,M,,0000*62
$GPGSA,A,3,05,10,04,17,02,12,,,,,,,4.2,2.3,3.5*34
$GPRMC,091255.000,A,3353.7438,N,09832.0263,W,0.11,352.11,020412,,,A*7E
$GPGGA,091256.000,3353.7439,N,09832.0262,W,1,07,1.5,309.9,M,-23.7,M,,0000*65
$GPGSA,A,3,05,10,04,17,02,09,12,,,,,,2.2,1.5,1.7*3E
$GPRMC,091256.000,A,3353.7439,N,09832.0262,W,0.21,43.48,020412,,,A*41
$GPGGA,091257.000,3353.7439,N,09832.0261,W,1,07,1.5,310.0,M,-23.7,M,,0000*66
$GPGSA,A,3,05,10,04,17,02,09,12,,,,,,2.2,1.5,1.7*3E
$GPGSV,3,1,11,02,72,353,36,12,67,281,30,10,50,077,34,05,44,172,30*77
$GPGSV,3,2,11,04,41,044,32,25,28,314,24,17,11,099,30,09,11,225,13*7E
$GPGSV,3,3,11,27,05,213,14,29,05,295,,13,00,068,*40
$GPRMC,091257.000,A,3353.7439,N,09832.0261,W,0.26,50.39,020412,,,A*40
$GPGGA,091258.000,3353.7439,N,09832.0260,W,1,07,1.5,310.2,M,-23.7,M,,0000*6A
$GPGSA,A,3,05,10,04,17,02,09,12,,,,,,2.2,1.5,1.7*3E
$GPRMC,091258.000,A,3353.7439,N,09832.0260,W,0.25,56.76,020412,,,A*40
$GPGGA,091259.000,3353.7439,N,09832.0259,W,1,07,1.5,310.4,M,-23.7,M,,0000*67
$GPGSA,A,3,05,10,04,17,02,09,12,,,,,,2.2,1.5,1.7*3E
$GPRMC,091259.000,A,3353.7439,N,09832.0259,W,0.27,70.22,020412,,,A*4C
$GPGGA,091300.000,3353.7440,N,09832.0258,W,1,07,1.5,310.6,M,-23.7,M,,0000*67
$GPGSA,A,3,05,10,04,17,02,09,12,,,,,,2.2,1.5,1.7*3E
$GPRMC,091300.000,A,3353.7440,N,09832.0258,W,0.30,66.43,020412,,,A*48
$GPGGA,091301.000,3353.7440,N,09832.0257,W,1,07,1.5,310.9,M,-23.7,M,,0000*66
$GPGSA,A,3,05,10,04,17,02,09,12,,,,,,2.2,1.5,1.7*3E
$GPRMC,091301.000,A,3353.7440,N,09832.0257,W,0.35,70.49,020412,,,A*4E
$GPGGA,091302.000,3353.7440,N,09832.0256,W,1,07,1.5,311.2,M,-23.7,M,,0000*6E
$GPGSA,A,3,05,10,04,17,02,09,12,,,,,,2.2,1.5,1.7*3E
$GPGSV,3,1,12,02,72,353,36,12,67,281,30,10,50,077,34,05,44,172,30*74
$GPGSV,3,2,12,04,41,044,32,25,28,314,19,17,11,099,30,09,11,225,16*76
$GPGSV,3,3,12,27,05,213,14,29,05,295,,13,00,068,,51,49,195,23*76
$GPRMC,091302.000,A,3353.7440,N,09832.0256,W,0.46,70.26,020412,,,A*41
$GPGGA,091303.000,3353.7440,N,09832.0255,W,1,07,1.5,311.5,M,-23.7,M,,0000*6B
$GPGSA,A,3,05,10,04,17,02,09,12,,,,,,2.2,1.5,1.7*3E
$GPRMC,091303.000,A,3353.7440,N,09832.0255,W,0.16,117.47,020412,,,A*71
$GPGGA,091304.000,3353.7439,N,09832.0255,W,1,07,1.5,311.6,M,-23.7,M,,0000*61
$GPGSA,A,3,05,10,04,17,02,09,12,,,,,,2.2,1.5,1.7*3E
$GPRMC,091304.000,A,3353.7439,N,09832.0255,W,0.15,159.68,020412,,,A*7C
$GPGGA,091305.000,3353.7439,N,09832.0254,W,1,07,1.5,311.8,M,-23.7,M,,0000*6F
$GPGSA,A,3,05,10,04,17,02,09,12,,,,,,2.2,1.5,1.7*3E
$GPRMC,091305.000,A,3353.7439,N,09832.0254,W,0.21,75.34,020412,,,A*4D
$GPGGA,091306.000,3353.7439,N,09832.0253,W,1,07,1.5,312.0,M,-23.7,M,,0000*60
$GPGSA,A,3,05,10,04,17,02,09,12,,,,,,2.2,1.5,1.7*3E
$GPRMC,091306.000,A,3353.7439,N,09832.0253,W,0.33,72.71,020412,,,A*4C
$GPGGA,091307.000,3353.7439,N,09832.0253,W,1,07,1.5,312.1,M,-23.7,M,,0000*60
$GPGSA,A,3,05,10,04,17,02,09,12,,,,,,2.2,1.5,1.7*3E
$GPGSV,3,1,11,02,72,353,36,12,67,281,29,10,50,077,34,05,44,172,31*7E
$GPGSV,3,2,11,04,41,044,32,25,28,314,20,17,11,099,30,09,11,225,20*7A
$GPGSV,3,3,11,27,05,213,15,29,05,295,,13,00,068,*41
$GPRMC,091307.000,A,3353.7439,N,09832.0253,W,0.12,120.25,020412,,,A*79
$GPGGA,091308.000,3353.7439,N,09832.0253,W,1,07,1.5,312.3,M,-23.7,M,,0000*6D
$GPGSA,A,3,05,10,04,17,02,09,12,,,,,,2.2,1.5,1.7*3E
$GPRMC,091308.000,A,3353.7439,N,09832.0253,W,0.26,73.99,020412,,,A*41
$GPGGA,091309.000,3353.7439,N,09832.0253,W,1,07,1.5,312.4,M,-23.7,M,,0000*6B
$GPGSA,A,3,05,10,04,17,02,09,12,,,,,,2.2,1.5,1.7*3E
$GPRMC,091309.000,A,3353.7439,N,09832.0253,W,0.15,104.05,020412,,,A*74
$GPGGA,091310.000,3353.7439,N,09832.0253,W,1,07,1.5,312.5,M,-23.7,M,,0000*62
$GPGSA,A,3,05,10,04,17,02,09,12,,,,,,2.2,1.5,1.7*3E
$GPRMC,091310.000,A,3353.7439,N,09832.0253,W,0.09,133.68,020412,,,A*7E
$GPGGA,091311.000,3353.7439,N,09832.0253,W,1,07,1.5,312.6,M,-23.7,M,,0000*60
$GPGSA,A,3,05,10,04,17,02,09,12,,,,,,2.2,1.5,1.7*3E
$GPRMC,091311.000,A,3353.7439,N,09832.0253,W,0.10,103.50,020412,,,A*7F
$GPGGA,091312.000,3353.7439,N,09832.0252,W,1,07,1.5,312.6,M,-23.7,M,,0000*62
$GPGSA,A,3,05,10,04,17,02,09,12,,,,,,2.2,1.5,1.7*3E
$GPGSV,3,1,11,02,72,353,36,12,67,281,28,10,50,077,34,05,44,172,32*7C
$GPGSV,3,2,11,04,41,044,32,25,28,314,20,17,11,099,30,09,11,225,18*71
$GPGSV,3,3,11,27,05,213,14,29,05,295,,13,00,068,*40
$GPRMC,091312.000,A,3353.7439,N,09832.0252,W,0.28,68.87,020412,,,A*40
$GPGGA,091313.000,3353.7440,N,09832.0252,W,1,07,1.5,312.8,M,-23.7,M,,0000*63
$GPGSA,A,3,05,10,04,17,02,09,12,,,,,,2.2,1.5,1.7*3E
$GPRMC,091313.000,A,3353.7440,N,09832.0252,W,0.35,69.26,020412,,,A*49
$GPGGA,091314.000,3353.7440,N,09832.0251,W,1,07,1.5,312.9,M,-23.7,M,,0000*66
$GPGSA,A,3,05,10,04,17,02,09,12,,,,,,2.2,1.5,1.7*3E
$GPRMC,091314.000,A,3353.7440,N,09832.0251,W,0.46,70.73,020412,,,A*41
$GPGGA,091315.000,3353.7440,N,09832.0249,W,1,07,1.5,313.2,M,-23.7,M,,0000*64
$GPGSA,A,3,05,10,04,17,02,09,12,,,,,,2.2,1.5,1.7*3E
$GPRMC,091315.000,A,3353.7440,N,09832.0249,W,0.52,78.47,020412,,,A*43
$GPGGA,091316.000,3353.7440,N,09832.0248,W,1,07,1.5,313.4,M,-23.7,M,,0000*60
$GPGSA,A,3,05,10,04,17,02,09,12,,,,,,2.2,1.5,1.7*3E
$GPRMC,091316.000,A,3353.7440,N,09832.0248,W,0.39,80.25,020412,,,A*4F
$GPGGA,091317.000,3353.7440,N,09832.0248,W,1,07,1.5,313.6,M,-23.7,M,,0000*63
$GPGSA,A,3,05,10,04,17,02,09,12,,,,,,2.2,1.5,1.7*3E
$GPGSV,3,1,11,02,72,353,36,12,67,281,27,10,50,077,35,05,44,172,32*72
$GPGSV,3,2,11,04,41,044,31,25,28,314,25,17,11,099,29,09,11,225,15*72
$GPGSV,3,3,11,27,05,213,13,29,05,295,,13,00,068,*47
$GPRMC,091317.000,A,3353.7440,N,09832.0248,W,0.24,106.75,020412,,,A*78
$GPGGA,091318.000,3353.7440,N,09832.0248,W,1,07,1.5,313.7,M,-23.7,M,,0000*6D
$GPGSA,A,3,05,10,04,17,02,09,12,,,,,,2.2,1.5,1.7*3E
$GPRMC,091318.000,A,3353.7440,N,09832.0248,W,0.19,136.81,020412,,,A*71
$GPGGA,091319.000,3353.7439,N,09832.0249,W,1,07,1.5,313.8,M,-23.7,M,,0000*6C
$GPGSA,A,3,05,10,04,17,02,09,12,,,,,,2.2,1.5,1.7*3E
$GPRMC,091319.000,A,3353.7439,N,09832.0249,W,0.16,182.76,020412,,,A*77
$GPGGA,091320.000,3353.7439,N,09832.0250,W,1,06,2.3,313.7,M,-23.7,M,,0000*65
$GPGSA,A,3,05,10,04,17,02,12,,,,,,,4.2,2.3,3.5*34
$GPRMC,091320.000,A,3353.7439,N,09832.0250,W,0.18,220.62,020412,,,A*75
$GPGGA,091321.000,3353.7439,N,09832.0250,W,1,07,1.5,313.8,M,-23.7,M,,0000*6F
$GPGSA,A,3,05,10,04,17,02,09,12,,,,,,2.2,1.5,1.7*3E
$GPRMC,091321.000,A,3353.7439,N,09832.0250,W,0.14,114.68,020412,,,A*76
$GPGGA,091322.000,3353.7439,N,09832.0249,W,1,07,1.5,313.9,M,-23.7,M,,0000*65
$GPGSA,A,3,05,10,04,17,02,09,12,,,,,,2.2,1.5,1.7*3E
$GPGSV,3,1,11,02,72,353,36,12,67,281,22,10,50,077,35,05,44,172,33*76
$GPGSV,3,2,11,04,41,044,31,25,28,314,25,17,11,099,29,09,11,225,15*72
$GPGSV,3,3,11,27,05,213,13,29,05,295,,13,00,068,*47
$GPRMC,091322.000,A,3353.7439,N,09832.0249,W,0.19,58.12,020412,,,A*44
$GPGGA,091323.000,3353.7440,N,09832.0249,W,1,06,2.3,314.0,M,-23.7,M,,0000*60
$GPGSA,A,3,05,10,04,17,02,12,,,,,,,4.2,2.3,3.5*34
$GPRMC,091323.000,A,3353.7440,N,09832.0249,W,0.31,53.27,020412,,,A*4C
$GPGGA,091324.000,3353.7440,N,09832.0249,W,1,06,2.3,314.1,M,-23.7,M,,0000*66
$GPGSA,A,3,05,10,04,17,02,12,,,,,,,4.2,2.3,3.5*34
$GPRMC,091324.000,A,3353.7440,N,09832.0249,W,0.10,66.45,020412,,,A*4A
$GPGGA,091325.000,3353.7440,N,09832.0250,W,1,06,2.3,314.1,M,-23.7,M,,0000*6F
$GPGSA,A,3,05,10,04,17,02,12,,,,,,,4.2,2.3,3.5*34
$GPRMC,091325.000,A,3353.7440,N,09832.0250,W,0.14,275.80,020412,,,A*7E
$GPGGA,091326.000,3353.7440,N,09832.0251,W,1,07,1.5,314.1,M,-23.7,M,,0000*69
$GPGSA,A,3,05,10,04,17,02,09,12,,,,,,2.2,1.5,1.7*3E
$GPRMC,091326.000,A,3353.7440,N,09832.0251,W,0.06,256.50,020412,,,A*73
$GPGGA,091327.000,3353.7440,N,09832.0252,W,1,06,2.3,314.0,M,-23.7,M,,0000*6E
$GPGSA,A,3,05,10,04,17,02,12,,,,,,,4.2,2.3,3.5*34
$GPGSV,3,1,11,02,72,353,36,12,67,281,22,10,50,077,35,05,44,172,34*71
$GPGSV,3,2,11,04,41,044,31,25,28,314,25,17,11,099,29,09,11,225,17*70
$GPGSV,3,3,11,27,05,213,12,29,05,295,,13,00,068,*46
$GPRMC,091327.000,A,3353.7440,N,09832.0252,W,0.13,82.01,020412,,,A*4A
$GPGGA,091328.000,3353.7441,N,09832.0252,W,1,07,1.5,313.9,M,-23.7,M,,0000*6A
$GPGSA,A,3,05,10,04,17,02,09,12,,,,,,2.2,1.5,1.7*3E
$GPRMC,091328.000,A,3353.7441,N,09832.0252,W,0.19,72.12,020412,,,A*43
$GPGGA,091329.000,3353.7441,N,09832.0251,W,1,07,1.5,313.8,M,-23.7,M,,0000*69
$GPGSA,A,3,05,10,04,17,02,09,12,,,,,,2.2,1.5,1.7*3E
$GPRMC,091329.000,A,3353.7441,N,09832.0251,W,0.47,73.42,020412,,,A*4E
$GPGGA,091330.000,3353.7442,N,09832.0252,W,1,07,1.5,313.8,M,-23.7,M,,0000*61
$GPGSA,A,3,05,10,04,17,02,09,12,,,,,,2.2,1.5,1.7*3E
$GPRMC,091330.000,A,3353.7442,N,09832.0252,W,0.33,54.40,020412,,,A*42
$GPGGA,091331.000,3353.7443,N,09832.0251,W,1,07,1.5,313.8,M,-23.7,M,,0000*62
$GPGSA,A,3,05,10,04,17,02,09,12,,,,,,2.2,1.5,1.7*3E
$GPRMC,091331.000,A,3353.7443,N,09832.0251,W,0.31,72.27,020412,,,A*46
$GPGGA,091332.000,3353.7443,N,09832.0252,W,1,07,1.5,313.8,M,-23.7,M,,0000*62
$GPGSA,A,3,05,10,04,17,02,09,12,,,,,,2.2,1.5,1.7*3E
$GPGSV,3,1,11,02,72,353,36,12,67,281,23,10,50,077,34,05,44,172,34*71
$GPGSV,3,2,11,04,41,044,30,25,28,314,26,17,11,099,30,09,11,225,18*75
$GPGSV,3,3,11,27,05,213,12,29,05,295,,13,00,068,*46
$GPRMC,091332.000,A,3353.7443,N,09832.0252,W,0.10,89.93,020412,,,A*4E
$GPGGA,091333.000,3353.7443,N,09832.0253,W,1,07,1.5,313.8,M,-23.7,M,,0000*62
$GPGSA,A,3,05,10,04,17,02,09,12,,,,,,2.2,1.5,1.7*3E
$GPRMC,091333.000,A,3353.7443,N,09832.0253,W,0.13,153.31,020412,,,A*73
$GPGGA,091334.000,3353.7443,N,09832.0253,W,1,07,1.5,313.7,M,-23.7,M,,0000*6A
$GPGSA,A,3,05,10,04,17,02,09,12,,,,,,2.2,1.5,1.7*3E
$GPRMC,091334.000,A,3353.7443,N,09832.0253,W,0.16,131.41,020412,,,A*72
$GPGGA,091335.000,3353.7442,N,09832.0252,W,1,07,1.5,313.7,M,-23.7,M,,0000*6B
$GPGSA,A,3,05,10,04,17,02,09,12,,,,,,2.2,1.5,1.7*3E
$GPRMC,091335.000,A,3353.7442,N,09832.0252,W,0.14,132.55,020412,,,A*77
$GPGGA,091336.000,3353.7442,N,09832.0252,W,1,07,1.5,313.7,M,-23.7,M,,0000*68
$GPGSA,A,3,05,10,04,17,02,09,12,,,,,,2.2,1.5,1.7*3E
$GPRMC,091336.000,A,3353.7442,N,09832.0252,W,0.17,228.85,020412,,,A*72
$GPGGA,091337.000,3353.7442,N,09832.0252,W,1,07,1.5,313.7,M,-23.7,M,,0000*69
$GPGSA,A,3,05,10,04,17,02,09,12,,,,,,2.2,1.5,1.7*3E
$GPGSV,3,1,11,02,72,353,36,12,67,281,24,10,50,077,34,05,44,172,34*76
$GPGSV,3,2,11,04,41,044,30,25,28,314,26,17,11,099,30,09,11,225,18*75
$GPGSV,3,3,11,27,05,213,,29,05,295,,13,00,068,*45
$GPRMC,091337.000,A,3353.7442,N,09832.0252,W,0.19,268.51,020412,,,A*70
$GPGGA,091338.000,3353.7442,N,09832.0251,W,1,07,1.5,313.7,M,-23.7,M,,0000*65
$GPGSA,A,3,05,10,04,17,02,09,12,,,,,,2.2,1.5,1.7*3E
$GPRMC,091338.000,A,3353.7442,N,09832.0251,W,0.06,56.05,020412,,,A*4C
$GPGGA,091339.000,3353.7441,N,09832.0250,W,1,07,1.5,313.7,M,-23.7,M,,0000*66
$GPGSA,A,3,05,10,04,17,02,09,12,,,,,,2.2,1.5,1.7*3E
$GPRMC,091339.000,A,3353.7441,N,09832.0250,W,0.06,193.50,020412,,,A*77
$GPGGA,091340.000,3353.7441,N,09832.0250,W,1,07,1.5,313.6,M,-23.7,M,,0000*69
$GPGSA,A,3,05,10,04,17,02,09,12,,,,,,2.2,1.5,1.7*3E
$GPRMC,091340.000,A,3353.7441,N,09832.0250,W,0.11,247.34,020412,,,A*77
$GPGGA,091341.000,3353.7441,N,09832.0249,W,1,07,1.5,313.6,M,-23.7,M,,0000*60
$GPGSA,A,3,05,10,04,17,02,09,12,,,,,,2.2,1.5,1.7*3E
$GPRMC,091341.000,A,3353.7441,N,09832.0249,W,0.19,40.43,020412,,,A*43
$GPGGA,091342.000,3353.7442,N,09832.0248,W,1,07,1.5,313.6,M,-23.7,M,,0000*61
$GPGSA,A,3,05,10,04,17,02,09,12,,,,,,2.2,1.5,1.7*3E
$GPGSV,3,1,11,02,72,353,36,12,67,281,24,10,50,077,33,05,44,172,34*71
$GPGSV,3,2,11,04,41,044,30,25,28,314,23,17,11,099,31,09,11,225,18*71
$GPGSV,3,3,11,27,05,213,,29,05,295,,13,00,068,*45
$GPRMC,091342.000,A,3353.7442,N,09832.0248,W,0.29,53.98,020412,,,A*45
$GPGGA,091343.000,3353.7442,N,09832.0246,W,1,07,1.5,313.7,M,-23.7,M,,0000*6F
$GPGSA,A,3,05,10,04,17,02,09,12,,,,,,2.2,1.5,1.7*3E
$GPRMC,091343.000,A,3353.7442,N,09832.0246,W,0.40,60.66,020412,,,A*44
$GPGGA,091344.000,3353.7443,N,09832.0245,W,1,07,1.5,313.8,M,-23.7,M,,0000*65
$GPGSA,A,3,05,10,04,17,02,09,12,,,,,,2.2,1.5,1.7*3E
$GPRMC,091344.000,A,3353.7443,N,09832.0245,W,0.26,53.01,020412,,,A*40
$GPGGA,091345.000,3353.7443,N,09832.0246,W,1,06,2.3,313.9,M,-23.7,M,,0000*62
$GPGSA,A,3,05,10,04,17,02,12,,,,,,,4.2,2.3,3.5*34
$GPRMC,091345.000,A,3353.7443,N,09832.0246,W,0.17,267.71,020412,,,A*72
$GPGGA,091346.000,3353.7443,N,09832.0246,W,1,07,1.5,313.9,M,-23.7,M,,0000*65
$GPGSA,A,3,05,10,04,17,02,09,12,,,,,,2.2,1.5,1.7*3E
$GPRMC,091346.000,A,3353.7443,N,09832.0246,W,0.10,64.93,020412,,,A*4B
$GPGGA,091347.000,3353.7443,N,09832.0247,W,1,07,1.5,313.8,M,-23.7,M,,0000*64
$GPGSA,A,3,05,10,04,17,02,09,12,,,,,,2.2,1.5,1.7*3E
$GPGSV,3,1,11,02,72,353,36,12,67,281,24,10,50,077,33,05,44,172,34*71
$GPGSV,3,2,11,04,41,044,29,25,28,314,24,17,11,099,31,09,11,225,18*7E
$GPGSV,3,3,11,27,05,213,,29,05,295,,13,00,068,*45
$GPRMC,091347.000,A,3353.7443,N,09832.0247,W,0.12,297.80,020412,,,A*75
$GPGGA,091348.000,3353.7443,N,09832.0249,W,1,07,1.5,313.7,M,-23.7,M,,0000*6A
$GPGSA,A,3,05,10,04,17,02,09,12,,,,,,2.2,1.5,1.7*3E
$GPRMC,091348.000,A,3353.7443,N,09832.0249,W,0.32,263.93,020412,,,A*7F
$GPGGA,091349.000,3353.7443,N,09832.0251,W,1,07,1.5,313.5,M,-23.7,M,,0000*60
$GPGSA,A,3,05,10,04,17,02,09,12,,,,,,2.2,1.5,1.7*3E
$GPRMC,091349.000,A,3353.7443,N,09832.0251,W,0.26,246.85,020412,,,A*72
$GPGGA,091350.000,3353.7444,N,09832.0251,W,1,07,1.5,313.3,M,-23.7,M,,0000*69
$GPGSA,A,3,05,10,04,17,02,09,12,,,,,,2.2,1.5,1.7*3E
$GPRMC,091350.000,A,3353.7444,N,09832.0251,W,0.15,51.87,020412,,,A*4B
$GPGGA,091351.000,3353.7444,N,09832.0252,W,1,07,1.5,313.2,M,-23.7,M,,0000*6A
$GPGSA,A,3,05,10,04,17,02,09,12,,,,,,2.2,1.5,1.7*3E
$GPRMC,091351.000,A,3353.7444,N,09832.0252,W,0.08,22.29,020412,,,A*45
$GPGGA,091352.000,3353.7444,N,09832.0251,W,1,07,1.5,313.2,M,-23.7,M,,0000*6A
$GPGSA,A,3,05,10,04,17,02,09,12,,,,,,2.2,1.5,1.7*3E
$GPGSV,3,1,12,02,72,353,36,12,67,281,24,10,50,077,33,05,44,172,34*72
$GPGSV,3,2,12,04,41,044,29,25,28,314,25,17,11,099,31,09,11,225,18*7C
$GPGSV,3,3,12,27,05,213,,29,05,295,,13,00,068,,48,36,230,29*75
$GPRMC,091352.000,A,3353.7444,N,09832.0251,W,0.13,50.68,020412,,,A*4F
$GPGGA,091353.000,3353.7444,N,09832.0251,W,1,07,1.5,313.2,M,-23.7,M,,0000*6B
$GPGSA,A,3,05,10,04,17,02,09,12,,,,,,2.2,1.5,1.7*3E
$GPRMC,091353.000,A,3353.7444,N,09832.0251,W,0.04,270.52,020412,,,A*71
$GPGGA,091354.000,3353.7444,N,09832.0252,W,1,07,1.5,313.1,M,-23.7,M,,0000*6C
$GPGSA,A,3,05,10,04,17,02,09,12,,,,,,2.2,1.5,1.7*3E
$GPRMC,091354.000,A,3353.7444,N,09832.0252,W,0.21,244.79,020412,,,A*7C
$GPGGA,091355.000,3353.7444,N,09832.0251,W,1,07,1.5,313.1,M,-23.7,M,,0000*6E
$GPGSA,A,3,05,10,04,17,02,09,12,,,,,,2.2,1.5,1.7*3E
$GPRMC,091355.000,A,3353.7444,N,09832.0251,W,0.16,48.47,020412,,,A*49
$GPGGA,091356.000,3353.7445,N,09832.0249,W,1,07,1.5,313.1,M,-23.7,M,,0000*65
$GPGSA,A,3,05,10,04,17,02,09,12,,,,,,2.2,1.5,1.7*3E
$GPRMC,091356.000,A,3353.7445,N,09832.0249,W,0.36,55.23,020412,,,A*4E
$GPGGA,091357.000,3353.7445,N,09832.0248,W,1,07,1.5,313.2,M,-23.7,M,,0000*66
$GPGSA,A,3,05,10,04,17,02,09,12,,,,,,2.2,1.5,1.7*3E
$GPGSV,3,1,12,02,72,353,35,12,67,281,26,10,50,077,33,05,44,172,34*73
$GPGSV,3,2,12,04,41,044,28,25,28,314,24,17,11,099,31,09,11,225,17*73
$GPGSV,3,3,12,27,05,213,14,29,05,295,,13,00,068,,48,36,230,26*7F
$GPRMC,091357.000,A,3353.7445,N,09832.0248,W,0.44,53.48,020412,,,A*40
$GPGGA,091358.000,3353.7446,N,09832.0246,W,1,07,1.5,313.3,M,-23.7,M,,0000*65
$GPGSA,A,3,05,10,04,17,02,09,12,,,,,,2.2,1.5,1.7*3E
$GPRMC,091358.000,A,3353.7446,N,09832.0246,W,0.49,58.20,020412,,,A*4A
$GPGGA,091359.000,3353.7447,N,09832.0243,W,1,07,1.5,313.5,M,-23.7,M,,0000*66
$GPGSA,A,3,05,10,04,17,02,09,12,,,,,,2.2,1.5,1.7*3E
$GPRMC,091359.000,A,3353.7447,N,09832.0243,W,0.53,66.29,020412,,,A*40
$GPGGA,091400.000,3353.7447,N,09832.0241,W,1,07,1.5,313.7,M,-23.7,M,,0000*6D
$GPGSA,A,3,05,10,04,17,02,09,12,,,,,,2.2,1.5,1.7*3E
$GPRMC,091400.000,A,3353.7447,N,09832.0241,W,0.38,83.49,020412,,,A*49
$GPGGA,091401.000,3353.7447,N,09832.0240,W,1,07,1.5,314.0,M,-23.7,M,,0000*6D
$GPGSA,A,3,05,10,04,17,02,09,12,,,,,,2.2,1.5,1.7*3E
$GPRMC,091401.000,A,3353.7447,N,09832.0240,W,0.17,134.10,020412,,,A*75
$GPGGA,091402.000,3353.7446,N,09832.0238,W,1,07,1.5,314.2,M,-23.7,M,,0000*62
$GPGSA,A,3,05,10,04,17,02,09,12,,,,,,2.2,1.5,1.7*3E
$GPGSV,3,1,12,02,72,353,35,12,67,281,27,10,50,077,34,05,44,172,34*75
$GPGSV,3,2,12,04,41,044,28,25,28,314,25,17,11,099,31,09,11,225,17*72
$GPGSV,3,3,12,27,05,213,13,29,05,295,,13,00,068,,48,36,230,26*78
$GPRMC,091402.000,A,3353.7446,N,09832.0238,W,0.17,117.62,020412,,,A*7C
$GPGGA,091403.000,3353.7446,N,09832.0237,W,1,07,1.5,314.5,M,-23.7,M,,0000*6B
$GPGSA,A,3,05,10,04,17,02,09,12,,,,,,2.2,1.5,1.7*3E
$GPRMC,091403.000,A,3353.7446,N,09832.0237,W,0.15,125.94,020412,,,A*78
$GPGGA,091404.000,3353.7445,N,09832.0236,W,1,07,1.5,314.6,M,-23.7,M,,0000*6D
$GPGSA,A,3,05,10,04,17,02,09,12,,,,,,2.2,1.5,1.7*3E
$GPRMC,091404.000,A,3353.7445,N,09832.0236,W,0.13,189.07,020412,,,A*77
$GPGGA,091405.000,3353.7445,N,09832.0235,W,1,07,1.5,314.7,M,-23.7,M,,0000*6E
$GPGSA,A,3,05,10,04,17,02,09,12,,,,,,2.2,1.5,1.7*3E
$GPRMC,091405.000,A,3353.7445,N,09832.0235,W,0.15,224.77,020412,,,A*70
$GPGGA,091406.000,3353.7446,N,09832.0235,W,1,07,1.5,314.7,M,-23.7,M,,0000*6E
$GPGSA,A,3,05,10,04,17,02,09,12,,,,,,2.2,1.5,1.7*3E
$GPRMC,091406.000,A,3353.7446,N,09832.0235,W,0.14,291.83,020412,,,A*74
$GPGGA,091407.000,3353.7446,N,09832.0234,W,1,07,1.5,314.5,M,-23.7,M,,0000*6C
$GPGSA,A,3,05,10,04,17,02,09,12,,,,,,2.2,1.5,1.7*3E
$GPGSV,3,1,11,02,72,353,35,12,67,281,28,10,50,077,34,05,44,172,34*79
$GPGSV,3,2,11,04,41,044,26,25,28,314,25,17,11,099,32,09,11,225,16*7D
$GPGSV,3,3,11,27,05,213,12,29,05,295,,13,00,068,*46
$GPRMC,091407.000,A,3353.7446,N,09832.0234,W,0.21,296.74,020412,,,A*7D
$GPGGA,091408.000,3353.7447,N,09832.0234,W,1,07,1.5,314.3,M,-23.7,M,,0000*64
$GPGSA,A,3,05,10,04,17,02,09,12,,,,,,2.2,1.5,1.7*3E
$GPRMC,091408.000,A,3353.7447,N,09832.0234,W,0.32,310.25,020412,,,A*7A
$GPGGA,091409.000,3353.7448,N,09832.0235,W,1,07,1.5,313.9,M,-23.7,M,,0000*66
$GPGSA,A,3,05,10,04,17,02,09,12,,,,,,2.2,1.5,1.7*3E
$GPRMC,091409.000,A,3353.7448,N,09832.0235,W,0.32,280.55,020412,,,A*7A
$GPGGA,091410.000,3353.7448,N,09832.0235,W,1,07,1.5,313.5,M,-23.7,M,,0000*62
$GPGSA,A,3,05,10,04,17,02,09,12,,,,,,2.2,1.5,1.7*3E
$GPRMC,091410.000,A,3353.7448,N,09832.0235,W,0.39,255.59,020412,,,A*7D
$GPGGA,091411.000,3353.7449,N,09832.0235,W,1,07,1.5,313.2,M,-23.7,M,,0000*65
$GPGSA,A,3,05,10,04,17,02,09,12,,,,,,2.2,1.5,1.7*3E
$GPRMC,091411.000,A,3353.7449,N,09832.0235,W,0.29,317.14,020412,,,A*72
$GPGGA,091412.000,3353.7451,N,09832.0234,W,1,07,1.5,312.9,M,-23.7,M,,0000*64
$GPGSA,A,3,05,10,04,17,02,09,12,,,,,,2.2,1.5,1.7*3E
$GPGSV,3,1,12,02,72,353,34,12,67,281,29,10,50,077,34,05,44,172,35*7B
$GPGSV,3,2,12,04,41,044,19,25,28,314,24,17,11,099,32,09,11,225,15*70
$GPGSV,3,3,12,27,05,213,12,29,05,295,,13,00,068,,48,36,230,28*77
$GPRMC,091412.000,A,3353.7451,N,09832.0234,W,0.49,5.14,020412,,,A*7F
$GPGGA,091413.000,3353.7453,N,09832.0232,W,1,07,1.5,312.8,M,-23.7,M,,0000*60
$GPGSA,A,3,05,10,04,17,02,09,12,,,,,,2.2,1.5,1.7*3E
$GPRMC,091413.000,A,3353.7453,N,09832.0232,W,0.63,16.27,020412,,,A*40
$GPGGA,091414.000,3353.7454,N,09832.0230,W,1,07,1.5,312.7,M,-23.7,M,,0000*6D
$GPGSA,A,3,05,10,04,17,02,09,12,,,,,,2.2,1.5,1.7*3E
$GPRMC,091414.000,A,3353.7454,N,09832.0230,W,0.53,26.46,020412,,,A*45
$GPGGA,091415.000,3353.7455,N,09832.0229,W,1,07,1.5,312.8,M,-23.7,M,,0000*6A
$GPGSA,A,3,05,10,04,17,02,09,12,,,,,,2.2,1.5,1.7*3E
$GPRMC,091415.000,A,3353.7455,N,09832.0229,W,0.35,16.71,020412,,,A*4A
$GPGGA,091416.000,3353.7455,N,09832.0228,W,1,07,1.5,312.8,M,-23.7,M,,0000*68
$GPGSA,A,3,05,10,04,17,02,09,12,,,,,,2.2,1.5,1.7*3E
$GPGSV,3,1,11,02,72,353,34,12,67,281,29,10,50,077,34,05,44,172,35*78
$GPGSV,3,2,11,04,41,044,20,25,28,314,24,17,11,099,32,09,11,225,16*7A
$GPGSV,3,3,11,27,05,213,,29,05,295,,13,00,068,*45
$GPRMC,091416.000,A,3353.7455,N,09832.0228,W,0.16,235.16,020412,,,A*7B
$GPGGA,091417.000,3353.7455,N,09832.0228,W,1,07,1.5,312.8,M,-23.7,M,,0000*69
$GPGSA,A,3,05,10,04,17,02,09,12,,,,,,2.2,1.5,1.7*3E
$GPGSV,3,1,11,02,72,353,34,12,67,281,29,10,50,077,34,05,44,172,34*79
$GPGSV,3,2,11,04,41,044,20,25,28,314,24,17,11,099,32,09,11,225,16*7A
$GPGSV,3,3,11,27,05,213,,29,05,295,,13,00,068,*45
$GPRMC,091417.000,A,3353.7455,N,09832.0228,W,0.18,233.93,020412,,,A*7F
$GPGGA,091418.000,3353.7455,N,09832.0227,W,1,07,1.5,312.8,M,-23.7,M,,0000*69
$GPGSA,A,3,05,10,04,17,02,09,12,,,,,,2.2,1.5,1.7*3E
$GPRMC,091418.000,A,3353.7455,N,09832.0227,W,0.18,268.05,020412,,,A*7E
$GPGGA,091419.000,3353.7455,N,09832.0226,W,1,07,1.5,312.9,M,-23.7,M,,0000*68
$GPGSA,A,3,05,10,04,17,02,09,12,,,,,,2.2,1.5,1.7*3E
$GPRMC,091419.000,A,3353.7455,N,09832.0226,W,0.09,54.62,020412,,,A*42
$GPGGA,091420.000,3353.7455,N,09832.0224,W,1,07,1.5,313.2,M,-23.7,M,,0000*6A
$GPGSA,A,3,05,10,04,17,02,09,12,,,,,,2.2,1.5,1.7*3E
$GPRMC,091420.000,A,3353.7455,N,09832.0224,W,0.15,102.49,020412,,,A*7C
$GPGGA,091421.000,3353.7454,N,09832.0222,W,1,07,1.5,313.7,M,-23.7,M,,0000*69
$GPGSA,A,3,05,10,04,17,02,09,12,,,,,,2.2,1.5,1.7*3E
$GPRMC,091421.000,A,3353.7454,N,09832.0222,W,0.32,83.24,020412,,,A*4C
$GPGGA,091422.000,3353.7453,N,09832.0220,W,1,07,1.5,314.3,M,-23.7,M,,0000*6C
$GPGSA,A,3,05,10,04,17,02,09,12,,,,,,2.2,1.5,1.7*3E
$GPGSV,3,1,11,02,72,353,34,12,67,281,29,10,50,077,34,05,44,172,34*79
$GPGSV,3,2,11,04,41,044,21,25,28,314,23,17,11,099,32,09,11,225,15*7F
$GPGSV,3,3,11,27,05,213,,29,05,295,,13,00,068,*45
$GPRMC,091422.000,A,3353.7453,N,09832.0220,W,0.46,64.84,020412,,,A*4A
$GPGGA,091423.000,3353.7453,N,09832.0217,W,1,07,1.5,315.1,M,-23.7,M,,0000*6A
$GPGSA,A,3,05,10,04,17,02,09,12,,,,,,2.2,1.5,1.7*3E
$GPRMC,091423.000,A,3353.7453,N,09832.0217,W,0.66,64.36,020412,,,A*44
$GPGGA,091424.000,3353.7452,N,09832.0213,W,1,07,1.5,316.1,M,-23.7,M,,0000*6B
$GPGSA,A,3,05,10,04,17,02,09,12,,,,,,2.2,1.5,1.7*3E
$GPRMC,091424.000,A,3353.7452,N,09832.0213,W,0.68,78.06,020412,,,A*46
$GPGGA,091425.000,3353.7450,N,09832.0210,W,1,07,1.5,317.2,M,-23.7,M,,0000*69
$GPGSA,A,3,05,10,04,17,02,09,12,,,,,,2.2,1.5,1.7*3E
$GPRMC,091425.000,A,3353.7450,N,09832.0210,W,0.72,98.74,020412,,,A*46
$GPGGA,091426.000,3353.7449,N,09832.0207,W,1,07,1.5,318.4,M,-23.7,M,,0000*6D
$GPGSA,A,3,05,10,04,17,02,09,12,,,,,,2.2,1.5,1.7*3E
$GPRMC,091426.000,A,3353.7449,N,09832.0207,W,0.71,101.64,020412,,,A*78
$GPGGA,091427.000,3353.7447,N,09832.0203,W,1,07,1.5,319.5,M,-23.7,M,,0000*66
$GPGSA,A,3,05,10,04,17,02,09,12,,,,,,2.2,1.5,1.7*3E
$GPGSV,3,1,11,02,72,353,34,12,67,281,30,10,50,077,34,05,44,172,34*71
$GPGSV,3,2,11,04,41,044,22,25,28,314,23,17,11,099,32,09,11,225,14*7D
$GPGSV,3,3,11,27,05,213,,29,05,295,,13,00,068,*45
$GPRMC,091427.000,A,3353.7447,N,09832.0203,W,0.64,97.52,020412,,,A*4C
$GPGGA,091428.000,3353.7445,N,09832.0201,W,1,07,1.5,320.5,M,-23.7,M,,0000*63
$GPGSA,A,3,05,10,04,17,02,09,12,,,,,,2.2,1.5,1.7*3E
$GPRMC,091428.000,A,3353.7445,N,09832.0201,W,0.52,120.23,020412,,,A*7D
$GPGGA,091429.000,3353.7443,N,09832.0199,W,1,07,1.5,321.5,M,-23.7,M,,0000*67
$GPGSA,A,3,05,10,04,17,02,09,12,,,,,,2.2,1.5,1.7*3E
$GPRMC,091429.000,A,3353.7443,N,09832.0199,W,0.56,120.00,020412,,,A*7D
$GPGGA,091430.000,3353.7441,N,09832.0197,W,1,07,1.5,322.4,M,-23.7,M,,0000*61
$GPGSA,A,3,05,10,04,17,02,09,12,,,,,,2.2,1.5,1.7*3E
$GPRMC,091430.000,A,3353.7441,N,09832.0197,W,0.44,107.03,020412,,,A*7C
$GPGGA,091431.000,3353.7440,N,09832.0196,W,1,07,1.5,323.1,M,-23.7,M,,0000*64
$GPGSA,A,3,05,10,04,17,02,09,12,,,,,,2.2,1.5,1.7*3E
$GPRMC,091431.000,A,3353.7440,N,09832.0196,W,0.42,142.16,020412,,,A*7E
$GPGGA,091432.000,3353.7437,N,09832.0195,W,1,07,1.5,324.0,M,-23.7,M,,0000*62
$GPGSA,A,3,05,10,04,17,02,09,12,,,,,,2.2,1.5,1.7*3E
$GPGSV,3,1,11,02,72,353,34,12,67,281,29,10,50,077,33,05,44,172,34*7E
$GPGSV,3,2,11,04,41,044,22,25,28,314,22,17,11,099,31,09,11,225,14*7F
$GPGSV,3,3,11,27,05,213,,29,05,295,,13,00,068,*45
$GPRMC,091432.000,A,3353.7437,N,09832.0195,W,0.56,161.79,020412,,,A*73
$GPGGA,091433.000,3353.7435,N,09832.0194,W,1,07,1.5,324.7,M,-23.7,M,,0000*67
$GPGSA,A,3,05,10,04,17,02,09,12,,,,,,2.2,1.5,1.7*3E
$GPRMC,091433.000,A,3353.7435,N,09832.0194,W,0.53,163.09,020412,,,A*71
$GPGGA,091434.000,3353.7432,N,09832.0193,W,1,07,1.5,325.4,M,-23.7,M,,0000*62
$GPGSA,A,3,05,10,04,17,02,09,12,,,,,,2.2,1.5,1.7*3E
$GPRMC,091434.000,A,3353.7432,N,09832.0193,W,0.51,171.35,020412,,,A*78
$GPGGA,091435.000,3353.7431,N,09832.0193,W,1,07,1.5,326.1,M,-23.7,M,,0000*66
$GPGSA,A,3,05,10,04,17,02,09,12,,,,,,2.2,1.5,1.7*3E
$GPRMC,091435.000,A,3353.7431,N,09832.0193,W,0.29,165.70,020412,,,A*71
$GPGGA,091436.000,3353.7429,N,09832.0192,W,1,07,1.5,326.7,M,-23.7,M,,0000*6B
$GPGSA,A,3,05,10,04,17,02,09,12,,,,,,2.2,1.5,1.7*3E
$GPRMC,091436.000,A,3353.7429,N,09832.0192,W,0.25,141.56,020412,,,A*74
$GPGGA,091437.000,3353.7428,N,09832.0191,W,1,07,1.5,327.4,M,-23.7,M,,0000*6A
$GPGSA,A,3,05,10,04,17,02,09,12,,,,,,2.2,1.5,1.7*3E
$GPGSV,3,1,11,02,72,353,34,12,67,281,29,10,50,077,33,05,44,172,34*7E
$GPGSV,3,2,11,04,41,044,22,25,28,314,23,17,11,099,31,09,11,225,15*7F
$GPGSV,3,3,11,27,05,213,15,29,05,295,,13,00,068,*41
$GPRMC,091437.000,A,3353.7428,N,09832.0191,W,0.19,135.23,020412,,,A*79
$GPGGA,091438.000,3353.7427,N,09832.0191,W,1,07,1.5,328.0,M,-23.7,M,,0000*61
$GPGSA,A,3,05,10,04,17,02,09,12,,,,,,2.2,1.5,1.7*3E
$GPRMC,091438.000,A,3353.7427,N,09832.0191,W,0.21,164.39,020412,,,A*7D
$GPGGA,091439.000,3353.7426,N,09832.0191,W,1,07,1.5,328.5,M,-23.7,M,,0000*64
$GPGSA,A,3,05,10,04,17,02,09,12,,,,,,2.2,1.5,1.7*3E
$GPRMC,091439.000,A,3353.7426,N,09832.0191,W,0.12,161.71,020412,,,A*74
$GPGGA,091440.000,3353.7424,N,09832.0191,W,1,07,1.5,329.0,M,-23.7,M,,0000*6C
$GPGSA,A,3,05,10,04,17,02,09,12,,,,,,2.2,1.5,1.7*3E
$GPRMC,091440.000,A,3353.7424,N,09832.0191,W,0.29,188.55,020412,,,A*71
$GPGGA,091441.000,3353.7424,N,09832.0191,W,1,07,1.5,329.3,M,-23.7,M,,0000*6E
$GPGSA,A,3,05,10,04,17,02,09,12,,,,,,2.2,1.5,1.7*3E
$GPRMC,091441.000,A,3353.7424,N,09832.0191,W,0.10,268.65,020412,,,A*74
$GPGGA,091442.000,3353.7423,N,09832.0191,W,1,07,1.5,329.7,M,-23.7,M,,0000*6E
$GPGSA,A,3,05,10,04,17,02,09,12,,,,,,2.2,1.5,1.7*3E
$GPGSV,3,1,11,02,72,353,34,12,67,281,29,10,50,077,32,05,44,172,35*7E
$GPGSV,3,2,11,04,41,044,23,25,28,314,24,17,11,099,31,09,11,225,16*7A
$GPGSV,3,3,11,27,05,213,14,29,05,295,,13,00,068,*40
$GPRMC,091442.000,A,3353.7423,N,09832.0191,W,0.15,56.01,020412,,,A*48
$GPGGA,091443.000,3353.7423,N,09832.0190,W,1,07,1.5,330.0,M,-23.7,M,,0000*61
$GPGSA,A,3,05,10,04,17,02,09,12,,,,,,2.2,1.5,1.7*3E
$GPRMC,091443.000,A,3353.7423,N,09832.0190,W,0.16,85.23,020412,,,A*45
$GPGGA,091444.000,3353.7422,N,09832.0191,W,1,07,1.5,330.4,M,-23.7,M,,0000*62
$GPGSA,A,3,05,10,04,17,02,09,12,,,,,,2.2,1.5,1.7*3E
$GPRMC,091444.000,A,3353.7422,N,09832.0191,W,0.15,195.60,020412,,,A*76
$GPGGA,091445.000,3353.7420,N,09832.0191,W,1,07,1.5,330.9,M,-23.7,M,,0000*6C
$GPGSA,A,3,05,10,04,17,02,09,12,,,,,,2.2,1.5,1.7*3E
$GPRMC,091445.000,A,3353.7420,N,09832.0191,W,0.14,205.46,020412,,,A*7A
$GPGGA,091446.000,3353.7419,N,09832.0192,W,1,07,1.5,331.3,M,-23.7,M,,0000*6D
$GPGSA,A,3,05,10,04,17,02,09,12,,,,,,2.2,1.5,1.7*3E
$GPRMC,091446.000,A,3353.7419,N,09832.0192,W,0.09,179.28,020412,,,A*7C
$GPGGA,091447.000,3353.7417,N,09832.0192,W,1,07,1.5,331.8,M,-23.7,M,,0000*69
$GPGSA,A,3,05,10,04,17,02,09,12,,,,,,2.2,1.5,1.7*3E
$GPGSV,3,1,11,02,72,353,34,12,67,281,30,10,50,077,32,05,44,172,35*76
$GPGSV,3,2,11,04,41,044,24,25,28,314,25,17,11,099,31,09,11,225,16*7C
$GPGSV,3,3,11,27,05,213,14,29,05,295,,13,00,068,*40
$GPRMC,091447.000,A,3353.7417,N,09832.0192,W,0.19,213.28,020412,,,A*7D
$GPGGA,091448.000,3353.7416,N,09832.0193,W,1,07,1.5,332.3,M,-23.7,M,,0000*6E
$GPGSA,A,3,05,10,04,17,02,09,12,,,,,,2.2,1.5,1.7*3E
$GPRMC,091448.000,A,3353.7416,N,09832.0193,W,0.23,210.34,020412,,,A*75
$GPGGA,091449.000,3353.7414,N,09832.0193,W,1,07,1.5,332.8,M,-23.7,M,,0000*66
$GPGSA,A,3,05,10,04,17,02,09,12,,,,,,2.2,1.5,1.7*3E
$GPRMC,091449.000,A,3353.7414,N,09832.0193,W,0.17,79.02,020412,,,A*49
$GPGGA,091450.000,3353.7413,N,09832.0193,W,1,07,1.5,333.3,M,-23.7,M,,0000*63
$GPGSA,A,3,05,10,04,17,02,09,12,,,,,,2.2,1.5,1.7*3E
$GPRMC,091450.000,A,3353.7413,N,09832.0193,W,0.03,99.90,020412,,,A*46
$GPGGA,091451.000,3353.7412,N,09832.0193,W,1,07,1.5,333.7,M,-23.7,M,,0000*67
$GPGSA,A,3,05,10,04,17,02,09,12,,,,,,2.2,1.5,1.7*3E
$GPRMC,091451.000,A,3353.7412,N,09832.0193,W,0.07,232.53,020412,,,A*7E
$GPGGA,091452.000,3353.7411,N,09832.0194,W,1,07,1.5,334.1,M,-23.7,M,,0000*61
$GPGSA,A,3,05,10,04,17,02,09,12,,,,,,2.2,1.5,1.7*3E
$GPRMC,091452.000,A,3353.7411,N,09832.0194,W,0.15,246.64,020412,,,A*7D
$GPGGA,091453.000,3353.7410,N,09832.0195,W,1,07,1.5,334.4,M,-23.7,M,,0000*65
$GPGSA,A,3,05,10,04,17,02,09,12,,,,,,2.2,1.5,1.7*3E
$GPRMC,091453.000,A,3353.7410,N,09832.0195,W,0.18,258.57,020412,,,A*7E
$GPGGA,091454.000,3353.7409,N,09832.0196,W,1,07,1.5,334.6,M,-23.7,M,,0000*6B
$GPGSA,A,3,05,10,04,17,02,09,12,,,,,,2.2,1.5,1.7*3E
$GPRMC,091454.000,A,3353.7409,N,09832.0196,W,0.18,257.67,020412,,,A*7E
$GPGGA,091455.000,3353.7408,N,09832.0197,W,1,07,1.5,334.8,M,-23.7,M,,0000*64
$GPGSA,A,3,05,10,04,17,02,09,12,,,,,,2.2,1.5,1.7*3E
$GPRMC,091455.000,A,3353.7408,N,09832.0197,W,0.27,268.71,020412,,,A*78
$GPGGA,091456.000,3353.7408,N,09832.0198,W,1,07,1.5,335.0,M,-23.7,M,,0000*61
$GPGSA,A,3,05,10,04,17,02,09,12,,,,,,2.2,1.5,1.7*3E
$GPRMC,091456.000,A,3353.7408,N,09832.0198,W,0.29,271.52,020412,,,A*73
$GPGGA,091457.000,3353.7407,N,09832.0200,W,1,07,1.5,335.1,M,-23.7,M,,0000*6C
$GPGSA,A,3,05,10,04,17,02,09,12,,,,,,2.2,1.5,1.7*3E
$GPGSV,3,1,11,02,71,357,34,12,67,277,31,10,50,075,30,05,45,171,36*78
$GPGSV,3,2,11,04,40,045,26,25,29,314,25,17,10,101,31,09,10,224,15*7D
$GPGSV,3,3,11,29,06,296,,27,04,212,,13,00,067,*4A
$GPRMC,091457.000,A,3353.7407,N,09832.0200,W,0.30,273.70,020412,,,A*75
$GPGGA,091458.000,3353.7406,N,09832.0201,W,1,07,1.5,335.1,M,-23.7,M,,0000*63
$GPGSA,A,3,05,10,04,17,02,09,12,,,,,,2.2,1.5,1.7*3E
$GPRMC,091458.000,A,3353.7406,N,09832.0201,W,0.28,285.51,020412,,,A*79
$GPGGA,091459.000,3353.7406,N,09832.0201,W,1,07,1.5,335.2,M,-23.7,M,,0000*61
$GPGSA,A,3,05,10,04,17,02,09,12,,,,,,2.2,1.5,1.7*3E
$GPRMC,091459.000,A,3353.7406,N,09832.0201,W,0.19,312.39,020412,,,A*7B
$GPGGA,091500.000,3353.7406,N,09832.0201,W,1,07,1.5,335.4,M,-23.7,M,,0000*6A
$GPGSA,A,3,05,10,04,17,02,09,12,,,,,,2.2,1.5,1.7*3E
$GPRMC,091500.000,A,3353.7406,N,09832.0201,W,0.22,16.57,020412,,,A*41
$GPGGA,091501.000,3353.7406,N,09832.0201,W,1,07,1.5,335.6,M,-23.7,M,,0000*69
$GPGSA,A,3,05,10,04,17,02,09,12,,,,,,2.2,1.5,1.7*3E
$GPRMC,091501.000,A,3353.7406,N,09832.0201,W,0.26,35.23,020412,,,A*46
$GPGGA,091502.000,3353.7406,N,09832.0200,W,1,07,1.5,335.9,M,-23.7,M,,0000*64
$GPGSA,A,3,05,10,04,17,02,09,12,,,,,,2.2,1.5,1.7*3E
$GPGSV,3,1,11,02,71,357,33,12,67,277,31,10,50,075,29,05,45,171,36*77
$GPGSV,3,2,11,04,40,045,27,25,29,314,26,17,10,101,31,09,10,224,16*7C
$GPGSV,3,3,11,29,06,296,,27,04,212,,13,00,067,*4A
$GPRMC,091502.000,A,3353.7406,N,09832.0200,W,0.33,50.48,020412,,,A*4E
$GPGGA,091503.000,3353.7406,N,09832.0199,W,1,07,1.5,336.3,M,-23.7,M,,0000*6F
$GPGSA,A,3,05,10,04,17,02,09,12,,,,,,2.2,1.5,1.7*3E
$GPRMC,091503.000,A,3353.7406,N,09832.0199,W,0.33,54.17,020412,,,A*42
$GPGGA,091504.000,3353.7406,N,09832.0197,W,1,07,1.5,336.7,M,-23.7,M,,0000*62
$GPGSA,A,3,05,10,04,17,02,09,12,,,,,,2.2,1.5,1.7*3E
$GPRMC,091504.000,A,3353.7406,N,09832.0197,W,0.36,65.93,020412,,,A*40
$GPGGA,091505.000,3353.7406,N,09832.0196,W,1,07,1.5,337.1,M,-23.7,M,,0000*65
$GPGSA,A,3,05,10,04,17,02,09,12,,,,,,2.2,1.5,1.7*3E
$GPRMC,091505.000,A,3353.7406,N,09832.0196,W,0.35,67.40,020412,,,A*4F
$GPGGA,091506.000,3353.7406,N,09832.0196,W,1,07,1.5,337.4,M,-23.7,M,,0000*63
$GPGSA,A,3,05,10,04,17,02,09,12,,,,,,2.2,1.5,1.7*3E
$GPRMC,091506.000,A,3353.7406,N,09832.0196,W,0.07,106.96,020412,,,A*70
$GPGGA,091507.000,3353.7406,N,09832.0196,W,1,07,1.5,337.7,M,-23.7,M,,0000*61
$GPGSA,A,3,05,10,04,17,02,09,12,,,,,,2.2,1.5,1.7*3E
$GPGSV,3,1,11,02,71,357,33,12,67,277,31,10,50,075,29,05,45,171,36*77
$GPGSV,3,2,11,04,40,045,28,25,29,314,26,17,10,101,31,09,10,224,15*70
$GPGSV,3,3,11,29,06,296,,27,04,212,,13,00,067,*4A
$GPRMC,091507.000,A,3353.7406,N,09832.0196,W,0.06,255.26,020412,,,A*7E
$GPGGA,091508.000,3353.7406,N,09832.0196,W,1,07,1.5,337.9,M,-23.7,M,,0000*60
$GPGSA,A,3,05,10,04,17,02,09,12,,,,,,2.2,1.5,1.7*3E
$GPRMC,091508.000,A,3353.7406,N,09832.0196,W,0.05,281.90,020412,,,A*76
$GPGGA,091509.000,3353.7406,N,09832.0195,W,1,07,1.5,338.1,M,-23.7,M,,0000*65
$GPGSA,A,3,05,10,04,17,02,09,12,,,,,,2.2,1.5,1.7*3E
$GPRMC,091509.000,A,3353.7406,N,09832.0195,W,0.14,49.52,020412,,,A*4C
$GPGGA,091510.000,3353.7406,N,09832.0195,W,1,07,1.5,338.3,M,-23.7,M,,0000*6F
$GPGSA,A,3,05,10,04,17,02,09,12,,,,,,2.2,1.5,1.7*3E
$GPRMC,091510.000,A,3353.7406,N,09832.0195,W,0.07,300.77,020412,,,A*7F
$GPGGA,091511.000,3353.7406,N,09832.0195,W,1,07,1.5,338.4,M,-23.7,M,,0000*69
$GPGSA,A,3,05,10,04,17,02,09,12,,,,,,2.2,1.5,1.7*3E
$GPRMC,091511.000,A,3353.7406,N,09832.0195,W,0.08,292.12,020412,,,A*78
$GPGGA,091512.000,3353.7406,N,09832.0195,W,1,07,1.5,338.5,M,-23.7,M,,0000*6B
$GPGSA,A,3,05,10,04,17,02,09,12,,,,,,2.2,1.5,1.7*3E
$GPGSV,3,1,11,02,71,357,34,12,67,277,31,10,50,075,28,05,45,171,37*70
$GPGSV,3,2,11,04,40,045,29,25,29,314,26,17,10,101,31,09,10,224,16*72
$GPGSV,3,3,11,29,06,296,,27,04,212,16,13,00,067,*4D
$GPRMC,091512.000,A,3353.7406,N,09832.0195,W,0.13,18.86,020412,,,A*4C
$GPGGA,091513.000,3353.7407,N,09832.0194,W,1,07,1.5,338.6,M,-23.7,M,,0000*69
$GPGSA,A,3,05,10,04,17,02,09,12,,,,,,2.2,1.5,1.7*3E
