$GPGGA,134701.000,3353.7455,N,09832.0200,W,2,04,2.9,323.6,M,-23.7,M,0.8,0000*4C
$GPGSA,A,3,26,15,27,29,,,,,,,,,4.4,2.9,3.3*37
$GPRMC,134701.000,A,3353.7455,N,09832.0200,W,0.86,279.76,030412,,,D*79
$GPGGA,134702.000,3353.7457,N,09832.0219,W,2,05,1.6,322.1,M,-23.7,M,0.8,0000*4E
$GPGSA,A,3,26,15,18,27,29,,,,,,,,3.1,1.6,2.7*35
$GPRMC,134702.000,A,3353.7457,N,09832.0219,W,1.23,276.41,030412,,,D*75
$GPGGA,134703.000,3353.7458,N,09832.0220,W,2,04,2.9,322.0,M,-23.7,M,1.8,0000*47
$GPGSA,A,3,26,15,27,29,,,,,,,,,4.4,2.9,3.3*37
$GPRMC,134703.000,A,3353.7458,N,09832.0220,W,1.18,275.71,030412,,,D*79
$GPGGA,134704.000,3353.7459,N,09832.0217,W,2,04,2.9,322.4,M,-23.7,M,2.8,0000*42
$GPGSA,A,3,26,15,27,29,,,,,,,,,4.4,2.9,3.3*37
$GPGSV,3,1,12,15,66,092,27,21,59,329,,18,55,280,18,29,48,184,25*72
$GPGSV,3,2,12,26,29,046,35,22,15,256,,27,15,114,29,06,12,318,*74
$GPGSV,3,3,12,09,09,136,27,16,05,297,,05,05,062,,30,02,270,*75
$GPRMC,134704.000,A,3353.7459,N,09832.0217,W,0.58,291.68,030412,,,D*7C
$GPGGA,134705.000,3353.7460,N,09832.0215,W,2,04,2.9,322.5,M,-23.7,M,3.8,0000*4B
$GPGSA,A,3,26,15,27,29,,,,,,,,,4.4,2.9,3.3*37
$GPRMC,134705.000,A,3353.7460,N,09832.0215,W,0.17,300.51,030412,,,D*7D
$GPGGA,134706.000,3353.7461,N,09832.0213,W,2,04,2.9,322.6,M,-23.7,M,0.8,0000*4F
$GPGSA,A,3,26,15,27,29,,,,,,,,,4.4,2.9,3.3*37
$GPRMC,134706.000,A,3353.7461,N,09832.0213,W,0.33,306.25,030412,,,D*7A
$GPGGA,134707.000,3353.7462,N,09832.0212,W,2,04,2.9,322.6,M,-23.7,M,0.8,0000*4C
$GPGSA,A,3,26,15,27,29,,,,,,,,,4.4,2.9,3.3*37
$GPRMC,134707.000,A,3353.7462,N,09832.0212,W,0.35,291.57,030412,,,D*75
$GPGGA,134708.000,3353.7462,N,09832.0213,W,2,04,2.9,322.6,M,-23.7,M,0.8,0000*42
$GPGSA,A,3,26,15,27,29,,,,,,,,,4.4,2.9,3.3*37
$GPRMC,134708.000,A,3353.7462,N,09832.0213,W,0.35,287.75,030412,,,D*7C
$GPGGA,134709.000,3353.7463,N,09832.0213,W,2,04,2.9,322.6,M,-23.7,M,0.8,0000*42
$GPGSA,A,3,26,15,27,29,,,,,,,,,4.4,2.9,3.3*37
$GPGSV,3,1,12,15,66,092,27,21,59,329,,18,55,280,,29,48,184,25*7B
$GPGSV,3,2,12,26,29,046,35,22,15,256,,27,15,114,29,06,12,318,*74
$GPGSV,3,3,12,09,09,136,26,16,05,297,,05,05,062,,30,02,270,*74
$GPRMC,134709.000,A,3353.7463,N,09832.0213,W,0.34,290.80,030412,,,D*71
$GPGGA,134710.000,3353.7464,N,09832.0213,W,2,04,2.9,322.6,M,-23.7,M,1.8,0000*4C
$GPGSA,A,3,26,15,27,29,,,,,,,,,4.4,2.9,3.3*37
$GPRMC,134710.000,A,3353.7464,N,09832.0213,W,0.34,282.22,030412,,,D*75
$GPGGA,134711.000,3353.7464,N,09832.0212,W,2,04,2.9,322.6,M,-23.7,M,2.8,0000*4F
$GPGSA,A,3,26,15,27,29,,,,,,,,,4.4,2.9,3.3*37
$GPRMC,134711.000,A,3353.7464,N,09832.0212,W,0.30,290.93,030412,,,D*78
$GPGGA,134712.000,3353.7465,N,09832.0213,W,2,04,2.9,322.5,M,-23.7,M,0.8,0000*4D
$GPGSA,A,3,26,15,27,29,,,,,,,,,4.4,2.9,3.3*37
$GPRMC,134712.000,A,3353.7465,N,09832.0213,W,0.32,292.09,030412,,,D*78
$GPGGA,134713.000,3353.7466,N,09832.0214,W,2,04,2.9,322.3,M,-23.7,M,0.8,0000*4E
$GPGSA,A,3,26,15,27,29,,,,,,,,,4.4,2.9,3.3*37
$GPRMC,134713.000,A,3353.7466,N,09832.0214,W,0.37,304.16,030412,,,D*78
$GPGGA,134714.000,3353.7467,N,09832.0216,W,2,04,2.9,322.1,M,-23.7,M,0.8,0000*48
$GPGSA,A,3,26,15,27,29,,,,,,,,,4.4,2.9,3.3*37
$GPGSV,3,1,12,15,66,092,28,21,59,329,,18,55,280,,29,48,184,26*77
$GPGSV,3,2,12,26,29,046,35,22,15,256,22,27,15,114,30,06,12,318,*7C
$GPGSV,3,3,12,09,09,136,25,16,05,297,,05,05,062,,30,02,270,*77
$GPRMC,134714.000,A,3353.7467,N,09832.0216,W,0.39,297.86,030412,,,D*70
$GPGGA,134715.000,3353.7468,N,09832.0216,W,2,04,2.9,322.0,M,-23.7,M,1.8,0000*46
$GPGSA,A,3,26,15,27,29,,,,,,,,,4.4,2.9,3.3*37
$GPRMC,134715.000,A,3353.7468,N,09832.0216,W,0.40,304.59,030412,,,D*79
$GPGGA,134716.000,3353.7471,N,09832.0211,W,2,04,2.9,322.5,M,-23.7,M,2.8,0000*4C
$GPGSA,A,3,26,15,27,29,,,,,,,,,4.4,2.9,3.3*37
$GPRMC,134716.000,A,3353.7471,N,09832.0211,W,0.31,329.20,030412,,,D*72
$GPGGA,134717.000,3353.7473,N,09832.0206,W,2,04,2.9,322.9,M,-23.7,M,3.8,0000*44
$GPGSA,A,3,26,15,27,29,,,,,,,,,4.4,2.9,3.3*37
$GPRMC,134717.000,A,3353.7473,N,09832.0206,W,0.27,332.42,030412,,,D*7E
$GPGGA,134718.000,3353.7475,N,09832.0202,W,2,04,2.9,323.4,M,-23.7,M,0.8,0000*46
$GPGSA,A,3,26,15,27,29,,,,,,,,,4.4,2.9,3.3*37
$GPRMC,134718.000,A,3353.7475,N,09832.0202,W,0.21,325.54,030412,,,D*74
$GPGGA,134719.000,3353.7476,N,09832.0198,W,2,04,2.9,323.7,M,-23.7,M,0.8,0000*47
$GPGSA,A,3,26,15,27,29,,,,,,,,,4.4,2.9,3.3*37
$GPGSV,3,1,12,15,66,092,29,21,59,329,,18,55,280,,29,48,184,27*77
$GPGSV,3,2,12,26,29,046,35,22,15,256,22,27,15,114,30,06,12,318,*7C
$GPGSV,3,3,12,09,09,136,24,16,05,297,,05,05,062,,30,02,270,*76
$GPRMC,134719.000,A,3353.7476,N,09832.0198,W,0.10,309.72,030412,,,D*7E
$GPGGA,134720.000,3353.7477,N,09832.0196,W,2,04,2.9,323.9,M,-23.7,M,0.8,0000*4C
$GPGSA,A,3,26,15,27,29,,,,,,,,,4.4,2.9,3.3*37
$GPRMC,134720.000,A,3353.7477,N,09832.0196,W,0.07,294.53,030412,,,D*7B
$GPGGA,134721.000,3353.7477,N,09832.0193,W,2,04,2.9,324.2,M,-23.7,M,0.8,0000*44
$GPGSA,A,3,26,15,27,29,,,,,,,,,4.4,2.9,3.3*37
$GPRMC,134721.000,A,3353.7477,N,09832.0193,W,0.08,301.83,030412,,,D*70
$GPGGA,134722.000,3353.7478,N,09832.0191,W,2,04,2.9,324.3,M,-23.7,M,1.8,0000*4A
$GPGSA,A,3,26,15,27,29,,,,,,,,,4.4,2.9,3.3*37
$GPRMC,134722.000,A,3353.7478,N,09832.0191,W,0.05,316.24,030412,,,D*78
$GPGGA,134723.000,3353.7479,N,09832.0190,W,2,04,2.9,324.4,M,-23.7,M,0.8,0000*4D
$GPGSA,A,3,26,15,27,29,,,,,,,,,4.4,2.9,3.3*37
$GPRMC,134723.000,A,3353.7479,N,09832.0190,W,0.09,298.96,030412,,,D*7B
$GPGGA,134724.000,3353.7479,N,09832.0189,W,2,04,2.9,324.4,M,-23.7,M,0.8,0000*42
$GPGSA,A,3,26,15,27,29,,,,,,,,,4.4,2.9,3.3*37
$GPGSV,3,1,12,15,66,092,30,21,59,329,,18,55,280,,29,48,184,27*7F
$GPGSV,3,2,12,26,29,046,35,22,15,256,22,27,15,114,31,06,12,318,*7D
$GPGSV,3,3,12,09,09,136,23,16,05,297,,05,05,062,17,30,02,270,*77
$GPRMC,134724.000,A,3353.7479,N,09832.0189,W,0.09,312.62,030412,,,D*7C
$GPGGA,134725.000,3353.7480,N,09832.0187,W,2,04,2.9,324.4,M,-23.7,M,0.8,0000*4B
$GPGSA,A,3,26,15,27,29,,,,,,,,,4.4,2.9,3.3*37
$GPRMC,134725.000,A,3353.7480,N,09832.0187,W,0.18,316.93,030412,,,D*7F
$GPGGA,134726.000,3353.7481,N,09832.0186,W,2,04,2.9,324.4,M,-23.7,M,0.8,0000*48
$GPGSA,A,3,26,15,27,29,,,,,,,,,4.4,2.9,3.3*37
$GPRMC,134726.000,A,3353.7481,N,09832.0186,W,0.18,327.11,030412,,,D*74
$GPGGA,134727.000,3353.7482,N,09832.0186,W,2,04,2.9,324.4,M,-23.7,M,1.8,0000*4B
$GPGSA,A,3,26,15,27,29,,,,,,,,,4.4,2.9,3.3*37
$GPRMC,134727.000,A,3353.7482,N,09832.0186,W,0.23,311.94,030412,,,D*76
$GPGGA,134728.000,3353.7483,N,09832.0187,W,2,04,2.9,324.2,M,-23.7,M,2.8,0000*41
$GPGSA,A,3,26,15,27,29,,,,,,,,,4.4,2.9,3.3*37
$GPRMC,134728.000,A,3353.7483,N,09832.0187,W,0.24,298.07,030412,,,D*74
$GPGGA,134729.000,3353.7484,N,09832.0186,W,2,04,2.9,324.2,M,-23.7,M,3.8,0000*47
$GPGSA,A,3,26,15,27,29,,,,,,,,,4.4,2.9,3.3*37
$GPGSV,3,1,12,15,66,089,30,21,60,330,,18,55,281,,29,47,184,26*78
$GPGSV,3,2,12,26,28,045,35,22,16,257,20,27,15,113,31,06,13,318,*79
$GPGSV,3,3,12,09,10,136,23,16,05,296,,05,04,062,17,30,02,270,*7F
$GPRMC,134729.000,A,3353.7484,N,09832.0186,W,0.22,324.27,030412,,,D*71
$GPGGA,134730.000,3353.7485,N,09832.0186,W,2,04,2.9,324.2,M,-23.7,M,0.8,0000*4D
$GPGSA,A,3,26,15,27,29,,,,,,,,,4.4,2.9,3.3*37
$GPRMC,134730.000,A,3353.7485,N,09832.0186,W,0.28,287.90,030412,,,D*76
$GPGGA,134731.000,3353.7485,N,09832.0186,W,2,04,2.9,324.1,M,-23.7,M,0.8,0000*4F
$GPGSA,A,3,26,15,27,29,,,,,,,,,4.4,2.9,3.3*37
$GPRMC,134731.000,A,3353.7485,N,09832.0186,W,0.27,272.37,030412,,,D*7F
$GPGGA,134732.000,3353.7485,N,09832.0187,W,2,04,2.9,323.9,M,-23.7,M,0.8,0000*42
$GPGSA,A,3,26,15,27,29,,,,,,,,,4.4,2.9,3.3*37
$GPRMC,134732.000,A,3353.7485,N,09832.0187,W,0.26,14.37,030412,,,D*4E
$GPGGA,134733.000,3353.7484,N,09832.0192,W,2,04,2.9,323.3,M,-23.7,M,1.8,0000*4D
$GPGSA,A,3,26,15,27,29,,,,,,,,,4.4,2.9,3.3*37
$GPRMC,134733.000,A,3353.7484,N,09832.0192,W,0.17,278.39,030412,,,D*7E
$GPGGA,134734.000,3353.7484,N,09832.0194,W,2,04,2.9,322.9,M,-23.7,M,2.8,0000*44
$GPGSA,A,3,26,15,27,29,,,,,,,,,4.4,2.9,3.3*37
$GPGSV,3,1,12,15,66,089,31,21,60,330,,18,55,281,,29,47,184,22*7D
$GPGSV,3,2,12,26,28,045,35,22,16,257,19,27,15,113,31,06,13,318,*73
$GPGSV,3,3,12,09,10,136,22,16,05,296,,05,04,062,19,30,02,270,*70
$GPRMC,134734.000,A,3353.7484,N,09832.0194,W,0.39,273.91,030412,,,D*7A
$GPGGA,134735.000,3353.7484,N,09832.0198,W,2,04,2.9,322.4,M,-23.7,M,3.8,0000*45
$GPGSA,A,3,26,15,27,29,,,,,,,,,4.4,2.9,3.3*37
$GPRMC,134735.000,A,3353.7484,N,09832.0198,W,0.22,334.83,030412,,,D*7C
$GPGGA,134736.000,3353.7483,N,09832.0204,W,2,04,2.9,321.7,M,-23.7,M,0.8,0000*44
$GPGSA,A,3,26,15,27,29,,,,,,,,,4.4,2.9,3.3*37
$GPRMC,134736.000,A,3353.7483,N,09832.0204,W,0.24,312.27,030412,,,D*72
$GPGGA,134737.000,3353.7483,N,09832.0208,W,2,04,2.9,321.2,M,-23.7,M,0.8,0000*4C
$GPGSA,A,3,26,15,27,29,,,,,,,,,4.4,2.9,3.3*37
$GPRMC,134737.000,A,3353.7483,N,09832.0208,W,0.34,331.04,030412,,,D*7E
$GPGGA,134738.000,3353.7483,N,09832.0216,W,2,04,2.9,320.3,M,-23.7,M,0.8,0000*4C
$GPGSA,A,3,26,15,27,29,,,,,,,,,4.4,2.9,3.3*37
$GPRMC,134738.000,A,3353.7483,N,09832.0216,W,0.39,304.69,030412,,,D*7E
$GPGGA,134739.000,3353.7482,N,09832.0225,W,2,04,2.9,319.4,M,-23.7,M,0.8,0000*41
$GPGSA,A,3,26,15,27,29,,,,,,,,,4.4,2.9,3.3*37
$GPGSV,3,1,12,15,66,089,31,21,60,330,,18,55,281,,29,47,184,22*7D
$GPGSV,3,2,12,26,28,045,35,22,16,257,19,27,15,113,31,06,13,318,*73
$GPGSV,3,3,12,09,10,136,22,16,05,296,,05,04,062,19,30,02,270,*70
$GPRMC,134739.000,A,3353.7482,N,09832.0225,W,0.92,266.21,030412,,,D*76
$GPGGA,134740.000,3353.7483,N,09832.0228,W,2,04,2.9,319.1,M,-23.7,M,1.8,0000*47
$GPGSA,A,3,26,15,27,29,,,,,,,,,4.4,2.9,3.3*37
$GPRMC,134740.000,A,3353.7483,N,09832.0228,W,0.80,281.23,030412,,,D*7C
$GPGGA,134741.000,3353.7482,N,09832.0234,W,2,04,2.9,318.4,M,-23.7,M,0.8,0000*4F
$GPGSA,A,3,26,15,27,29,,,,,,,,,4.4,2.9,3.3*37
$GPRMC,134741.000,A,3353.7482,N,09832.0234,W,0.63,298.16,030412,,,D*72
$GPGGA,134742.000,3353.7484,N,09832.0234,W,2,04,2.9,318.3,M,-23.7,M,0.8,0000*4D
$GPGSA,A,3,26,15,27,29,,,,,,,,,4.4,2.9,3.3*37
$GPRMC,134742.000,A,3353.7484,N,09832.0234,W,0.63,278.36,030412,,,D*7B
$GPGGA,134743.000,3353.7482,N,09832.0244,W,2,04,2.9,317.2,M,-23.7,M,0.8,0000*43
$GPGSA,A,3,26,15,27,29,,,,,,,,,4.4,2.9,3.3*37
$GPRMC,134743.000,A,3353.7482,N,09832.0244,W,1.28,256.93,030412,,,D*76
$GPGGA,134744.000,3353.7482,N,09832.0244,W,2,04,2.9,317.1,M,-23.7,M,0.8,0000*47
$GPGSA,A,3,26,15,27,29,,,,,,,,,4.4,2.9,3.3*37
$GPGSV,3,1,12,15,66,089,31,21,60,330,,18,55,281,,29,47,184,21*7E
$GPGSV,3,2,12,26,28,045,35,22,16,257,19,27,15,113,30,06,13,318,*72
$GPGSV,3,3,12,09,10,136,22,16,05,296,,05,04,062,18,30,02,270,*71
$GPRMC,134744.000,A,3353.7482,N,09832.0244,W,1.24,258.86,030412,,,D*77
$GPGGA,134745.000,3353.7482,N,09832.0250,W,2,04,2.9,316.4,M,-23.7,M,1.8,0000*46
$GPGSA,A,3,26,15,27,29,,,,,,,,,4.4,2.9,3.3*37
$GPRMC,134745.000,A,3353.7482,N,09832.0250,W,1.21,264.81,030412,,,D*7E
$GPGGA,134746.000,3353.7481,N,09832.0254,W,2,04,2.9,315.8,M,-23.7,M,2.8,0000*4E
$GPGSA,A,3,26,15,27,29,,,,,,,,,4.4,2.9,3.3*37
$GPRMC,134746.000,A,3353.7481,N,09832.0254,W,0.92,271.56,030412,,,D*7D
$GPGGA,134747.000,3353.7482,N,09832.0251,W,2,04,2.9,315.8,M,-23.7,M,0.8,0000*4B
$GPGSA,A,3,26,15,27,29,,,,,,,,,4.4,2.9,3.3*37
$GPRMC,134747.000,A,3353.7482,N,09832.0251,W,0.75,271.78,030412,,,D*7F
$GPGGA,134748.000,3353.7477,N,09832.0241,W,2,05,1.6,316.4,M,-23.7,M,0.8,0000*4D
$GPGSA,A,3,26,15,27,18,29,,,,,,,,3.2,1.6,2.7*36
$GPRMC,134748.000,A,3353.7477,N,09832.0241,W,0.91,273.97,030412,,,D*72
$GPGGA,134749.000,3353.7479,N,09832.0240,W,2,05,2.9,316.5,M,-23.7,M,0.8,0000*4E
$GPGSA,A,3,09,26,15,27,29,,,,,,,,4.1,2.9,3.0*38
$GPGSV,3,1,12,15,66,089,31,21,60,330,,18,55,281,17,29,47,184,22*7B
$GPGSV,3,2,12,26,28,045,35,22,16,257,20,27,15,113,29,06,13,318,*70
$GPGSV,3,3,12,09,10,136,22,16,05,296,,05,04,062,18,03,02,323,*76
$GPRMC,134749.000,A,3353.7479,N,09832.0240,W,1.05,295.33,030412,,,D*76
$GPGGA,134750.000,3353.7474,N,09832.0219,W,2,06,1.6,318.2,M,-23.7,M,0.8,0000*41
$GPGSA,A,3,09,26,15,27,18,29,,,,,,,2.8,1.6,2.3*30
$GPRMC,134750.000,A,3353.7474,N,09832.0219,W,0.13,346.45,030412,,,D*77
$GPGGA,134751.000,3353.7479,N,09832.0226,W,2,06,1.6,317.1,M,-23.7,M,1.8,0000*4C
$GPGSA,A,3,09,26,15,27,18,29,,,,,,,2.8,1.6,2.3*30
$GPRMC,134751.000,A,3353.7479,N,09832.0226,W,0.55,280.70,030412,,,D*78
$GPGGA,134752.000,3353.7480,N,09832.0225,W,2,06,1.6,316.8,M,-23.7,M,2.8,0000*41
$GPGSA,A,3,09,26,15,27,18,29,,,,,,,2.8,1.6,2.3*30
$GPRMC,134752.000,A,3353.7480,N,09832.0225,W,0.71,304.25,030412,,,D*75
$GPGGA,134753.000,3353.7482,N,09832.0225,W,2,05,2.9,316.8,M,-23.7,M,0.8,0000*4F
$GPGSA,A,3,09,26,15,27,29,,,,,,,,4.1,2.9,3.0*38
$GPRMC,134753.000,A,3353.7482,N,09832.0225,W,0.34,320.20,030412,,,D*74
$GPGGA,134754.000,3353.7485,N,09832.0220,W,2,05,2.9,317.3,M,-23.7,M,0.8,0000*40
$GPGSA,A,3,09,26,15,27,29,,,,,,,,4.1,2.9,3.0*38
$GPGSV,3,1,12,15,66,089,31,21,60,330,,18,55,281,18,29,47,184,22*74
$GPGSV,3,2,12,26,28,045,36,22,16,257,20,27,15,113,29,06,13,318,*73
$GPGSV,3,3,12,09,10,136,23,16,05,296,,05,04,062,17,03,02,323,*78
$GPRMC,134754.000,A,3353.7485,N,09832.0220,W,0.05,269.20,030412,,,D*7F
$GPGGA,134755.000,3353.7486,N,09832.0216,W,2,05,2.9,317.7,M,-23.7,M,0.8,0000*43
$GPGSA,A,3,09,26,15,27,29,,,,,,,,4.1,2.9,3.0*38
$GPRMC,134755.000,A,3353.7486,N,09832.0216,W,0.17,29.96,030412,,,D*40
$GPGGA,134756.000,3353.7489,N,09832.0224,W,2,06,1.6,317.0,M,-23.7,M,0.8,0000*46
$GPGSA,A,3,09,26,15,27,18,29,,,,,,,2.8,1.6,2.3*30
$GPRMC,134756.000,A,3353.7489,N,09832.0224,W,0.56,34.74,030412,,,D*48
$GPGGA,134757.000,3353.7492,N,09832.0216,W,2,05,2.9,317.6,M,-23.7,M,0.8,0000*45
$GPGSA,A,3,09,26,15,27,29,,,,,,,,4.1,2.9,3.0*38
$GPRMC,134757.000,A,3353.7492,N,09832.0216,W,0.90,64.75,030412,,,D*4C
$GPGGA,134758.000,3353.7493,N,09832.0211,W,2,05,2.9,317.7,M,-23.7,M,1.8,0000*4C
$GPGSA,A,3,09,26,15,27,29,,,,,,,,4.1,2.9,3.0*38
$GPRMC,134758.000,A,3353.7493,N,09832.0211,W,0.21,76.30,030412,,,D*4D
$GPGGA,134759.000,3353.7494,N,09832.0205,W,2,05,2.9,318.1,M,-23.7,M,2.8,0000*45
$GPGSA,A,3,09,26,15,27,29,,,,,,,,4.1,2.9,3.0*38
$GPGSV,3,1,12,15,66,089,31,21,60,330,,18,55,281,17,29,47,184,22*7B
$GPGSV,3,2,12,26,28,045,36,22,16,257,13,27,15,113,28,06,13,318,*72
$GPGSV,3,3,12,09,10,136,23,16,05,296,,05,04,062,15,03,02,323,*7A
$GPRMC,134759.000,A,3353.7494,N,09832.0205,W,0.41,66.25,030412,,,D*4D
$GPGGA,134800.000,3353.7496,N,09832.0195,W,2,05,2.9,318.9,M,-23.7,M,0.8,0000*44
$GPGSA,A,3,09,26,15,27,29,,,,,,,,4.1,2.9,3.0*38
$GPRMC,134800.000,A,3353.7496,N,09832.0195,W,0.75,89.12,030412,,,D*44
$GPGGA,134801.000,3353.7497,N,09832.0189,W,2,05,2.9,319.8,M,-23.7,M,0.8,0000*49
$GPGSA,A,3,09,26,15,27,29,,,,,,,,4.1,2.9,3.0*38
$GPRMC,134801.000,A,3353.7497,N,09832.0189,W,0.36,81.79,030412,,,D*4B
$GPGGA,134802.000,3353.7495,N,09832.0192,W,2,05,2.9,319.9,M,-23.7,M,0.8,0000*43
$GPGSA,A,3,09,26,15,27,29,,,,,,,,4.1,2.9,3.0*38
$GPRMC,134802.000,A,3353.7495,N,09832.0192,W,0.23,243.68,030412,,,D*78
$GPGGA,134803.000,3353.7493,N,09832.0194,W,2,05,2.9,319.9,M,-23.7,M,1.8,0000*43
$GPGSA,A,3,09,26,15,27,29,,,,,,,,4.1,2.9,3.0*38
$GPRMC,134803.000,A,3353.7493,N,09832.0194,W,0.41,249.82,030412,,,D*73
$GPGGA,134804.000,3353.7490,N,09832.0202,W,2,05,2.9,319.7,M,-23.7,M,2.8,0000*46
$GPGSA,A,3,09,26,15,27,29,,,,,,,,4.1,2.9,3.0*38
$GPGSV,3,1,12,15,66,089,31,21,60,330,,18,55,281,18,29,47,184,22*74
$GPGSV,3,2,12,26,28,045,36,22,16,257,11,27,15,113,28,06,13,318,*70
$GPGSV,3,3,12,09,10,136,23,16,05,296,,05,04,062,,03,02,323,*7E
$GPRMC,134804.000,A,3353.7490,N,09832.0202,W,0.87,244.43,030412,,,D*71
$GPGGA,134805.000,3353.7488,N,09832.0208,W,2,05,2.9,319.3,M,-23.7,M,3.8,0000*41
$GPGSA,A,3,09,26,15,27,29,,,,,,,,4.1,2.9,3.0*38
$GPRMC,134805.000,A,3353.7488,N,09832.0208,W,0.15,244.46,030412,,,D*7D
$GPGGA,134806.000,3353.7490,N,09832.0224,W,2,06,1.6,317.8,M,-23.7,M,0.8,0000*4C
$GPGSA,A,3,09,26,15,27,18,29,,,,,,,2.8,1.6,2.3*30
$GPRMC,134806.000,A,3353.7490,N,09832.0224,W,0.36,51.83,030412,,,D*47
$GPGGA,134807.000,3353.7492,N,09832.0219,W,2,05,2.9,318.1,M,-23.7,M,0.8,0000*48
$GPGSA,A,3,09,26,15,27,29,,,,,,,,4.1,2.9,3.0*38
$GPRMC,134807.000,A,3353.7492,N,09832.0219,W,0.37,338.00,030412,,,D*7C
$GPGGA,134808.000,3353.7494,N,09832.0214,W,2,05,2.9,318.6,M,-23.7,M,0.8,0000*4B
$GPGSA,A,3,09,26,15,27,29,,,,,,,,4.1,2.9,3.0*38
$GPRMC,134808.000,A,3353.7494,N,09832.0214,W,0.15,348.67,030412,,,D*7E
$GPGGA,134809.000,3353.7495,N,09832.0209,W,2,05,2.9,319.1,M,-23.7,M,1.8,0000*40
$GPGSA,A,3,09,26,15,27,29,,,,,,,,4.1,2.9,3.0*38
$GPGSV,3,1,12,15,66,089,31,21,60,330,,18,55,281,18,29,47,184,21*77
$GPGSV,3,2,12,26,28,045,35,22,16,257,12,27,15,113,28,06,13,318,*70
$GPGSV,3,3,12,09,10,136,24,16,05,296,,05,04,062,,03,02,323,*79
$GPRMC,134809.000,A,3353.7495,N,09832.0209,W,0.21,61.11,030412,,,D*4C
$GPGGA,134810.000,3353.7498,N,09832.0220,W,2,06,1.6,318.0,M,-23.7,M,2.8,0000*42
$GPGSA,A,3,09,26,15,27,18,29,,,,,,,2.8,1.6,2.3*30
$GPRMC,134810.000,A,3353.7498,N,09832.0220,W,0.25,81.39,030412,,,D*42
$GPGGA,134811.000,3353.7497,N,09832.0220,W,2,06,1.6,318.1,M,-23.7,M,0.8,0000*4F
$GPGSA,A,3,09,26,15,27,18,29,,,,,,,2.8,1.6,2.3*30
$GPRMC,134811.000,A,3353.7497,N,09832.0220,W,0.36,73.80,030412,,,D*41
$GPGGA,134812.000,3353.7499,N,09832.0226,W,2,06,1.6,317.7,M,-23.7,M,0.8,0000*4D
$GPGSA,A,3,09,26,15,27,18,29,,,,,,,2.8,1.6,2.3*30
$GPRMC,134812.000,A,3353.7499,N,09832.0226,W,0.62,40.80,030412,,,D*4B
$GPGGA,134813.000,3353.7499,N,09832.0222,W,2,05,1.7,318.1,M,-23.7,M,0.8,0000*43
$GPGSA,A,3,09,26,15,27,18,,,,,,,,3.0,1.7,2.4*34
$GPRMC,134813.000,A,3353.7499,N,09832.0222,W,0.81,50.42,030412,,,D*4C
$GPGGA,134814.000,3353.7500,N,09832.0229,W,2,06,1.6,317.6,M,-23.7,M,0.8,0000*44
$GPGSA,A,3,09,26,15,27,18,29,,,,,,,2.8,1.6,2.3*30
$GPGSV,3,1,12,15,66,089,31,21,60,330,,18,55,281,19,29,47,184,19*7D
$GPGSV,3,2,12,26,28,045,35,22,16,257,15,27,15,113,27,06,13,318,*78
$GPGSV,3,3,12,09,10,136,23,16,05,296,,05,04,062,,03,02,323,*7E
$GPRMC,134814.000,A,3353.7500,N,09832.0229,W,0.25,326.17,030412,,,D*7D
$GPGGA,134815.000,3353.7500,N,09832.0236,W,2,06,1.6,317.1,M,-23.7,M,1.8,0000*4D
$GPGSA,A,3,09,26,15,27,18,29,,,,,,,2.8,1.6,2.3*30
$GPRMC,134815.000,A,3353.7500,N,09832.0236,W,0.07,298.48,030412,,,D*7C
$GPGGA,134816.000,3353.7499,N,09832.0236,W,2,06,1.6,317.4,M,-23.7,M,2.8,0000*49
$GPGSA,A,3,09,26,15,27,18,29,,,,,,,2.8,1.6,2.3*30
$GPRMC,134816.000,A,3353.7499,N,09832.0236,W,0.61,275.49,030412,,,D*7C
$GPGGA,134817.000,3353.7498,N,09832.0236,W,2,06,1.6,317.6,M,-23.7,M,3.8,0000*4A
$GPGSA,A,3,09,26,15,27,18,29,,,,,,,2.8,1.6,2.3*30
$GPRMC,134817.000,A,3353.7498,N,09832.0236,W,0.14,271.41,030412,,,D*72
$GPGGA,134818.000,3353.7496,N,09832.0241,W,2,06,1.6,316.7,M,-23.7,M,0.8,0000*48
$GPGSA,A,3,09,26,15,27,18,29,,,,,,,2.8,1.6,2.3*30
$GPRMC,134818.000,A,3353.7496,N,09832.0241,W,0.46,176.64,030412,,,D*77
$GPGGA,134819.000,3353.7494,N,09832.0242,W,2,06,1.6,316.5,M,-23.7,M,0.8,0000*4A
$GPGSA,A,3,09,26,15,27,18,29,,,,,,,2.8,1.6,2.3*30
$GPGSV,3,1,12,15,66,088,31,21,60,330,,18,56,282,19,29,47,184,16*73
$GPGSV,3,2,12,26,28,045,35,22,16,257,16,27,16,113,27,06,13,318,*78
$GPGSV,3,3,12,09,10,135,20,16,05,296,,05,04,062,,03,02,323,*7E
$GPRMC,134819.000,A,3353.7494,N,09832.0242,W,0.44,152.28,030412,,,D*7B
$GPGGA,134820.000,3353.7491,N,09832.0239,W,2,06,1.6,316.4,M,-23.7,M,0.8,0000*48
$GPGSA,A,3,09,26,15,27,18,29,,,,,,,2.8,1.6,2.3*30
$GPRMC,134820.000,A,3353.7491,N,09832.0239,W,0.46,118.61,030412,,,D*79
$GPGGA,134821.000,3353.7491,N,09832.0239,W,2,06,1.6,316.5,M,-23.7,M,1.8,0000*49
$GPGSA,A,3,09,26,15,27,18,29,,,,,,,2.8,1.6,2.3*30
$GPRMC,134821.000,A,3353.7491,N,09832.0239,W,0.24,100.32,030412,,,D*73
$GPGGA,134822.000,3353.7491,N,09832.0241,W,2,06,1.6,316.4,M,-23.7,M,2.8,0000*47
$GPGSA,A,3,09,26,15,27,18,29,,,,,,,2.8,1.6,2.3*30
$GPRMC,134822.000,A,3353.7491,N,09832.0241,W,0.40,288.81,030412,,,D*76
$GPGGA,134823.000,3353.7491,N,09832.0249,W,2,07,1.5,315.8,M,-23.7,M,3.8,0000*42
$GPGSA,A,3,09,26,15,27,18,21,29,,,,,,2.7,1.5,2.3*3F
$GPRMC,134823.000,A,3353.7491,N,09832.0249,W,0.58,277.01,030412,,,D*7E
$GPGGA,134824.000,3353.7491,N,09832.0249,W,2,07,1.5,316.1,M,-23.7,M,0.8,0000*4C
$GPGSA,A,3,09,26,15,27,18,21,29,,,,,,2.7,1.5,2.3*3F
$GPGSV,3,1,12,15,66,088,32,21,60,330,18,18,56,282,21,29,47,184,15*71
$GPGSV,3,2,12,26,28,045,35,22,16,257,16,27,16,113,27,06,13,318,*78
$GPGSV,3,3,12,09,10,135,19,16,05,296,,05,04,062,,03,02,323,*74
$GPRMC,134824.000,A,3353.7491,N,09832.0249,W,0.35,234.75,030412,,,D*76
$GPGGA,134825.000,3353.7490,N,09832.0244,W,2,07,1.5,316.7,M,-23.7,M,0.8,0000*47
$GPGSA,A,3,09,26,15,27,18,21,29,,,,,,2.7,1.5,2.3*3F
$GPRMC,134825.000,A,3353.7490,N,09832.0244,W,0.32,237.93,030412,,,D*77
$GPGGA,134826.000,3353.7489,N,09832.0243,W,2,07,1.5,317.0,M,-23.7,M,0.8,0000*4D
$GPGSA,A,3,09,26,15,27,18,21,29,,,,,,2.7,1.5,2.3*3F
$GPRMC,134826.000,A,3353.7489,N,09832.0243,W,0.27,217.12,030412,,,D*74
$GPGGA,134827.000,3353.7488,N,09832.0245,W,2,07,1.5,316.8,M,-23.7,M,1.8,0000*43
$GPGSA,A,3,09,26,15,27,18,21,29,,,,,,2.7,1.5,2.3*3F
$GPRMC,134827.000,A,3353.7488,N,09832.0245,W,0.22,210.43,030412,,,D*74
$GPGGA,134828.000,3353.7487,N,09832.0243,W,2,07,1.5,317.0,M,-23.7,M,0.8,0000*4D
$GPGSA,A,3,09,26,15,27,18,21,29,,,,,,2.7,1.5,2.3*3F
$GPRMC,134828.000,A,3353.7487,N,09832.0243,W,0.71,117.07,030412,,,D*70
$GPGGA,134829.000,3353.7486,N,09832.0238,W,2,07,1.5,317.4,M,-23.7,M,1.8,0000*44
$GPGSA,A,3,09,26,15,27,18,21,29,,,,,,2.7,1.5,2.3*3F
$GPGSV,3,1,12,15,66,088,32,21,60,330,18,18,56,282,22,29,47,184,14*73
$GPGSV,3,2,12,26,28,045,34,22,16,257,16,27,16,113,27,06,13,318,*79
$GPGSV,3,3,12,09,10,135,19,16,05,296,,05,04,062,,03,02,323,*74
$GPRMC,134829.000,A,3353.7486,N,09832.0238,W,0.64,108.62,030412,,,D*75
$GPGGA,134830.000,3353.7486,N,09832.0238,W,2,07,1.5,317.3,M,-23.7,M,0.8,0000*4A
$GPGSA,A,3,09,26,15,27,18,21,29,,,,,,2.7,1.5,2.3*3F
$GPRMC,134830.000,A,3353.7486,N,09832.0238,W,0.45,63.34,030412,,,D*41
$GPGGA,134831.000,3353.7487,N,09832.0234,W,2,07,1.5,317.4,M,-23.7,M,1.8,0000*40
$GPGSA,A,3,09,26,15,27,18,21,29,,,,,,2.7,1.5,2.3*3F
$GPRMC,134831.000,A,3353.7487,N,09832.0234,W,0.85,85.12,030412,,,D*4D
$GPGGA,134832.000,3353.7487,N,09832.0233,W,2,07,1.5,317.3,M,-23.7,M,2.8,0000*40
$GPGSA,A,3,09,26,15,27,18,21,29,,,,,,2.7,1.5,2.3*3F
$GPRMC,134832.000,A,3353.7487,N,09832.0233,W,0.89,88.08,030412,,,D*43
$GPGGA,134833.000,3353.7487,N,09832.0235,W,2,07,1.5,316.9,M,-23.7,M,0.8,0000*4E
$GPGSA,A,3,09,26,15,27,18,21,29,,,,,,2.8,1.5,2.3*30
$GPRMC,134833.000,A,3353.7487,N,09832.0235,W,0.46,54.75,030412,,,D*4C
$GPGGA,134834.000,3353.7488,N,09832.0237,W,2,07,1.5,316.6,M,-23.7,M,1.8,0000*4A
$GPGSA,A,3,09,26,15,27,18,21,29,,,,,,2.8,1.5,2.3*30
$GPGSV,3,1,12,15,66,088,31,21,60,330,18,18,56,282,23,29,47,184,14*71
$GPGSV,3,2,12,26,28,045,34,22,16,257,18,27,16,113,28,06,13,318,*78
$GPGSV,3,3,12,09,10,135,18,16,05,296,,05,04,062,,03,02,323,*75
$GPRMC,134834.000,A,3353.7488,N,09832.0237,W,0.48,57.01,030412,,,D*48
$GPGGA,134835.000,3353.7489,N,09832.0238,W,2,07,1.5,316.4,M,-23.7,M,2.8,0000*44
$GPGSA,A,3,09,26,15,27,18,21,29,,,,,,2.8,1.5,2.3*30
$GPRMC,134835.000,A,3353.7489,N,09832.0238,W,0.65,36.53,030412,,,D*48
$GPGGA,134836.000,3353.7490,N,09832.0234,W,2,07,1.5,316.7,M,-23.7,M,0.8,0000*42
$GPGSA,A,3,09,26,15,27,18,21,29,,,,,,2.8,1.5,2.3*30
$GPRMC,134836.000,A,3353.7490,N,09832.0234,W,0.83,68.52,030412,,,D*4D
$GPGGA,134837.000,3353.7491,N,09832.0235,W,2,07,1.5,316.6,M,-23.7,M,1.8,0000*43
$GPGSA,A,3,09,26,15,27,18,21,29,,,,,,2.8,1.5,2.3*30
$GPRMC,134837.000,A,3353.7491,N,09832.0235,W,0.70,58.94,030412,,,D*49
$GPGGA,134838.000,3353.7491,N,09832.0232,W,2,07,1.5,316.8,M,-23.7,M,2.8,0000*46
$GPGSA,A,3,09,26,15,27,18,21,29,,,,,,2.8,1.5,2.3*30
$GPRMC,134838.000,A,3353.7491,N,09832.0232,W,0.67,53.72,030412,,,D*44
$GPGGA,134839.000,3353.7492,N,09832.0231,W,2,06,1.7,317.1,M,-23.7,M,3.8,0000*4D
$GPGSA,A,3,09,26,15,27,18,21,,,,,,,2.9,1.7,2.4*3F
$GPGSV,3,1,12,15,66,088,32,21,60,330,18,18,56,282,24,29,47,184,*70
$GPGSV,3,2,12,26,28,045,34,22,16,257,19,27,16,113,28,06,13,318,*79
$GPGSV,3,3,12,09,10,135,18,16,05,296,,05,04,062,,03,02,323,*75
$GPRMC,134839.000,A,3353.7492,N,09832.0231,W,0.42,72.77,030412,,,D*44
$GPGGA,134840.000,3353.7492,N,09832.0230,W,2,06,1.7,317.4,M,-23.7,M,4.8,0000*40
$GPGSA,A,3,09,26,15,27,18,21,,,,,,,2.9,1.7,2.4*3F
$GPRMC,134840.000,A,3353.7492,N,09832.0230,W,0.35,329.43,030412,,,D*71
$GPGGA,134841.000,3353.7492,N,09832.0230,W,2,06,1.7,317.7,M,-23.7,M,5.8,0000*43
$GPGSA,A,3,09,26,15,27,18,21,,,,,,,2.9,1.7,2.4*3F
$GPRMC,134841.000,A,3353.7492,N,09832.0230,W,0.36,334.12,030412,,,D*7B
$GPGGA,134842.000,3353.7493,N,09832.0228,W,2,06,1.7,318.3,M,-23.7,M,6.8,0000*40
$GPGSA,A,3,09,26,15,27,18,21,,,,,,,2.9,1.7,2.4*3F
$GPRMC,134842.000,A,3353.7493,N,09832.0228,W,0.45,37.45,030412,,,D*46
$GPGGA,134843.000,3353.7494,N,09832.0225,W,2,06,1.7,318.9,M,-23.7,M,0.8,0000*47
$GPGSA,A,3,09,26,15,27,18,21,,,,,,,2.9,1.7,2.4*3F
$GPRMC,134843.000,A,3353.7494,N,09832.0225,W,0.53,40.65,030412,,,D*48
$GPGGA,134844.000,3353.7495,N,09832.0222,W,2,06,1.7,319.4,M,-23.7,M,0.8,0000*4A
$GPGSA,A,3,09,26,15,27,18,21,,,,,,,2.9,1.7,2.4*3F
$GPGSV,3,1,12,15,66,088,32,21,60,330,18,18,56,282,24,29,47,184,*70
$GPGSV,3,2,12,26,28,045,34,22,16,257,19,27,16,113,29,06,13,318,*78
$GPGSV,3,3,12,09,10,135,18,16,05,296,,05,04,062,,03,02,323,*75
$GPRMC,134844.000,A,3353.7495,N,09832.0222,W,0.46,20.08,030412,,,D*40
$GPGGA,134845.000,3353.7495,N,09832.0220,W,2,06,1.7,319.9,M,-23.7,M,1.8,0000*45
$GPGSA,A,3,09,26,15,27,18,21,,,,,,,2.9,1.7,2.4*3F
$GPRMC,134845.000,A,3353.7495,N,09832.0220,W,0.41,54.75,030412,,,D*4D
$GPGGA,134846.000,3353.7496,N,09832.0218,W,2,06,1.7,320.4,M,-23.7,M,2.8,0000*4A
$GPGSA,A,3,09,26,15,27,18,21,,,,,,,2.9,1.7,2.4*3F
$GPRMC,134846.000,A,3353.7496,N,09832.0218,W,0.47,53.76,030412,,,D*44
$GPGGA,134847.000,3353.7496,N,09832.0218,W,2,06,1.7,320.8,M,-23.7,M,3.8,0000*46
$GPGSA,A,3,09,26,15,27,18,21,,,,,,,3.0,1.7,2.4*37
$GPRMC,134847.000,A,3353.7496,N,09832.0218,W,0.38,16.25,030412,,,D*4A
$GPGGA,134848.000,3353.7497,N,09832.0217,W,2,06,1.7,321.0,M,-23.7,M,0.8,0000*4D
$GPGSA,A,3,09,26,15,27,18,21,,,,,,,3.0,1.7,2.4*37
$GPRMC,134848.000,A,3353.7497,N,09832.0217,W,0.35,69.77,030412,,,D*49
$GPGGA,134849.000,3353.7496,N,09832.0217,W,2,06,1.7,321.1,M,-23.7,M,0.8,0000*4C
$GPGSA,A,3,09,26,15,27,18,21,,,,,,,3.0,1.7,2.4*37
$GPGSV,3,1,12,15,66,088,32,21,60,330,18,18,56,282,25,29,47,184,*71
$GPGSV,3,2,12,26,28,045,34,22,16,257,18,27,16,113,29,06,13,318,*79
$GPGSV,3,3,12,09,10,135,17,16,05,296,,05,04,062,,03,02,323,*7A
$GPRMC,134849.000,A,3353.7496,N,09832.0217,W,0.27,109.57,030412,,,D*7F
$GPGGA,134850.000,3353.7496,N,09832.0216,W,2,06,1.7,321.3,M,-23.7,M,0.8,0000*47
$GPGSA,A,3,09,26,15,27,18,21,,,,,,,3.0,1.7,2.4*37
$GPRMC,134850.000,A,3353.7496,N,09832.0216,W,0.41,71.98,030412,,,D*4B
$GPGGA,134851.000,3353.7496,N,09832.0215,W,2,07,1.5,321.6,M,-23.7,M,0.8,0000*43
$GPGSA,A,3,09,26,15,27,18,21,29,,,,,,2.8,1.5,2.3*30
$GPRMC,134851.000,A,3353.7496,N,09832.0215,W,0.27,83.58,030412,,,D*48
$GPGGA,134852.000,3353.7496,N,09832.0215,W,2,07,1.5,321.7,M,-23.7,M,1.8,0000*40
$GPGSA,A,3,09,26,15,27,18,21,29,,,,,,2.8,1.5,2.3*30
$GPRMC,134852.000,A,3353.7496,N,09832.0215,W,0.08,141.83,030412,,,D*7F
$GPGGA,134853.000,3353.7496,N,09832.0215,W,2,07,1.5,321.8,M,-23.7,M,2.8,0000*4D
$GPGSA,A,3,09,26,15,27,18,21,29,,,,,,2.8,1.5,2.3*30
$GPRMC,134853.000,A,3353.7496,N,09832.0215,W,0.08,9.43,030412,,,D*7F
$GPGGA,134854.000,3353.7496,N,09832.0215,W,2,07,1.5,321.8,M,-23.7,M,0.8,0000*48
$GPGSA,A,3,09,26,15,27,18,21,29,,,,,,2.8,1.5,2.3*30
$GPGSV,3,1,12,15,66,088,32,21,60,330,18,18,56,282,26,29,47,184,19*7A
$GPGSV,3,2,12,26,28,045,34,22,16,257,18,27,16,113,28,06,13,318,*78
$GPGSV,3,3,12,09,10,135,17,16,05,296,,05,04,062,,03,02,323,*7A
$GPRMC,134854.000,A,3353.7496,N,09832.0215,W,0.44,143.15,030412,,,D*7C
$GPGGA,134855.000,3353.7496,N,09832.0214,W,2,07,1.5,321.8,M,-23.7,M,0.8,0000*48
$GPGSA,A,3,09,26,15,27,18,21,29,,,,,,2.8,1.5,2.3*30
$GPRMC,134855.000,A,3353.7496,N,09832.0214,W,0.41,95.50,030412,,,D*42
$GPGGA,134856.000,3353.7496,N,09832.0213,W,2,07,1.5,321.7,M,-23.7,M,0.8,0000*43
$GPGSA,A,3,09,26,15,27,18,21,29,,,,,,2.8,1.5,2.3*30
$GPRMC,134856.000,A,3353.7496,N,09832.0213,W,0.36,96.60,030412,,,D*46
$GPGGA,134857.000,3353.7495,N,09832.0213,W,2,07,1.5,321.6,M,-23.7,M,0.8,0000*40
$GPGSA,A,3,09,26,15,27,18,21,29,,,,,,2.8,1.5,2.3*30
$GPRMC,134857.000,A,3353.7495,N,09832.0213,W,0.32,157.13,030412,,,D*78
$GPGGA,134858.000,3353.7496,N,09832.0212,W,2,06,1.6,321.7,M,-23.7,M,0.8,0000*4E
$GPGSA,A,3,09,26,15,27,18,29,,,,,,,2.8,1.6,2.3*30
$GPRMC,134858.000,A,3353.7496,N,09832.0212,W,0.49,25.10,030412,,,D*4E
$GPGGA,134859.000,3353.7497,N,09832.0212,W,2,06,1.6,321.7,M,-23.7,M,0.8,0000*4E
$GPGSA,A,3,09,26,15,27,18,29,,,,,,,2.8,1.6,2.3*30
$GPGSV,3,1,12,15,66,088,32,21,60,330,10,18,56,282,27,29,47,184,20*79
$GPGSV,3,2,12,26,28,045,34,22,16,257,18,27,16,113,28,06,13,318,*78
$GPGSV,3,3,12,09,10,135,17,16,05,296,,05,04,062,,03,02,323,*7A
$GPRMC,134859.000,A,3353.7497,N,09832.0212,W,0.31,358.54,030412,,,D*78
$GPGGA,134900.000,3353.7498,N,09832.0212,W,2,06,1.6,321.9,M,-23.7,M,0.8,0000*42
$GPGSA,A,3,09,26,15,27,18,29,,,,,,,2.8,1.6,2.3*30
$GPRMC,134900.000,A,3353.7498,N,09832.0212,W,0.25,4.61,030412,,,D*73
$GPGGA,134901.000,3353.7498,N,09832.0212,W,2,06,1.6,321.9,M,-23.7,M,0.8,0000*43
$GPGSA,A,3,09,26,15,27,18,29,,,,,,,2.8,1.6,2.3*30
$GPRMC,134901.000,A,3353.7498,N,09832.0212,W,0.40,26.39,030412,,,D*4C
$GPGGA,134902.000,3353.7499,N,09832.0212,W,2,06,1.6,322.1,M,-23.7,M,0.8,0000*4A
$GPGSA,A,3,09,26,15,27,18,29,,,,,,,2.8,1.6,2.3*30
$GPRMC,134902.000,A,3353.7499,N,09832.0212,W,0.05,12.21,030412,,,D*41
$GPGGA,134903.000,3353.7498,N,09832.0212,W,2,06,1.6,322.2,M,-23.7,M,1.8,0000*48
$GPGSA,A,3,09,26,15,27,18,29,,,,,,,2.8,1.6,2.3*30
$GPRMC,134903.000,A,3353.7498,N,09832.0212,W,0.33,182.76,030412,,,D*7E
$GPGGA,134904.000,3353.7498,N,09832.0212,W,2,06,1.6,322.2,M,-23.7,M,2.8,0000*4C
$GPGSA,A,3,09,26,15,27,18,29,,,,,,,2.8,1.6,2.3*30
$GPGSV,3,1,12,15,66,088,32,21,60,330,,18,56,282,27,29,47,184,20*78
$GPGSV,3,2,12,26,28,045,34,22,16,257,18,27,16,113,27,06,13,318,*77
$GPGSV,3,3,12,09,10,135,17,16,05,296,,05,04,062,,03,02,323,*7A
$GPRMC,134904.000,A,3353.7498,N,09832.0212,W,0.28,137.23,030412,,,D*7D
$GPGGA,134905.000,3353.7499,N,09832.0212,W,2,06,1.6,322.7,M,-23.7,M,3.8,0000*48
$GPGSA,A,3,09,26,15,27,18,29,,,,,,,2.8,1.6,2.3*30
$GPRMC,134905.000,A,3353.7499,N,09832.0212,W,0.17,78.61,030412,,,D*4D
$GPGGA,134906.000,3353.7500,N,09832.0212,W,2,06,1.6,323.0,M,-23.7,M,0.8,0000*4F
$GPGSA,A,3,09,26,15,27,18,29,,,,,,,2.8,1.6,2.3*30
$GPRMC,134906.000,A,3353.7500,N,09832.0212,W,0.29,321.55,030412,,,D*7A
$GPGGA,134907.000,3353.7502,N,09832.0213,W,2,06,1.6,323.6,M,-23.7,M,0.8,0000*4B
$GPGSA,A,3,09,26,15,27,18,29,,,,,,,2.8,1.6,2.3*30
$GPRMC,134907.000,A,3353.7502,N,09832.0213,W,0.39,327.59,030412,,,D*73
$GPGGA,134908.000,3353.7505,N,09832.0213,W,2,06,1.6,324.2,M,-23.7,M,1.8,0000*41
$GPGSA,A,3,09,26,15,27,18,29,,,,,,,2.8,1.6,2.3*30
$GPRMC,134908.000,A,3353.7505,N,09832.0213,W,0.50,352.94,030412,,,D*77
$GPGGA,134909.000,3353.7509,N,09832.0213,W,2,06,1.6,324.9,M,-23.7,M,2.8,0000*44
$GPGSA,A,3,09,26,15,27,18,29,,,,,,,2.8,1.6,2.3*30
$GPGSV,3,1,12,15,66,088,32,21,60,330,,18,56,282,27,29,47,184,19*72
$GPGSV,3,2,12,26,28,045,34,22,16,257,16,27,16,113,26,06,13,318,*78
$GPGSV,3,3,12,09,10,135,17,16,05,296,,05,04,062,,03,02,323,*7A
$GPRMC,134909.000,A,3353.7509,N,09832.0213,W,0.90,12.31,030412,,,D*4E
$GPGGA,134910.000,3353.7512,N,09832.0213,W,2,06,1.6,325.4,M,-23.7,M,3.8,0000*4B
$GPGSA,A,3,09,26,15,27,18,29,,,,,,,2.8,1.6,2.3*30
$GPRMC,134910.000,A,3353.7512,N,09832.0213,W,0.92,351.34,030412,,,D*7F
$GPGGA,134911.000,3353.7515,N,09832.0213,W,2,06,1.6,326.1,M,-23.7,M,4.8,0000*4C
$GPGSA,A,3,09,26,15,27,18,29,,,,,,,2.8,1.6,2.3*30
$GPRMC,134911.000,A,3353.7515,N,09832.0213,W,0.55,0.50,030412,,,D*77
$GPGGA,134912.000,3353.7515,N,09832.0213,W,2,06,1.6,326.1,M,-23.7,M,0.8,0000*4B
$GPGSA,A,3,09,26,15,27,18,29,,,,,,,2.8,1.6,2.3*30
$GPRMC,134912.000,A,3353.7515,N,09832.0213,W,0.23,148.76,030412,,,D*7C
$GPGGA,134913.000,3353.7513,N,09832.0213,W,2,06,1.6,326.3,M,-23.7,M,0.8,0000*4E
$GPGSA,A,3,09,26,15,27,18,29,,,,,,,2.8,1.6,2.3*30
$GPRMC,134913.000,A,3353.7513,N,09832.0213,W,0.46,172.43,030412,,,D*77
$GPGGA,134914.000,3353.7511,N,09832.0212,W,2,06,1.6,326.1,M,-23.7,M,1.8,0000*49
$GPGSA,A,3,09,26,15,27,18,29,,,,,,,2.8,1.6,2.3*30
$GPGSV,3,1,12,15,66,088,32,21,60,330,,18,56,282,27,29,47,184,18*73
$GPGSV,3,2,12,26,28,045,34,22,16,257,15,27,16,113,25,06,13,318,*78
$GPGSV,3,3,12,09,10,135,17,16,05,296,,05,04,062,,03,02,323,*7A
$GPRMC,134914.000,A,3353.7511,N,09832.0212,W,0.30,95.56,030412,,,D*4E
$GPGGA,134915.000,3353.7511,N,09832.0211,W,2,06,1.6,326.3,M,-23.7,M,2.8,0000*4A
$GPGSA,A,3,09,26,15,27,18,29,,,,,,,2.8,1.6,2.3*30
$GPRMC,134915.000,A,3353.7511,N,09832.0211,W,0.30,57.16,030412,,,D*46
$GPGGA,134916.000,3353.7512,N,09832.0211,W,2,06,1.6,326.5,M,-23.7,M,3.8,0000*4D
$GPGSA,A,3,09,26,15,27,18,29,,,,,,,2.8,1.6,2.3*30
$GPRMC,134916.000,A,3353.7512,N,09832.0211,W,0.49,16.76,030412,,,D*4B
$GPGGA,134917.000,3353.7513,N,09832.0210,W,2,06,1.6,326.5,M,-23.7,M,4.8,0000*4B
$GPGSA,A,3,09,26,15,27,18,29,,,,,,,2.8,1.6,2.3*30
$GPRMC,134917.000,A,3353.7513,N,09832.0210,W,0.48,13.42,030412,,,D*49
$GPGGA,134918.000,3353.7513,N,09832.0210,W,2,06,1.6,326.6,M,-23.7,M,5.8,0000*46
$GPGSA,A,3,09,26,15,27,18,29,,,,,,,2.8,1.6,2.3*30
$GPRMC,134918.000,A,3353.7513,N,09832.0210,W,0.40,358.56,030412,,,D*77
$GPGGA,134919.000,3353.7513,N,09832.0210,W,2,06,1.6,326.5,M,-23.7,M,0.8,0000*41
$GPGSA,A,3,09,26,15,27,18,29,,,,,,,2.8,1.6,2.3*30
$GPGSV,3,1,12,15,66,088,32,21,60,330,,18,56,282,28,29,47,184,19*7D
$GPGSV,3,2,12,26,28,045,35,22,16,257,14,27,16,113,24,06,13,318,*79
$GPGSV,3,3,12,09,10,135,18,16,05,296,,05,04,062,,03,02,323,*75
$GPRMC,134919.000,A,3353.7513,N,09832.0210,W,0.51,356.19,030412,,,D*73
$GPGGA,134920.000,3353.7513,N,09832.0210,W,2,06,1.6,326.7,M,-23.7,M,1.8,0000*48
$GPGSA,A,3,09,26,15,27,18,29,,,,,,,2.8,1.6,2.3*30
$GPRMC,134920.000,A,3353.7513,N,09832.0210,W,0.52,336.61,030412,,,D*73
$GPGGA,134921.000,3353.7513,N,09832.0211,W,2,06,1.6,326.8,M,-23.7,M,2.8,0000*44
$GPGSA,A,3,09,26,15,27,18,29,,,,,,,2.8,1.6,2.3*30
$GPRMC,134921.000,A,3353.7513,N,09832.0211,W,0.47,315.80,030412,,,D*79
$GPGGA,134922.000,3353.7511,N,09832.0211,W,2,06,1.6,326.7,M,-23.7,M,3.8,0000*4B
$GPGSA,A,3,09,26,15,27,18,29,,,,,,,2.8,1.6,2.3*30
$GPRMC,134922.000,A,3353.7511,N,09832.0211,W,0.53,161.78,030412,,,D*7B
$GPGGA,134923.000,3353.7508,N,09832.0210,W,2,06,1.6,326.2,M,-23.7,M,4.8,0000*41
$GPGSA,A,3,09,26,15,27,18,29,,,,,,,2.8,1.6,2.3*30
$GPRMC,134923.000,A,3353.7508,N,09832.0210,W,0.18,159.88,030412,,,D*78
$GPGGA,134924.000,3353.7506,N,09832.0214,W,2,06,1.6,325.7,M,-23.7,M,5.8,0000*4B
$GPGSA,A,3,09,26,15,27,18,29,,,,,,,2.8,1.6,2.3*30
$GPGSV,3,1,12,15,66,088,32,21,60,330,,18,56,282,27,29,47,184,20*78
$GPGSV,3,2,12,26,28,045,35,22,16,257,16,27,16,113,23,06,13,318,*7C
$GPGSV,3,3,12,09,10,135,20,16,05,296,,05,04,062,,03,02,323,*7E
$GPRMC,134924.000,A,3353.7506,N,09832.0214,W,0.42,231.74,030412,,,D*74
$GPGGA,134925.000,3353.7504,N,09832.0217,W,2,06,1.6,325.0,M,-23.7,M,0.8,0000*49
$GPGSA,A,3,09,26,15,27,18,29,,,,,,,2.8,1.6,2.3*30
$GPRMC,134925.000,A,3353.7504,N,09832.0217,W,0.42,238.46,030412,,,D*7C
$GPGGA,134926.000,3353.7502,N,09832.0219,W,2,06,1.6,324.5,M,-23.7,M,1.8,0000*47
$GPGSA,A,3,09,26,15,27,18,29,,,,,,,2.8,1.6,2.3*30
$GPRMC,134926.000,A,3353.7502,N,09832.0219,W,0.16,282.37,030412,,,D*71
$GPGGA,134927.000,3353.7501,N,09832.0220,W,2,06,1.6,324.2,M,-23.7,M,2.8,0000*4B
$GPGSA,A,3,09,26,15,27,18,29,,,,,,,2.8,1.6,2.3*30
$GPRMC,134927.000,A,3353.7501,N,09832.0220,W,0.19,3.79,030412,,,D*77
$GPGGA,134928.000,3353.7501,N,09832.0222,W,2,06,1.6,323.8,M,-23.7,M,3.8,0000*4A
$GPGSA,A,3,09,26,15,27,18,29,,,,,,,2.8,1.6,2.3*30
$GPRMC,134928.000,A,3353.7501,N,09832.0222,W,0.23,347.43,030412,,,D*79
$GPGGA,134929.000,3353.7500,N,09832.0223,W,2,06,1.6,323.6,M,-23.7,M,4.8,0000*42
$GPGSA,A,3,09,26,15,27,18,29,,,,,,,2.8,1.6,2.3*30
$GPGSV,3,1,12,15,66,088,33,21,60,330,,18,56,282,27,29,47,184,21*78
$GPGSV,3,2,12,26,28,045,35,22,16,257,18,27,16,113,23,06,13,318,*72
$GPGSV,3,3,12,09,10,135,21,16,05,296,,05,04,062,,03,02,323,*7F
$GPRMC,134929.000,A,3353.7500,N,09832.0223,W,0.14,122.43,030412,,,D*7D
$GPGGA,134930.000,3353.7498,N,09832.0223,W,2,06,1.6,322.9,M,-23.7,M,5.8,0000*45
$GPGSA,A,3,09,26,15,27,18,29,,,,,,,2.8,1.6,2.3*30
$GPRMC,134930.000,A,3353.7498,N,09832.0223,W,0.25,53.67,030412,,,D*46
$GPGGA,134931.000,3353.7498,N,09832.0225,W,2,06,1.6,322.7,M,-23.7,M,6.8,0000*4F
$GPGSA,A,3,09,26,15,27,18,29,,,,,,,2.8,1.6,2.3*30
$GPRMC,134931.000,A,3353.7498,N,09832.0225,W,0.49,352.61,030412,,,D*7F
$GPGGA,134932.000,3353.7498,N,09832.0229,W,2,06,1.6,322.1,M,-23.7,M,7.8,0000*47
$GPGSA,A,3,09,26,15,27,18,29,,,,,,,2.8,1.6,2.3*30
$GPRMC,134932.000,A,3353.7498,N,09832.0229,W,0.47,326.07,030412,,,D*7D
$GPGGA,134933.000,3353.7498,N,09832.0235,W,2,06,1.6,321.7,M,-23.7,M,8.8,0000*41
$GPGSA,A,3,09,26,15,27,18,29,,,,,,,2.8,1.6,2.3*30
$GPRMC,134933.000,A,3353.7498,N,09832.0235,W,0.44,284.01,030412,,,D*7D
$GPGGA,134934.000,3353.7497,N,09832.0241,W,2,06,1.6,320.9,M,-23.7,M,9.8,0000*44
$GPGSA,A,3,09,26,15,27,18,29,,,,,,,2.8,1.6,2.3*30
$GPGSV,3,1,12,15,66,088,34,21,60,330,,18,56,282,26,29,47,184,20*7F
$GPGSV,3,2,12,26,28,045,35,22,16,257,18,27,16,113,23,06,13,318,*72
$GPGSV,3,3,12,09,10,135,22,16,05,296,,05,04,062,,03,02,323,*7C
$GPRMC,134934.000,A,3353.7497,N,09832.0241,W,0.66,276.72,030412,,,D*7F
$GPGGA,134935.000,3353.7496,N,09832.0244,W,2,06,1.6,320.5,M,-23.7,M,10.8,0000*75
$GPGSA,A,3,09,26,15,27,18,29,,,,,,,2.8,1.6,2.3*30
$GPRMC,134935.000,A,3353.7496,N,09832.0244,W,0.30,337.86,030412,,,D*76
$GPGGA,134936.000,3353.7496,N,09832.0247,W,2,06,1.6,320.3,M,-23.7,M,11.8,0000*72
$GPGSA,A,3,09,26,15,27,18,29,,,,,,,2.8,1.6,2.3*30
$GPRMC,134936.000,A,3353.7496,N,09832.0247,W,0.66,344.93,030412,,,D*75
$GPGGA,134937.000,3353.7497,N,09832.0249,W,2,06,1.6,320.2,M,-23.7,M,12.8,0000*7E
$GPGSA,A,3,09,26,15,27,18,29,,,,,,,2.8,1.6,2.3*30
$GPRMC,134937.000,A,3353.7497,N,09832.0249,W,0.32,322.78,030412,,,D*7F
$GPGGA,134938.000,3353.7497,N,09832.0254,W,2,06,1.6,319.8,M,-23.7,M,13.8,0000*7C
$GPGSA,A,3,09,26,15,27,18,29,,,,,,,2.8,1.6,2.3*30
$GPRMC,134938.000,A,3353.7497,N,09832.0254,W,0.37,204.23,030412,,,D*72
$GPGGA,134939.000,3353.7496,N,09832.0256,W,2,06,1.6,319.8,M,-23.7,M,14.8,0000*79
$GPGSA,A,3,09,26,15,27,18,29,,,,,,,2.8,1.6,2.3*30
$GPGSV,3,1,12,15,66,088,34,21,60,330,,18,56,282,25,29,47,184,15*7A
$GPGSV,3,2,12,26,28,045,36,22,16,257,17,27,16,113,24,06,13,318,*79
$GPGSV,3,3,12,09,10,135,22,16,05,296,,05,04,062,,03,02,323,*7C
$GPRMC,134939.000,A,3353.7496,N,09832.0256,W,0.17,298.76,030412,,,D*77
$GPGGA,134940.000,3353.7496,N,09832.0258,W,2,06,1.6,319.9,M,-23.7,M,15.8,0000*79
$GPGSA,A,3,09,26,15,27,18,29,,,,,,,2.8,1.6,2.3*30
$GPRMC,134940.000,A,3353.7496,N,09832.0258,W,0.71,188.36,030412,,,D*71
$GPGGA,134941.000,3353.7494,N,09832.0266,W,2,06,1.6,319.1,M,-23.7,M,16.8,0000*7C
$GPGSA,A,3,09,26,15,27,18,29,,,,,,,2.8,1.6,2.3*30
$GPRMC,134941.000,A,3353.7494,N,09832.0266,W,0.41,235.11,030412,,,D*7C
$GPGGA,134942.000,3353.7493,N,09832.0272,W,2,06,1.6,318.5,M,-23.7,M,17.8,0000*79
$GPGSA,A,3,09,26,15,27,18,29,,,,,,,2.8,1.6,2.3*30
$GPRMC,134942.000,A,3353.7493,N,09832.0272,W,0.56,217.43,030412,,,D*7C
$GPGGA,134943.000,3353.7492,N,09832.0275,W,2,06,1.6,318.1,M,-23.7,M,0.8,0000*4C
$GPGSA,A,3,09,26,15,27,18,29,,,,,,,2.8,1.6,2.3*30
$GPRMC,134943.000,A,3353.7492,N,09832.0275,W,0.53,195.38,030412,,,D*7B
$GPGGA,134944.000,3353.7492,N,09832.0273,W,2,06,1.6,318.2,M,-23.7,M,0.8,0000*4E
$GPGSA,A,3,09,26,15,27,18,29,,,,,,,2.8,1.6,2.3*30
$GPGSV,3,1,12,15,66,088,34,21,60,330,,18,56,282,25,29,47,184,14*7B
$GPGSV,3,2,12,26,28,045,36,22,16,257,16,27,16,113,25,06,13,318,*79
$GPGSV,3,3,12,09,10,135,21,16,05,296,,05,04,062,,03,02,323,*7F
$GPRMC,134944.000,A,3353.7492,N,09832.0273,W,0.11,295.02,030412,,,D*76
$GPGGA,134945.000,3353.7493,N,09832.0270,W,2,06,1.6,318.6,M,-23.7,M,0.8,0000*49
$GPGSA,A,3,09,26,15,27,18,29,,,,,,,2.8,1.6,2.3*30
$GPRMC,134945.000,A,3353.7493,N,09832.0270,W,0.26,349.60,030412,,,D*75
$GPGGA,134946.000,3353.7494,N,09832.0266,W,2,06,1.6,319.1,M,-23.7,M,1.8,0000*4D
$GPGSA,A,3,09,26,15,27,18,29,,,,,,,2.8,1.6,2.3*30
$GPRMC,134946.000,A,3353.7494,N,09832.0266,W,0.26,358.13,030412,,,D*72
$GPGGA,134947.000,3353.7496,N,09832.0259,W,2,06,1.6,319.8,M,-23.7,M,2.8,0000*48
$GPGSA,A,3,09,26,15,27,18,29,,,,,,,2.8,1.6,2.3*30
$GPRMC,134947.000,A,3353.7496,N,09832.0259,W,0.19,313.05,030412,,,D*79
$GPGGA,134948.000,3353.7496,N,09832.0255,W,2,06,1.6,320.2,M,-23.7,M,0.8,0000*49
$GPGSA,A,3,09,26,15,27,18,29,,,,,,,2.8,1.6,2.3*30
$GPRMC,134948.000,A,3353.7496,N,09832.0255,W,0.30,162.24,030412,,,D*76
$GPGGA,134949.000,3353.7496,N,09832.0252,W,2,06,1.6,320.7,M,-23.7,M,1.8,0000*4B
$GPGSA,A,3,09,26,15,27,18,29,,,,,,,2.8,1.6,2.3*30
$GPGSV,3,1,12,15,66,088,34,21,60,330,,18,56,282,25,29,47,184,13*7C
$GPGSV,3,2,12,26,28,045,36,22,16,257,16,27,16,113,25,06,13,318,*79
$GPGSV,3,3,12,09,10,135,21,16,05,296,,05,04,062,,03,02,323,*7F
$GPRMC,134949.000,A,3353.7496,N,09832.0252,W,0.13,56.26,030412,,,D*45
$GPGGA,134950.000,3353.7496,N,09832.0249,W,2,06,1.6,321.0,M,-23.7,M,0.8,0000*4E
$GPGSA,A,3,09,26,15,27,18,29,,,,,,,2.8,1.6,2.3*30
$GPRMC,134950.000,A,3353.7496,N,09832.0249,W,0.14,158.14,030412,,,D*7E
$GPGGA,134951.000,3353.7495,N,09832.0247,W,2,06,1.6,321.2,M,-23.7,M,1.8,0000*41
$GPGSA,A,3,09,26,15,27,18,29,,,,,,,2.8,1.6,2.3*30
$GPRMC,134951.000,A,3353.7495,N,09832.0247,W,0.15,149.13,030412,,,D*74
$GPGGA,134952.000,3353.7495,N,09832.0246,W,2,06,1.6,321.3,M,-23.7,M,2.8,0000*41
$GPGSA,A,3,09,26,15,27,18,29,,,,,,,2.8,1.6,2.3*30
$GPRMC,134952.000,A,3353.7495,N,09832.0246,W,0.41,168.40,030412,,,D*72
$GPGGA,134953.000,3353.7493,N,09832.0245,W,2,06,1.6,321.4,M,-23.7,M,3.8,0000*43
$GPGSA,A,3,09,26,15,27,18,29,,,,,,,2.8,1.6,2.3*30
$GPRMC,134953.000,A,3353.7493,N,09832.0245,W,0.64,166.70,030412,,,D*7C
$GPGGA,134954.000,3353.7492,N,09832.0243,W,2,06,1.6,321.3,M,-23.7,M,0.8,0000*47
$GPGSA,A,3,09,26,15,27,18,29,,,,,,,2.8,1.6,2.3*30
$GPGSV,3,1,12,15,66,088,34,21,60,330,,18,56,282,25,29,47,184,12*7D
$GPGSV,3,2,12,26,28,045,36,22,16,257,16,27,16,113,25,06,13,318,*79
$GPGSV,3,3,12,09,10,135,21,16,05,296,,05,04,062,,03,02,323,*7F
$GPRMC,134954.000,A,3353.7492,N,09832.0243,W,0.77,164.43,030412,,,D*7C
$GPGGA,134955.000,3353.7490,N,09832.0241,W,2,06,1.6,321.3,M,-23.7,M,1.8,0000*47
$GPGSA,A,3,09,26,15,27,18,29,,,,,,,2.8,1.6,2.3*30
$GPRMC,134955.000,A,3353.7490,N,09832.0241,W,0.42,176.75,030412,,,D*7D
$GPGGA,134956.000,3353.7490,N,09832.0239,W,2,07,1.5,321.5,M,-23.7,M,0.8,0000*4E
$GPGSA,A,3,09,26,15,27,18,21,29,,,,,,2.8,1.5,2.3*30
$GPRMC,134956.000,A,3353.7490,N,09832.0239,W,0.19,146.38,030412,,,D*75
$GPGGA,134957.000,3353.7489,N,09832.0237,W,2,07,1.5,321.5,M,-23.7,M,1.8,0000*48
$GPGSA,A,3,09,26,15,27,18,21,29,,,,,,2.8,1.5,2.3*30
$GPRMC,134957.000,A,3353.7489,N,09832.0237,W,0.12,118.55,030412,,,D*79
$GPGGA,134958.000,3353.7488,N,09832.0238,W,2,07,1.5,321.1,M,-23.7,M,2.8,0000*4E
$GPGSA,A,3,09,26,15,27,18,21,29,,,,,,2.8,1.5,2.3*30
$GPRMC,134958.000,A,3353.7488,N,09832.0238,W,0.45,171.07,030412,,,D*72
$GPGGA,134959.000,3353.7488,N,09832.0238,W,2,07,1.5,320.9,M,-23.7,M,3.8,0000*47
$GPGSA,A,3,09,26,15,27,18,21,29,,,,,,2.8,1.5,2.3*30
$GPGSV,3,1,12,15,66,088,34,21,60,330,20,18,56,282,25,29,47,184,13*7E
$GPGSV,3,2,12,26,28,045,36,22,16,257,15,27,16,113,24,06,13,318,*7B
$GPGSV,3,3,12,09,10,135,21,16,05,296,,05,04,062,,03,02,323,*7F
$GPRMC,134959.000,A,3353.7488,N,09832.0238,W,0.15,230.70,030412,,,D*70
$GPGGA,135000.000,3353.7486,N,09832.0238,W,2,07,1.5,320.2,M,-23.7,M,4.8,0000*41
$GPGSA,A,3,09,26,15,27,18,21,29,,,,,,2.8,1.5,2.3*30
$GPRMC,135000.000,A,3353.7486,N,09832.0238,W,0.56,131.81,030412,,,D*71
$GPGGA,135001.000,3353.7485,N,09832.0235,W,2,07,1.5,319.9,M,-23.7,M,0.8,0000*4B
$GPGSA,A,3,09,26,15,27,18,21,29,,,,,,2.8,1.5,2.3*30
$GPRMC,135001.000,A,3353.7485,N,09832.0235,W,0.76,127.27,030412,,,D*77
$GPGGA,135002.000,3353.7482,N,09832.0229,W,2,07,1.5,319.7,M,-23.7,M,1.8,0000*4D
$GPGSA,A,3,09,26,15,27,18,21,29,,,,,,2.8,1.5,2.3*30
$GPRMC,135002.000,A,3353.7482,N,09832.0229,W,0.38,131.21,030412,,,D*75
$GPGGA,135003.000,3353.7481,N,09832.0227,W,2,07,1.5,319.5,M,-23.7,M,0.8,0000*42
$GPGSA,A,3,09,26,15,27,18,21,29,,,,,,2.8,1.5,2.3*30
$GPRMC,135003.000,A,3353.7481,N,09832.0227,W,0.13,261.36,030412,,,D*70
$GPGGA,135004.000,3353.7481,N,09832.0227,W,2,07,1.5,319.3,M,-23.7,M,1.8,0000*42
$GPGSA,A,3,09,26,15,27,18,21,29,,,,,,2.8,1.5,2.3*30
$GPGSV,3,1,12,15,66,088,34,21,60,330,21,18,56,282,24,29,47,184,15*78
$GPGSV,3,2,12,26,28,045,36,22,16,257,16,27,16,113,24,06,13,318,*78
$GPGSV,3,3,12,09,10,135,20,16,05,296,,05,04,062,,03,02,323,*7E
$GPRMC,135004.000,A,3353.7481,N,09832.0227,W,0.25,29.18,030412,,,D*40
$GPGGA,135005.000,3353.7481,N,09832.0232,W,2,07,1.5,318.6,M,-23.7,M,2.8,0000*40
$GPGSA,A,3,09,26,15,27,18,21,29,,,,,,2.8,1.5,2.3*30
$GPRMC,135005.000,A,3353.7481,N,09832.0232,W,0.07,83.24,030412,,,D*4A
$GPGGA,135006.000,3353.7483,N,09832.0235,W,2,07,1.5,318.6,M,-23.7,M,0.8,0000*44
$GPGSA,A,3,09,26,15,27,18,21,29,,,,,,2.8,1.5,2.3*30
$GPRMC,135006.000,A,3353.7483,N,09832.0235,W,0.72,317.20,030412,,,D*74
$GPGGA,135007.000,3353.7485,N,09832.0237,W,2,07,1.5,318.6,M,-23.7,M,0.8,0000*41
$GPGSA,A,3,09,26,15,27,18,21,29,,,,,,2.8,1.5,2.3*30
$GPRMC,135007.000,A,3353.7485,N,09832.0237,W,0.23,53.02,030412,,,D*46
$GPGGA,135008.000,3353.7486,N,09832.0242,W,2,07,1.5,318.3,M,-23.7,M,0.8,0000*4A
$GPGSA,A,3,09,26,15,27,18,21,29,,,,,,2.8,1.5,2.3*30
$GPRMC,135008.000,A,3353.7486,N,09832.0242,W,0.10,113.75,030412,,,D*7D
$GPGGA,135009.000,3353.7488,N,09832.0250,W,2,07,1.5,317.8,M,-23.7,M,1.8,0000*43
$GPGSA,A,3,09,26,15,27,18,21,29,,,,,,2.8,1.5,2.3*30
$GPGSV,3,1,12,15,66,088,34,21,60,330,22,18,56,282,24,29,47,184,16*78
$GPGSV,3,2,12,26,28,045,36,22,16,257,16,27,16,113,23,06,13,318,*7F
$GPGSV,3,3,12,09,10,135,15,16,05,296,,05,04,062,,03,02,323,*78
$GPRMC,135009.000,A,3353.7488,N,09832.0250,W,0.09,216.29,030412,,,D*76
$GPGGA,135010.000,3353.7490,N,09832.0253,W,2,07,1.5,317.9,M,-23.7,M,0.8,0000*41
$GPGSA,A,3,09,26,15,27,18,21,29,,,,,,2.8,1.5,2.3*30
$GPRMC,135010.000,A,3353.7490,N,09832.0253,W,0.10,162.77,030412,,,D*77
$GPGGA,135011.000,3353.7491,N,09832.0259,W,2,07,1.5,317.6,M,-23.7,M,1.8,0000*45
$GPGSA,A,3,09,26,15,27,18,21,29,,,,,,2.8,1.5,2.3*30
$GPRMC,135011.000,A,3353.7491,N,09832.0259,W,0.33,262.30,030412,,,D*7C
$GPGGA,135012.000,3353.7490,N,09832.0259,W,2,07,1.5,317.4,M,-23.7,M,0.8,0000*44
$GPGSA,A,3,09,26,15,27,18,21,29,,,,,,2.8,1.5,2.3*30
$GPRMC,135012.000,A,3353.7490,N,09832.0259,W,0.25,287.77,030412,,,D*71
$GPGGA,135013.000,3353.7490,N,09832.0257,W,2,07,1.5,317.7,M,-23.7,M,0.8,0000*48
$GPGSA,A,3,09,26,15,27,18,21,29,,,,,,2.8,1.5,2.3*30
$GPRMC,135013.000,A,3353.7490,N,09832.0257,W,0.51,297.78,030412,,,D*73
$GPGGA,135014.000,3353.7487,N,09832.0251,W,2,07,1.5,317.5,M,-23.7,M,0.8,0000*4D
$GPGSA,A,3,09,26,15,27,18,21,29,,,,,,2.8,1.5,2.3*30
$GPGSV,3,1,12,15,66,088,34,21,60,330,23,18,56,282,24,29,47,184,15*7A
$GPGSV,3,2,12,26,28,045,35,22,16,257,16,27,16,113,23,06,13,318,*7C
$GPGSV,3,3,12,09,10,135,23,16,05,296,,05,04,062,,03,02,323,*7D
$GPRMC,135014.000,A,3353.7487,N,09832.0251,W,0.19,299.90,030412,,,D*70
$GPGGA,135015.000,3353.7485,N,09832.0245,W,2,07,1.5,317.7,M,-23.7,M,1.8,0000*48
$GPGSA,A,3,09,26,15,27,18,21,29,,,,,,2.8,1.5,2.3*30
$GPRMC,135015.000,A,3353.7485,N,09832.0245,W,0.35,30.36,030412,,,D*45
$GPGGA,135016.000,3353.7483,N,09832.0234,W,2,06,1.5,318.4,M,-23.7,M,2.8,0000*45
$GPGSA,A,3,09,26,15,18,21,29,,,,,,,2.8,1.5,2.4*32
$GPRMC,135016.000,A,3353.7483,N,09832.0234,W,0.38,81.55,030412,,,D*44
$GPGGA,135017.000,3353.7481,N,09832.0227,W,2,07,1.5,318.7,M,-23.7,M,0.8,0000*44
$GPGSA,A,3,09,26,15,27,18,21,29,,,,,,2.8,1.5,2.4*37
$GPRMC,135017.000,A,3353.7481,N,09832.0227,W,0.33,30.27,030412,,,D*41
$GPGGA,135018.000,3353.7482,N,09832.0230,W,2,07,1.5,318.8,M,-23.7,M,0.8,0000*41
$GPGSA,A,3,09,26,15,27,18,21,29,,,,,,2.8,1.5,2.4*37
$GPRMC,135018.000,A,3353.7482,N,09832.0230,W,0.03,322.74,030412,,,D*7E
$GPGGA,135019.000,3353.7484,N,09832.0232,W,2,07,1.5,319.0,M,-23.7,M,0.8,0000*4D
$GPGSA,A,3,09,26,15,27,18,21,29,,,,,,2.8,1.5,2.4*37
$GPGSV,3,1,12,15,66,088,34,21,60,330,24,18,56,282,24,29,47,184,18*70
$GPGSV,3,2,12,26,28,045,35,22,16,257,16,27,16,113,14,06,13,318,*78
$GPGSV,3,3,12,09,10,135,24,16,05,296,,05,04,062,,03,02,323,*7A
$GPRMC,135019.000,A,3353.7484,N,09832.0232,W,0.53,307.98,030412,,,D*7B
$GPGGA,135020.000,3353.7483,N,09832.0229,W,2,07,1.5,319.1,M,-23.7,M,0.8,0000*4B
$GPGSA,A,3,09,26,15,27,18,21,29,,,,,,2.8,1.5,2.4*37
$GPRMC,135020.000,A,3353.7483,N,09832.0229,W,0.16,54.21,030412,,,D*4A
$GPGGA,135021.000,3353.7482,N,09832.0225,W,2,07,1.5,319.3,M,-23.7,M,0.8,0000*45
$GPGSA,A,3,09,26,15,27,18,21,29,,,,,,2.8,1.5,2.4*37
$GPRMC,135021.000,A,3353.7482,N,09832.0225,W,0.24,69.80,030412,,,D*42
$GPGGA,135022.000,3353.7481,N,09832.0223,W,2,07,1.5,319.2,M,-23.7,M,1.8,0000*43
$GPGSA,A,3,09,26,15,27,18,21,29,,,,,,2.8,1.5,2.4*37
$GPRMC,135022.000,A,3353.7481,N,09832.0223,W,0.37,46.74,030412,,,D*40
$GPGGA,135023.000,3353.7478,N,09832.0222,W,2,07,1.5,318.6,M,-23.7,M,2.8,0000*43
$GPGSA,A,3,09,26,15,27,18,21,29,,,,,,2.8,1.5,2.4*37
$GPRMC,135023.000,A,3353.7478,N,09832.0222,W,0.17,114.89,030412,,,D*70
$GPGGA,135024.000,3353.7476,N,09832.0225,W,2,07,1.5,317.9,M,-23.7,M,0.8,0000*4F
$GPGSA,A,3,09,26,15,27,18,21,29,,,,,,2.8,1.5,2.4*37
$GPGSV,3,1,12,15,66,088,34,21,60,330,24,18,56,282,24,29,47,184,19*71
$GPGSV,3,2,12,26,28,045,35,22,16,257,16,27,16,113,12,06,13,318,*7E
$GPGSV,3,3,12,09,10,135,24,16,05,296,,05,04,062,,03,02,323,*7A
$GPRMC,135024.000,A,3353.7476,N,09832.0225,W,0.33,292.54,030412,,,D*75
$GPGGA,135025.000,3353.7474,N,09832.0228,W,2,07,1.5,316.9,M,-23.7,M,0.8,0000*40
$GPGSA,A,3,09,26,15,27,18,21,29,,,,,,2.8,1.5,2.4*37
$GPRMC,135025.000,A,3353.7474,N,09832.0228,W,0.35,306.24,030412,,,D*76
$GPGGA,135026.000,3353.7471,N,09832.0231,W,2,07,1.5,315.7,M,-23.7,M,0.8,0000*43
$GPGSA,A,3,09,26,15,27,18,21,29,,,,,,2.8,1.5,2.4*37
$GPRMC,135026.000,A,3353.7471,N,09832.0231,W,0.07,311.57,030412,,,D*7B
$GPGGA,135027.000,3353.7465,N,09832.0228,W,2,07,1.5,315.0,M,-23.7,M,0.8,0000*48
$GPGSA,A,3,09,26,15,27,18,21,29,,,,,,2.8,1.5,2.4*37
$GPRMC,135027.000,A,3353.7465,N,09832.0228,W,0.25,313.37,030412,,,D*73
$GPGGA,135028.000,3353.7457,N,09832.0227,W,2,07,1.5,314.4,M,-23.7,M,1.8,0000*4D
$GPGSA,A,3,09,26,15,27,18,21,29,,,,,,2.8,1.5,2.4*37
$GPRMC,135028.000,A,3353.7457,N,09832.0227,W,0.19,252.07,030412,,,D*7A
$GPGGA,135029.000,3353.7449,N,09832.0226,W,2,07,1.5,313.8,M,-23.7,M,2.8,0000*4A
$GPGSA,A,3,09,26,15,27,18,21,29,,,,,,2.8,1.5,2.4*37
$GPGSV,3,1,12,15,66,088,34,21,60,330,25,18,56,282,23,29,47,184,23*7E
$GPGSV,3,2,12,26,28,045,36,22,16,257,15,27,16,113,25,06,13,318,*7A
$GPGSV,3,3,12,09,10,135,24,16,05,296,,05,04,062,,03,02,323,*7A
$GPRMC,135029.000,A,3353.7449,N,09832.0226,W,0.29,226.95,030412,,,D*7E
$GPGGA,135030.000,3353.7444,N,09832.0223,W,2,07,1.5,313.4,M,-23.7,M,0.8,0000*44
$GPGSA,A,3,09,26,15,27,18,21,29,,,,,,2.8,1.5,2.4*37
$GPRMC,135030.000,A,3353.7444,N,09832.0223,W,0.37,73.35,030412,,,D*49
$GPGGA,135031.000,3353.7440,N,09832.0220,W,2,07,1.5,313.1,M,-23.7,M,0.8,0000*47
$GPGSA,A,3,09,26,15,27,18,21,29,,,,,,2.8,1.5,2.4*37
$GPRMC,135031.000,A,3353.7440,N,09832.0220,W,0.31,85.77,030412,,,D*46
$GPGGA,135032.000,3353.7439,N,09832.0216,W,2,07,1.5,313.1,M,-23.7,M,0.8,0000*4F
$GPGSA,A,3,09,26,15,27,18,21,29,,,,,,2.8,1.5,2.4*37
$GPRMC,135032.000,A,3353.7439,N,09832.0216,W,0.21,293.61,030412,,,D*7D
$GPGGA,135033.000,3353.7435,N,09832.0213,W,2,07,1.5,313.2,M,-23.7,M,0.8,0000*44
$GPGSA,A,3,09,26,15,27,18,21,29,,,,,,2.8,1.5,2.4*37
$GPRMC,135033.000,A,3353.7435,N,09832.0213,W,0.50,104.77,030412,,,D*79
$GPGGA,135034.000,3353.7432,N,09832.0209,W,2,07,1.5,313.1,M,-23.7,M,1.8,0000*4D
$GPGSA,A,3,09,26,15,27,18,21,29,,,,,,2.8,1.5,2.4*37
$GPGSV,3,1,12,15,66,088,33,21,60,330,25,18,56,282,22,29,47,184,24*7F
$GPGSV,3,2,12,26,28,045,36,22,16,257,13,27,16,113,23,06,13,318,*7A
$GPGSV,3,3,12,09,10,135,24,16,05,296,,05,04,062,,03,02,323,*7A
$GPRMC,135034.000,A,3353.7432,N,09832.0209,W,0.23,195.96,030412,,,D*71
$GPGGA,135035.000,3353.7430,N,09832.0206,W,2,07,1.5,312.9,M,-23.7,M,2.8,0000*4B
$GPGSA,A,3,09,26,15,27,18,21,29,,,,,,2.8,1.5,2.4*37
$GPRMC,135035.000,A,3353.7430,N,09832.0206,W,0.12,173.73,030412,,,D*7C
$GPGGA,135036.000,3353.7430,N,09832.0201,W,2,07,1.5,313.2,M,-23.7,M,0.8,0000*47
$GPGSA,A,3,09,26,15,27,18,21,29,,,,,,2.8,1.5,2.4*37
$GPRMC,135036.000,A,3353.7430,N,09832.0201,W,0.44,121.55,030412,,,D*78
$GPGGA,135037.000,3353.7431,N,09832.0196,W,2,07,1.5,313.5,M,-23.7,M,0.8,0000*4D
$GPGSA,A,3,09,26,15,27,18,21,29,,,,,,2.8,1.5,2.4*37
$GPRMC,135037.000,A,3353.7431,N,09832.0196,W,0.24,352.00,030412,,,D*75
$GPGGA,135038.000,3353.7432,N,09832.0191,W,2,07,1.5,313.9,M,-23.7,M,0.8,0000*4A
$GPGSA,A,3,09,26,15,27,18,21,29,,,,,,2.8,1.5,2.4*37
$GPRMC,135038.000,A,3353.7432,N,09832.0191,W,0.53,22.20,030412,,,D*48
$GPGGA,135039.000,3353.7431,N,09832.0186,W,2,07,1.5,314.0,M,-23.7,M,1.8,0000*41
$GPGSA,A,3,09,26,15,27,18,21,29,,,,,,2.8,1.5,2.4*37
$GPGSV,3,1,12,15,66,088,33,21,60,330,25,18,56,282,23,29,47,184,24*7E
$GPGSV,3,2,12,26,28,045,36,22,16,257,12,27,16,113,19,06,13,318,*72
$GPGSV,3,3,12,09,10,135,23,16,05,296,,05,04,062,,03,02,323,*7D
$GPRMC,135039.000,A,3353.7431,N,09832.0186,W,0.55,82.78,030412,,,D*4D
$GPGGA,135040.000,3353.7428,N,09832.0185,W,2,07,1.5,313.6,M,-23.7,M,2.8,0000*46
$GPGSA,A,3,09,26,15,27,18,21,29,,,,,,2.8,1.5,2.4*37
$GPRMC,135040.000,A,3353.7428,N,09832.0185,W,0.59,128.53,030412,,,D*7C
$GPGGA,135041.000,3353.7426,N,09832.0187,W,2,07,1.5,312.9,M,-23.7,M,3.8,0000*44
$GPGSA,A,3,09,26,15,27,18,21,29,,,,,,2.8,1.5,2.4*37
$GPRMC,135041.000,A,3353.7426,N,09832.0187,W,0.03,79.24,030412,,,D*4B
$GPGGA,135042.000,3353.7424,N,09832.0191,W,2,07,1.5,312.2,M,-23.7,M,0.8,0000*4A
$GPGSA,A,3,09,26,15,27,18,21,29,,,,,,2.8,1.5,2.4*37
$GPRMC,135042.000,A,3353.7424,N,09832.0191,W,0.09,1.27,030412,,,D*7B
$GPGGA,135043.000,3353.7423,N,09832.0192,W,2,07,1.5,311.8,M,-23.7,M,0.8,0000*46
$GPGSA,A,3,09,26,15,27,18,21,29,,,,,,2.8,1.5,2.4*37
$GPRMC,135043.000,A,3353.7423,N,09832.0192,W,0.23,128.49,030412,,,D*74
$GPGGA,135044.000,3353.7419,N,09832.0193,W,2,07,1.5,311.2,M,-23.7,M,0.8,0000*43
$GPGSA,A,3,09,26,15,27,18,21,29,,,,,,2.8,1.5,2.4*37
$GPGSV,3,1,12,15,66,088,33,21,60,330,25,18,56,282,23,29,47,184,24*7E
$GPGSV,3,2,12,26,28,045,36,22,16,257,14,27,16,113,21,06,13,318,*7F
$GPGSV,3,3,12,09,10,135,23,16,05,296,,05,04,062,,03,02,323,*7D
$GPRMC,135044.000,A,3353.7419,N,09832.0193,W,0.17,143.90,030412,,,D*75
$GPGGA,135045.000,3353.7414,N,09832.0195,W,2,07,1.5,310.4,M,-23.7,M,1.8,0000*4F
$GPGSA,A,3,09,26,15,27,18,21,29,,,,,,2.8,1.5,2.4*37
$GPRMC,135045.000,A,3353.7414,N,09832.0195,W,0.31,190.72,030412,,,D*79
$GPGGA,135046.000,3353.7410,N,09832.0193,W,2,07,1.5,310.2,M,-23.7,M,2.8,0000*4B
$GPGSA,A,3,09,26,15,27,18,21,29,,,,,,2.8,1.5,2.4*37
$GPRMC,135046.000,A,3353.7410,N,09832.0193,W,0.20,199.28,030412,,,D*7E
$GPGGA,135047.000,3353.7406,N,09832.0189,W,2,07,1.5,310.1,M,-23.7,M,3.8,0000*44
$GPGSA,A,3,09,26,15,27,18,21,29,,,,,,2.8,1.5,2.4*37
$GPRMC,135047.000,A,3353.7406,N,09832.0189,W,0.32,126.84,030412,,,D*72
$GPGGA,135048.000,3353.7403,N,09832.0190,W,2,07,1.5,309.4,M,-23.7,M,0.8,0000*48
$GPGSA,A,3,09,26,15,27,18,21,29,,,,,,2.8,1.5,2.4*37
$GPRMC,135048.000,A,3353.7403,N,09832.0190,W,0.19,185.28,030412,,,D*76
$GPGGA,135049.000,3353.7404,N,09832.0187,W,2,07,1.5,310.1,M,-23.7,M,0.8,0000*45
$GPGSA,A,3,09,26,15,27,18,21,29,,,,,,2.8,1.5,2.4*37
$GPGSV,3,1,12,15,66,088,34,21,60,330,24,18,56,282,24,29,47,184,24*7F
$GPGSV,3,2,12,26,28,045,36,22,16,257,14,27,16,113,22,06,13,318,*7C
$GPGSV,3,3,12,09,10,135,23,16,05,296,,05,04,062,,03,02,323,*7D
$GPRMC,135049.000,A,3353.7404,N,09832.0187,W,0.36,23.02,030412,,,D*4E
$GPGGA,135050.000,3353.7406,N,09832.0184,W,2,07,1.5,310.7,M,-23.7,M,0.8,0000*4A
$GPGSA,A,3,09,26,15,27,18,21,29,,,,,,2.8,1.5,2.4*37
$GPRMC,135050.000,A,3353.7406,N,09832.0184,W,0.10,51.45,030412,,,D*45
$GPGGA,135051.000,3353.7404,N,09832.0183,W,2,07,1.5,310.3,M,-23.7,M,1.8,0000*4B
$GPGSA,A,3,09,26,15,27,18,21,29,,,,,,2.8,1.5,2.4*37
$GPRMC,135051.000,A,3353.7404,N,09832.0183,W,0.13,75.59,030412,,,D*49
$GPGGA,135052.000,3353.7403,N,09832.0183,W,2,07,1.5,310.1,M,-23.7,M,0.8,0000*4C
$GPGSA,A,3,09,26,15,27,18,21,29,,,,,,2.8,1.5,2.4*37
$GPRMC,135052.000,A,3353.7403,N,09832.0183,W,0.22,306.63,030412,,,D*71
$GPGGA,135053.000,3353.7403,N,09832.0184,W,2,07,1.5,309.7,M,-23.7,M,1.8,0000*45
$GPGSA,A,3,09,26,15,27,18,21,29,,,,,,2.8,1.5,2.4*37
$GPRMC,135053.000,A,3353.7403,N,09832.0184,W,0.17,342.79,030412,,,D*7A
$GPGGA,135054.000,3353.7405,N,09832.0183,W,2,07,1.5,309.8,M,-23.7,M,0.8,0000*4D
$GPGSA,A,3,09,26,15,27,18,21,29,,,,,,2.8,1.5,2.4*37
$GPGSV,3,1,12,15,66,088,34,21,60,330,23,18,56,282,25,29,47,184,24*79
$GPGSV,3,2,12,26,28,045,36,22,16,257,14,27,16,113,23,06,13,318,*7D
$GPGSV,3,3,12,09,10,135,24,16,05,296,,05,04,062,,03,02,323,*7A
$GPRMC,135054.000,A,3353.7405,N,09832.0183,W,0.27,332.23,030412,,,D*77
$GPGGA,135055.000,3353.7406,N,09832.0182,W,2,07,1.5,309.8,M,-23.7,M,0.8,0000*4E
$GPGSA,A,3,09,26,15,27,18,21,29,,,,,,2.8,1.5,2.4*37
$GPRMC,135055.000,A,3353.7406,N,09832.0182,W,0.15,112.90,030412,,,D*7D
$GPGGA,135056.000,3353.7406,N,09832.0179,W,2,07,1.5,309.8,M,-23.7,M,0.8,0000*49
$GPGSA,A,3,09,26,15,27,18,21,29,,,,,,2.8,1.5,2.4*37
$GPRMC,135056.000,A,3353.7406,N,09832.0179,W,0.56,117.23,030412,,,D*70
$GPGGA,135057.000,3353.7408,N,09832.0179,W,2,07,1.5,309.8,M,-23.7,M,1.8,0000*47
$GPGSA,A,3,09,26,15,27,18,21,29,,,,,,2.8,1.5,2.4*37
$GPRMC,135057.000,A,3353.7408,N,09832.0179,W,0.32,313.87,030412,,,D*75
$GPGGA,135058.000,3353.7410,N,09832.0181,W,2,07,1.5,309.5,M,-23.7,M,0.8,0000*4A
$GPGSA,A,3,09,26,15,27,18,21,29,,,,,,2.8,1.5,2.4*37
$GPRMC,135058.000,A,3353.7410,N,09832.0181,W,0.15,287.74,030412,,,D*71
$GPGGA,135059.000,3353.7412,N,09832.0185,W,2,07,1.5,309.3,M,-23.7,M,0.8,0000*4B
$GPGSA,A,3,09,26,15,27,18,21,29,,,,,,2.8,1.5,2.4*37
$GPGSV,3,1,12,15,66,088,34,21,60,330,23,18,56,282,25,29,47,184,26*7B
$GPGSV,3,2,12,26,28,045,35,22,16,257,,27,16,113,25,06,13,318,*7D
$GPGSV,3,3,12,09,10,135,24,16,05,296,,05,04,062,,03,02,323,*7A
$GPRMC,135059.000,A,3353.7412,N,09832.0185,W,0.15,339.76,030412,,,D*70
$GPGGA,135100.000,3353.7416,N,09832.0189,W,2,07,1.5,310.1,M,-23.7,M,0.8,0000*44
$GPGSA,A,3,09,26,15,27,18,21,29,,,,,,2.8,1.5,2.4*37
$GPRMC,135100.000,A,3353.7416,N,09832.0189,W,0.16,14.93,030412,,,D*41
$GPGGA,135101.000,3353.7419,N,09832.0191,W,2,07,1.5,311.1,M,-23.7,M,0.8,0000*42
$GPGSA,A,3,09,26,15,27,18,21,29,,,,,,2.8,1.5,2.4*37
$GPRMC,135101.000,A,3353.7419,N,09832.0191,W,0.17,6.40,030412,,,D*7A
$GPGGA,135102.000,3353.7422,N,09832.0194,W,2,07,1.5,311.8,M,-23.7,M,0.8,0000*45
$GPGSA,A,3,09,26,15,27,18,21,29,,,,,,2.8,1.5,2.4*37
$GPRMC,135102.000,A,3353.7422,N,09832.0194,W,0.40,294.34,030412,,,D*7C
$GPGGA,135103.000,3353.7427,N,09832.0204,W,2,07,1.5,311.9,M,-23.7,M,1.8,0000*4B
$GPGSA,A,3,09,26,15,27,18,21,29,,,,,,2.8,1.5,2.4*37
$GPRMC,135103.000,A,3353.7427,N,09832.0204,W,0.36,289.82,030412,,,D*72
$GPGGA,135104.000,3353.7430,N,09832.0208,W,2,07,1.5,312.2,M,-23.7,M,2.8,0000*4D
$GPGSA,A,3,09,26,15,27,18,21,29,,,,,,2.8,1.5,2.4*37
$GPGSV,3,1,12,15,66,088,34,21,60,330,23,18,56,282,24,29,47,184,27*7B
$GPGSV,3,2,12,26,28,045,35,22,16,257,,27,16,113,25,06,13,318,*7D
$GPGSV,3,3,12,09,10,135,25,16,05,296,,05,04,062,,03,02,323,*7B
$GPRMC,135104.000,A,3353.7430,N,09832.0208,W,0.12,300.18,030412,,,D*7A
$GPGGA,135105.000,3353.7433,N,09832.0216,W,2,07,1.5,312.1,M,-23.7,M,0.8,0000*41
$GPGSA,A,3,09,26,15,27,18,21,29,,,,,,2.8,1.5,2.4*37
$GPRMC,135105.000,A,3353.7433,N,09832.0216,W,0.45,282.61,030412,,,D*70
$GPGGA,135106.000,3353.7437,N,09832.0224,W,2,07,1.5,311.9,M,-23.7,M,0.8,0000*4C
$GPGSA,A,3,09,26,15,27,18,21,29,,,,,,2.8,1.5,2.4*37
$GPRMC,135106.000,A,3353.7437,N,09832.0224,W,0.38,303.95,030412,,,D*7F
$GPGGA,135107.000,3353.7435,N,09832.0221,W,2,07,1.5,311.7,M,-23.7,M,0.8,0000*44
