$GPGGA,135201.000,3352.4626,N,09831.1887,W,2,07,1.0,294.0,M,-23.7,M,2.8,0000*4B
$GPGSA,A,3,15,21,26,29,06,22,27,,,,,,1.7,1.0,1.3*3C
$GPRMC,135201.000,A,3352.4626,N,09831.1887,W,0.15,160.79,310312,,,D*76
$GPGGA,135202.000,3352.4625,N,09831.1887,W,2,07,1.0,294.0,M,-23.7,M,0.8,0000*49
$GPGSA,A,3,15,21,26,29,06,22,27,,,,,,1.7,1.0,1.3*3C
$GPRMC,135202.000,A,3352.4625,N,09831.1887,W,0.16,170.04,310312,,,D*7E
$GPGGA,135203.000,3352.4625,N,09831.1887,W,2,07,1.0,294.0,M,-23.7,M,0.8,0000*48
$GPGSA,A,3,15,21,26,29,06,22,27,,,,,,1.7,1.0,1.3*3C
$GPRMC,135203.000,A,3352.4625,N,09831.1887,W,0.09,134.39,310312,,,D*7F
$GPGGA,135204.000,3352.4625,N,09831.1887,W,2,07,1.0,294.0,M,-23.7,M,1.8,0000*4E
$GPGSA,A,3,15,21,26,29,06,22,27,,,,,,1.7,1.0,1.3*3C
$GPGSV,3,1,12,15,66,100,36,21,57,326,36,18,53,275,,29,51,185,41*72
$GPGSV,3,2,12,26,31,048,36,22,13,254,37,27,13,116,35,06,10,319,26*7E
$GPGSV,3,3,12,09,07,138,,05,07,060,,16,06,300,26,30,03,273,*7A
$GPRMC,135204.000,A,3352.4625,N,09831.1887,W,0.12,130.91,310312,,,D*74
$GPGGA,135205.000,3352.4626,N,09831.1886,W,2,07,1.0,294.0,M,-23.7,M,0.8,0000*4C
$GPGSA,A,3,15,21,26,29,06,22,27,,,,,,1.7,1.0,1.3*3C
$GPRMC,135205.000,A,3352.4626,N,09831.1886,W,0.09,85.79,310312,,,D*44
$GPGGA,135206.000,3352.4626,N,09831.1886,W,2,07,1.0,294.0,M,-23.7,M,1.8,0000*4E
$GPGSA,A,3,15,21,26,29,06,22,27,,,,,,1.7,1.0,1.3*3C
$GPRMC,135206.000,A,3352.4626,N,09831.1886,W,0.11,90.59,310312,,,D*48
$GPGGA,135207.000,3352.4626,N,09831.1886,W,2,07,1.0,294.0,M,-23.7,M,2.8,0000*4C
$GPGSA,A,3,15,21,26,29,06,22,27,,,,,,1.7,1.0,1.3*3C
$GPRMC,135207.000,A,3352.4626,N,09831.1886,W,0.09,81.57,310312,,,D*4E
$GPGGA,135208.000,3352.4626,N,09831.1885,W,2,07,1.0,294.0,M,-23.7,M,3.8,0000*41
$GPGSA,A,3,15,21,26,29,06,22,27,,,,,,1.7,1.0,1.3*3C
$GPRMC,135208.000,A,3352.4626,N,09831.1885,W,0.10,85.99,310312,,,D*4C
$GPGGA,135209.000,3352.4626,N,09831.1885,W,2,07,1.0,294.0,M,-23.7,M,0.8,0000*43
$GPGSA,A,3,15,21,26,29,06,22,27,,,,,,1.7,1.0,1.3*3C
$GPGSV,3,1,12,15,66,100,36,21,57,326,36,18,53,275,,29,51,185,41*72
$GPGSV,3,2,12,26,31,048,36,22,13,254,37,27,13,116,35,06,10,319,26*7E
$GPGSV,3,3,12,09,07,138,,05,07,060,,16,06,300,27,30,03,273,*7B
$GPRMC,135209.000,A,3352.4626,N,09831.1885,W,0.06,133.07,310312,,,D*71
$GPGGA,135210.000,3352.4626,N,09831.1885,W,2,07,1.0,293.9,M,-23.7,M,0.8,0000*45
$GPGSA,A,3,15,21,26,29,06,22,27,,,,,,1.7,1.0,1.3*3C
$GPRMC,135210.000,A,3352.4626,N,09831.1885,W,0.06,145.30,310312,,,D*7C
$GPGGA,135211.000,3352.4626,N,09831.1885,W,2,07,1.0,294.0,M,-23.7,M,0.8,0000*4A
$GPGSA,A,3,15,21,26,29,06,22,27,,,,,,1.7,1.0,1.3*3C
$GPRMC,135211.000,A,3352.4626,N,09831.1885,W,0.15,168.03,310312,,,D*70
$GPGGA,135212.000,3352.4626,N,09831.1885,W,2,08,1.0,294.0,M,-23.7,M,0.8,0000*46
$GPGSA,A,3,15,21,26,18,29,06,22,27,,,,,1.6,1.0,1.2*35
$GPRMC,135212.000,A,3352.4626,N,09831.1885,W,0.11,181.69,310312,,,D*7C
$GPGGA,135213.000,3352.4626,N,09831.1885,W,2,08,1.0,294.0,M,-23.7,M,1.8,0000*46
$GPGSA,A,3,15,21,26,18,29,06,22,27,,,,,1.6,1.0,1.2*35
$GPRMC,135213.000,A,3352.4626,N,09831.1885,W,0.15,158.38,310312,,,D*79
$GPGGA,135214.000,3352.4625,N,09831.1885,W,2,08,1.0,294.0,M,-23.7,M,0.8,0000*43
$GPGSA,A,3,15,21,26,18,29,06,22,27,,,,,1.6,1.0,1.2*35
$GPGSV,3,1,12,15,66,100,36,21,57,326,36,18,53,275,17,29,51,185,41*74
$GPGSV,3,2,12,26,31,048,37,22,13,254,37,27,13,116,35,06,10,319,26*7F
$GPGSV,3,3,12,09,07,138,,05,07,060,,16,06,300,27,30,03,273,*7B
$GPRMC,135214.000,A,3352.4625,N,09831.1885,W,0.12,161.66,310312,,,D*7B
$GPGGA,135215.000,3352.4625,N,09831.1885,W,2,08,1.0,294.1,M,-23.7,M,0.8,0000*43
$GPGSA,A,3,15,21,26,18,29,06,22,27,,,,,1.6,1.0,1.2*35
$GPRMC,135215.000,A,3352.4625,N,09831.1885,W,0.15,130.28,310312,,,D*73
$GPGGA,135216.000,3352.4625,N,09831.1885,W,2,08,1.0,294.1,M,-23.7,M,0.8,0000*40
$GPGSA,A,3,15,21,26,18,29,06,22,27,,,,,1.6,1.0,1.2*35
$GPRMC,135216.000,A,3352.4625,N,09831.1885,W,0.14,132.36,310312,,,D*7C
$GPGGA,135217.000,3352.4625,N,09831.1884,W,2,08,1.0,294.2,M,-23.7,M,0.8,0000*43
$GPGSA,A,3,15,21,26,18,29,06,22,27,,,,,1.6,1.0,1.2*35
$GPRMC,135217.000,A,3352.4625,N,09831.1884,W,0.12,98.51,310312,,,D*4A
$GPGGA,135218.000,3352.4625,N,09831.1884,W,2,08,1.0,294.2,M,-23.7,M,1.8,0000*4D
$GPGSA,A,3,15,21,26,18,29,06,22,27,,,,,1.6,1.0,1.2*35
$GPRMC,135218.000,A,3352.4625,N,09831.1884,W,0.15,105.65,310312,,,D*70
$GPGGA,135219.000,3352.4625,N,09831.1884,W,2,08,1.0,294.2,M,-23.7,M,0.8,0000*4D
$GPGSA,A,3,15,21,26,18,29,06,22,27,,,,,1.6,1.0,1.2*35
$GPGSV,3,1,12,15,66,098,37,21,57,326,36,18,53,276,16,29,51,185,41*77
$GPGSV,3,2,12,26,31,047,37,22,14,254,37,27,13,116,35,06,10,319,26*77
$GPGSV,3,3,12,09,08,138,,05,07,060,,16,06,299,25,30,03,273,*77
$GPRMC,135219.000,A,3352.4625,N,09831.1884,W,0.06,65.49,310312,,,D*4A
$GPGGA,135220.000,3352.4626,N,09831.1883,W,2,08,1.0,294.3,M,-23.7,M,1.8,0000*43
$GPGSA,A,3,15,21,26,18,29,06,22,27,,,,,1.6,1.0,1.2*35
$GPRMC,135220.000,A,3352.4626,N,09831.1883,W,0.08,83.65,310312,,,D*4C
$GPGGA,135221.000,3352.4626,N,09831.1883,W,2,08,1.0,294.3,M,-23.7,M,0.8,0000*43
$GPGSA,A,3,15,21,26,18,29,06,22,27,,,,,1.6,1.0,1.2*35
$GPRMC,135221.000,A,3352.4626,N,09831.1883,W,0.03,159.28,310312,,,D*79
$GPGGA,135222.000,3352.4626,N,09831.1884,W,2,08,1.0,294.3,M,-23.7,M,0.8,0000*47
$GPGSA,A,3,15,21,26,18,29,06,22,27,,,,,1.6,1.0,1.2*35
$GPRMC,135222.000,A,3352.4626,N,09831.1884,W,0.02,308.31,310312,,,D*72
$GPGGA,135223.000,3352.4626,N,09831.1884,W,2,08,1.0,294.4,M,-23.7,M,0.8,0000*41
$GPGSA,A,3,15,21,26,18,29,06,22,27,,,,,1.6,1.0,1.2*35
$GPRMC,135223.000,A,3352.4626,N,09831.1884,W,0.07,225.94,310312,,,D*77
$GPGGA,135224.000,3352.4626,N,09831.1884,W,2,08,1.0,294.4,M,-23.7,M,1.8,0000*47
$GPGSA,A,3,15,21,26,18,29,06,22,27,,,,,1.6,1.0,1.2*35
$GPGSV,3,1,12,15,66,098,37,21,57,326,36,18,53,276,16,29,51,185,40*76
$GPGSV,3,2,12,26,31,047,37,22,14,254,37,27,13,116,35,06,10,319,26*77
$GPGSV,3,3,12,09,08,138,,05,07,060,,16,06,299,19,30,03,273,*78
$GPRMC,135224.000,A,3352.4626,N,09831.1884,W,0.11,165.87,310312,,,D*72
$GPGGA,135225.000,3352.4626,N,09831.1884,W,2,08,1.0,294.4,M,-23.7,M,2.8,0000*45
$GPGSA,A,3,15,21,26,18,29,06,22,27,,,,,1.6,1.0,1.2*35
$GPRMC,135225.000,A,3352.4626,N,09831.1884,W,0.12,158.00,310312,,,D*71
$GPGGA,135226.000,3352.4626,N,09831.1885,W,2,08,1.0,294.4,M,-23.7,M,0.8,0000*45
$GPGSA,A,3,15,21,26,18,29,06,22,27,,,,,1.6,1.0,1.2*35
$GPRMC,135226.000,A,3352.4626,N,09831.1885,W,0.08,180.21,310312,,,D*7E
$GPGGA,135227.000,3352.4625,N,09831.1884,W,2,08,1.0,294.5,M,-23.7,M,0.8,0000*47
$GPGSA,A,3,15,21,26,18,29,06,22,27,,,,,1.6,1.0,1.2*35
$GPRMC,135227.000,A,3352.4625,N,09831.1884,W,0.17,145.56,310312,,,D*7A
$GPGGA,135228.000,3352.4625,N,09831.1884,W,2,08,1.0,294.5,M,-23.7,M,0.8,0000*48
$GPGSA,A,3,15,21,26,18,29,06,22,27,,,,,1.6,1.0,1.2*35
$GPRMC,135228.000,A,3352.4625,N,09831.1884,W,0.15,144.21,310312,,,D*76
$GPGGA,135229.000,3352.4625,N,09831.1884,W,2,08,1.0,294.4,M,-23.7,M,0.8,0000*48
$GPGSA,A,3,15,21,26,18,29,06,22,27,,,,,1.6,1.0,1.2*35
$GPGSV,3,1,12,15,66,098,36,21,57,326,36,18,53,276,15,29,51,185,40*74
$GPGSV,3,2,12,26,31,047,37,22,14,254,37,27,13,116,35,06,10,319,25*74
$GPGSV,3,3,12,09,08,138,,05,07,060,,16,06,299,19,30,03,273,*78
$GPRMC,135229.000,A,3352.4625,N,09831.1884,W,0.11,100.70,310312,,,D*77
$GPGGA,135230.000,3352.4625,N,09831.1883,W,2,08,1.0,294.3,M,-23.7,M,1.8,0000*41
$GPGSA,A,3,15,21,26,18,29,06,22,27,,,,,1.6,1.0,1.2*35
$GPRMC,135230.000,A,3352.4625,N,09831.1883,W,0.13,112.31,310312,,,D*7C
$GPGGA,135231.000,3352.4625,N,09831.1883,W,2,08,1.0,294.3,M,-23.7,M,2.8,0000*43
$GPGSA,A,3,15,21,26,18,29,06,22,27,,,,,1.6,1.0,1.2*35
$GPRMC,135231.000,A,3352.4625,N,09831.1883,W,0.13,104.29,310312,,,D*73
$GPGGA,135232.000,3352.4625,N,09831.1883,W,2,08,1.0,294.2,M,-23.7,M,3.8,0000*40
$GPGSA,A,3,15,21,26,18,29,06,22,27,,,,,1.6,1.0,1.2*35
$GPRMC,135232.000,A,3352.4625,N,09831.1883,W,0.14,102.62,310312,,,D*7E
$GPGGA,135233.000,3352.4625,N,09831.1882,W,2,08,1.0,294.2,M,-23.7,M,0.8,0000*43
$GPGSA,A,3,15,21,26,18,29,06,22,27,,,,,1.6,1.0,1.2*35
$GPRMC,135233.000,A,3352.4625,N,09831.1882,W,0.08,115.56,310312,,,D*72
$GPGGA,135234.000,3352.4625,N,09831.1882,W,2,08,1.0,294.1,M,-23.7,M,0.8,0000*47
$GPGSA,A,3,15,21,26,18,29,06,22,27,,,,,1.6,1.0,1.2*35
$GPGSV,3,1,12,15,66,098,36,21,57,326,36,18,53,276,15,29,51,185,40*74
$GPGSV,3,2,12,26,31,047,37,22,14,254,37,27,13,116,35,06,10,319,25*74
$GPGSV,3,3,12,09,08,138,,05,07,060,,16,06,299,19,30,03,273,*78
$GPRMC,135234.000,A,3352.4625,N,09831.1882,W,0.07,69.41,310312,,,D*46
$GPGGA,135235.000,3352.4625,N,09831.1882,W,2,08,1.0,294.1,M,-23.7,M,0.8,0000*46
$GPGSA,A,3,15,21,26,18,29,06,22,27,,,,,1.6,1.0,1.2*35
$GPGSV,3,1,12,15,66,098,36,21,57,326,36,18,53,276,15,29,51,185,40*74
$GPGSV,3,2,12,26,31,047,37,22,14,254,37,27,13,116,35,06,10,319,25*74
$GPGSV,3,3,12,09,08,138,,05,07,060,,16,06,299,19,30,03,273,*78
$GPRMC,135235.000,A,3352.4625,N,09831.1882,W,0.07,106.65,310312,,,D*79
$GPGGA,135236.000,3352.4625,N,09831.1882,W,2,08,1.0,294.1,M,-23.7,M,1.8,0000*44
$GPGSA,A,3,15,21,26,18,29,06,22,27,,,,,1.6,1.0,1.2*35
$GPRMC,135236.000,A,3352.4625,N,09831.1882,W,0.16,148.23,310312,,,D*72
$GPGGA,135237.000,3352.4625,N,09831.1882,W,2,08,1.0,294.1,M,-23.7,M,2.8,0000*46
$GPGSA,A,3,15,21,26,18,29,06,22,27,,,,,1.6,1.0,1.2*35
$GPRMC,135237.000,A,3352.4625,N,09831.1882,W,0.02,23.57,310312,,,D*49
$GPGGA,135238.000,3352.4625,N,09831.1882,W,2,08,1.0,294.1,M,-23.7,M,3.8,0000*48
$GPGSA,A,3,15,21,26,18,29,06,22,27,,,,,1.6,1.0,1.2*35
$GPRMC,135238.000,A,3352.4625,N,09831.1882,W,0.16,139.47,310312,,,D*78
$GPGGA,135239.000,3352.4625,N,09831.1882,W,2,08,1.0,294.1,M,-23.7,M,0.8,0000*4A
$GPGSA,A,3,15,21,26,18,29,06,22,27,,,,,1.6,1.0,1.2*35
$GPGSV,3,1,12,15,66,098,36,21,57,326,36,18,53,276,18,29,51,185,39*77
$GPGSV,3,2,12,26,31,047,37,22,14,254,37,27,13,116,35,06,10,319,25*74
$GPGSV,3,3,12,09,08,138,,05,07,060,,16,06,299,19,30,03,273,*78
$GPRMC,135239.000,A,3352.4625,N,09831.1882,W,0.04,137.61,310312,,,D*70
$GPGGA,135240.000,3352.4625,N,09831.1882,W,2,08,1.0,294.1,M,-23.7,M,0.8,0000*44
$GPGSA,A,3,15,21,26,18,29,06,22,27,,,,,1.6,1.0,1.2*35
$GPRMC,135240.000,A,3352.4625,N,09831.1882,W,0.06,139.22,310312,,,D*75
$GPGGA,135241.000,3352.4625,N,09831.1882,W,2,08,1.0,294.0,M,-23.7,M,0.8,0000*44
$GPGSA,A,3,15,21,26,18,29,06,22,27,,,,,1.6,1.0,1.2*35
$GPRMC,135241.000,A,3352.4625,N,09831.1882,W,0.09,78.65,310312,,,D*4C
$GPGGA,135242.000,3352.4625,N,09831.1881,W,2,08,1.0,294.0,M,-23.7,M,0.8,0000*44
$GPGSA,A,3,15,21,26,18,29,06,22,27,,,,,1.6,1.0,1.2*35
$GPRMC,135242.000,A,3352.4625,N,09831.1881,W,0.15,122.81,310312,,,D*75
$GPGGA,135243.000,3352.4625,N,09831.1881,W,2,08,1.0,293.9,M,-23.7,M,1.8,0000*4A
$GPGSA,A,3,15,21,26,18,29,06,22,27,,,,,1.6,1.0,1.2*35
$GPRMC,135243.000,A,3352.4625,N,09831.1881,W,0.15,108.76,310312,,,D*74
$GPGGA,135244.000,3352.4626,N,09831.1880,W,2,08,1.0,293.9,M,-23.7,M,2.8,0000*4C
$GPGSA,A,3,15,21,26,18,29,06,22,27,,,,,1.6,1.0,1.2*35
$GPGSV,3,1,12,15,66,098,35,21,57,326,36,18,53,276,20,29,51,185,39*7F
$GPGSV,3,2,12,26,31,047,37,22,14,254,37,27,13,116,35,06,10,319,25*74
$GPGSV,3,3,12,09,08,138,,05,07,060,,16,06,299,20,30,03,273,*72
$GPRMC,135244.000,A,3352.4626,N,09831.1880,W,0.09,99.46,310312,,,D*46
$GPGGA,135245.000,3352.4626,N,09831.1880,W,2,08,1.0,293.8,M,-23.7,M,0.8,0000*4E
$GPGSA,A,3,15,21,26,18,29,06,22,27,,,,,1.6,1.0,1.2*35
$GPRMC,135245.000,A,3352.4626,N,09831.1880,W,0.06,27.07,310312,,,D*48
$GPGGA,135246.000,3352.4626,N,09831.1880,W,2,08,1.0,293.7,M,-23.7,M,0.8,0000*42
$GPGSA,A,3,15,21,26,18,29,06,22,27,,,,,1.6,1.0,1.2*35
$GPRMC,135246.000,A,3352.4626,N,09831.1880,W,0.06,112.44,310312,,,D*7B
$GPGGA,135247.000,3352.4626,N,09831.1880,W,2,08,1.0,293.7,M,-23.7,M,0.8,0000*43
$GPGSA,A,3,15,21,26,18,29,06,22,27,,,,,1.6,1.0,1.2*35
$GPRMC,135247.000,A,3352.4626,N,09831.1880,W,0.05,117.15,310312,,,D*78
$GPGGA,135248.000,3352.4626,N,09831.1880,W,2,08,1.0,293.7,M,-23.7,M,1.8,0000*4D
$GPGSA,A,3,15,21,26,18,29,06,22,27,,,,,1.6,1.0,1.2*35
$GPRMC,135248.000,A,3352.4626,N,09831.1880,W,0.12,176.42,310312,,,D*74
$GPGGA,135249.000,3352.4626,N,09831.1880,W,2,08,1.0,293.7,M,-23.7,M,2.8,0000*4F
$GPGSA,A,3,15,21,26,18,29,06,22,27,,,,,1.6,1.0,1.2*35
$GPGSV,3,1,12,15,66,098,35,21,57,327,37,18,54,276,21,29,51,185,39*79
$GPGSV,3,2,12,26,31,047,37,22,14,254,37,27,14,116,35,06,11,319,24*73
$GPGSV,3,3,12,09,08,138,,05,07,060,,16,06,299,21,30,03,273,*73
$GPRMC,135249.000,A,3352.4626,N,09831.1880,W,0.05,161.79,310312,,,D*7D
$GPGGA,135250.000,3352.4626,N,09831.1880,W,2,08,1.0,293.7,M,-23.7,M,0.8,0000*45
$GPGSA,A,3,15,21,26,18,29,06,22,27,,,,,1.6,1.0,1.2*35
$GPRMC,135250.000,A,3352.4626,N,09831.1880,W,0.12,150.04,310312,,,D*7B
$GPGGA,135251.000,3352.4626,N,09831.1880,W,2,08,1.0,293.7,M,-23.7,M,0.8,0000*44
$GPGSA,A,3,15,21,26,18,29,06,22,27,,,,,1.6,1.0,1.2*35
$GPRMC,135251.000,A,3352.4626,N,09831.1880,W,0.16,137.92,310312,,,D*70
$GPGGA,135252.000,3352.4626,N,09831.1880,W,2,08,1.0,293.6,M,-23.7,M,0.8,0000*46
$GPGSA,A,3,15,21,26,18,29,06,22,27,,,,,1.6,1.0,1.2*35
$GPRMC,135252.000,A,3352.4626,N,09831.1880,W,0.02,342.49,310312,,,D*70
$GPGGA,135253.000,3352.4626,N,09831.1880,W,2,08,1.0,293.5,M,-23.7,M,0.8,0000*44
$GPGSA,A,3,15,21,26,18,29,06,22,27,,,,,1.6,1.0,1.2*35
$GPRMC,135253.000,A,3352.4626,N,09831.1880,W,0.12,102.52,310312,,,D*7C
$GPGGA,135254.000,3352.4626,N,09831.1880,W,2,08,1.0,293.5,M,-23.7,M,1.8,0000*42
$GPGSA,A,3,15,21,26,18,29,06,22,27,,,,,1.6,1.0,1.2*35
$GPGSV,3,1,12,15,66,098,35,21,57,327,37,18,54,276,22,29,51,185,39*7A
$GPGSV,3,2,12,26,31,047,37,22,14,254,37,27,14,116,35,06,11,319,23*74
$GPGSV,3,3,12,09,08,138,,05,07,060,,16,06,299,22,30,03,273,*70
$GPRMC,135254.000,A,3352.4626,N,09831.1880,W,0.13,118.77,310312,,,D*76
$GPGGA,135255.000,3352.4626,N,09831.1879,W,2,08,1.0,293.5,M,-23.7,M,2.8,0000*46
$GPGSA,A,3,15,21,26,18,29,06,22,27,,,,,1.6,1.0,1.2*35
$GPRMC,135255.000,A,3352.4626,N,09831.1879,W,0.18,130.24,310312,,,D*76
$GPGGA,135256.000,3352.4626,N,09831.1879,W,2,08,1.0,293.5,M,-23.7,M,3.8,0000*44
$GPGSA,A,3,15,21,26,18,29,06,22,27,,,,,1.6,1.0,1.2*35
$GPRMC,135256.000,A,3352.4626,N,09831.1879,W,0.17,114.19,310312,,,D*72
$GPGGA,135257.000,3352.4626,N,09831.1878,W,2,08,1.0,293.4,M,-23.7,M,0.8,0000*46
$GPGSA,A,3,15,21,26,18,29,06,22,27,,,,,1.6,1.0,1.2*35
$GPRMC,135257.000,A,3352.4626,N,09831.1878,W,0.05,5.54,310312,,,D*79
$GPGGA,135258.000,3352.4626,N,09831.1879,W,2,08,1.0,293.4,M,-23.7,M,0.8,0000*48
$GPGSA,A,3,15,21,26,18,29,06,22,27,,,,,1.6,1.0,1.2*35
$GPRMC,135258.000,A,3352.4626,N,09831.1879,W,0.05,320.91,310312,,,D*7A
$GPGGA,135259.000,3352.4626,N,09831.1879,W,2,08,1.0,293.5,M,-23.7,M,0.8,0000*48
$GPGSA,A,3,15,21,26,18,29,06,22,27,,,,,1.6,1.0,1.2*35
$GPGSV,3,1,12,15,66,098,35,21,57,327,37,18,54,276,23,29,51,185,39*7B
$GPGSV,3,2,12,26,31,047,37,22,14,254,37,27,14,116,35,06,11,319,22*75
$GPGSV,3,3,12,09,08,138,,05,07,060,,16,06,299,23,30,03,273,*71
$GPRMC,135259.000,A,3352.4626,N,09831.1879,W,0.07,158.95,310312,,,D*70
$GPGGA,135300.000,3352.4626,N,09831.1879,W,2,08,1.0,293.4,M,-23.7,M,1.8,0000*45
$GPGSA,A,3,15,21,26,18,29,06,22,27,,,,,1.6,1.0,1.2*35
$GPRMC,135300.000,A,3352.4626,N,09831.1879,W,0.02,166.59,310312,,,D*75
$GPGGA,135301.000,3352.4626,N,09831.1879,W,2,08,1.0,293.4,M,-23.7,M,0.8,0000*45
$GPGSA,A,3,15,21,26,18,29,06,22,27,,,,,1.6,1.0,1.2*35
$GPRMC,135301.000,A,3352.4626,N,09831.1879,W,0.06,303.00,310312,,,D*7D
$GPGGA,135302.000,3352.4626,N,09831.1879,W,2,08,1.0,293.4,M,-23.7,M,1.8,0000*47
$GPGSA,A,3,15,21,26,18,29,06,22,27,,,,,1.6,1.0,1.2*35
$GPRMC,135302.000,A,3352.4626,N,09831.1879,W,0.09,162.05,310312,,,D*71
$GPGGA,135303.000,3352.4626,N,09831.1879,W,2,08,1.0,293.3,M,-23.7,M,0.8,0000*40
$GPGSA,A,3,15,21,26,18,29,06,22,27,,,,,1.6,1.0,1.2*35
$GPRMC,135303.000,A,3352.4626,N,09831.1879,W,0.05,98.70,310312,,,D*4A
$GPGGA,135304.000,3352.4626,N,09831.1879,W,2,08,1.0,293.3,M,-23.7,M,0.8,0000*47
$GPGSA,A,3,15,21,26,18,29,06,22,27,,,,,1.6,1.0,1.2*35
$GPGSV,3,1,12,15,66,098,35,21,57,327,37,18,54,276,25,29,51,185,40*73
$GPGSV,3,2,12,26,31,047,37,22,14,254,38,27,14,116,35,06,11,319,21*79
$GPGSV,3,3,12,09,08,138,,05,07,060,,16,06,299,22,30,03,273,*70
$GPRMC,135304.000,A,3352.4626,N,09831.1879,W,0.05,103.58,310312,,,D*74
$GPGGA,135305.000,3352.4626,N,09831.1878,W,2,08,1.0,293.2,M,-23.7,M,0.8,0000*46
$GPGSA,A,3,15,21,26,18,29,06,22,27,,,,,1.6,1.0,1.2*35
$GPRMC,135305.000,A,3352.4626,N,09831.1878,W,0.19,125.98,310312,,,D*71
$GPGGA,135306.000,3352.4626,N,09831.1878,W,2,08,1.0,293.2,M,-23.7,M,0.8,0000*45
$GPGSA,A,3,15,21,26,18,29,06,22,27,,,,,1.6,1.0,1.2*35
$GPRMC,135306.000,A,3352.4626,N,09831.1878,W,0.21,128.74,310312,,,D*76
$GPGGA,135307.000,3352.4626,N,09831.1877,W,2,08,1.0,293.2,M,-23.7,M,0.8,0000*4B
$GPGSA,A,3,15,21,26,18,29,06,22,27,,,,,1.6,1.0,1.2*35
$GPRMC,135307.000,A,3352.4626,N,09831.1877,W,0.22,128.55,310312,,,D*78
$GPGGA,135308.000,3352.4625,N,09831.1876,W,2,08,1.0,293.2,M,-23.7,M,1.8,0000*47
$GPGSA,A,3,15,21,26,18,29,06,22,27,,,,,1.6,1.0,1.2*35
$GPRMC,135308.000,A,3352.4625,N,09831.1876,W,0.16,126.23,310312,,,D*7D
$GPGGA,135309.000,3352.4625,N,09831.1876,W,2,08,1.0,293.2,M,-23.7,M,0.8,0000*47
$GPGSA,A,3,15,21,26,18,29,06,22,27,,,,,1.6,1.0,1.2*35
$GPGSV,3,1,12,15,66,098,35,21,57,327,36,18,54,276,26,29,51,185,40*71
$GPGSV,3,2,12,26,31,047,37,22,14,254,38,27,14,116,35,06,11,319,20*78
$GPGSV,3,3,12,09,08,138,,05,07,060,,16,06,299,23,30,03,273,*71
$GPRMC,135309.000,A,3352.4625,N,09831.1876,W,0.17,144.29,310312,,,D*73
$GPGGA,135310.000,3352.4625,N,09831.1876,W,2,08,1.0,293.1,M,-23.7,M,0.8,0000*4C
$GPGSA,A,3,15,21,26,18,29,06,22,27,,,,,1.6,1.0,1.2*35
$GPRMC,135310.000,A,3352.4625,N,09831.1876,W,0.05,13.06,310312,,,D*46
$GPGGA,135311.000,3352.4625,N,09831.1876,W,2,08,1.0,293.1,M,-23.7,M,0.8,0000*4D
$GPGSA,A,3,15,21,26,18,29,06,22,27,,,,,1.6,1.0,1.2*35
$GPRMC,135311.000,A,3352.4625,N,09831.1876,W,0.03,189.71,310312,,,D*73
$GPGGA,135312.000,3352.4625,N,09831.1876,W,2,08,1.0,293.1,M,-23.7,M,1.8,0000*4F
$GPGSA,A,3,15,21,26,18,29,06,22,27,,,,,1.6,1.0,1.2*35
$GPRMC,135312.000,A,3352.4625,N,09831.1876,W,0.11,170.73,310312,,,D*77
$GPGGA,135313.000,3352.4625,N,09831.1876,W,2,08,1.0,293.2,M,-23.7,M,0.8,0000*4C
$GPGSA,A,3,15,21,26,18,29,06,22,27,,,,,1.6,1.0,1.2*35
$GPRMC,135313.000,A,3352.4625,N,09831.1876,W,0.21,156.34,310312,,,D*72
$GPGGA,135314.000,3352.4625,N,09831.1876,W,2,08,1.0,293.1,M,-23.7,M,1.8,0000*49
$GPGSA,A,3,15,21,26,18,29,06,22,27,,,,,1.6,1.0,1.2*35
$GPGSV,3,1,12,15,66,098,35,21,57,327,36,18,54,276,28,29,51,185,40*7F
$GPGSV,3,2,12,26,31,047,37,22,14,254,38,27,14,116,34,06,11,319,20*79
$GPGSV,3,3,12,09,08,138,,05,07,060,18,16,06,299,24,30,03,273,*7F
$GPRMC,135314.000,A,3352.4625,N,09831.1876,W,0.06,153.64,310312,,,D*70
$GPGGA,135315.000,3352.4625,N,09831.1876,W,2,08,1.0,293.1,M,-23.7,M,0.8,0000*49
$GPGSA,A,3,15,21,26,18,29,06,22,27,,,,,1.6,1.0,1.2*35
$GPRMC,135315.000,A,3352.4625,N,09831.1876,W,0.20,140.17,310312,,,D*73
$GPGGA,135316.000,3352.4625,N,09831.1876,W,2,08,1.0,293.1,M,-23.7,M,0.8,0000*4A
$GPGSA,A,3,15,21,26,18,29,06,22,27,,,,,1.6,1.0,1.2*35
$GPRMC,135316.000,A,3352.4625,N,09831.1876,W,0.23,142.64,310312,,,D*75
$GPGGA,135317.000,3352.4625,N,09831.1875,W,2,08,1.0,293.0,M,-23.7,M,0.8,0000*49
$GPGSA,A,3,15,21,26,18,29,06,22,27,,,,,1.6,1.0,1.2*35
$GPRMC,135317.000,A,3352.4625,N,09831.1875,W,0.11,93.00,310312,,,D*49
$GPGGA,135318.000,3352.4625,N,09831.1875,W,2,08,1.0,293.0,M,-23.7,M,1.8,0000*47
$GPGSA,A,3,15,21,26,18,29,06,22,27,,,,,1.6,1.0,1.2*35
$GPRMC,135318.000,A,3352.4625,N,09831.1875,W,0.11,110.03,310312,,,D*7F
$GPGGA,135319.000,3352.4625,N,09831.1875,W,2,08,1.0,292.9,M,-23.7,M,2.8,0000*4D
$GPGSA,A,3,15,21,26,18,29,06,22,27,,,,,1.6,1.0,1.2*35
$GPGSV,3,1,12,15,66,097,35,21,58,327,36,18,54,277,29,29,50,185,40*7E
$GPGSV,3,2,12,26,31,047,37,22,14,254,38,27,14,116,34,06,11,319,21*78
$GPGSV,3,3,12,09,08,138,,05,06,060,18,16,06,299,26,30,03,272,*7D
$GPRMC,135319.000,A,3352.4625,N,09831.1875,W,0.19,126.37,310312,,,D*74
$GPGGA,135320.000,3352.4625,N,09831.1874,W,2,08,1.0,292.8,M,-23.7,M,3.8,0000*46
$GPGSA,A,3,15,21,26,18,29,06,22,27,,,,,1.6,1.0,1.2*35
$GPRMC,135320.000,A,3352.4625,N,09831.1874,W,0.09,92.28,310312,,,D*4E
$GPGGA,135321.000,3352.4625,N,09831.1874,W,2,08,1.0,292.8,M,-23.7,M,0.8,0000*44
$GPGSA,A,3,15,21,26,18,29,06,22,27,,,,,1.6,1.0,1.2*35
$GPRMC,135321.000,A,3352.4625,N,09831.1874,W,0.17,138.10,310312,,,D*7A
$GPGGA,135322.000,3352.4625,N,09831.1874,W,2,08,1.0,292.7,M,-23.7,M,0.8,0000*48
$GPGSA,A,3,15,21,26,18,29,06,22,27,,,,,1.6,1.0,1.2*35
$GPRMC,135322.000,A,3352.4625,N,09831.1874,W,0.13,140.30,310312,,,D*70
$GPGGA,135323.000,3352.4625,N,09831.1874,W,2,08,1.0,292.7,M,-23.7,M,0.8,0000*49
$GPGSA,A,3,15,21,26,18,29,06,22,27,,,,,1.6,1.0,1.2*35
$GPRMC,135323.000,A,3352.4625,N,09831.1874,W,0.20,157.61,310312,,,D*73
$GPGGA,135324.000,3352.4625,N,09831.1874,W,2,08,1.0,292.6,M,-23.7,M,1.8,0000*4E
$GPGSA,A,3,15,21,26,18,29,06,22,27,,,,,1.6,1.0,1.2*35
$GPGSV,3,1,12,15,66,097,35,21,58,327,35,18,54,277,30,29,50,185,40*75
$GPGSV,3,2,12,26,31,047,37,22,14,254,38,27,14,116,34,06,11,319,22*7B
$GPGSV,3,3,12,09,08,138,,05,06,060,17,16,06,299,28,30,03,272,*7C
$GPRMC,135324.000,A,3352.4625,N,09831.1874,W,0.06,137.68,310312,,,D*7F
$GPGGA,135325.000,3352.4625,N,09831.1874,W,2,08,1.0,292.5,M,-23.7,M,2.8,0000*4F
$GPGSA,A,3,15,21,26,18,29,06,22,27,,,,,1.6,1.0,1.2*35
$GPRMC,135325.000,A,3352.4625,N,09831.1874,W,0.03,162.45,310312,,,D*74
$GPGGA,135326.000,3352.4625,N,09831.1875,W,2,08,1.0,292.5,M,-23.7,M,3.8,0000*4C
$GPGSA,A,3,15,21,26,18,29,06,22,27,,,,,1.6,1.0,1.2*35
$GPRMC,135326.000,A,3352.4625,N,09831.1875,W,0.02,122.72,310312,,,D*77
$GPGGA,135327.000,3352.4625,N,09831.1875,W,2,08,1.0,292.4,M,-23.7,M,0.8,0000*4F
$GPGSA,A,3,15,21,26,18,29,06,22,27,,,,,1.6,1.0,1.2*35
$GPRMC,135327.000,A,3352.4625,N,09831.1875,W,0.18,131.78,310312,,,D*75
$GPGGA,135328.000,3352.4625,N,09831.1874,W,2,08,1.0,292.4,M,-23.7,M,0.8,0000*41
$GPGSA,A,3,15,21,26,18,29,06,22,27,,,,,1.6,1.0,1.2*35
$GPRMC,135328.000,A,3352.4625,N,09831.1874,W,0.11,136.59,310312,,,D*76
$GPGGA,135329.000,3352.4625,N,09831.1874,W,2,08,1.0,292.3,M,-23.7,M,0.8,0000*47
$GPGSA,A,3,15,21,26,18,29,06,22,27,,,,,1.6,1.0,1.2*35
$GPGSV,3,1,12,15,66,097,35,21,58,327,35,18,54,277,30,29,50,185,39*7B
$GPGSV,3,2,12,26,31,047,37,22,14,254,38,27,14,116,33,06,11,319,23*7D
$GPGSV,3,3,12,09,08,138,,05,06,060,,16,06,299,28,30,03,272,*7A
$GPRMC,135329.000,A,3352.4625,N,09831.1874,W,0.16,114.31,310312,,,D*7E
$GPGGA,135330.000,3352.4625,N,09831.1874,W,2,08,1.0,292.2,M,-23.7,M,1.8,0000*4F
$GPGSA,A,3,15,21,26,18,29,06,22,27,,,,,1.6,1.0,1.2*35
$GPRMC,135330.000,A,3352.4625,N,09831.1874,W,0.12,119.35,310312,,,D*7B
$GPGGA,135331.000,3352.4625,N,09831.1874,W,2,08,1.0,292.2,M,-23.7,M,2.8,0000*4D
$GPGSA,A,3,15,21,26,18,29,06,22,27,,,,,1.6,1.0,1.2*35
$GPRMC,135331.000,A,3352.4625,N,09831.1874,W,0.16,119.29,310312,,,D*73
$GPGGA,135332.000,3352.4625,N,09831.1874,W,2,08,1.0,292.1,M,-23.7,M,0.8,0000*4F
$GPGSA,A,3,15,21,26,18,29,06,22,27,,,,,1.6,1.0,1.2*35
$GPRMC,135332.000,A,3352.4625,N,09831.1874,W,0.19,131.70,310312,,,D*79
$GPGGA,135333.000,3352.4625,N,09831.1874,W,2,08,1.0,292.1,M,-23.7,M,0.8,0000*4E
$GPGSA,A,3,15,21,26,18,29,06,22,27,,,,,1.6,1.0,1.2*35
$GPRMC,135333.000,A,3352.4625,N,09831.1874,W,0.06,141.47,310312,,,D*75
$GPGGA,135334.000,3352.4625,N,09831.1874,W,2,08,1.0,292.0,M,-23.7,M,0.8,0000*48
$GPGSA,A,3,15,21,26,18,29,06,22,27,,,,,1.6,1.0,1.2*35
$GPGSV,3,1,12,15,66,097,34,21,58,327,35,18,54,277,30,29,50,185,39*7A
$GPGSV,3,2,12,26,31,047,37,22,14,254,38,27,14,116,33,06,11,319,24*7A
$GPGSV,3,3,12,09,08,138,,05,06,060,,16,06,299,29,30,03,272,*7B
$GPRMC,135334.000,A,3352.4625,N,09831.1874,W,0.12,143.72,310312,,,D*73
$GPGGA,135335.000,3352.4625,N,09831.1874,W,2,08,1.0,292.0,M,-23.7,M,0.8,0000*49
$GPGSA,A,3,15,21,26,18,29,06,22,27,,,,,1.6,1.0,1.2*35
$GPRMC,135335.000,A,3352.4625,N,09831.1874,W,0.16,158.37,310312,,,D*7D
$GPGGA,135336.000,3352.4625,N,09831.1874,W,2,08,1.0,291.9,M,-23.7,M,1.8,0000*41
$GPGSA,A,3,15,21,26,18,29,06,22,27,,,,,1.6,1.0,1.2*35
$GPRMC,135336.000,A,3352.4625,N,09831.1874,W,0.02,165.35,310312,,,D*77
$GPGGA,135337.000,3352.4625,N,09831.1874,W,2,08,1.0,291.9,M,-23.7,M,2.8,0000*43
$GPGSA,A,3,15,21,26,18,29,06,22,27,,,,,1.6,1.0,1.2*35
$GPRMC,135337.000,A,3352.4625,N,09831.1874,W,0.04,343.79,310312,,,D*7E
$GPGGA,135338.000,3352.4625,N,09831.1874,W,2,08,1.0,291.8,M,-23.7,M,0.8,0000*4F
$GPGSA,A,3,15,21,26,18,29,06,22,27,,,,,1.6,1.0,1.2*35
$GPRMC,135338.000,A,3352.4625,N,09831.1874,W,0.05,143.04,310312,,,D*78
$GPGGA,135339.000,3352.4625,N,09831.1874,W,2,08,1.0,291.8,M,-23.7,M,0.8,0000*4E
$GPGSA,A,3,15,21,26,18,29,06,22,27,,,,,1.6,1.0,1.2*35
$GPGSV,3,1,12,15,66,097,34,21,58,327,35,18,54,277,31,29,50,185,38*7A
$GPGSV,3,2,12,26,31,047,37,22,14,254,38,27,14,116,33,06,11,319,25*7B
$GPGSV,3,3,12,09,08,138,,05,06,060,,16,06,299,28,30,03,272,*7A
$GPRMC,135339.000,A,3352.4625,N,09831.1874,W,0.10,82.22,310312,,,D*45
$GPGGA,135340.000,3352.4626,N,09831.1874,W,2,08,1.0,291.7,M,-23.7,M,1.8,0000*4D
$GPGSA,A,3,15,21,26,18,29,06,22,27,,,,,1.6,1.0,1.2*35
$GPRMC,135340.000,A,3352.4626,N,09831.1874,W,0.10,99.22,310312,,,D*42
$GPGGA,135341.000,3352.4626,N,09831.1874,W,2,08,1.0,291.7,M,-23.7,M,0.8,0000*4D
$GPGSA,A,3,15,21,26,18,29,06,22,27,,,,,1.6,1.0,1.2*35
$GPRMC,135341.000,A,3352.4626,N,09831.1874,W,0.09,78.05,310312,,,D*41
$GPGGA,135342.000,3352.4626,N,09831.1874,W,2,08,1.0,291.6,M,-23.7,M,1.8,0000*4E
$GPGSA,A,3,15,21,26,18,29,06,22,27,,,,,1.6,1.0,1.2*35
$GPRMC,135342.000,A,3352.4626,N,09831.1874,W,0.10,74.31,310312,,,D*41
$GPGGA,135343.000,3352.4626,N,09831.1874,W,2,08,1.0,291.5,M,-23.7,M,2.8,0000*4F
$GPGSA,A,3,15,21,26,18,29,06,22,27,,,,,1.6,1.0,1.2*35
$GPRMC,135343.000,A,3352.4626,N,09831.1874,W,0.11,80.41,310312,,,D*4D
$GPGGA,135344.000,3352.4626,N,09831.1874,W,2,08,1.0,291.4,M,-23.7,M,3.8,0000*48
$GPGSA,A,3,15,21,26,18,29,06,22,27,,,,,1.6,1.0,1.2*35
$GPGSV,3,1,12,15,66,097,34,21,58,327,35,18,54,277,31,29,50,185,37*75
$GPGSV,3,2,12,26,31,047,37,22,14,254,38,27,14,116,33,06,11,319,26*78
$GPGSV,3,3,12,09,08,138,,05,06,060,,16,06,299,28,30,03,272,*7A
$GPRMC,135344.000,A,3352.4626,N,09831.1874,W,0.07,71.46,310312,,,D*44
$GPGGA,135345.000,3352.4626,N,09831.1874,W,2,08,1.0,291.3,M,-23.7,M,0.8,0000*4D
$GPGSA,A,3,15,21,26,18,29,06,22,27,,,,,1.6,1.0,1.2*35
$GPRMC,135345.000,A,3352.4626,N,09831.1874,W,0.05,109.91,310312,,,D*73
$GPGGA,135346.000,3352.4626,N,09831.1874,W,2,08,1.0,291.2,M,-23.7,M,0.8,0000*4F
$GPGSA,A,3,15,21,26,18,29,06,22,27,,,,,1.6,1.0,1.2*35
$GPRMC,135346.000,A,3352.4626,N,09831.1874,W,0.06,150.13,310312,,,D*75
$GPGGA,135347.000,3352.4626,N,09831.1874,W,2,08,1.0,291.2,M,-23.7,M,0.8,0000*4E
$GPGSA,A,3,15,21,26,18,29,06,22,27,,,,,1.6,1.0,1.2*35
$GPRMC,135347.000,A,3352.4626,N,09831.1874,W,0.06,157.64,310312,,,D*73
$GPGGA,135348.000,3352.4626,N,09831.1874,W,2,08,1.0,291.1,M,-23.7,M,0.8,0000*42
$GPGSA,A,3,15,21,26,18,29,06,22,27,,,,,1.6,1.0,1.2*35
$GPRMC,135348.000,A,3352.4626,N,09831.1874,W,0.07,160.88,310312,,,D*7B
$GPGGA,135349.000,3352.4626,N,09831.1874,W,2,08,1.0,291.1,M,-23.7,M,0.8,0000*43
$GPGSA,A,3,15,21,26,18,29,06,22,27,,,,,1.6,1.0,1.2*35
$GPGSV,3,1,12,15,66,097,33,21,58,327,35,18,54,277,32,29,50,185,37*71
$GPGSV,3,2,12,26,31,047,36,22,14,254,38,27,14,116,33,06,11,319,27*78
$GPGSV,3,3,12,09,08,138,,05,06,060,,16,06,299,27,30,03,272,*75
$GPRMC,135349.000,A,3352.4626,N,09831.1874,W,0.09,153.62,310312,,,D*70
$GPGGA,135350.000,3352.4625,N,09831.1874,W,2,08,1.0,291.0,M,-23.7,M,1.8,0000*48
$GPGSA,A,3,15,21,26,18,29,06,22,27,,,,,1.6,1.0,1.2*35
$GPRMC,135350.000,A,3352.4625,N,09831.1874,W,0.08,151.23,310312,,,D*7D
$GPGGA,135351.000,3352.4625,N,09831.1874,W,2,08,1.0,291.0,M,-23.7,M,0.8,0000*48
$GPGSA,A,3,15,21,26,18,29,06,22,27,,,,,1.6,1.0,1.2*35
$GPRMC,135351.000,A,3352.4625,N,09831.1874,W,0.09,94.80,310312,,,D*4C
$GPGGA,135352.000,3352.4625,N,09831.1874,W,2,08,1.0,291.0,M,-23.7,M,0.8,0000*4B
$GPGSA,A,3,15,21,26,18,29,06,22,27,,,,,1.6,1.0,1.2*35
$GPRMC,135352.000,A,3352.4625,N,09831.1874,W,0.09,85.09,310312,,,D*4E
$GPGGA,135353.000,3352.4626,N,09831.1874,W,2,08,1.0,291.0,M,-23.7,M,0.8,0000*49
$GPGSA,A,3,15,21,26,18,29,06,22,27,,,,,1.6,1.0,1.2*35
$GPRMC,135353.000,A,3352.4626,N,09831.1874,W,0.11,76.75,310312,,,D*42
$GPGGA,135354.000,3352.4626,N,09831.1874,W,2,08,1.0,291.0,M,-23.7,M,1.8,0000*4F
$GPGSA,A,3,15,21,26,18,29,06,22,27,,,,,1.6,1.0,1.2*35
$GPGSV,3,1,12,15,66,096,33,21,58,327,35,18,54,277,32,29,50,185,38*7F
$GPGSV,3,2,12,26,31,047,36,22,14,255,38,27,14,115,33,06,11,319,28*75
$GPGSV,3,3,12,09,08,138,,05,06,060,,16,06,299,26,30,03,272,*74
$GPRMC,135354.000,A,3352.4626,N,09831.1874,W,0.10,85.68,310312,,,D*44
$GPGGA,135355.000,3352.4626,N,09831.1874,W,2,08,1.0,291.0,M,-23.7,M,2.8,0000*4D
$GPGSA,A,3,15,21,26,18,29,06,22,27,,,,,1.6,1.0,1.2*35
$GPRMC,135355.000,A,3352.4626,N,09831.1874,W,0.09,69.63,310312,,,D*44
$GPGGA,135356.000,3352.4626,N,09831.1873,W,2,08,1.0,291.0,M,-23.7,M,0.8,0000*4B
$GPGSA,A,3,15,21,26,18,29,06,22,27,,,,,1.6,1.0,1.2*35
$GPRMC,135356.000,A,3352.4626,N,09831.1873,W,0.10,89.08,310312,,,D*4B
$GPGGA,135357.000,3352.4626,N,09831.1873,W,2,08,1.0,291.0,M,-23.7,M,0.8,0000*4A
$GPGSA,A,3,15,21,26,18,29,06,22,27,,,,,1.6,1.0,1.2*35
$GPRMC,135357.000,A,3352.4626,N,09831.1873,W,0.04,108.40,310312,,,D*7B
$GPGGA,135358.000,3352.4626,N,09831.1874,W,2,08,1.0,290.9,M,-23.7,M,0.8,0000*4A
$GPGSA,A,3,15,21,26,18,29,06,22,27,,,,,1.6,1.0,1.2*35
$GPRMC,135358.000,A,3352.4626,N,09831.1874,W,0.04,137.34,310312,,,D*7C
$GPGGA,135359.000,3352.4626,N,09831.1874,W,2,08,1.0,290.9,M,-23.7,M,0.8,0000*4B
$GPGSA,A,3,15,21,26,18,29,06,22,27,,,,,1.6,1.0,1.2*35
$GPGSV,3,1,12,15,66,096,33,21,58,327,35,18,54,277,32,29,50,185,38*7F
$GPGSV,3,2,12,26,31,047,36,22,14,255,38,27,14,115,33,06,11,319,29*74
$GPGSV,3,3,12,09,08,138,,05,06,060,,16,06,299,26,30,03,272,*74
$GPRMC,135359.000,A,3352.4626,N,09831.1874,W,0.07,171.09,310312,,,D*72
$GPGGA,135400.000,3352.4626,N,09831.1874,W,2,08,1.0,290.9,M,-23.7,M,1.8,0000*41
$GPGSA,A,3,15,21,26,18,29,06,22,27,,,,,1.6,1.0,1.2*35
$GPRMC,135400.000,A,3352.4626,N,09831.1874,W,0.06,164.58,310312,,,D*78
$GPGGA,135401.000,3352.4626,N,09831.1874,W,2,08,1.0,290.9,M,-23.7,M,0.8,0000*41
$GPGSA,A,3,15,21,26,18,29,06,22,27,,,,,1.6,1.0,1.2*35
$GPRMC,135401.000,A,3352.4626,N,09831.1874,W,0.08,153.42,310312,,,D*78
$GPGGA,135402.000,3352.4626,N,09831.1874,W,2,08,1.0,290.9,M,-23.7,M,1.8,0000*43
$GPGSA,A,3,15,21,26,18,29,06,22,27,,,,,1.6,1.0,1.2*35
$GPRMC,135402.000,A,3352.4626,N,09831.1874,W,0.07,160.15,310312,,,D*76
$GPGGA,135403.000,3352.4626,N,09831.1874,W,2,08,1.0,290.9,M,-23.7,M,0.8,0000*43
$GPGSA,A,3,15,21,26,18,29,06,22,27,,,,,1.6,1.0,1.2*35
$GPRMC,135403.000,A,3352.4626,N,09831.1874,W,0.07,95.79,310312,,,D*46
$GPGGA,135404.000,3352.4626,N,09831.1874,W,2,08,1.0,290.9,M,-23.7,M,0.8,0000*44
$GPGSA,A,3,15,21,26,18,29,06,22,27,,,,,1.6,1.0,1.2*35
$GPGSV,3,1,12,15,66,096,32,21,58,327,35,18,54,277,32,29,50,185,39*7F
$GPGSV,3,2,12,26,31,047,36,22,14,255,38,27,14,115,33,06,11,319,29*74
$GPGSV,3,3,12,09,08,138,,05,06,060,,16,06,299,26,30,03,272,*74
$GPRMC,135404.000,A,3352.4626,N,09831.1874,W,0.11,113.78,310312,,,D*78
$GPGGA,135405.000,3352.4626,N,09831.1874,W,2,08,1.0,290.9,M,-23.7,M,1.8,0000*44
$GPGSA,A,3,15,21,26,18,29,06,22,27,,,,,1.6,1.0,1.2*35
$GPRMC,135405.000,A,3352.4626,N,09831.1874,W,0.07,100.31,310312,,,D*71
$GPGGA,135406.000,3352.4626,N,09831.1874,W,2,08,1.0,291.0,M,-23.7,M,0.8,0000*4E
$GPGSA,A,3,15,21,26,18,29,06,22,27,,,,,1.6,1.0,1.2*35
$GPRMC,135406.000,A,3352.4626,N,09831.1874,W,0.08,118.57,310312,,,D*74
$GPGGA,135407.000,3352.4626,N,09831.1874,W,2,08,1.0,291.0,M,-23.7,M,1.8,0000*4E
$GPGSA,A,3,15,21,26,18,29,06,22,27,,,,,1.6,1.0,1.2*35
$GPRMC,135407.000,A,3352.4626,N,09831.1874,W,0.08,112.94,310312,,,D*70
$GPGGA,135408.000,3352.4626,N,09831.1874,W,2,08,1.0,291.0,M,-23.7,M,2.8,0000*42
$GPGSA,A,3,15,21,26,18,29,06,22,27,,,,,1.6,1.0,1.2*35
$GPRMC,135408.000,A,3352.4626,N,09831.1874,W,0.10,114.26,310312,,,D*79
$GPGGA,135409.000,3352.4626,N,09831.1874,W,2,08,1.0,291.0,M,-23.7,M,0.8,0000*41
$GPGSA,A,3,15,21,26,18,29,06,22,27,,,,,1.6,1.0,1.2*35
$GPGSV,3,1,12,15,66,096,32,21,58,327,35,18,54,277,32,29,50,185,39*7F
$GPGSV,3,2,12,26,31,047,36,22,14,255,38,27,14,115,34,06,11,319,30*7B
$GPGSV,3,3,12,09,08,138,,05,06,060,,16,06,299,26,30,03,272,*74
$GPRMC,135409.000,A,3352.4626,N,09831.1874,W,0.07,163.42,310312,,,D*7C
$GPGGA,135410.000,3352.4626,N,09831.1874,W,2,08,1.0,291.0,M,-23.7,M,0.8,0000*49
$GPGSA,A,3,15,21,26,18,29,06,22,27,,,,,1.6,1.0,1.2*35
$GPRMC,135410.000,A,3352.4626,N,09831.1874,W,0.06,178.49,310312,,,D*74
$GPGGA,135411.000,3352.4626,N,09831.1875,W,2,08,1.0,291.0,M,-23.7,M,0.8,0000*49
$GPGSA,A,3,15,21,26,18,29,06,22,27,,,,,1.6,1.0,1.2*35
$GPRMC,135411.000,A,3352.4626,N,09831.1875,W,0.04,135.74,310312,,,D*71
$GPGGA,135412.000,3352.4626,N,09831.1875,W,2,08,1.0,291.0,M,-23.7,M,1.8,0000*4B
$GPGSA,A,3,15,21,26,18,29,06,22,27,,,,,1.6,1.0,1.2*35
$GPRMC,135412.000,A,3352.4626,N,09831.1875,W,0.06,162.62,310312,,,D*75
$GPGGA,135413.000,3352.4626,N,09831.1875,W,2,08,1.0,290.9,M,-23.7,M,2.8,0000*41
$GPGSA,A,3,15,21,26,18,29,06,22,27,,,,,1.6,1.0,1.2*35
$GPRMC,135413.000,A,3352.4626,N,09831.1875,W,0.04,147.58,310312,,,D*78
$GPGGA,135414.000,3352.4626,N,09831.1875,W,2,08,1.0,290.9,M,-23.7,M,3.8,0000*47
$GPGSA,A,3,15,21,26,18,29,06,22,27,,,,,1.6,1.0,1.2*35
$GPGSV,3,1,12,15,66,096,31,21,58,327,35,18,54,277,33,29,50,185,39*7D
$GPGSV,3,2,12,26,31,047,36,22,14,255,38,27,14,115,34,06,11,319,30*7B
$GPGSV,3,3,12,09,08,138,,05,06,060,,16,06,299,26,30,03,272,*74
$GPRMC,135414.000,A,3352.4626,N,09831.1875,W,0.04,152.83,310312,,,D*7D
$GPGGA,135415.000,3352.4626,N,09831.1875,W,2,08,1.0,290.9,M,-23.7,M,0.8,0000*45
$GPGSA,A,3,15,21,26,18,29,06,22,27,,,,,1.6,1.0,1.2*35
$GPRMC,135415.000,A,3352.4626,N,09831.1875,W,0.07,84.06,310312,,,D*48
$GPGGA,135416.000,3352.4626,N,09831.1875,W,2,08,1.0,290.8,M,-23.7,M,0.8,0000*47
$GPGSA,A,3,15,21,26,18,29,06,22,27,,,,,1.6,1.0,1.2*35
$GPRMC,135416.000,A,3352.4626,N,09831.1875,W,0.10,100.81,310312,,,D*7F
$GPGGA,135417.000,3352.4626,N,09831.1875,W,2,08,1.0,290.8,M,-23.7,M,1.8,0000*47
$GPGSA,A,3,15,21,26,18,29,06,22,27,,,,,1.6,1.0,1.2*35
$GPRMC,135417.000,A,3352.4626,N,09831.1875,W,0.09,106.01,310312,,,D*78
$GPGGA,135418.000,3352.4626,N,09831.1875,W,2,08,1.0,290.8,M,-23.7,M,2.8,0000*4B
$GPGSA,A,3,15,21,26,18,29,06,22,27,,,,,1.6,1.0,1.2*35
$GPRMC,135418.000,A,3352.4626,N,09831.1875,W,0.07,98.38,310312,,,D*45
$GPGGA,135419.000,3352.4626,N,09831.1875,W,2,08,1.0,290.8,M,-23.7,M,3.8,0000*4B
$GPGSA,A,3,15,21,26,18,29,06,22,27,,,,,1.6,1.0,1.2*35
$GPGSV,3,1,12,15,66,096,31,21,58,327,35,18,54,277,33,29,50,185,39*7D
$GPGSV,3,2,12,26,31,047,36,22,14,255,38,27,14,115,34,06,11,319,30*7B
$GPGSV,3,3,12,09,08,138,,05,06,060,,16,06,299,27,30,03,272,*75
$GPRMC,135419.000,A,3352.4626,N,09831.1875,W,0.10,106.12,310312,,,D*7C
$GPGGA,135420.000,3352.4626,N,09831.1875,W,2,08,1.0,290.7,M,-23.7,M,4.8,0000*49
$GPGSA,A,3,15,21,26,18,29,06,22,27,,,,,1.6,1.0,1.2*35
$GPRMC,135420.000,A,3352.4626,N,09831.1875,W,0.10,96.75,310312,,,D*4F
$GPGGA,135421.000,3352.4626,N,09831.1875,W,2,08,1.0,290.7,M,-23.7,M,5.8,0000*49
$GPGSA,A,3,15,21,26,18,29,06,22,27,,,,,1.6,1.0,1.2*35
$GPRMC,135421.000,A,3352.4626,N,09831.1875,W,0.09,111.43,310312,,,D*7D
$GPGGA,135422.000,3352.4626,N,09831.1875,W,2,08,1.0,290.7,M,-23.7,M,6.8,0000*49
$GPGSA,A,3,15,21,26,18,29,06,22,27,,,,,1.6,1.0,1.2*35
$GPRMC,135422.000,A,3352.4626,N,09831.1875,W,0.10,97.54,310312,,,D*4F
$GPGGA,135423.000,3352.4626,N,09831.1875,W,2,08,1.0,290.7,M,-23.7,M,7.8,0000*49
$GPGSA,A,3,15,21,26,18,29,06,22,27,,,,,1.6,1.0,1.2*35
$GPRMC,135423.000,A,3352.4626,N,09831.1875,W,0.08,83.69,310312,,,D*4C
$GPGGA,135424.000,3352.4627,N,09831.1875,W,2,08,1.0,290.6,M,-23.7,M,8.8,0000*41
$GPGSA,A,3,15,21,26,18,29,06,22,27,,,,,1.6,1.0,1.2*35
$GPGSV,3,1,12,15,66,096,31,21,58,327,35,18,54,277,33,29,50,185,38*7C
$GPGSV,3,2,12,26,31,047,36,22,14,255,38,27,14,115,35,06,11,319,30*7A
$GPGSV,3,3,12,09,08,138,,05,06,060,,16,06,299,27,30,03,272,*75
$GPRMC,135424.000,A,3352.4627,N,09831.1875,W,0.09,83.59,310312,,,D*48
$GPGGA,135425.000,3352.4627,N,09831.1875,W,2,08,1.0,290.7,M,-23.7,M,9.8,0000*40
$GPGSA,A,3,15,21,26,18,29,06,22,27,,,,,1.6,1.0,1.2*35
$GPRMC,135425.000,A,3352.4627,N,09831.1875,W,0.09,81.99,310312,,,D*47
$GPGGA,135426.000,3352.4627,N,09831.1875,W,2,08,1.0,290.7,M,-23.7,M,10.8,0000*7B
$GPGSA,A,3,15,21,26,18,29,06,22,27,,,,,1.6,1.0,1.2*35
$GPRMC,135426.000,A,3352.4627,N,09831.1875,W,0.08,87.05,310312,,,D*46
$GPGGA,135427.000,3352.4627,N,09831.1875,W,2,08,1.0,290.8,M,-23.7,M,0.8,0000*44
$GPGSA,A,3,15,21,26,18,29,06,22,27,,,,,1.6,1.0,1.2*35
$GPRMC,135427.000,A,3352.4627,N,09831.1875,W,0.08,108.83,310312,,,D*7F
$GPGGA,135428.000,3352.4627,N,09831.1875,W,2,08,1.0,290.8,M,-23.7,M,1.8,0000*4A
$GPGSA,A,3,15,21,26,18,29,06,22,27,,,,,1.6,1.0,1.2*35
$GPRMC,135428.000,A,3352.4627,N,09831.1875,W,0.06,92.46,310312,,,D*45
$GPGGA,135429.000,3352.4627,N,09831.1875,W,2,08,1.0,290.8,M,-23.7,M,2.8,0000*48
$GPGSA,A,3,15,21,26,18,29,06,22,27,,,,,1.6,1.0,1.2*35
$GPGSV,3,1,12,15,66,096,31,21,58,327,34,18,54,277,33,29,50,185,37*72
$GPGSV,3,2,12,26,31,047,36,22,14,255,38,27,14,115,35,06,11,319,30*7A
$GPGSV,3,3,12,09,08,138,,05,06,060,,16,06,299,27,30,03,272,*75
$GPRMC,135429.000,A,3352.4627,N,09831.1875,W,0.07,128.99,310312,,,D*77
$GPGGA,135430.000,3352.4627,N,09831.1875,W,2,08,1.0,290.9,M,-23.7,M,3.8,0000*40
$GPGSA,A,3,15,21,26,18,29,06,22,27,,,,,1.6,1.0,1.2*35
$GPRMC,135430.000,A,3352.4627,N,09831.1875,W,0.07,96.77,310312,,,D*4B
$GPGGA,135431.000,3352.4627,N,09831.1875,W,2,08,1.0,290.9,M,-23.7,M,4.8,0000*46
$GPGSA,A,3,15,21,26,18,29,06,22,27,,,,,1.6,1.0,1.2*35
$GPRMC,135431.000,A,3352.4627,N,09831.1875,W,0.06,113.72,310312,,,D*72
$GPGGA,135432.000,3352.4627,N,09831.1876,W,2,08,1.0,290.9,M,-23.7,M,5.8,0000*47
$GPGSA,A,3,15,21,26,18,29,06,22,27,,,,,1.6,1.0,1.3*34
$GPRMC,135432.000,A,3352.4627,N,09831.1876,W,0.06,119.02,310312,,,D*7F
$GPGGA,135433.000,3352.4627,N,09831.1876,W,2,08,1.0,290.9,M,-23.7,M,6.8,0000*45
$GPGSA,A,3,15,21,26,18,29,06,22,27,,,,,1.6,1.0,1.3*34
$GPRMC,135433.000,A,3352.4627,N,09831.1876,W,0.06,99.58,310312,,,D*48
$GPGGA,135434.000,3352.4627,N,09831.1876,W,2,08,1.0,290.9,M,-23.7,M,7.8,0000*43
$GPGSA,A,3,15,21,26,18,29,06,22,27,,,,,1.6,1.0,1.3*34
$GPGSV,3,1,12,15,66,096,30,21,58,327,34,18,54,277,33,29,50,185,36*72
$GPGSV,3,2,12,26,31,047,35,22,14,255,38,27,14,115,35,06,11,319,29*71
$GPGSV,3,3,12,09,08,138,,05,06,060,,16,06,299,28,30,03,272,*7A
$GPRMC,135434.000,A,3352.4627,N,09831.1876,W,0.07,120.29,310312,,,D*7B
$GPGGA,135435.000,3352.4627,N,09831.1876,W,2,08,1.0,291.0,M,-23.7,M,8.8,0000*45
$GPGSA,A,3,15,21,26,18,29,06,22,27,,,,,1.6,1.0,1.3*34
$GPRMC,135435.000,A,3352.4627,N,09831.1876,W,0.07,97.91,310312,,,D*44
$GPGGA,135436.000,3352.4627,N,09831.1876,W,2,08,1.0,291.0,M,-23.7,M,9.8,0000*47
$GPGSA,A,3,15,21,26,18,29,06,22,27,,,,,1.6,1.0,1.3*34
$GPRMC,135436.000,A,3352.4627,N,09831.1876,W,0.06,123.50,310312,,,D*75
$GPGGA,135437.000,3352.4627,N,09831.1876,W,2,08,1.0,291.0,M,-23.7,M,10.8,0000*7E
$GPGSA,A,3,15,21,26,18,29,06,22,27,,,,,1.6,1.0,1.3*34
$GPRMC,135437.000,A,3352.4627,N,09831.1876,W,0.07,106.42,310312,,,D*71
$GPGGA,135438.000,3352.4627,N,09831.1876,W,2,08,1.0,291.1,M,-23.7,M,11.8,0000*71
$GPGSA,A,3,15,21,26,18,29,06,22,27,,,,,1.6,1.0,1.3*34
$GPRMC,135438.000,A,3352.4627,N,09831.1876,W,0.06,136.97,310312,,,D*74
$GPGGA,135439.000,3352.4627,N,09831.1876,W,2,08,1.0,291.1,M,-23.7,M,12.8,0000*73
$GPGSA,A,3,15,21,26,18,29,06,22,27,,,,,1.6,1.0,1.3*34
$GPGSV,3,1,12,15,66,096,29,21,58,327,34,18,54,277,33,29,50,185,36*7A
$GPGSV,3,2,12,26,31,047,35,22,14,255,37,27,14,115,35,06,11,319,29*7E
$GPGSV,3,3,12,09,08,138,,05,06,060,,16,06,299,29,30,03,272,*7B
$GPRMC,135439.000,A,3352.4627,N,09831.1876,W,0.07,129.19,310312,,,D*7C
$GPGGA,135440.000,3352.4627,N,09831.1877,W,2,08,1.0,291.2,M,-23.7,M,13.8,0000*7E
$GPGSA,A,3,15,21,26,18,29,06,22,27,,,,,1.6,1.0,1.3*34
$GPRMC,135440.000,A,3352.4627,N,09831.1877,W,0.06,120.49,310312,,,D*7E
$GPGGA,135441.000,3352.4627,N,09831.1877,W,2,08,1.0,291.2,M,-23.7,M,14.8,0000*78
$GPGSA,A,3,15,21,26,18,29,06,22,27,,,,,1.6,1.0,1.3*34
$GPRMC,135441.000,A,3352.4627,N,09831.1877,W,0.07,116.76,310312,,,D*77
$GPGGA,135442.000,3352.4627,N,09831.1877,W,2,08,1.0,291.2,M,-23.7,M,15.8,0000*7A
$GPGSA,A,3,15,21,26,18,29,06,22,27,,,,,1.6,1.0,1.3*34
$GPRMC,135442.000,A,3352.4627,N,09831.1877,W,0.06,127.34,310312,,,D*71
$GPGGA,135443.000,3352.4627,N,09831.1877,W,2,08,1.0,291.2,M,-23.7,M,16.8,0000*78
$GPGSA,A,3,15,21,26,18,29,06,22,27,,,,,1.6,1.0,1.3*34
$GPRMC,135443.000,A,3352.4627,N,09831.1877,W,0.06,115.87,310312,,,D*79
$GPGGA,135444.000,3352.4627,N,09831.1877,W,2,08,1.0,291.3,M,-23.7,M,17.8,0000*7F
$GPGSA,A,3,15,21,26,18,29,06,22,27,,,,,1.6,1.0,1.3*34
$GPGSV,3,1,12,15,66,096,28,21,58,327,34,18,54,277,33,29,50,185,36*7B
$GPGSV,3,2,12,26,31,047,35,22,14,255,37,27,14,115,35,06,11,319,28*7F
$GPGSV,3,3,12,09,08,138,,05,06,060,,16,06,299,29,30,03,272,*7B
$GPRMC,135444.000,A,3352.4627,N,09831.1877,W,0.07,142.24,310312,,,D*74
$GPGGA,135445.000,3352.4627,N,09831.1877,W,2,08,1.0,291.3,M,-23.7,M,18.8,0000*71
$GPGSA,A,3,15,21,26,18,29,06,22,27,,,,,1.6,1.0,1.3*34
$GPRMC,135445.000,A,3352.4627,N,09831.1877,W,0.04,130.63,310312,,,D*70
$GPGGA,135446.000,3352.4627,N,09831.1877,W,2,08,1.0,291.3,M,-23.7,M,0.8,0000*4B
$GPGSA,A,3,15,21,26,18,29,06,22,27,,,,,1.6,1.0,1.3*34
$GPRMC,135446.000,A,3352.4627,N,09831.1877,W,0.05,114.39,310312,,,D*7B
$GPGGA,135447.000,3352.4627,N,09831.1877,W,2,08,1.0,291.3,M,-23.7,M,1.8,0000*4B
$GPGSA,A,3,15,21,26,18,29,06,22,27,,,,,1.6,1.0,1.3*34
$GPRMC,135447.000,A,3352.4627,N,09831.1877,W,0.07,126.93,310312,,,D*79
$GPGGA,135448.000,3352.4626,N,09831.1877,W,2,08,1.0,291.2,M,-23.7,M,2.8,0000*47
$GPGSA,A,3,15,21,26,18,29,06,22,27,,,,,1.6,1.0,1.3*34
$GPRMC,135448.000,A,3352.4626,N,09831.1877,W,0.06,113.30,310312,,,D*79
$GPGGA,135449.000,3352.4626,N,09831.1877,W,2,08,1.0,291.1,M,-23.7,M,3.8,0000*44
$GPGSA,A,3,15,21,26,18,29,06,22,27,,,,,1.6,1.0,1.3*34
$GPGSV,3,1,12,15,66,096,27,21,58,327,34,18,54,277,33,29,50,185,36*74
$GPGSV,3,2,12,26,31,047,35,22,14,255,37,27,14,115,34,06,11,319,28*7E
$GPGSV,3,3,12,09,08,138,,05,06,060,,16,06,299,29,30,03,272,*7B
$GPRMC,135449.000,A,3352.4626,N,09831.1877,W,0.05,109.62,310312,,,D*77
$GPGGA,135450.000,3352.4626,N,09831.1877,W,2,08,1.0,291.1,M,-23.7,M,4.8,0000*4B
$GPGSA,A,3,15,21,26,18,29,06,22,27,,,,,1.6,1.0,1.3*34
$GPRMC,135450.000,A,3352.4626,N,09831.1877,W,0.07,114.97,310312,,,D*7B
$GPGGA,135451.000,3352.4626,N,09831.1877,W,2,08,1.0,291.1,M,-23.7,M,0.8,0000*4E
$GPGSA,A,3,15,21,26,18,29,06,22,27,,,,,1.6,1.0,1.3*34
$GPRMC,135451.000,A,3352.4626,N,09831.1877,W,0.11,91.23,310312,,,D*4E
$GPGGA,135452.000,3352.4626,N,09831.1876,W,2,08,1.0,291.0,M,-23.7,M,1.8,0000*4C
$GPGSA,A,3,15,21,26,18,29,06,22,27,,,,,1.6,1.0,1.3*34
$GPRMC,135452.000,A,3352.4626,N,09831.1876,W,0.10,73.34,310312,,,D*47
$GPGGA,135453.000,3352.4626,N,09831.1876,W,2,08,1.0,291.0,M,-23.7,M,2.8,0000*4E
$GPGSA,A,3,15,21,26,18,29,06,22,27,,,,,1.6,1.0,1.3*34
$GPRMC,135453.000,A,3352.4626,N,09831.1876,W,0.05,62.31,310312,,,D*47
$GPGGA,135454.000,3352.4625,N,09831.1876,W,2,08,1.0,290.9,M,-23.7,M,3.8,0000*43
$GPGSA,A,3,15,21,26,18,29,06,22,27,,,,,1.6,1.0,1.3*34
$GPGSV,3,1,12,15,66,096,23,21,58,327,35,18,54,277,33,29,50,185,36*71
$GPGSV,3,2,12,26,31,047,35,22,14,255,37,27,14,115,34,06,11,319,27*71
$GPGSV,3,3,12,09,08,138,,05,06,060,,16,06,299,28,30,03,272,*7A
$GPRMC,135454.000,A,3352.4625,N,09831.1876,W,0.07,71.86,310312,,,D*4F
$GPGGA,135455.000,3352.4625,N,09831.1876,W,2,08,1.0,290.9,M,-23.7,M,4.8,0000*45
$GPGSA,A,3,15,21,26,18,29,06,22,27,,,,,1.6,1.0,1.3*34
$GPRMC,135455.000,A,3352.4625,N,09831.1876,W,0.11,75.49,310312,,,D*4E
$GPGGA,135456.000,3352.4625,N,09831.1876,W,2,08,1.0,290.8,M,-23.7,M,5.8,0000*46
$GPGSA,A,3,15,21,26,18,29,06,22,27,,,,,1.6,1.0,1.3*34
$GPRMC,135456.000,A,3352.4625,N,09831.1876,W,0.05,67.46,310312,,,D*44
$GPGGA,135457.000,3352.4625,N,09831.1876,W,2,08,1.0,290.7,M,-23.7,M,6.8,0000*4B
$GPGSA,A,3,15,21,26,18,29,06,22,27,,,,,1.6,1.0,1.3*34
$GPRMC,135457.000,A,3352.4625,N,09831.1876,W,0.06,55.21,310312,,,D*46
$GPGGA,135458.000,3352.4625,N,09831.1876,W,2,08,1.0,290.6,M,-23.7,M,7.8,0000*44
$GPGSA,A,3,15,21,26,18,29,06,22,27,,,,,1.6,1.0,1.3*34
$GPRMC,135458.000,A,3352.4625,N,09831.1876,W,0.09,76.02,310312,,,D*46
$GPGGA,135459.000,3352.4625,N,09831.1876,W,2,08,1.0,290.6,M,-23.7,M,8.8,0000*4A
$GPGSA,A,3,15,21,26,18,29,06,22,27,,,,,1.6,1.0,1.3*34
$GPGSV,3,1,12,15,66,096,23,21,58,327,35,18,54,277,33,29,50,185,37*70
$GPGSV,3,2,12,26,31,047,35,22,14,255,37,27,14,115,34,06,11,319,27*71
$GPGSV,3,3,12,09,08,138,,05,06,060,,16,06,299,24,30,03,272,*76
$GPRMC,135459.000,A,3352.4625,N,09831.1876,W,0.09,75.16,310312,,,D*41
$GPGGA,135500.000,3352.4625,N,09831.1876,W,2,08,1.0,290.5,M,-23.7,M,9.8,0000*45
$GPGSA,A,3,15,21,26,18,29,06,22,27,,,,,1.6,1.0,1.3*34
$GPRMC,135500.000,A,3352.4625,N,09831.1876,W,0.05,57.67,310312,,,D*46
$GPGGA,135501.000,3352.4625,N,09831.1875,W,2,08,1.0,290.4,M,-23.7,M,10.8,0000*7E
$GPGSA,A,3,15,21,26,18,29,06,22,27,,,,,1.6,1.0,1.3*34
$GPRMC,135501.000,A,3352.4625,N,09831.1875,W,0.11,76.28,310312,,,D*49
$GPGGA,135502.000,3352.4626,N,09831.1875,W,2,08,1.0,290.4,M,-23.7,M,11.8,0000*7F
$GPGSA,A,3,15,21,26,18,29,06,22,27,,,,,1.6,1.0,1.3*34
$GPRMC,135502.000,A,3352.4626,N,09831.1875,W,0.08,59.80,310312,,,D*4E
$GPGGA,135503.000,3352.4626,N,09831.1875,W,2,08,1.0,290.4,M,-23.7,M,12.8,0000*7D
$GPGSA,A,3,15,21,26,18,29,06,22,27,,,,,1.6,1.0,1.3*34
$GPRMC,135503.000,A,3352.4626,N,09831.1875,W,0.12,97.37,310312,,,D*4A
$GPGGA,135504.000,3352.4626,N,09831.1875,W,2,08,1.0,290.3,M,-23.7,M,13.8,0000*7C
$GPGSA,A,3,15,21,26,18,29,06,22,27,,,,,1.6,1.0,1.3*34
$GPGSV,3,1,12,15,66,096,22,21,58,327,35,18,54,277,33,29,50,185,37*71
$GPGSV,3,2,12,26,31,047,35,22,14,255,37,27,14,115,34,06,11,319,27*71
$GPGSV,3,3,12,09,08,138,,05,06,060,17,16,06,299,22,30,03,272,*76
$GPRMC,135504.000,A,3352.4626,N,09831.1875,W,0.07,56.47,310312,,,D*43
$GPGGA,135505.000,3352.4626,N,09831.1875,W,2,08,1.0,290.3,M,-23.7,M,14.8,0000*7A
$GPGSA,A,3,15,21,26,18,29,06,22,27,,,,,1.6,1.0,1.3*34
$GPRMC,135505.000,A,3352.4626,N,09831.1875,W,0.10,80.99,310312,,,D*4C
$GPGGA,135506.000,3352.4626,N,09831.1875,W,2,08,1.0,290.2,M,-23.7,M,15.8,0000*79
$GPGSA,A,3,15,21,26,18,29,06,22,27,,,,,1.6,1.0,1.3*34
$GPRMC,135506.000,A,3352.4626,N,09831.1875,W,0.09,81.56,310312,,,D*45
$GPGGA,135507.000,3352.4626,N,09831.1875,W,2,08,1.0,290.2,M,-23.7,M,16.8,0000*7B
$GPGSA,A,3,15,21,26,18,29,06,22,27,,,,,1.6,1.0,1.3*34
$GPRMC,135507.000,A,3352.4626,N,09831.1875,W,0.07,66.88,310312,,,D*40
$GPGGA,135508.000,3352.4626,N,09831.1875,W,2,08,1.0,290.1,M,-23.7,M,0.8,0000*40
$GPGSA,A,3,15,21,26,18,29,06,22,27,,,,,1.6,1.0,1.3*34
$GPRMC,135508.000,A,3352.4626,N,09831.1875,W,0.08,48.92,310312,,,D*47
$GPGGA,135509.000,3352.4626,N,09831.1875,W,2,08,1.0,290.0,M,-23.7,M,1.8,0000*41
$GPGSA,A,3,15,21,26,18,29,06,22,27,,,,,1.6,1.0,1.3*34
$GPGSV,3,1,12,15,66,096,23,21,58,327,34,18,54,277,33,29,50,185,37*71
$GPGSV,3,2,12,26,31,047,35,22,14,255,37,27,14,115,34,06,11,319,27*71
$GPGSV,3,3,12,09,08,138,,05,06,060,17,16,06,299,22,30,03,272,*76
$GPRMC,135509.000,A,3352.4626,N,09831.1875,W,0.05,46.55,310312,,,D*4E
$GPGGA,135510.000,3352.4626,N,09831.1875,W,2,08,1.0,289.9,M,-23.7,M,2.8,0000*4B
$GPGSA,A,3,15,21,26,18,29,06,22,27,,,,,1.6,1.0,1.3*34
$GPRMC,135510.000,A,3352.4626,N,09831.1875,W,0.05,47.23,310312,,,D*46
$GPGGA,135511.000,3352.4626,N,09831.1875,W,2,08,1.0,289.8,M,-23.7,M,3.8,0000*4A
$GPGSA,A,3,15,21,26,18,29,06,22,27,,,,,1.6,1.0,1.3*34
$GPRMC,135511.000,A,3352.4626,N,09831.1875,W,0.07,63.31,310312,,,D*40
$GPGGA,135512.000,3352.4626,N,09831.1874,W,2,08,1.0,289.7,M,-23.7,M,4.8,0000*40
$GPGSA,A,3,15,21,26,18,29,06,22,27,,,,,1.6,1.0,1.3*34
$GPRMC,135512.000,A,3352.4626,N,09831.1874,W,0.08,64.46,310312,,,D*4A
$GPGGA,135513.000,3352.4626,N,09831.1874,W,2,08,1.0,289.6,M,-23.7,M,5.8,0000*41
$GPGSA,A,3,15,21,26,18,29,06,22,27,,,,,1.6,1.0,1.3*34
$GPRMC,135513.000,A,3352.4626,N,09831.1874,W,0.04,67.24,310312,,,D*40
$GPGGA,135514.000,3352.4627,N,09831.1875,W,2,08,1.0,289.8,M,-23.7,M,6.8,0000*4B
$GPGSA,A,3,15,21,26,18,29,06,22,27,,,,,1.6,1.0,1.3*34
$GPGSV,3,1,12,15,66,096,24,21,58,327,33,18,54,277,33,29,50,185,37*71
$GPGSV,3,2,12,26,31,047,35,22,14,255,37,27,14,115,34,06,11,319,26*70
$GPGSV,3,3,12,09,08,138,,05,06,060,15,16,06,299,22,30,03,272,*74
$GPRMC,135514.000,A,3352.4627,N,09831.1875,W,0.09,77.21,310312,,,D*4E
$GPGGA,135515.000,3352.4627,N,09831.1875,W,2,08,1.0,289.8,M,-23.7,M,7.8,0000*4B
$GPGSA,A,3,15,21,26,18,29,06,22,27,,,,,1.6,1.0,1.3*34
$GPRMC,135515.000,A,3352.4627,N,09831.1875,W,0.09,5.48,310312,,,D*75
$GPGGA,135516.000,3352.4628,N,09831.1875,W,2,08,1.0,289.9,M,-23.7,M,8.8,0000*49
$GPGSA,A,3,15,21,26,18,29,06,22,27,,,,,1.6,1.0,1.3*34
$GPRMC,135516.000,A,3352.4628,N,09831.1875,W,0.09,61.04,310312,,,D*43
$GPGGA,135517.000,3352.4628,N,09831.1875,W,2,08,1.0,290.1,M,-23.7,M,9.8,0000*49
$GPGSA,A,3,15,21,26,18,29,06,22,27,,,,,1.6,1.0,1.3*34
$GPRMC,135517.000,A,3352.4628,N,09831.1875,W,0.12,86.80,310312,,,D*4D
$GPGGA,135518.000,3352.4628,N,09831.1876,W,2,08,1.0,290.1,M,-23.7,M,10.8,0000*7D
$GPGSA,A,3,15,21,26,18,29,06,22,27,,,,,1.6,1.0,1.3*34
$GPRMC,135518.000,A,3352.4628,N,09831.1876,W,0.03,88.58,310312,,,D*4A
$GPGGA,135519.000,3352.4629,N,09831.1876,W,2,08,1.0,290.1,M,-23.7,M,11.8,0000*7C
$GPGSA,A,3,15,21,26,18,29,06,22,27,,,,,1.6,1.0,1.3*34
$GPGSV,3,1,12,15,66,095,24,21,58,328,33,18,54,278,33,29,49,184,36*7A
$GPGSV,3,2,12,26,30,046,35,22,15,255,37,27,14,115,33,06,11,319,26*76
$GPGSV,3,3,12,09,08,137,,05,06,061,,16,06,298,22,30,03,272,*7F
$GPRMC,135519.000,A,3352.4629,N,09831.1876,W,0.05,58.98,310312,,,D*4D
$GPGGA,135520.000,3352.4629,N,09831.1876,W,2,08,1.0,290.3,M,-23.7,M,12.8,0000*77
$GPGSA,A,3,15,21,26,18,29,06,22,27,,,,,1.6,1.0,1.3*34
$GPRMC,135520.000,A,3352.4629,N,09831.1876,W,0.11,77.26,310312,,,D*4A
$GPGGA,135521.000,3352.4629,N,09831.1876,W,2,08,1.0,290.3,M,-23.7,M,13.8,0000*77
$GPGSA,A,3,15,21,26,18,29,06,22,27,,,,,1.6,1.0,1.3*34
$GPRMC,135521.000,A,3352.4629,N,09831.1876,W,0.04,69.27,310312,,,D*41
$GPGGA,135522.000,3352.4629,N,09831.1876,W,2,08,1.0,290.2,M,-23.7,M,14.8,0000*72
$GPGSA,A,3,15,21,26,18,29,06,22,27,,,,,1.6,1.0,1.3*34
$GPRMC,135522.000,A,3352.4629,N,09831.1876,W,0.02,122.60,310312,,,D*79
$GPGGA,135523.000,3352.4630,N,09831.1876,W,2,08,1.0,290.3,M,-23.7,M,15.8,0000*7B
$GPGSA,A,3,15,21,26,18,29,06,22,27,,,,,1.6,1.0,1.3*34
$GPRMC,135523.000,A,3352.4630,N,09831.1876,W,0.01,28.53,310312,,,D*48
$GPGGA,135524.000,3352.4630,N,09831.1877,W,2,08,1.0,290.3,M,-23.7,M,16.8,0000*7E
$GPGSA,A,3,15,21,26,18,29,06,22,27,,,,,1.6,1.0,1.3*34
$GPGSV,3,1,12,15,66,095,23,21,58,328,33,18,54,278,33,29,49,184,36*7D
$GPGSV,3,2,12,26,30,046,35,22,15,255,37,27,14,115,33,06,11,319,26*76
$GPGSV,3,3,12,09,08,137,,05,06,061,,16,06,298,22,30,03,272,*7F
$GPRMC,135524.000,A,3352.4630,N,09831.1877,W,0.03,17.03,310312,,,D*45
$GPGGA,135525.000,3352.4630,N,09831.1877,W,2,08,1.0,290.3,M,-23.7,M,17.8,0000*7E
$GPGSA,A,3,15,21,26,18,29,06,22,27,,,,,1.6,1.0,1.3*34
$GPRMC,135525.000,A,3352.4630,N,09831.1877,W,0.02,50.50,310312,,,D*40
$GPGGA,135526.000,3352.4630,N,09831.1877,W,1,08,1.0,290.5,M,-23.7,M,18.8,0000*77
$GPGSA,A,3,15,21,26,18,29,06,22,27,,,,,1.6,1.0,1.3*34
$GPRMC,135526.000,A,3352.4630,N,09831.1877,W,0.09,102.82,310312,,,A*74
$GPGGA,135527.000,3352.4630,N,09831.1877,W,1,08,1.0,290.5,M,-23.7,M,18.8,0000*76
$GPGSA,A,3,15,21,26,18,29,06,22,27,,,,,1.6,1.0,1.3*34
$GPRMC,135527.000,A,3352.4630,N,09831.1877,W,0.09,103.03,310312,,,A*7D
$GPGGA,135528.000,3352.4630,N,09831.1877,W,1,08,1.0,290.6,M,-23.7,M,18.8,0000*7A
$GPGSA,A,3,15,21,26,18,29,06,22,27,,,,,1.6,1.0,1.3*34
$GPRMC,135528.000,A,3352.4630,N,09831.1877,W,0.10,96.91,310312,,,A*4C
$GPGGA,135529.000,3352.4630,N,09831.1877,W,1,08,1.0,290.6,M,-23.7,M,18.8,0000*7B
$GPGSA,A,3,15,21,26,18,29,06,22,27,,,,,1.6,1.0,1.3*34
$GPGSV,3,1,12,15,66,095,23,21,58,328,33,18,54,278,33,29,49,184,35*7E
$GPGSV,3,2,12,26,30,046,35,22,15,255,37,27,14,115,33,06,11,319,26*76
$GPGSV,3,3,12,09,08,137,,05,06,061,,16,06,298,23,30,03,272,*7E
$GPRMC,135529.000,A,3352.4630,N,09831.1877,W,0.04,78.05,310312,,,A*45
$GPGGA,135530.000,3352.4630,N,09831.1876,W,1,08,1.0,290.5,M,-23.7,M,18.8,0000*71
$GPGSA,A,3,15,21,26,18,29,06,22,27,,,,,1.6,1.0,1.3*34
$GPRMC,135530.000,A,3352.4630,N,09831.1876,W,0.05,84.94,310312,,,A*46
$GPGGA,135531.000,3352.4630,N,09831.1876,W,1,08,1.0,290.5,M,-23.7,M,18.8,0000*70
$GPGSA,A,3,15,21,26,18,29,06,22,27,,,,,1.6,1.0,1.3*34
$GPRMC,135531.000,A,3352.4630,N,09831.1876,W,0.03,63.31,310312,,,A*47
$GPGGA,135532.000,3352.4630,N,09831.1876,W,1,08,1.0,290.4,M,-23.7,M,18.8,0000*72
$GPGSA,A,3,15,21,26,18,29,06,22,27,,,,,1.6,1.0,1.3*34
$GPRMC,135532.000,A,3352.4630,N,09831.1876,W,0.05,17.68,310312,,,A*4D
$GPGGA,135533.000,3352.4628,N,09831.1875,W,2,08,1.0,289.5,M,-23.7,M,0.8,0000*4A
$GPGSA,A,3,15,21,26,18,29,06,22,27,,,,,1.6,1.0,1.3*34
$GPRMC,135533.000,A,3352.4628,N,09831.1875,W,0.02,87.46,310312,,,D*41
$GPGGA,135534.000,3352.4628,N,09831.1875,W,2,08,1.0,289.4,M,-23.7,M,1.8,0000*4D
$GPGSA,A,3,15,21,26,18,29,06,22,27,,,,,1.6,1.0,1.3*34
$GPGSV,3,1,12,15,66,095,22,21,58,328,34,18,54,278,32,29,49,184,34*78
$GPGSV,3,2,12,26,30,046,35,22,15,255,37,27,14,115,33,06,11,319,26*76
$GPGSV,3,3,12,09,08,137,,05,06,061,,16,06,298,24,30,03,272,*79
$GPRMC,135534.000,A,3352.4628,N,09831.1875,W,0.04,81.56,310312,,,D*47
$GPGGA,135535.000,3352.4627,N,09831.1875,W,2,08,1.0,289.2,M,-23.7,M,2.8,0000*46
$GPGSA,A,3,15,21,26,18,29,06,22,27,,,,,1.6,1.0,1.3*34
$GPRMC,135535.000,A,3352.4627,N,09831.1875,W,0.06,76.12,310312,,,D*43
$GPGGA,135536.000,3352.4627,N,09831.1875,W,2,08,1.0,289.2,M,-23.7,M,3.8,0000*44
$GPGSA,A,3,15,21,26,18,29,06,22,27,,,,,1.6,1.0,1.3*34
$GPRMC,135536.000,A,3352.4627,N,09831.1875,W,0.09,104.89,310312,,,D*79
$GPGGA,135537.000,3352.4627,N,09831.1875,W,2,08,1.0,289.1,M,-23.7,M,4.8,0000*41
$GPGSA,A,3,15,21,26,18,29,06,22,27,,,,,1.6,1.0,1.3*34
$GPRMC,135537.000,A,3352.4627,N,09831.1875,W,0.08,86.78,310312,,,D*4C
$GPGGA,135538.000,3352.4626,N,09831.1875,W,2,08,1.0,289.0,M,-23.7,M,5.8,0000*4F
$GPGSA,A,3,15,21,26,18,29,06,22,27,,,,,1.6,1.0,1.3*34
$GPRMC,135538.000,A,3352.4626,N,09831.1875,W,0.09,99.99,310312,,,D*42
$GPGGA,135539.000,3352.4626,N,09831.1875,W,2,08,1.0,288.9,M,-23.7,M,6.8,0000*45
$GPGSA,A,3,15,21,26,18,29,06,22,27,,,,,1.6,1.0,1.3*34
$GPGSV,3,1,12,15,66,095,23,21,58,328,34,18,54,278,32,29,49,184,34*79
$GPGSV,3,2,12,26,30,046,36,22,15,255,37,27,14,115,33,06,11,319,26*75
$GPGSV,3,3,12,09,08,137,,05,06,061,19,16,06,298,26,30,03,272,*73
$GPRMC,135539.000,A,3352.4626,N,09831.1875,W,0.08,104.05,310312,,,D*72
$GPGGA,135540.000,3352.4626,N,09831.1875,W,2,08,1.0,288.8,M,-23.7,M,7.8,0000*4B
$GPGSA,A,3,15,21,26,18,29,06,22,27,,,,,1.6,1.0,1.3*34
$GPRMC,135540.000,A,3352.4626,N,09831.1875,W,0.03,46.11,310312,,,D*45
$GPGGA,135541.000,3352.4625,N,09831.1875,W,2,08,1.0,288.7,M,-23.7,M,8.8,0000*49
$GPGSA,A,3,15,21,26,18,29,06,22,27,,,,,1.6,1.0,1.3*34
$GPRMC,135541.000,A,3352.4625,N,09831.1875,W,0.07,89.85,310312,,,D*4D
$GPGGA,135542.000,3352.4625,N,09831.1875,W,2,08,1.0,288.6,M,-23.7,M,9.8,0000*4A
$GPGSA,A,3,15,21,26,18,29,06,22,27,,,,,1.6,1.0,1.3*34
$GPRMC,135542.000,A,3352.4625,N,09831.1875,W,0.02,82.50,310312,,,D*48
$GPGGA,135543.000,3352.4625,N,09831.1875,W,2,08,1.0,288.4,M,-23.7,M,10.8,0000*71
$GPGSA,A,3,15,21,26,18,29,06,22,27,,,,,1.6,1.0,1.3*34
$GPRMC,135543.000,A,3352.4625,N,09831.1875,W,0.04,55.31,310312,,,D*42
$GPGGA,135544.000,3352.4625,N,09831.1875,W,2,08,1.0,288.3,M,-23.7,M,11.8,0000*70
$GPGSA,A,3,15,21,26,18,29,06,22,27,,,,,1.6,1.0,1.3*34
$GPGSV,3,1,12,15,66,094,23,21,59,328,34,18,54,278,31,29,49,184,34*7A
$GPGSV,3,2,12,26,30,046,36,22,15,255,37,27,14,115,32,06,12,318,26*76
$GPGSV,3,3,12,09,08,137,,05,06,061,20,16,06,298,27,30,03,271,*7B
$GPRMC,135544.000,A,3352.4625,N,09831.1875,W,0.07,100.31,310312,,,D*77
$GPGGA,135545.000,3352.4624,N,09831.1875,W,2,08,1.0,288.2,M,-23.7,M,12.8,0000*72
$GPGSA,A,3,15,21,26,18,29,06,22,27,,,,,1.6,1.0,1.3*34
$GPRMC,135545.000,A,3352.4624,N,09831.1875,W,0.06,82.81,310312,,,D*46
$GPGGA,135546.000,3352.4624,N,09831.1875,W,2,08,1.0,288.2,M,-23.7,M,0.8,0000*42
$GPGSA,A,3,15,21,26,18,29,06,22,27,,,,,1.6,1.0,1.3*34
$GPRMC,135546.000,A,3352.4624,N,09831.1875,W,0.05,92.46,310312,,,D*4C
$GPGGA,135547.000,3352.4624,N,09831.1874,W,2,08,1.0,288.1,M,-23.7,M,1.8,0000*40
$GPGSA,A,3,15,21,26,18,29,06,22,27,,,,,1.6,1.0,1.3*34
$GPRMC,135547.000,A,3352.4624,N,09831.1874,W,0.11,104.45,310312,,,D*74
$GPGGA,135548.000,3352.4624,N,09831.1874,W,2,08,1.0,288.1,M,-23.7,M,2.8,0000*4C
$GPGSA,A,3,15,21,26,18,29,06,22,27,,,,,1.6,1.0,1.3*34
$GPRMC,135548.000,A,3352.4624,N,09831.1874,W,0.11,110.68,310312,,,D*71
$GPGGA,135549.000,3352.4623,N,09831.1874,W,2,08,1.0,288.1,M,-23.7,M,3.8,0000*4B
$GPGSA,A,3,15,21,26,18,29,06,22,27,,,,,1.6,1.0,1.3*34
$GPGSV,3,1,12,15,66,094,22,21,59,328,33,18,54,278,31,29,49,184,34*7C
$GPGSV,3,2,12,26,30,046,36,22,15,255,36,27,14,115,32,06,12,318,26*77
$GPGSV,3,3,12,09,09,137,,05,06,061,19,16,06,298,27,30,03,271,*70
$GPRMC,135549.000,A,3352.4623,N,09831.1874,W,0.09,104.56,310312,,,D*76
$GPGGA,135550.000,3352.4623,N,09831.1874,W,2,08,1.0,288.0,M,-23.7,M,4.8,0000*45
$GPGSA,A,3,15,21,26,18,29,06,22,27,,,,,1.6,1.0,1.3*34
$GPRMC,135550.000,A,3352.4623,N,09831.1874,W,0.09,94.89,310312,,,D*44
$GPGGA,135551.000,3352.4623,N,09831.1874,W,2,08,1.0,288.0,M,-23.7,M,5.8,0000*45
$GPGSA,A,3,15,21,26,18,29,06,22,27,,,,,1.6,1.0,1.3*34
$GPRMC,135551.000,A,3352.4623,N,09831.1874,W,0.10,105.01,310312,,,D*74
$GPGGA,135552.000,3352.4623,N,09831.1874,W,2,08,1.0,287.9,M,-23.7,M,6.8,0000*43
$GPGSA,A,3,15,21,26,18,29,06,22,27,,,,,1.6,1.0,1.3*34
$GPRMC,135552.000,A,3352.4623,N,09831.1874,W,0.03,36.79,310312,,,D*4B
$GPGGA,135553.000,3352.4623,N,09831.1874,W,2,08,1.0,287.7,M,-23.7,M,7.8,0000*4D
$GPGSA,A,3,15,21,26,18,29,06,22,27,,,,,1.6,1.0,1.3*34
$GPRMC,135553.000,A,3352.4623,N,09831.1874,W,0.04,18.66,310312,,,D*4F
$GPGGA,135554.000,3352.4622,N,09831.1874,W,2,08,1.0,287.6,M,-23.7,M,8.8,0000*45
$GPGSA,A,3,15,21,26,18,29,06,22,27,,,,,1.6,1.0,1.3*34
$GPGSV,3,1,12,15,66,094,21,21,59,328,33,18,54,278,30,29,49,184,35*7F
$GPGSV,3,2,12,26,30,046,36,22,15,255,36,27,14,115,32,06,12,318,27*76
$GPGSV,3,3,12,09,09,137,,05,06,061,12,16,06,298,27,30,03,271,*7B
$GPRMC,135554.000,A,3352.4622,N,09831.1874,W,0.05,82.90,310312,,,D*42
$GPGGA,135555.000,3352.4622,N,09831.1874,W,2,08,1.0,287.4,M,-23.7,M,9.8,0000*47
$GPGSA,A,3,15,21,26,18,29,06,22,27,,,,,1.6,1.0,1.3*34
$GPRMC,135555.000,A,3352.4622,N,09831.1874,W,0.02,351.01,310312,,,D*71
$GPGGA,135556.000,3352.4622,N,09831.1874,W,2,08,1.0,287.2,M,-23.7,M,10.8,0000*7A
$GPGSA,A,3,15,21,26,18,29,06,22,27,,,,,1.6,1.0,1.3*34
$GPRMC,135556.000,A,3352.4622,N,09831.1874,W,0.04,42.30,310312,,,D*47
$GPGGA,135557.000,3352.4622,N,09831.1874,W,2,08,1.0,287.1,M,-23.7,M,0.8,0000*49
$GPGSA,A,3,15,21,26,18,29,06,22,27,,,,,1.6,1.0,1.3*34
$GPRMC,135557.000,A,3352.4622,N,09831.1874,W,0.07,86.17,310312,,,D*48
$GPGGA,135558.000,3352.4622,N,09831.1874,W,2,08,1.0,287.1,M,-23.7,M,1.8,0000*47
$GPGSA,A,3,15,21,26,18,29,06,22,27,,,,,1.6,1.0,1.3*34
$GPRMC,135558.000,A,3352.4622,N,09831.1874,W,0.07,107.86,310312,,,D*77
$GPGGA,135559.000,3352.4622,N,09831.1873,W,2,08,1.0,287.0,M,-23.7,M,2.8,0000*43
$GPGSA,A,3,15,21,26,18,29,06,22,27,,,,,1.6,1.0,1.3*34
$GPGSV,3,1,12,15,66,094,20,21,59,328,32,18,54,278,30,29,49,184,35*7F
$GPGSV,3,2,12,26,30,046,36,22,15,255,36,27,14,115,32,06,12,318,27*76
$GPGSV,3,3,12,09,09,137,,05,06,061,13,16,06,298,27,30,03,271,*7A
$GPRMC,135559.000,A,3352.4622,N,09831.1873,W,0.11,113.81,310312,,,D*74
$GPGGA,135600.000,3352.4622,N,09831.1873,W,2,08,1.0,287.0,M,-23.7,M,3.8,0000*4D
$GPGSA,A,3,15,21,26,18,29,06,22,27,,,,,1.6,1.0,1.3*34
$GPRMC,135600.000,A,3352.4622,N,09831.1873,W,0.10,96.33,310312,,,D*4F
$GPGGA,135601.000,3352.4621,N,09831.1873,W,2,08,1.0,287.0,M,-23.7,M,4.8,0000*48
$GPGSA,A,3,15,21,26,18,29,06,22,27,,,,,1.6,1.0,1.3*34
