$GPGGA,032513.000,3353.7557,N,09832.0279,W,2,06,2.6,311.4,M,-23.7,M,0.8,0000*49
$GPGSA,A,3,08,11,07,17,13,01,,,,,,,4.7,2.6,3.9*35
$GPRMC,032513.000,A,3353.7557,N,09832.0279,W,0.42,212.03,010412,,,D*77
$GPGGA,032514.000,3353.7557,N,09832.0280,W,2,05,2.8,311.3,M,-23.7,M,1.8,0000*43
$GPGSA,A,3,08,11,07,13,01,,,,,,,,4.9,2.8,4.0*3D
$GPGSV,3,1,10,08,72,350,36,07,60,121,36,28,47,300,,11,42,089,32*7E
$GPGSV,3,2,10,17,35,218,16,01,33,113,39,26,27,305,22,19,25,043,19*7A
$GPGSV,3,3,10,13,13,179,32,51,49,195,38*79
$GPRMC,032514.000,A,3353.7557,N,09832.0280,W,0.13,253.96,010412,,,D*7B
$GPGGA,032515.000,3353.7548,N,09832.0278,W,2,07,1.3,314.3,M,-23.7,M,0.8,0000*45
$GPGSA,A,3,08,11,19,07,17,13,01,,,,,,2.3,1.3,1.8*3A
$GPRMC,032515.000,A,3353.7548,N,09832.0278,W,0.14,89.82,010412,,,D*44
$GPGGA,032516.000,3353.7551,N,09832.0277,W,2,07,1.3,313.9,M,-23.7,M,0.8,0000*4C
$GPGSA,A,3,08,11,19,07,17,13,01,,,,,,2.3,1.3,1.8*3A
$GPRMC,032516.000,A,3353.7551,N,09832.0277,W,0.26,61.08,010412,,,D*45
$GPGGA,032517.000,3353.7549,N,09832.0276,W,2,07,1.3,314.6,M,-23.7,M,0.8,0000*4D
$GPGSA,A,3,08,11,19,07,17,13,01,,,,,,2.3,1.3,1.8*3A
$GPRMC,032517.000,A,3353.7549,N,09832.0276,W,0.30,106.18,010412,,,D*7A
$GPGGA,032518.000,3353.7550,N,09832.0276,W,2,07,1.3,314.3,M,-23.7,M,1.8,0000*4E
$GPGSA,A,3,08,11,19,07,17,13,01,,,,,,2.3,1.3,1.8*3A
$GPRMC,032518.000,A,3353.7550,N,09832.0276,W,0.26,145.25,010412,,,D*73
$GPGGA,032519.000,3353.7556,N,09832.0276,W,2,07,1.3,312.5,M,-23.7,M,2.8,0000*4A
$GPGSA,A,3,08,11,19,07,17,13,01,,,,,,2.3,1.3,1.8*3A
$GPGSV,3,1,10,08,72,350,36,07,60,121,35,28,47,300,,11,42,089,32*7D
$GPGSV,3,2,10,17,35,218,13,01,33,113,39,26,27,305,23,19,25,043,19*7E
$GPGSV,3,3,10,13,13,179,32,51,49,195,38*79
$GPRMC,032519.000,A,3353.7556,N,09832.0276,W,0.13,39.96,010412,,,D*40
$GPGGA,032520.000,3353.7556,N,09832.0276,W,2,07,1.3,312.6,M,-23.7,M,3.8,0000*42
$GPGSA,A,3,08,11,19,07,17,13,01,,,,,,2.3,1.3,1.8*3A
$GPRMC,032520.000,A,3353.7556,N,09832.0276,W,0.16,346.16,010412,,,D*7C
$GPGGA,032521.000,3353.7559,N,09832.0277,W,2,07,1.3,311.8,M,-23.7,M,0.8,0000*43
$GPGSA,A,3,08,11,19,07,17,13,01,,,,,,2.3,1.3,1.8*3A
$GPRMC,032521.000,A,3353.7559,N,09832.0277,W,0.36,8.68,010412,,,D*71
$GPGGA,032522.000,3353.7562,N,09832.0277,W,2,07,1.3,310.9,M,-23.7,M,0.8,0000*48
$GPGSA,A,3,08,11,19,07,17,13,01,,,,,,2.3,1.3,1.8*3A
$GPRMC,032522.000,A,3353.7562,N,09832.0277,W,0.21,42.67,010412,,,D*4D
$GPGGA,032523.000,3353.7561,N,09832.0278,W,2,06,2.6,310.9,M,-23.7,M,0.8,0000*42
$GPGSA,A,3,08,11,07,17,13,01,,,,,,,4.7,2.6,3.9*35
$GPRMC,032523.000,A,3353.7561,N,09832.0278,W,0.08,216.93,010412,,,D*73
$GPGGA,032524.000,3353.7560,N,09832.0279,W,2,06,2.6,311.1,M,-23.7,M,1.8,0000*4D
$GPGSA,A,3,08,11,07,17,13,01,,,,,,,4.7,2.6,3.9*35
$GPGSV,3,1,10,08,72,350,36,07,60,121,35,28,47,300,,11,42,089,32*7D
$GPGSV,3,2,10,17,35,218,13,01,33,113,39,26,27,305,23,19,25,043,17*70
$GPGSV,3,3,10,13,13,179,32,51,49,195,37*76
$GPRMC,032524.000,A,3353.7560,N,09832.0279,W,0.23,214.99,010412,,,D*75
$GPGGA,032525.000,3353.7559,N,09832.0277,W,2,06,2.6,311.7,M,-23.7,M,2.8,0000*4D
$GPGSA,A,3,08,11,07,17,13,01,,,,,,,4.7,2.6,3.9*35
$GPRMC,032525.000,A,3353.7559,N,09832.0277,W,0.31,193.11,010412,,,D*7F
$GPGGA,032526.000,3353.7559,N,09832.0272,W,2,07,1.3,312.6,M,-23.7,M,3.8,0000*4F
$GPGSA,A,3,08,11,19,07,17,13,01,,,,,,2.3,1.3,1.8*3A
$GPRMC,032526.000,A,3353.7559,N,09832.0272,W,0.29,168.08,010412,,,D*7C
$GPGGA,032527.000,3353.7559,N,09832.0270,W,2,07,1.3,313.1,M,-23.7,M,0.8,0000*49
$GPGSA,A,3,08,11,19,07,17,13,01,,,,,,2.3,1.3,1.8*3A
$GPRMC,032527.000,A,3353.7559,N,09832.0270,W,0.25,205.68,010412,,,D*7D
$GPGGA,032528.000,3353.7559,N,09832.0267,W,2,06,2.6,313.6,M,-23.7,M,0.8,0000*40
$GPGSA,A,3,08,11,07,17,13,01,,,,,,,4.7,2.6,3.9*35
$GPRMC,032528.000,A,3353.7559,N,09832.0267,W,0.07,221.53,010412,,,D*7A
$GPGGA,032529.000,3353.7567,N,09832.0269,W,2,07,1.3,311.3,M,-23.7,M,0.8,0000*42
$GPGSA,A,3,08,11,19,07,17,13,01,,,,,,2.3,1.3,1.8*3A
$GPGSV,3,1,10,08,72,350,37,07,60,121,35,28,47,300,,11,42,089,32*7C
$GPGSV,3,2,10,17,35,218,21,01,33,113,39,26,27,305,23,19,25,043,18*7E
$GPGSV,3,3,10,13,13,179,32,51,49,195,38*79
$GPRMC,032529.000,A,3353.7567,N,09832.0269,W,0.14,335.83,010412,,,D*73
$GPGGA,032530.000,3353.7568,N,09832.0268,W,2,07,1.3,311.3,M,-23.7,M,0.8,0000*44
$GPGSA,A,3,08,11,19,07,17,13,01,,,,,,2.3,1.3,1.8*3A
$GPRMC,032530.000,A,3353.7568,N,09832.0268,W,0.21,333.99,010412,,,D*7E
$GPGGA,032531.000,3353.7574,N,09832.0269,W,2,07,1.3,309.6,M,-23.7,M,1.8,0000*44
$GPGSA,A,3,08,11,19,07,17,13,01,,,,,,2.3,1.3,1.8*3A
$GPRMC,032531.000,A,3353.7574,N,09832.0269,W,0.50,18.74,010412,,,D*4C
$GPGGA,032532.000,3353.7575,N,09832.0268,W,2,07,1.3,309.6,M,-23.7,M,0.8,0000*46
$GPGSA,A,3,08,11,19,07,17,13,01,,,,,,2.3,1.3,1.8*3A
$GPRMC,032532.000,A,3353.7575,N,09832.0268,W,0.14,350.59,010412,,,D*7F
$GPGGA,032533.000,3353.7579,N,09832.0269,W,2,07,1.3,308.2,M,-23.7,M,0.8,0000*4F
$GPGSA,A,3,08,11,19,07,17,13,01,,,,,,2.3,1.3,1.8*3A
$GPRMC,032533.000,A,3353.7579,N,09832.0269,W,0.11,323.69,010412,,,D*71
$GPGGA,032534.000,3353.7580,N,09832.0268,W,2,07,1.3,308.3,M,-23.7,M,0.8,0000*4E
$GPGSA,A,3,08,11,19,07,17,13,01,,,,,,2.3,1.3,1.8*3A
$GPGSV,3,1,10,08,72,350,37,07,60,121,35,28,47,300,,11,42,089,32*7C
$GPGSV,3,2,10,17,35,218,22,01,33,113,39,26,27,305,23,19,25,043,19*7C
$GPGSV,3,3,10,13,13,179,32,51,49,195,37*76
$GPRMC,032534.000,A,3353.7580,N,09832.0268,W,0.22,36.96,010412,,,D*46
$GPGGA,032535.000,3353.7584,N,09832.0268,W,2,07,1.3,307.1,M,-23.7,M,0.8,0000*46
$GPGSA,A,3,08,11,19,07,17,13,01,,,,,,2.3,1.3,1.8*3A
$GPRMC,032535.000,A,3353.7584,N,09832.0268,W,0.25,344.12,010412,,,D*7E
$GPGGA,032536.000,3353.7584,N,09832.0267,W,2,07,1.3,307.2,M,-23.7,M,1.8,0000*48
$GPGSA,A,3,08,11,19,07,17,13,01,,,,,,2.3,1.3,1.8*3A
$GPRMC,032536.000,A,3353.7584,N,09832.0267,W,0.12,316.88,010412,,,D*72
$GPGGA,032537.000,3353.7588,N,09832.0268,W,2,07,1.3,306.0,M,-23.7,M,0.8,0000*48
$GPGSA,A,3,08,11,19,07,17,13,01,,,,,,2.3,1.3,1.8*3A
$GPRMC,032537.000,A,3353.7588,N,09832.0268,W,0.45,7.78,010412,,,D*7E
$GPGGA,032538.000,3353.7589,N,09832.0267,W,2,07,1.3,306.1,M,-23.7,M,1.8,0000*49
$GPGSA,A,3,08,11,19,07,17,13,01,,,,,,2.3,1.3,1.8*3A
$GPRMC,032538.000,A,3353.7589,N,09832.0267,W,0.18,314.32,010412,,,D*78
$GPGGA,032539.000,3353.7588,N,09832.0268,W,2,07,1.3,306.3,M,-23.7,M,0.8,0000*45
$GPGSA,A,3,08,11,19,07,17,13,01,,,,,,2.3,1.3,1.8*3A
$GPGSV,3,1,10,08,72,350,37,07,60,121,35,28,47,300,,11,42,089,32*7C
$GPGSV,3,2,10,17,35,218,23,01,33,113,39,26,27,305,23,19,25,043,21*76
$GPGSV,3,3,10,13,13,179,33,51,49,195,37*77
$GPRMC,032539.000,A,3353.7588,N,09832.0268,W,0.14,296.35,010412,,,D*77
$GPGGA,032540.000,3353.7588,N,09832.0266,W,2,07,1.3,306.5,M,-23.7,M,0.8,0000*43
$GPGSA,A,3,08,11,19,07,17,13,01,,,,,,2.3,1.3,1.8*3A
$GPRMC,032540.000,A,3353.7588,N,09832.0266,W,0.26,349.89,010412,,,D*72
$GPGGA,032541.000,3353.7587,N,09832.0266,W,2,07,1.3,307.0,M,-23.7,M,0.8,0000*49
$GPGSA,A,3,08,11,19,07,17,13,01,,,,,,2.3,1.3,1.8*3A
$GPRMC,032541.000,A,3353.7587,N,09832.0266,W,0.02,333.93,010412,,,D*7C
$GPGGA,032542.000,3353.7587,N,09832.0264,W,2,07,1.3,307.3,M,-23.7,M,1.8,0000*4A
$GPGSA,A,3,08,11,19,07,17,13,01,,,,,,2.3,1.3,1.8*3A
$GPRMC,032542.000,A,3353.7587,N,09832.0264,W,0.18,45.19,010412,,,D*46
$GPGGA,032543.000,3353.7584,N,09832.0264,W,2,07,1.3,308.1,M,-23.7,M,2.8,0000*46
$GPGSA,A,3,08,11,19,07,17,13,01,,,,,,2.3,1.3,1.8*3A
$GPRMC,032543.000,A,3353.7584,N,09832.0264,W,0.02,264.39,010412,,,D*7C
$GPGGA,032544.000,3353.7585,N,09832.0262,W,2,07,1.3,308.4,M,-23.7,M,3.8,0000*42
$GPGSA,A,3,08,11,19,07,17,13,01,,,,,,2.3,1.3,1.8*3A
$GPGSV,3,1,10,08,72,350,37,07,60,121,35,28,47,300,,11,42,089,33*7D
$GPGSV,3,2,10,17,35,218,24,01,33,113,39,26,27,305,23,19,25,043,23*73
$GPGSV,3,3,10,13,13,179,33,51,49,195,37*77
$GPRMC,032544.000,A,3353.7585,N,09832.0262,W,0.14,53.35,010412,,,D*41
$GPGGA,032545.000,3353.7587,N,09832.0262,W,2,07,1.3,307.7,M,-23.7,M,0.8,0000*4E
$GPGSA,A,3,08,11,19,07,17,13,01,,,,,,2.3,1.3,1.8*3A
$GPRMC,032545.000,A,3353.7587,N,09832.0262,W,0.35,33.34,010412,,,D*46
$GPGGA,032546.000,3353.7588,N,09832.0259,W,2,07,1.3,308.0,M,-23.7,M,0.8,0000*42
$GPGSA,A,3,08,11,19,07,17,13,01,,,,,,2.3,1.3,1.8*3A
$GPRMC,032546.000,A,3353.7588,N,09832.0259,W,0.21,39.86,010412,,,D*44
$GPGGA,032547.000,3353.7588,N,09832.0260,W,2,07,1.3,308.1,M,-23.7,M,0.8,0000*48
$GPGSA,A,3,08,11,19,07,17,13,01,,,,,,2.3,1.3,1.8*3A
$GPRMC,032547.000,A,3353.7588,N,09832.0260,W,0.21,228.39,010412,,,D*79
$GPGGA,032548.000,3353.7587,N,09832.0260,W,2,07,1.3,308.4,M,-23.7,M,0.8,0000*4D
$GPGSA,A,3,08,11,19,07,17,13,01,,,,,,2.3,1.3,1.8*3A
$GPRMC,032548.000,A,3353.7587,N,09832.0260,W,0.16,242.84,010412,,,D*77
$GPGGA,032549.000,3353.7585,N,09832.0261,W,2,07,1.3,308.9,M,-23.7,M,0.8,0000*42
$GPGSA,A,3,08,11,19,07,17,13,01,,,,,,2.3,1.3,1.8*3A
$GPGSV,3,1,10,08,72,350,37,07,60,121,35,28,47,300,,11,42,089,33*7D
$GPGSV,3,2,10,17,35,218,24,01,33,113,39,26,27,305,24,19,25,043,25*72
$GPGSV,3,3,10,13,13,179,33,51,49,195,37*77
$GPRMC,032549.000,A,3353.7585,N,09832.0261,W,0.25,242.22,010412,,,D*79
$GPGGA,032550.000,3353.7584,N,09832.0261,W,2,07,1.3,309.2,M,-23.7,M,1.8,0000*40
$GPGSA,A,3,08,11,19,07,17,13,01,,,,,,2.3,1.3,1.8*3A
$GPRMC,032550.000,A,3353.7584,N,09832.0261,W,0.11,238.52,010412,,,D*7D
$GPGGA,032551.000,3353.7583,N,09832.0261,W,2,07,1.3,309.5,M,-23.7,M,0.8,0000*40
$GPGSA,A,3,08,11,19,07,17,13,01,,,,,,2.3,1.3,1.8*3A
$GPRMC,032551.000,A,3353.7583,N,09832.0261,W,0.16,75.39,010412,,,D*4A
$GPGGA,032552.000,3353.7583,N,09832.0262,W,2,07,1.3,309.6,M,-23.7,M,0.8,0000*43
$GPGSA,A,3,08,11,19,07,17,13,01,,,,,,2.3,1.3,1.8*3A
$GPRMC,032552.000,A,3353.7583,N,09832.0262,W,0.14,236.36,010412,,,D*72
$GPGGA,032553.000,3353.7582,N,09832.0262,W,2,07,1.3,309.7,M,-23.7,M,0.8,0000*42
$GPGSA,A,3,08,11,19,07,17,13,01,,,,,,2.3,1.3,1.8*3A
$GPRMC,032553.000,A,3353.7582,N,09832.0262,W,0.22,228.90,010412,,,D*74
$GPGGA,032554.000,3353.7581,N,09832.0263,W,2,07,1.3,309.9,M,-23.7,M,1.8,0000*48
$GPGSA,A,3,08,11,19,07,17,13,01,,,,,,2.3,1.3,1.8*3A
$GPGSV,3,1,10,08,74,352,37,07,59,122,34,28,47,302,,11,42,087,33*7D
$GPGSV,3,2,10,17,36,219,23,01,34,112,39,26,28,304,23,19,24,043,26*7A
$GPGSV,3,3,10,13,12,178,33,51,49,195,37*77
$GPRMC,032554.000,A,3353.7581,N,09832.0263,W,0.24,233.24,010412,,,D*72
$GPGGA,032555.000,3353.7580,N,09832.0263,W,2,07,1.3,310.2,M,-23.7,M,0.8,0000*4A
$GPGSA,A,3,08,11,19,07,17,13,01,,,,,,2.3,1.3,1.8*3A
$GPRMC,032555.000,A,3353.7580,N,09832.0263,W,0.06,126.41,010412,,,D*76
$GPGGA,032556.000,3353.7580,N,09832.0263,W,2,07,1.3,310.4,M,-23.7,M,1.8,0000*4E
$GPGSA,A,3,08,11,19,07,17,13,01,,,,,,2.3,1.3,1.8*3A
$GPRMC,032556.000,A,3353.7580,N,09832.0263,W,0.15,103.23,010412,,,D*74
$GPGGA,032557.000,3353.7579,N,09832.0263,W,2,07,1.3,310.5,M,-23.7,M,0.8,0000*49
$GPGSA,A,3,08,11,19,07,17,13,01,,,,,,2.3,1.3,1.8*3A
$GPRMC,032557.000,A,3353.7579,N,09832.0263,W,0.14,219.16,010412,,,D*7C
$GPGGA,032558.000,3353.7578,N,09832.0263,W,2,07,1.2,310.7,M,-23.7,M,0.8,0000*44
$GPGSA,A,3,08,11,19,07,13,01,28,,,,,,2.1,1.2,1.8*35
$GPRMC,032558.000,A,3353.7578,N,09832.0263,W,0.22,119.00,010412,,,D*73
$GPGGA,032559.000,3353.7578,N,09832.0262,W,2,07,1.2,310.8,M,-23.7,M,0.8,0000*4B
$GPGSA,A,3,08,11,19,07,13,01,28,,,,,,2.1,1.2,1.8*35
$GPGSV,3,1,10,08,74,352,37,07,59,122,34,28,47,302,16,11,42,087,33*7A
$GPGSV,3,2,10,17,36,219,,01,34,112,39,26,28,304,22,19,24,043,27*7B
$GPGSV,3,3,10,13,12,178,33,51,49,195,37*77
$GPRMC,032559.000,A,3353.7578,N,09832.0262,W,0.23,107.18,010412,,,D*74
$GPGGA,032600.000,3353.7577,N,09832.0262,W,2,07,1.2,311.1,M,-23.7,M,1.8,0000*42
$GPGSA,A,3,08,11,19,07,13,01,28,,,,,,2.1,1.2,1.8*35
$GPRMC,032600.000,A,3353.7577,N,09832.0262,W,0.26,107.96,010412,,,D*77
$GPGGA,032601.000,3353.7577,N,09832.0261,W,2,07,1.2,311.3,M,-23.7,M,0.8,0000*43
$GPGSA,A,3,08,11,19,07,13,01,28,,,,,,2.1,1.2,1.8*35
$GPRMC,032601.000,A,3353.7577,N,09832.0261,W,0.28,111.40,010412,,,D*77
$GPGGA,032602.000,3353.7576,N,09832.0261,W,2,07,1.2,311.5,M,-23.7,M,0.8,0000*47
$GPGSA,A,3,08,11,19,07,13,01,28,,,,,,2.1,1.2,1.8*35
$GPRMC,032602.000,A,3353.7576,N,09832.0261,W,0.17,95.04,010412,,,D*44
$GPGGA,032603.000,3353.7576,N,09832.0261,W,2,07,1.2,311.8,M,-23.7,M,0.8,0000*4B
$GPGSA,A,3,08,11,19,07,13,01,28,,,,,,2.1,1.2,1.8*35
$GPRMC,032603.000,A,3353.7576,N,09832.0261,W,0.13,111.59,010412,,,D*74
$GPGGA,032604.000,3353.7575,N,09832.0260,W,2,07,1.2,312.0,M,-23.7,M,0.8,0000*45
$GPGSA,A,3,08,11,19,07,13,01,28,,,,,,2.1,1.2,1.8*35
$GPGSV,3,1,10,08,74,352,37,07,59,122,34,28,47,302,14,11,42,087,33*78
$GPGSV,3,2,10,17,36,219,,01,34,112,39,26,28,304,,19,24,043,29*75
$GPGSV,3,3,10,13,12,178,33,51,49,195,37*77
$GPRMC,032604.000,A,3353.7575,N,09832.0260,W,0.15,112.93,010412,,,D*72
$GPGGA,032605.000,3353.7575,N,09832.0260,W,2,06,1.6,312.1,M,-23.7,M,0.8,0000*40
$GPGSA,A,3,08,11,19,07,13,01,,,,,,,2.4,1.6,1.8*3E
$GPRMC,032605.000,A,3353.7575,N,09832.0260,W,0.11,140.52,010412,,,D*7D
$GPGGA,032606.000,3353.7574,N,09832.0261,W,2,06,1.6,312.2,M,-23.7,M,1.8,0000*41
$GPGSA,A,3,08,11,19,07,13,01,,,,,,,2.4,1.6,1.8*3E
$GPRMC,032606.000,A,3353.7574,N,09832.0261,W,0.09,143.01,010412,,,D*72
$GPGGA,032607.000,3353.7573,N,09832.0261,W,2,06,1.6,312.4,M,-23.7,M,2.8,0000*42
$GPGSA,A,3,08,11,19,07,13,01,,,,,,,2.4,1.6,1.8*3E
$GPRMC,032607.000,A,3353.7573,N,09832.0261,W,0.11,144.47,010412,,,D*78
$GPGGA,032608.000,3353.7573,N,09832.0261,W,2,06,1.6,312.5,M,-23.7,M,3.8,0000*4D
$GPGSA,A,3,08,11,19,07,13,01,,,,,,,2.4,1.6,1.8*3E
$GPRMC,032608.000,A,3353.7573,N,09832.0261,W,0.07,129.24,010412,,,D*7E
$GPGGA,032609.000,3353.7573,N,09832.0261,W,2,06,1.6,312.6,M,-23.7,M,0.8,0000*4C
$GPGSA,A,3,08,11,19,07,13,01,,,,,,,2.4,1.6,1.8*3E
$GPGSV,3,1,10,08,74,352,37,07,59,122,34,28,47,302,,11,42,087,32*7C
$GPGSV,3,2,10,17,36,219,,01,34,112,39,26,28,304,,19,24,043,30*7D
$GPGSV,3,3,10,13,12,178,33,51,49,195,37*77
$GPRMC,032609.000,A,3353.7573,N,09832.0261,W,0.06,126.94,010412,,,D*7A
$GPGGA,032610.000,3353.7572,N,09832.0261,W,2,06,1.6,312.6,M,-23.7,M,0.8,0000*45
$GPGSA,A,3,08,11,19,07,13,01,,,,,,,2.4,1.6,1.8*3E
$GPRMC,032610.000,A,3353.7572,N,09832.0261,W,0.07,96.32,010412,,,D*44
$GPGGA,032611.000,3353.7572,N,09832.0261,W,2,06,1.6,312.7,M,-23.7,M,0.8,0000*45
$GPGSA,A,3,08,11,19,07,13,01,,,,,,,2.4,1.6,1.8*3E
$GPRMC,032611.000,A,3353.7572,N,09832.0261,W,0.02,12.44,010412,,,D*4D
$GPGGA,032612.000,3353.7572,N,09832.0261,W,2,06,1.6,312.8,M,-23.7,M,1.8,0000*48
$GPGSA,A,3,08,11,19,07,13,01,,,,,,,2.4,1.6,1.8*3E
$GPRMC,032612.000,A,3353.7572,N,09832.0261,W,0.03,329.00,010412,,,D*74
$GPGGA,032613.000,3353.7572,N,09832.0261,W,2,06,1.6,313.0,M,-23.7,M,2.8,0000*43
$GPGSA,A,3,08,11,19,07,13,01,,,,,,,2.4,1.6,1.8*3E
$GPRMC,032613.000,A,3353.7572,N,09832.0261,W,0.05,356.36,010412,,,D*7E
$GPGGA,032614.000,3353.7572,N,09832.0261,W,2,07,1.2,313.1,M,-23.7,M,3.8,0000*41
$GPGSA,A,3,08,11,19,07,28,13,01,,,,,,2.1,1.2,1.8*35
$GPGSV,3,1,10,08,74,352,37,07,59,122,34,28,47,302,16,11,42,087,28*70
$GPGSV,3,2,10,17,36,219,,01,34,112,39,26,28,304,,19,24,043,31*7C
$GPGSV,3,3,10,13,12,178,33,51,49,195,37*77
$GPRMC,032614.000,A,3353.7572,N,09832.0261,W,0.03,95.52,010412,,,D*41
$GPGGA,032615.000,3353.7572,N,09832.0261,W,2,07,1.2,313.2,M,-23.7,M,0.8,0000*40
$GPGSA,A,3,08,11,19,07,28,13,01,,,,,,2.1,1.2,1.8*35
$GPRMC,032615.000,A,3353.7572,N,09832.0261,W,0.03,64.82,010412,,,D*43
$GPGGA,032616.000,3353.7571,N,09832.0261,W,2,07,1.2,313.3,M,-23.7,M,0.8,0000*41
$GPGSA,A,3,08,11,19,07,28,13,01,,,,,,2.1,1.2,1.8*35
$GPRMC,032616.000,A,3353.7571,N,09832.0261,W,0.19,282.22,010412,,,D*78
$GPGGA,032617.000,3353.7571,N,09832.0261,W,2,07,1.2,313.3,M,-23.7,M,0.8,0000*40
$GPGSA,A,3,08,11,19,07,28,13,01,,,,,,2.1,1.2,1.8*35
$GPRMC,032617.000,A,3353.7571,N,09832.0261,W,0.09,133.54,010412,,,D*70
$GPGGA,032618.000,3353.7571,N,09832.0260,W,2,07,1.2,313.4,M,-23.7,M,1.8,0000*48
$GPGSA,A,3,08,11,19,07,28,13,01,,,,,,2.1,1.2,1.8*35
$GPRMC,032618.000,A,3353.7571,N,09832.0260,W,0.28,115.45,010412,,,D*79
$GPGGA,032619.000,3353.7570,N,09832.0260,W,2,07,1.2,313.4,M,-23.7,M,2.8,0000*4B
$GPGSA,A,3,08,11,19,07,28,13,01,,,,,,2.1,1.2,1.8*35
$GPGSV,3,1,10,08,74,352,38,07,59,122,34,28,47,302,15,11,42,087,28*7C
$GPGSV,3,2,10,17,36,219,,01,34,112,39,26,28,304,,19,24,043,31*7C
$GPGSV,3,3,10,13,12,178,32,51,49,195,38*79
$GPRMC,032619.000,A,3353.7570,N,09832.0260,W,0.21,118.69,010412,,,D*73
$GPGGA,032620.000,3353.7570,N,09832.0259,W,2,07,1.2,313.5,M,-23.7,M,3.8,0000*4B
$GPGSA,A,3,08,11,19,07,28,13,01,,,,,,2.1,1.2,1.8*35
$GPRMC,032620.000,A,3353.7570,N,09832.0259,W,0.20,118.67,010412,,,D*7C
$GPGGA,032621.000,3353.7570,N,09832.0258,W,2,07,1.2,313.5,M,-23.7,M,0.8,0000*48
$GPGSA,A,3,08,11,19,07,28,13,01,,,,,,2.1,1.2,1.8*35
$GPRMC,032621.000,A,3353.7570,N,09832.0258,W,0.34,104.15,010412,,,D*71
$GPGGA,032622.000,3353.7569,N,09832.0257,W,2,07,1.2,313.5,M,-23.7,M,0.8,0000*4C
$GPGSA,A,3,08,11,19,07,28,13,01,,,,,,2.1,1.2,1.8*35
$GPRMC,032622.000,A,3353.7569,N,09832.0257,W,0.35,109.76,010412,,,D*7C
$GPGGA,032623.000,3353.7569,N,09832.0257,W,2,07,1.2,313.6,M,-23.7,M,0.8,0000*4E
$GPGSA,A,3,08,11,19,07,28,13,01,,,,,,2.1,1.2,1.8*35
$GPRMC,032623.000,A,3353.7569,N,09832.0257,W,0.18,72.45,010412,,,D*4F
$GPGGA,032624.000,3353.7569,N,09832.0257,W,2,07,1.2,313.6,M,-23.7,M,1.8,0000*48
$GPGSA,A,3,08,11,19,07,28,13,01,,,,,,2.1,1.2,1.8*35
$GPGSV,3,1,10,08,74,352,38,07,59,122,34,28,47,302,15,11,42,087,27*73
$GPGSV,3,2,10,17,36,219,,01,34,112,39,26,28,304,,19,24,043,31*7C
$GPGSV,3,3,10,13,12,178,32,51,49,195,37*76
$GPRMC,032624.000,A,3353.7569,N,09832.0257,W,0.20,79.18,010412,,,D*40
$GPGGA,032625.000,3353.7569,N,09832.0256,W,2,07,1.2,313.7,M,-23.7,M,2.8,0000*4A
$GPGSA,A,3,08,11,19,07,28,13,01,,,,,,2.1,1.2,1.8*35
$GPRMC,032625.000,A,3353.7569,N,09832.0256,W,0.21,89.83,010412,,,D*4C
$GPGGA,032626.000,3353.7570,N,09832.0256,W,2,07,1.2,313.7,M,-23.7,M,3.8,0000*40
$GPGSA,A,3,08,11,19,07,28,13,01,,,,,,2.1,1.2,1.8*35
$GPRMC,032626.000,A,3353.7570,N,09832.0256,W,0.17,90.49,010412,,,D*4C
$GPGGA,032627.000,3353.7569,N,09832.0255,W,2,07,1.2,313.8,M,-23.7,M,0.8,0000*46
$GPGSA,A,3,08,11,19,07,28,13,01,,,,,,2.1,1.2,1.8*35
$GPRMC,032627.000,A,3353.7569,N,09832.0255,W,0.14,95.65,010412,,,D*4E
$GPGGA,032628.000,3353.7570,N,09832.0256,W,2,07,1.2,313.9,M,-23.7,M,0.8,0000*43
$GPGSA,A,3,08,11,19,07,28,13,01,,,,,,2.1,1.2,1.8*35
$GPRMC,032628.000,A,3353.7570,N,09832.0256,W,0.15,288.10,010412,,,D*77
$GPGGA,032629.000,3353.7569,N,09832.0256,W,2,07,1.2,313.9,M,-23.7,M,0.8,0000*4A
$GPGSA,A,3,08,11,19,07,28,13,01,,,,,,2.1,1.2,1.8*35
$GPGSV,3,1,10,08,74,352,38,07,59,122,34,28,47,302,17,11,42,087,27*71
$GPGSV,3,2,10,17,36,219,,01,34,112,39,26,28,304,,19,24,043,31*7C
$GPGSV,3,3,10,13,12,178,32,51,49,195,38*79
$GPRMC,032629.000,A,3353.7569,N,09832.0256,W,0.07,159.57,010412,,,D*71
$GPGGA,032630.000,3353.7569,N,09832.0256,W,2,07,1.2,313.9,M,-23.7,M,1.8,0000*43
$GPGSA,A,3,08,11,19,07,28,13,01,,,,,,2.1,1.2,1.8*35
$GPRMC,032630.000,A,3353.7569,N,09832.0256,W,0.22,118.51,010412,,,D*7D
$GPGGA,032631.000,3353.7569,N,09832.0256,W,2,07,1.2,313.9,M,-23.7,M,2.8,0000*41
$GPGSA,A,3,08,11,19,07,28,13,01,,,,,,2.1,1.2,1.8*35
$GPRMC,032631.000,A,3353.7569,N,09832.0256,W,0.08,149.19,010412,,,D*7C
$GPGGA,032632.000,3353.7569,N,09832.0255,W,2,08,1.1,313.8,M,-23.7,M,3.8,0000*4D
$GPGSA,A,3,08,11,19,07,28,13,01,17,,,,,2.1,1.1,1.8*30
$GPRMC,032632.000,A,3353.7569,N,09832.0255,W,0.28,95.01,010412,,,D*47
$GPGGA,032633.000,3353.7569,N,09832.0255,W,2,08,1.1,313.7,M,-23.7,M,0.8,0000*40
$GPGSA,A,3,08,11,19,07,28,13,01,17,,,,,2.1,1.1,1.8*30
$GPRMC,032633.000,A,3353.7569,N,09832.0255,W,0.07,212.26,010412,,,D*73
$GPGGA,032634.000,3353.7569,N,09832.0256,W,2,08,1.1,313.6,M,-23.7,M,0.8,0000*45
$GPGSA,A,3,08,11,19,07,28,13,01,17,,,,,2.1,1.1,1.8*30
$GPGSV,3,1,10,08,74,352,38,07,59,122,34,28,47,302,18,11,42,087,27*7E
$GPGSV,3,2,10,17,36,219,20,01,34,112,39,26,28,304,,19,24,043,31*7E
$GPGSV,3,3,10,13,12,178,32,51,49,195,37*76
$GPRMC,032634.000,A,3353.7569,N,09832.0256,W,0.20,246.40,010412,,,D*73
$GPGGA,032635.000,3353.7569,N,09832.0257,W,2,08,1.1,313.6,M,-23.7,M,0.8,0000*45
$GPGSA,A,3,08,11,19,07,28,13,01,17,,,,,2.1,1.1,1.8*30
$GPRMC,032635.000,A,3353.7569,N,09832.0257,W,0.32,273.30,010412,,,D*71
$GPGGA,032636.000,3353.7569,N,09832.0259,W,2,08,1.1,313.5,M,-23.7,M,0.8,0000*4B
$GPGSA,A,3,08,11,19,07,28,13,01,17,,,,,2.1,1.1,1.8*30
$GPRMC,032636.000,A,3353.7569,N,09832.0259,W,0.46,282.63,010412,,,D*77
$GPGGA,032637.000,3353.7570,N,09832.0260,W,2,08,1.1,313.4,M,-23.7,M,0.8,0000*49
$GPGSA,A,3,08,11,19,07,28,13,01,17,,,,,2.1,1.1,1.8*30
$GPRMC,032637.000,A,3353.7570,N,09832.0260,W,0.35,301.34,010412,,,D*78
$GPGGA,032638.000,3353.7571,N,09832.0260,W,2,08,1.1,313.4,M,-23.7,M,0.8,0000*47
$GPGSA,A,3,08,11,19,07,28,13,01,17,,,,,2.1,1.1,1.8*30
$GPRMC,032638.000,A,3353.7571,N,09832.0260,W,0.21,49.54,010412,,,D*4A
$GPGGA,032639.000,3353.7571,N,09832.0260,W,2,08,1.1,313.4,M,-23.7,M,0.8,0000*46
$GPGSA,A,3,08,11,19,07,28,13,01,17,,,,,2.1,1.1,1.8*30
$GPGSV,3,1,10,08,74,352,37,07,59,122,34,28,47,302,19,11,42,087,27*70
$GPGSV,3,2,10,17,36,219,21,01,34,112,39,26,28,304,,19,24,043,31*7F
$GPGSV,3,3,10,13,12,178,32,51,49,195,37*76
$GPRMC,032639.000,A,3353.7571,N,09832.0260,W,0.21,8.43,010412,,,D*78
$GPGGA,032640.000,3353.7572,N,09832.0260,W,2,08,1.1,313.4,M,-23.7,M,0.8,0000*4B
$GPGSA,A,3,08,11,19,07,28,13,01,17,,,,,2.1,1.1,1.8*30
$GPRMC,032640.000,A,3353.7572,N,09832.0260,W,0.22,280.07,010412,,,D*74
$GPGGA,032641.000,3353.7572,N,09832.0260,W,2,08,1.1,313.3,M,-23.7,M,0.8,0000*4D
$GPGSA,A,3,08,11,19,07,28,13,01,17,,,,,2.1,1.1,1.8*30
$GPRMC,032641.000,A,3353.7572,N,09832.0260,W,0.16,109.00,010412,,,D*77
$GPGGA,032642.000,3353.7571,N,09832.0260,W,2,08,1.1,313.3,M,-23.7,M,1.8,0000*4C
$GPGSA,A,3,08,11,19,07,28,13,01,17,,,,,2.1,1.1,1.8*30
$GPRMC,032642.000,A,3353.7571,N,09832.0260,W,0.10,153.29,010412,,,D*75
$GPGGA,032643.000,3353.7571,N,09832.0260,W,2,08,1.1,313.2,M,-23.7,M,0.8,0000*4D
$GPGSA,A,3,08,11,19,07,28,13,01,17,,,,,2.1,1.1,1.8*30
$GPRMC,032643.000,A,3353.7571,N,09832.0260,W,0.16,175.87,010412,,,D*72
$GPGGA,032644.000,3353.7571,N,09832.0260,W,2,08,1.1,313.1,M,-23.7,M,1.8,0000*48
$GPGSA,A,3,08,11,19,07,28,13,01,17,,,,,2.1,1.1,1.8*30
$GPGSV,3,1,10,08,74,352,37,07,59,122,34,28,47,302,19,11,42,087,27*70
$GPGSV,3,2,10,17,36,219,21,01,34,112,39,26,28,304,,19,24,043,31*7F
$GPGSV,3,3,10,13,12,178,32,51,49,195,37*76
$GPRMC,032644.000,A,3353.7571,N,09832.0260,W,0.18,184.56,010412,,,D*79
$GPGGA,032645.000,3353.7570,N,09832.0260,W,2,08,1.1,313.0,M,-23.7,M,0.8,0000*48
$GPGSA,A,3,08,11,19,07,28,13,01,17,,,,,2.1,1.1,1.8*30
$GPRMC,032645.000,A,3353.7570,N,09832.0260,W,0.13,180.95,010412,,,D*79
$GPGGA,032646.000,3353.7570,N,09832.0261,W,2,08,1.1,312.9,M,-23.7,M,0.8,0000*42
$GPGSA,A,3,08,11,19,07,28,13,01,17,,,,,2.1,1.1,1.8*30
$GPRMC,032646.000,A,3353.7570,N,09832.0261,W,0.12,198.73,010412,,,D*7B
$GPGGA,032647.000,3353.7570,N,09832.0261,W,2,08,1.1,312.8,M,-23.7,M,0.8,0000*42
$GPGSA,A,3,08,11,19,07,28,13,01,17,,,,,2.1,1.1,1.8*30
$GPRMC,032647.000,A,3353.7570,N,09832.0261,W,0.09,194.53,010412,,,D*7E
$GPGGA,032648.000,3353.7570,N,09832.0261,W,2,08,1.1,312.8,M,-23.7,M,1.8,0000*4C
$GPGSA,A,3,08,11,19,07,28,13,01,17,,,,,2.1,1.1,1.8*30
$GPRMC,032648.000,A,3353.7570,N,09832.0261,W,0.07,68.63,010412,,,D*4E
$GPGGA,032649.000,3353.7571,N,09832.0261,W,2,08,1.1,312.6,M,-23.7,M,0.8,0000*43
$GPGSA,A,3,08,11,19,07,28,13,01,17,,,,,2.1,1.1,1.8*30
$GPGSV,3,1,10,08,74,352,37,07,59,122,33,28,47,302,18,11,42,087,27*76
$GPGSV,3,2,10,17,36,219,21,01,34,112,40,26,28,304,,19,24,043,30*70
$GPGSV,3,3,10,13,12,178,32,51,49,195,37*76
$GPRMC,032649.000,A,3353.7571,N,09832.0261,W,0.28,281.49,010412,,,D*7E
$GPGGA,032650.000,3353.7571,N,09832.0262,W,2,08,1.1,312.5,M,-23.7,M,1.8,0000*4A
$GPGSA,A,3,08,11,19,07,28,13,01,17,,,,,2.1,1.1,1.8*30
$GPRMC,032650.000,A,3353.7571,N,09832.0262,W,0.18,281.85,010412,,,D*76
$GPGGA,032651.000,3353.7571,N,09832.0263,W,2,08,1.1,312.5,M,-23.7,M,0.8,0000*4B
$GPGSA,A,3,08,11,19,07,28,13,01,17,,,,,2.1,1.1,1.8*30
$GPRMC,032651.000,A,3353.7571,N,09832.0263,W,0.30,269.48,010412,,,D*7B
$GPGGA,032652.000,3353.7571,N,09832.0264,W,2,08,1.1,312.5,M,-23.7,M,0.8,0000*4F
$GPGSA,A,3,08,11,19,07,28,13,01,17,,,,,2.1,1.1,1.8*30
$GPRMC,032652.000,A,3353.7571,N,09832.0264,W,0.21,288.70,010412,,,D*7B
$GPGGA,032653.000,3353.7571,N,09832.0264,W,2,08,1.1,312.5,M,-23.7,M,0.8,0000*4E
$GPGSA,A,3,08,11,19,07,28,13,01,17,,,,,2.1,1.1,1.8*30
$GPRMC,032653.000,A,3353.7571,N,09832.0264,W,0.12,209.46,010412,,,D*76
$GPGGA,032654.000,3353.7571,N,09832.0264,W,2,08,1.1,312.5,M,-23.7,M,0.8,0000*49
$GPGSA,A,3,08,11,19,07,28,13,01,17,,,,,2.1,1.1,1.8*30
$GPGSV,3,1,10,08,74,352,37,07,59,122,33,28,47,302,17,11,42,087,27*79
$GPGSV,3,2,10,17,36,219,21,01,34,112,40,26,28,304,,19,24,043,30*70
$GPGSV,3,3,10,13,12,178,32,51,49,195,37*76
$GPRMC,032654.000,A,3353.7571,N,09832.0264,W,0.13,183.72,010412,,,D*76
$GPGGA,032655.000,3353.7571,N,09832.0264,W,2,08,1.1,312.5,M,-23.7,M,1.8,0000*49
$GPGSA,A,3,08,11,19,07,28,13,01,17,,,,,2.1,1.1,1.8*30
$GPRMC,032655.000,A,3353.7571,N,09832.0264,W,0.11,182.49,010412,,,D*7C
$GPGGA,032656.000,3353.7571,N,09832.0265,W,2,08,1.1,312.4,M,-23.7,M,2.8,0000*49
$GPGSA,A,3,08,11,19,07,28,13,01,17,,,,,2.1,1.1,1.8*30
$GPRMC,032656.000,A,3353.7571,N,09832.0265,W,0.37,270.86,010412,,,D*77
$GPGGA,032657.000,3353.7571,N,09832.0266,W,2,07,1.2,312.4,M,-23.7,M,0.8,0000*45
$GPGSA,A,3,08,11,19,07,28,13,01,,,,,,2.1,1.2,1.8*35
$GPRMC,032657.000,A,3353.7571,N,09832.0266,W,0.30,297.79,010412,,,D*7B
$GPGGA,032658.000,3353.7572,N,09832.0266,W,2,07,1.2,312.3,M,-23.7,M,0.8,0000*4E
$GPGSA,A,3,08,11,19,07,28,13,01,,,,,,2.1,1.2,1.8*35
$GPRMC,032658.000,A,3353.7572,N,09832.0266,W,0.09,64.28,010412,,,D*47
$GPGGA,032659.000,3353.7572,N,09832.0265,W,2,07,1.2,312.3,M,-23.7,M,0.8,0000*4C
$GPGSA,A,3,08,11,19,07,28,13,01,,,,,,2.1,1.2,1.8*35
$GPGSV,3,1,10,08,74,352,36,07,59,122,33,28,47,302,17,11,42,087,26*79
$GPGSV,3,2,10,17,36,219,,01,34,112,40,26,28,304,,19,24,043,30*73
$GPGSV,3,3,10,13,12,178,32,51,49,195,37*76
$GPRMC,032659.000,A,3353.7572,N,09832.0265,W,0.15,95.80,010412,,,D*44
$GPGGA,032700.000,3353.7572,N,09832.0265,W,2,07,1.2,312.2,M,-23.7,M,1.8,0000*41
$GPGSA,A,3,08,11,19,07,28,13,01,,,,,,2.1,1.2,1.8*35
$GPRMC,032700.000,A,3353.7572,N,09832.0265,W,0.19,103.79,010412,,,D*7D
$GPGGA,032701.000,3353.7572,N,09832.0264,W,2,07,1.2,312.2,M,-23.7,M,2.8,0000*42
$GPGSA,A,3,08,11,19,07,28,13,01,,,,,,2.1,1.2,1.8*35
$GPRMC,032701.000,A,3353.7572,N,09832.0264,W,0.28,94.94,010412,,,D*43
$GPGGA,032702.000,3353.7572,N,09832.0263,W,2,07,1.2,312.1,M,-23.7,M,3.8,0000*44
$GPGSA,A,3,08,11,19,07,28,13,01,,,,,,2.1,1.2,1.8*35
$GPRMC,032702.000,A,3353.7572,N,09832.0263,W,0.23,96.54,010412,,,D*42
$GPGGA,032703.000,3353.7572,N,09832.0263,W,2,07,1.2,312.1,M,-23.7,M,0.8,0000*46
$GPGSA,A,3,08,11,19,07,28,13,01,,,,,,2.1,1.2,1.8*35
$GPRMC,032703.000,A,3353.7572,N,09832.0263,W,0.15,109.59,010412,,,D*7C
$GPGGA,032704.000,3353.7572,N,09832.0262,W,2,07,1.2,312.1,M,-23.7,M,0.8,0000*40
$GPGSA,A,3,08,11,19,07,28,13,01,,,,,,2.1,1.2,1.8*35
$GPGSV,3,1,10,08,74,352,36,07,59,122,33,28,47,302,16,11,42,087,25*7B
$GPGSV,3,2,10,17,36,219,,01,34,112,40,26,28,304,,19,24,043,30*73
$GPGSV,3,3,10,13,12,178,32,51,49,195,37*76
$GPRMC,032704.000,A,3353.7572,N,09832.0262,W,0.14,128.04,010412,,,D*70
$GPGGA,032705.000,3353.7572,N,09832.0262,W,2,07,1.2,312.2,M,-23.7,M,0.8,0000*42
$GPGSA,A,3,08,11,19,07,28,13,01,,,,,,2.1,1.2,1.8*35
$GPRMC,032705.000,A,3353.7572,N,09832.0262,W,0.30,89.54,010412,,,D*48
$GPGGA,032706.000,3353.7572,N,09832.0262,W,2,07,1.2,312.1,M,-23.7,M,0.8,0000*42
$GPGSA,A,3,08,11,19,07,28,13,01,,,,,,2.1,1.2,1.8*35
$GPRMC,032706.000,A,3353.7572,N,09832.0262,W,0.14,283.16,010412,,,D*73
$GPGGA,032707.000,3353.7572,N,09832.0263,W,2,07,1.2,312.1,M,-23.7,M,0.8,0000*42
$GPGSA,A,3,08,11,19,07,28,13,01,,,,,,2.1,1.2,1.8*35
$GPRMC,032707.000,A,3353.7572,N,09832.0263,W,0.22,305.65,010412,,,D*7D
$GPGGA,032708.000,3353.7573,N,09832.0263,W,2,07,1.2,312.1,M,-23.7,M,1.8,0000*4D
$GPGSA,A,3,08,11,19,07,28,13,01,,,,,,2.1,1.2,1.8*35
$GPRMC,032708.000,A,3353.7573,N,09832.0263,W,0.17,316.18,010412,,,D*7D
$GPGGA,032709.000,3353.7573,N,09832.0263,W,2,07,1.2,312.1,M,-23.7,M,0.8,0000*4D
$GPGSA,A,3,08,11,19,07,28,13,01,,,,,,2.1,1.2,1.8*35
$GPGSV,3,1,10,08,74,352,36,07,59,122,33,28,47,302,16,11,42,087,20*7E
$GPGSV,3,2,10,17,36,219,,01,34,112,40,26,28,304,,19,24,043,30*73
$GPGSV,3,3,10,13,12,178,32,51,49,195,38*79
$GPRMC,032709.000,A,3353.7573,N,09832.0263,W,0.19,73.03,010412,,,D*48
$GPGGA,032710.000,3353.7573,N,09832.0263,W,2,07,1.2,312.1,M,-23.7,M,0.8,0000*45
$GPGSA,A,3,08,11,19,07,28,13,01,,,,,,2.1,1.2,1.8*35
$GPRMC,032710.000,A,3353.7573,N,09832.0263,W,0.04,327.49,010412,,,D*70
$GPGGA,032711.000,3353.7573,N,09832.0263,W,2,07,1.2,312.0,M,-23.7,M,0.8,0000*45
$GPGSA,A,3,08,11,19,07,28,13,01,,,,,,2.1,1.2,1.8*35
$GPRMC,032711.000,A,3353.7573,N,09832.0263,W,0.19,295.97,010412,,,D*76
$GPGGA,032712.000,3353.7574,N,09832.0264,W,2,07,1.2,312.0,M,-23.7,M,1.8,0000*47
$GPGSA,A,3,08,11,19,07,28,13,01,,,,,,2.1,1.2,1.8*35
$GPRMC,032712.000,A,3353.7574,N,09832.0264,W,0.30,278.07,010412,,,D*74
$GPGGA,032713.000,3353.7574,N,09832.0265,W,2,07,1.2,311.9,M,-23.7,M,2.8,0000*4E
$GPGSA,A,3,08,11,19,07,28,13,01,,,,,,2.1,1.2,1.8*35
$GPRMC,032713.000,A,3353.7574,N,09832.0265,W,0.06,231.69,010412,,,D*74
$GPGGA,032714.000,3353.7574,N,09832.0265,W,2,07,1.2,311.9,M,-23.7,M,3.8,0000*48
$GPGSA,A,3,08,11,19,07,28,13,01,,,,,,2.1,1.2,1.8*35
$GPGSV,3,1,10,08,74,352,36,07,59,122,33,28,47,302,16,11,42,087,20*7E
$GPGSV,3,2,10,17,36,219,,01,34,112,40,26,28,304,,19,24,043,30*73
$GPGSV,3,3,10,13,12,178,31,51,49,195,37*75
$GPRMC,032714.000,A,3353.7574,N,09832.0265,W,0.07,80.66,010412,,,D*45
$GPGGA,032715.000,3353.7573,N,09832.0265,W,2,07,1.2,311.9,M,-23.7,M,0.8,0000*4D
$GPGSA,A,3,08,11,19,07,28,13,01,,,,,,2.1,1.2,1.8*35
$GPRMC,032715.000,A,3353.7573,N,09832.0265,W,0.08,178.06,010412,,,D*7C
$GPGGA,032716.000,3353.7573,N,09832.0265,W,2,07,1.2,311.9,M,-23.7,M,0.8,0000*4E
$GPGSA,A,3,08,11,19,07,28,13,01,,,,,,2.1,1.2,1.8*35
$GPRMC,032716.000,A,3353.7573,N,09832.0265,W,0.13,153.56,010412,,,D*79
$GPGGA,032717.000,3353.7573,N,09832.0265,W,2,08,1.1,312.0,M,-23.7,M,0.8,0000*49
$GPGSA,A,3,08,11,19,07,28,13,01,17,,,,,2.1,1.1,1.8*30
$GPRMC,032717.000,A,3353.7573,N,09832.0265,W,0.32,97.09,010412,,,D*48
$GPGGA,032718.000,3353.7573,N,09832.0264,W,2,08,1.1,312.1,M,-23.7,M,0.8,0000*46
$GPGSA,A,3,08,11,19,07,28,13,01,17,,,,,2.1,1.1,1.8*30
$GPRMC,032718.000,A,3353.7573,N,09832.0264,W,0.11,109.59,010412,,,D*74
$GPGGA,032719.000,3353.7573,N,09832.0264,W,2,08,1.1,312.1,M,-23.7,M,1.8,0000*46
$GPGSA,A,3,08,11,19,07,28,13,01,17,,,,,2.1,1.1,1.8*30
$GPGSV,3,1,10,08,74,352,36,07,59,122,33,28,47,302,17,11,42,087,20*7F
$GPGSV,3,2,10,17,36,219,24,01,34,112,40,26,28,304,21,19,24,043,31*77
$GPGSV,3,3,10,13,12,178,31,51,49,195,37*75
$GPRMC,032719.000,A,3353.7573,N,09832.0264,W,0.08,306.76,010412,,,D*7D
$GPGGA,032720.000,3353.7573,N,09832.0265,W,2,08,1.1,312.1,M,-23.7,M,2.8,0000*4E
$GPGSA,A,3,08,11,19,07,28,13,01,17,,,,,2.1,1.1,1.8*30
$GPRMC,032720.000,A,3353.7573,N,09832.0265,W,0.13,316.30,010412,,,D*7F
$GPGGA,032721.000,3353.7573,N,09832.0265,W,2,08,1.1,312.1,M,-23.7,M,0.8,0000*4D
$GPGSA,A,3,08,11,19,07,28,13,01,17,,,,,2.1,1.1,1.8*30
$GPRMC,032721.000,A,3353.7573,N,09832.0265,W,0.12,74.29,010412,,,D*40
$GPGGA,032722.000,3353.7573,N,09832.0265,W,2,08,1.1,312.1,M,-23.7,M,0.8,0000*4E
$GPGSA,A,3,08,11,19,07,28,13,01,17,,,,,2.1,1.1,1.8*30
$GPRMC,032722.000,A,3353.7573,N,09832.0265,W,0.11,341.26,010412,,,D*7A
$GPGGA,032723.000,3353.7573,N,09832.0265,W,2,08,1.1,312.1,M,-23.7,M,0.8,0000*4F
$GPGSA,A,3,08,11,19,07,28,13,01,17,,,,,2.1,1.1,1.8*30
$GPRMC,032723.000,A,3353.7573,N,09832.0265,W,0.03,228.28,010412,,,D*78
$GPGGA,032724.000,3353.7573,N,09832.0266,W,2,08,1.1,312.1,M,-23.7,M,0.8,0000*4B
$GPGSA,A,3,08,11,19,07,28,13,01,17,,,,,2.1,1.1,1.8*30
$GPGSV,3,1,10,08,74,352,36,07,59,122,32,28,47,302,18,11,42,087,20*71
$GPGSV,3,2,10,17,36,219,26,01,34,112,40,26,28,304,20,19,24,043,31*74
$GPGSV,3,3,10,13,12,178,30,51,49,195,37*74
$GPRMC,032724.000,A,3353.7573,N,09832.0266,W,0.09,154.34,010412,,,D*73
$GPGGA,032725.000,3353.7572,N,09832.0266,W,2,08,1.1,312.1,M,-23.7,M,0.8,0000*4B
$GPGSA,A,3,08,11,19,07,28,13,01,17,,,,,2.1,1.1,1.8*30
$GPRMC,032725.000,A,3353.7572,N,09832.0266,W,0.11,125.09,010412,,,D*72
$GPGGA,032726.000,3353.7572,N,09832.0265,W,2,08,1.1,312.1,M,-23.7,M,1.8,0000*4A
$GPGSA,A,3,08,11,19,07,28,13,01,17,,,,,2.1,1.1,1.8*30
$GPRMC,032726.000,A,3353.7572,N,09832.0265,W,0.14,116.85,010412,,,D*73
$GPGGA,032727.000,3353.7572,N,09832.0265,W,2,08,1.1,312.1,M,-23.7,M,0.8,0000*4A
$GPGSA,A,3,08,11,19,07,28,13,01,17,,,,,2.1,1.1,1.8*30
$GPRMC,032727.000,A,3353.7572,N,09832.0265,W,0.12,112.48,010412,,,D*71
$GPGGA,032728.000,3353.7572,N,09832.0265,W,2,08,1.1,312.1,M,-23.7,M,0.8,0000*45
$GPGSA,A,3,08,11,19,07,28,13,01,17,,,,,2.1,1.1,1.8*30
$GPRMC,032728.000,A,3353.7572,N,09832.0265,W,0.12,132.72,010412,,,D*75
$GPGGA,032729.000,3353.7571,N,09832.0265,W,2,08,1.1,312.2,M,-23.7,M,0.8,0000*44
$GPGSA,A,3,08,11,19,07,28,13,01,17,,,,,2.1,1.1,1.8*30
$GPGSV,3,1,10,08,74,352,36,07,59,122,31,28,47,302,17,11,42,087,20*7D
$GPGSV,3,2,10,17,36,219,26,01,34,112,41,26,28,304,19,19,24,043,31*7F
$GPGSV,3,3,10,13,12,178,30,51,49,195,37*74
$GPRMC,032729.000,A,3353.7571,N,09832.0265,W,0.16,111.95,010412,,,D*7B
$GPGGA,032730.000,3353.7571,N,09832.0265,W,2,08,1.1,312.2,M,-23.7,M,1.8,0000*4D
$GPGSA,A,3,08,11,19,07,28,13,01,17,,,,,2.1,1.1,1.8*30
$GPRMC,032730.000,A,3353.7571,N,09832.0265,W,0.14,111.88,010412,,,D*7D
$GPGGA,032731.000,3353.7571,N,09832.0264,W,2,08,1.1,312.3,M,-23.7,M,0.8,0000*4D
$GPGSA,A,3,08,11,19,07,28,13,01,17,,,,,2.1,1.1,1.8*30
$GPRMC,032731.000,A,3353.7571,N,09832.0264,W,0.18,97.57,010412,,,D*4C
$GPGGA,032732.000,3353.7571,N,09832.0264,W,2,08,1.1,312.3,M,-23.7,M,1.8,0000*4F
$GPGSA,A,3,08,11,19,07,28,13,01,17,,,,,2.1,1.1,1.8*30
$GPRMC,032732.000,A,3353.7571,N,09832.0264,W,0.14,110.02,010412,,,D*7D
$GPGGA,032733.000,3353.7570,N,09832.0264,W,2,08,1.1,312.4,M,-23.7,M,0.8,0000*49
$GPGSA,A,3,08,11,19,07,28,13,01,17,,,,,2.1,1.1,1.8*30
$GPRMC,032733.000,A,3353.7570,N,09832.0264,W,0.21,118.83,010412,,,D*7A
$GPGGA,032734.000,3353.7570,N,09832.0264,W,2,08,1.1,312.4,M,-23.7,M,0.8,0000*4E
$GPGSA,A,3,08,11,19,07,28,13,01,17,,,,,2.1,1.1,1.8*30
$GPGSV,3,1,10,08,74,352,36,07,59,122,30,28,47,302,15,11,42,087,21*7F
$GPGSV,3,2,10,17,36,219,27,01,34,112,41,26,28,304,,19,24,043,31*76
$GPGSV,3,3,10,13,12,178,29,51,49,195,38*73
$GPRMC,032734.000,A,3353.7570,N,09832.0264,W,0.09,125.11,010412,,,D*72
$GPGGA,032735.000,3353.7570,N,09832.0264,W,2,08,1.1,312.5,M,-23.7,M,0.8,0000*4E
$GPGSA,A,3,08,11,19,07,28,13,01,17,,,,,2.1,1.1,1.8*30
$GPRMC,032735.000,A,3353.7570,N,09832.0264,W,0.13,114.94,010412,,,D*77
$GPGGA,032736.000,3353.7570,N,09832.0264,W,2,08,1.1,312.5,M,-23.7,M,1.8,0000*4C
$GPGSA,A,3,08,11,19,07,28,13,01,17,,,,,2.1,1.1,1.8*30
$GPRMC,032736.000,A,3353.7570,N,09832.0264,W,0.12,111.13,010412,,,D*7F
$GPGGA,032737.000,3353.7569,N,09832.0264,W,2,08,1.1,312.6,M,-23.7,M,2.8,0000*45
$GPGSA,A,3,08,11,19,07,28,13,01,17,,,,,2.1,1.1,1.8*30
$GPRMC,032737.000,A,3353.7569,N,09832.0264,W,0.15,117.58,010412,,,D*78
$GPGGA,032738.000,3353.7569,N,09832.0264,W,2,08,1.1,312.6,M,-23.7,M,3.8,0000*4B
$GPGSA,A,3,08,11,19,07,28,13,01,17,,,,,2.1,1.1,1.8*30
$GPRMC,032738.000,A,3353.7569,N,09832.0264,W,0.10,140.22,010412,,,D*7D
$GPGGA,032739.000,3353.7569,N,09832.0264,W,2,08,1.1,312.6,M,-23.7,M,0.8,0000*49
$GPGSA,A,3,08,11,19,07,28,13,01,17,,,,,2.1,1.1,1.8*30
$GPGSV,3,1,10,08,74,352,36,07,59,122,29,28,47,302,14,11,42,087,23*74
$GPGSV,3,2,10,17,36,219,27,01,34,112,41,26,28,304,,19,24,043,31*76
$GPGSV,3,3,10,13,12,178,29,51,49,195,38*73
$GPRMC,032739.000,A,3353.7569,N,09832.0264,W,0.10,140.30,010412,,,D*7F
$GPGGA,032740.000,3353.7571,N,09832.0258,W,2,08,1.1,313.3,M,-23.7,M,0.8,0000*45
$GPGSA,A,3,08,11,19,07,28,13,01,17,,,,,2.1,1.1,1.8*30
$GPRMC,032740.000,A,3353.7571,N,09832.0258,W,0.13,124.54,010412,,,D*74
$GPGGA,032741.000,3353.7568,N,09832.0257,W,2,08,1.1,314.4,M,-23.7,M,0.8,0000*43
$GPGSA,A,3,08,11,19,07,28,13,01,17,,,,,2.1,1.1,1.8*30
$GPRMC,032741.000,A,3353.7568,N,09832.0257,W,0.19,124.98,010412,,,D*78
$GPGGA,032742.000,3353.7570,N,09832.0249,W,2,08,1.1,315.2,M,-23.7,M,1.8,0000*40
$GPGSA,A,3,08,11,19,07,28,13,01,17,,,,,2.1,1.1,1.8*30
$GPRMC,032742.000,A,3353.7570,N,09832.0249,W,0.20,103.72,010412,,,D*76
$GPGGA,032743.000,3353.7570,N,09832.0249,W,2,08,1.1,315.4,M,-23.7,M,2.8,0000*44
$GPGSA,A,3,08,11,19,07,28,13,01,17,,,,,2.1,1.1,1.8*30
$GPRMC,032743.000,A,3353.7570,N,09832.0249,W,0.17,105.45,010412,,,D*71
$GPGGA,032744.000,3353.7573,N,09832.0239,W,2,07,1.4,316.4,M,-23.7,M,3.8,0000*4F
$GPGSA,A,3,08,11,19,07,13,01,17,,,,,,2.2,1.4,1.8*3C
$GPGSV,3,1,10,08,74,352,36,07,59,122,24,28,47,302,,11,42,087,24*7B
$GPGSV,3,2,10,17,36,219,27,01,34,112,41,26,28,304,21,19,24,043,31*75
$GPGSV,3,3,10,13,12,178,28,51,49,195,38*72
$GPRMC,032744.000,A,3353.7573,N,09832.0239,W,0.16,74.62,010412,,,D*41
$GPGGA,032745.000,3353.7576,N,09832.0233,W,2,07,1.4,317.1,M,-23.7,M,0.8,0000*46
$GPGSA,A,3,08,11,19,07,13,01,17,,,,,,2.2,1.4,1.8*3C
$GPRMC,032745.000,A,3353.7576,N,09832.0233,W,0.13,87.72,010412,,,D*47
$GPGGA,032746.000,3353.7577,N,09832.0227,W,2,07,1.4,317.8,M,-23.7,M,0.8,0000*48
$GPGSA,A,3,08,11,19,07,13,01,17,,,,,,2.2,1.4,1.8*3C
$GPRMC,032746.000,A,3353.7577,N,09832.0227,W,0.14,92.28,010412,,,D*4C
$GPGGA,032747.000,3353.7577,N,09832.0227,W,2,07,1.4,317.9,M,-23.7,M,0.8,0000*48
$GPGSA,A,3,08,11,19,07,13,01,17,,,,,,2.2,1.4,1.8*3C
$GPRMC,032747.000,A,3353.7577,N,09832.0227,W,0.06,128.31,010412,,,D*76
$GPGGA,032748.000,3353.7576,N,09832.0227,W,2,07,1.4,318.0,M,-23.7,M,1.8,0000*41
$GPGSA,A,3,08,11,19,07,13,01,17,,,,,,2.2,1.4,1.8*3C
$GPRMC,032748.000,A,3353.7576,N,09832.0227,W,0.09,97.27,010412,,,D*45
$GPGGA,032749.000,3353.7575,N,09832.0228,W,2,07,1.4,318.0,M,-23.7,M,2.8,0000*4F
$GPGSA,A,3,08,11,19,07,13,01,17,,,,,,2.2,1.4,1.8*3C
$GPGSV,3,1,10,08,74,352,36,07,59,122,24,28,47,302,,11,42,087,26*79
$GPGSV,3,2,10,17,36,219,22,01,34,112,40,26,28,304,21,19,24,043,31*71
$GPGSV,3,3,10,13,12,178,28,51,49,195,38*72
$GPRMC,032749.000,A,3353.7575,N,09832.0228,W,0.21,240.70,010412,,,D*78
$GPGGA,032750.000,3353.7575,N,09832.0228,W,2,07,1.4,318.0,M,-23.7,M,3.8,0000*46
$GPGSA,A,3,08,11,19,07,13,01,17,,,,,,2.2,1.4,1.8*3C
$GPRMC,032750.000,A,3353.7575,N,09832.0228,W,0.18,238.60,010412,,,D*74
$GPGGA,032751.000,3353.7574,N,09832.0230,W,2,07,1.4,318.0,M,-23.7,M,0.8,0000*4C
$GPGSA,A,3,08,11,19,07,13,01,17,,,,,,2.2,1.4,1.8*3C
$GPRMC,032751.000,A,3353.7574,N,09832.0230,W,0.28,250.49,010412,,,D*7B
$GPGGA,032752.000,3353.7573,N,09832.0231,W,2,06,1.6,317.9,M,-23.7,M,0.8,0000*4C
$GPGSA,A,3,08,11,19,07,13,01,,,,,,,2.4,1.6,1.8*3E
$GPRMC,032752.000,A,3353.7573,N,09832.0231,W,0.07,274.97,010412,,,D*76
$GPGGA,032753.000,3353.7573,N,09832.0231,W,2,07,1.2,317.8,M,-23.7,M,0.8,0000*49
$GPGSA,A,3,08,11,19,07,28,13,01,,,,,,2.1,1.2,1.7*3A
$GPRMC,032753.000,A,3353.7573,N,09832.0231,W,0.14,89.12,010412,,,D*48
$GPGGA,032754.000,3353.7573,N,09832.0231,W,2,07,1.2,317.8,M,-23.7,M,0.8,0000*4E
$GPGSA,A,3,08,11,19,07,28,13,01,,,,,,2.1,1.2,1.7*3A
$GPGSV,3,1,10,08,74,352,35,07,59,122,25,28,47,302,14,11,42,087,28*70
$GPGSV,3,2,10,17,36,219,,01,34,112,40,26,28,304,21,19,24,043,30*70
$GPGSV,3,3,10,13,12,178,29,51,49,195,38*73
$GPRMC,032754.000,A,3353.7573,N,09832.0231,W,0.21,97.12,010412,,,D*46
$GPGGA,032755.000,3353.7572,N,09832.0231,W,2,07,1.2,317.8,M,-23.7,M,1.8,0000*4F
$GPGSA,A,3,08,11,19,07,28,13,01,,,,,,2.1,1.2,1.7*3A
$GPRMC,032755.000,A,3353.7572,N,09832.0231,W,0.23,95.13,010412,,,D*47
$GPGGA,032756.000,3353.7572,N,09832.0231,W,2,07,1.2,317.7,M,-23.7,M,2.8,0000*40
$GPGSA,A,3,08,11,19,07,28,13,01,,,,,,2.1,1.2,1.7*3A
$GPRMC,032756.000,A,3353.7572,N,09832.0231,W,0.24,95.63,010412,,,D*44
$GPGGA,032757.000,3353.7571,N,09832.0231,W,2,07,1.2,317.7,M,-23.7,M,0.8,0000*40
$GPGSA,A,3,08,11,19,07,28,13,01,,,,,,2.1,1.2,1.7*3A
$GPRMC,032757.000,A,3353.7571,N,09832.0231,W,0.25,97.22,010412,,,D*40
$GPGGA,032758.000,3353.7571,N,09832.0231,W,2,07,1.2,317.6,M,-23.7,M,0.8,0000*4E
$GPGSA,A,3,08,11,19,07,28,13,01,,,,,,2.1,1.2,1.7*3A
$GPRMC,032758.000,A,3353.7571,N,09832.0231,W,0.20,100.11,010412,,,D*75
$GPGGA,032759.000,3353.7570,N,09832.0231,W,2,07,1.2,317.5,M,-23.7,M,0.8,0000*4D
$GPGSA,A,3,08,11,19,07,28,13,01,,,,,,2.1,1.2,1.7*3A
$GPGSV,3,1,10,08,74,352,35,07,59,122,26,28,47,302,13,11,42,087,29*75
$GPGSV,3,2,10,17,36,219,,01,34,112,40,26,28,304,20,19,24,043,30*71
$GPGSV,3,3,10,13,12,178,29,51,49,195,37*7C
$GPRMC,032759.000,A,3353.7570,N,09832.0231,W,0.14,104.72,010412,,,D*73
$GPGGA,032800.000,3353.7570,N,09832.0231,W,2,07,1.2,317.5,M,-23.7,M,1.8,0000*4F
$GPGSA,A,3,08,11,19,07,28,13,01,,,,,,2.1,1.2,1.7*3A
$GPRMC,032800.000,A,3353.7570,N,09832.0231,W,0.17,111.18,010412,,,D*7B
$GPGGA,032801.000,3353.7569,N,09832.0232,W,2,06,1.6,317.3,M,-23.7,M,0.8,0000*47
$GPGSA,A,3,08,11,19,07,13,01,,,,,,,2.4,1.6,1.8*3E
$GPRMC,032801.000,A,3353.7569,N,09832.0232,W,0.04,286.47,010412,,,D*74
$GPGGA,032802.000,3353.7569,N,09832.0233,W,2,06,1.6,317.1,M,-23.7,M,1.8,0000*46
$GPGSA,A,3,08,11,19,07,13,01,,,,,,,2.4,1.6,1.8*3E
$GPRMC,032802.000,A,3353.7569,N,09832.0233,W,0.07,302.34,010412,,,D*7C
$GPGGA,032803.000,3353.7569,N,09832.0234,W,2,06,1.6,316.9,M,-23.7,M,0.8,0000*48
$GPGSA,A,3,08,11,19,07,13,01,,,,,,,2.4,1.6,1.8*3E
$GPRMC,032803.000,A,3353.7569,N,09832.0234,W,0.08,275.58,010412,,,D*7E
$GPGGA,032804.000,3353.7569,N,09832.0235,W,2,07,1.4,316.7,M,-23.7,M,0.8,0000*43
$GPGSA,A,3,08,11,19,07,13,01,17,,,,,,2.2,1.4,1.8*3C
$GPGSV,3,1,10,08,74,352,35,07,59,122,27,28,47,302,,11,42,087,31*7F
$GPGSV,3,2,10,17,36,219,23,01,34,112,40,26,28,304,19,19,24,043,30*7A
$GPGSV,3,3,10,13,12,178,29,51,49,195,37*7C
$GPRMC,032804.000,A,3353.7569,N,09832.0235,W,0.09,20.81,010412,,,D*4F
$GPGGA,032805.000,3353.7569,N,09832.0236,W,2,07,1.4,316.5,M,-23.7,M,0.8,0000*43
$GPGSA,A,3,08,11,19,07,13,01,17,,,,,,2.2,1.4,1.8*3C
$GPRMC,032805.000,A,3353.7569,N,09832.0236,W,0.11,34.60,010412,,,D*4E
$GPGGA,032806.000,3353.7569,N,09832.0237,W,2,07,1.4,316.3,M,-23.7,M,1.8,0000*46
$GPGSA,A,3,08,11,19,07,13,01,17,,,,,,2.2,1.4,1.8*3C
$GPRMC,032806.000,A,3353.7569,N,09832.0237,W,0.09,40.22,010412,,,D*40
$GPGGA,032807.000,3353.7569,N,09832.0238,W,2,07,1.4,316.1,M,-23.7,M,2.8,0000*49
$GPGSA,A,3,08,11,19,07,13,01,17,,,,,,2.2,1.4,1.8*3C
$GPRMC,032807.000,A,3353.7569,N,09832.0238,W,0.06,54.66,010412,,,D*44
$GPGGA,032808.000,3353.7568,N,09832.0239,W,2,07,1.4,316.0,M,-23.7,M,3.8,0000*46
$GPGSA,A,3,08,11,19,07,13,01,17,,,,,,2.2,1.4,1.8*3C
$GPRMC,032808.000,A,3353.7568,N,09832.0239,W,0.08,26.19,010412,,,D*48
$GPGGA,032809.000,3353.7568,N,09832.0240,W,2,07,1.4,315.8,M,-23.7,M,0.8,0000*41
$GPGSA,A,3,08,11,19,07,13,01,17,,,,,,2.2,1.4,1.8*3C
$GPGSV,3,1,10,08,74,352,35,07,59,122,27,28,47,302,,11,42,087,32*7C
$GPGSV,3,2,10,17,36,219,24,01,34,112,40,26,28,304,18,19,24,043,30*7C
$GPGSV,3,3,10,13,12,178,29,51,49,195,37*7C
$GPRMC,032809.000,A,3353.7568,N,09832.0240,W,0.07,10.42,010412,,,D*43
$GPGGA,032810.000,3353.7568,N,09832.0241,W,2,07,1.4,315.7,M,-23.7,M,0.8,0000*47
$GPGSA,A,3,08,11,19,07,13,01,17,,,,,,2.2,1.4,1.8*3C
$GPRMC,032810.000,A,3353.7568,N,09832.0241,W,0.02,9.46,010412,,,D*73
$GPGGA,032811.000,3353.7568,N,09832.0242,W,2,07,1.4,315.5,M,-23.7,M,0.8,0000*47
$GPGSA,A,3,08,11,19,07,13,01,17,,,,,,2.2,1.4,1.8*3C
$GPRMC,032811.000,A,3353.7568,N,09832.0242,W,0.05,275.44,010412,,,D*7D
$GPGGA,032812.000,3353.7568,N,09832.0243,W,2,07,1.4,315.2,M,-23.7,M,0.8,0000*42
$GPGSA,A,3,08,11,19,07,13,01,17,,,,,,2.2,1.4,1.8*3C
$GPRMC,032812.000,A,3353.7568,N,09832.0243,W,0.06,310.33,010412,,,D*7E
$GPGGA,032813.000,3353.7568,N,09832.0244,W,2,07,1.4,315.0,M,-23.7,M,0.8,0000*46
$GPGSA,A,3,08,11,19,07,13,01,17,,,,,,2.2,1.4,1.8*3C
$GPRMC,032813.000,A,3353.7568,N,09832.0244,W,0.06,314.69,010412,,,D*73
$GPGGA,032814.000,3353.7567,N,09832.0245,W,2,07,1.4,314.8,M,-23.7,M,1.8,0000*47
$GPGSA,A,3,08,11,19,07,13,01,17,,,,,,2.2,1.4,1.7*33
$GPGSV,3,1,10,08,74,352,35,07,59,122,28,28,47,302,,11,42,087,33*72
$GPGSV,3,2,10,17,36,219,26,01,34,112,40,26,28,304,19,19,24,043,31*7E
$GPGSV,3,3,10,13,12,178,28,51,49,195,37*7D
$GPRMC,032814.000,A,3353.7567,N,09832.0245,W,0.07,299.46,010412,,,D*72
$GPGGA,032815.000,3353.7567,N,09832.0246,W,2,07,1.4,314.5,M,-23.7,M,0.8,0000*49
$GPGSA,A,3,08,11,19,07,13,01,17,,,,,,2.2,1.4,1.7*33
$GPRMC,032815.000,A,3353.7567,N,09832.0246,W,0.10,327.04,010412,,,D*74
$GPGGA,032816.000,3353.7568,N,09832.0247,W,2,07,1.4,314.2,M,-23.7,M,0.8,0000*43
$GPGSA,A,3,08,11,19,07,13,01,17,,,,,,2.2,1.4,1.7*33
$GPRMC,032816.000,A,3353.7568,N,09832.0247,W,0.11,317.15,010412,,,D*7B
$GPGGA,032817.000,3353.7568,N,09832.0248,W,2,07,1.4,314.0,M,-23.7,M,0.8,0000*4F
$GPGSA,A,3,08,11,19,07,13,01,17,,,,,,2.2,1.4,1.7*33
$GPRMC,032817.000,A,3353.7568,N,09832.0248,W,0.09,358.44,010412,,,D*73
$GPGGA,032818.000,3353.7567,N,09832.0249,W,2,08,1.1,313.9,M,-23.7,M,0.8,0000*4A
$GPGSA,A,3,08,11,19,07,28,13,01,17,,,,,2.0,1.1,1.7*3E
$GPRMC,032818.000,A,3353.7567,N,09832.0249,W,0.10,82.50,010412,,,D*4B
$GPGGA,032819.000,3353.7567,N,09832.0250,W,2,08,1.1,313.7,M,-23.7,M,1.8,0000*4C
$GPGSA,A,3,08,11,19,07,28,13,01,17,,,,,2.0,1.1,1.7*3E
$GPGSV,3,1,10,08,74,352,35,07,59,122,28,28,47,302,19,11,42,087,33*7A
$GPGSV,3,2,10,17,36,219,27,01,34,112,40,26,28,304,19,19,24,043,31*7F
$GPGSV,3,3,10,13,12,178,28,51,49,195,37*7D
$GPRMC,032819.000,A,3353.7567,N,09832.0250,W,0.12,335.20,010412,,,D*78
$GPGGA,032820.000,3353.7567,N,09832.0250,W,2,08,1.1,313.6,M,-23.7,M,2.8,0000*44
$GPGSA,A,3,08,11,19,07,28,13,01,17,,,,,2.0,1.1,1.7*3E
$GPRMC,032820.000,A,3353.7567,N,09832.0250,W,0.10,74.80,010412,,,D*4C
$GPGGA,032821.000,3353.7565,N,09832.0250,W,2,08,1.1,314.1,M,-23.7,M,0.8,0000*45
$GPGSA,A,3,08,11,19,07,28,13,01,17,,,,,2.0,1.1,1.7*3E
$GPRMC,032821.000,A,3353.7565,N,09832.0250,W,0.08,325.74,010412,,,D*7A
$GPGGA,032822.000,3353.7564,N,09832.0251,W,2,08,1.1,314.5,M,-23.7,M,0.8,0000*42
$GPGSA,A,3,08,11,19,07,28,13,01,17,,,,,2.0,1.1,1.7*3E
$GPRMC,032822.000,A,3353.7564,N,09832.0251,W,0.14,318.92,010412,,,D*72
$GPGGA,032823.000,3353.7563,N,09832.0252,W,2,08,1.1,314.8,M,-23.7,M,0.8,0000*4A
$GPGSA,A,3,08,11,19,07,28,13,01,17,,,,,2.0,1.1,1.7*3E
$GPRMC,032823.000,A,3353.7563,N,09832.0252,W,0.32,270.46,010412,,,D*75
$GPGGA,032824.000,3353.7562,N,09832.0253,W,2,08,1.1,315.0,M,-23.7,M,1.8,0000*45
$GPGSA,A,3,08,11,19,07,28,13,01,17,,,,,2.0,1.1,1.7*3E
$GPGSV,3,1,10,08,74,352,35,07,59,122,28,28,47,302,18,11,42,087,33*7B
$GPGSV,3,2,10,17,36,219,26,01,34,112,40,26,28,304,18,19,24,043,31*7F
$GPGSV,3,3,10,13,12,178,28,51,49,195,36*7C
$GPRMC,032824.000,A,3353.7562,N,09832.0253,W,0.09,94.46,010412,,,D*42
$GPGGA,032825.000,3353.7561,N,09832.0253,W,2,07,1.4,315.1,M,-23.7,M,2.8,0000*4F
$GPGSA,A,3,08,11,19,07,13,01,17,,,,,,2.2,1.4,1.7*33
$GPRMC,032825.000,A,3353.7561,N,09832.0253,W,0.03,358.10,010412,,,D*7A
$GPGGA,032826.000,3353.7561,N,09832.0253,W,2,07,1.4,315.3,M,-23.7,M,0.8,0000*4C
$GPGSA,A,3,08,11,19,07,13,01,17,,,,,,2.2,1.4,1.7*33
$GPRMC,032826.000,A,3353.7561,N,09832.0253,W,0.02,337.56,010412,,,D*73
$GPGGA,032827.000,3353.7560,N,09832.0254,W,2,07,1.4,315.3,M,-23.7,M,0.8,0000*4B
$GPGSA,A,3,08,11,19,07,13,01,17,,,,,,2.2,1.4,1.7*33
$GPRMC,032827.000,A,3353.7560,N,09832.0254,W,0.04,307.58,010412,,,D*7F
$GPGGA,032828.000,3353.7559,N,09832.0254,W,2,07,1.4,315.4,M,-23.7,M,0.8,0000*49
$GPGSA,A,3,08,11,19,07,13,01,17,,,,,,2.2,1.4,1.7*33
$GPRMC,032828.000,A,3353.7559,N,09832.0254,W,0.07,248.86,010412,,,D*70
$GPGGA,032829.000,3353.7558,N,09832.0255,W,2,07,1.4,315.6,M,-23.7,M,0.8,0000*4A
$GPGSA,A,3,08,11,19,07,13,01,17,,,,,,2.2,1.4,1.7*33
$GPGSV,3,1,10,08,74,352,35,07,59,122,28,28,47,302,,11,42,087,33*72
$GPGSV,3,2,10,17,36,219,21,01,34,112,40,26,28,304,18,19,24,043,31*78
$GPGSV,3,3,10,13,12,178,28,51,49,195,38*72
$GPRMC,032829.000,A,3353.7558,N,09832.0255,W,0.07,247.81,010412,,,D*79
$GPGGA,032830.000,3353.7558,N,09832.0255,W,2,06,1.7,315.7,M,-23.7,M,1.8,0000*40
$GPGSA,A,3,08,11,19,07,13,01,,,,,,,2.4,1.7,1.7*30
$GPRMC,032830.000,A,3353.7558,N,09832.0255,W,0.03,201.95,010412,,,D*72
$GPGGA,032831.000,3353.7557,N,09832.0256,W,2,06,1.7,315.8,M,-23.7,M,2.8,0000*41
$GPGSA,A,3,08,11,19,07,13,01,,,,,,,2.4,1.7,1.7*30
$GPRMC,032831.000,A,3353.7557,N,09832.0256,W,0.05,167.05,010412,,,D*73
$GPGGA,032832.000,3353.7557,N,09832.0256,W,2,06,1.7,315.6,M,-23.7,M,3.8,0000*4D
$GPGSA,A,3,08,11,19,07,13,01,,,,,,,2.4,1.7,1.7*30
$GPRMC,032832.000,A,3353.7557,N,09832.0256,W,0.04,101.22,010412,,,D*74
$GPGGA,032833.000,3353.7557,N,09832.0257,W,2,06,1.7,315.3,M,-23.7,M,0.8,0000*4B
$GPGSA,A,3,08,11,19,07,13,01,,,,,,,2.4,1.7,1.7*30
$GPRMC,032833.000,A,3353.7557,N,09832.0257,W,0.03,359.14,010412,,,D*79
$GPGGA,032834.000,3353.7557,N,09832.0257,W,2,06,1.7,315.0,M,-23.7,M,0.8,0000*4F
$GPGSA,A,3,08,11,19,07,13,01,,,,,,,2.4,1.7,1.7*30
$GPGSV,3,1,10,08,74,352,35,07,59,122,28,28,47,302,,11,42,087,32*73
$GPGSV,3,2,10,17,36,219,,01,34,112,40,26,28,304,16,19,24,043,31*75
$GPGSV,3,3,10,13,12,178,28,51,49,195,38*72
$GPRMC,032834.000,A,3353.7557,N,09832.0257,W,0.08,28.62,010412,,,D*41
$GPGGA,032835.000,3353.7558,N,09832.0258,W,2,06,1.7,314.6,M,-23.7,M,0.8,0000*49
$GPGSA,A,3,08,11,19,07,13,01,,,,,,,2.4,1.7,1.7*30
$GPRMC,032835.000,A,3353.7558,N,09832.0258,W,0.07,318.72,010412,,,D*7E
$GPGGA,032836.000,3353.7558,N,09832.0259,W,2,06,1.7,314.2,M,-23.7,M,1.8,0000*4E
$GPGSA,A,3,08,11,19,07,13,01,,,,,,,2.4,1.7,1.7*30
$GPRMC,032836.000,A,3353.7558,N,09832.0259,W,0.09,324.87,010412,,,D*77
$GPGGA,032837.000,3353.7559,N,09832.0259,W,2,06,1.7,313.8,M,-23.7,M,2.8,0000*40
$GPGSA,A,3,08,11,19,07,13,01,,,,,,,2.4,1.7,1.7*30
$GPRMC,032837.000,A,3353.7559,N,09832.0259,W,0.10,325.17,010412,,,D*77
$GPGGA,032838.000,3353.7559,N,09832.0260,W,2,06,1.7,313.4,M,-23.7,M,3.8,0000*48
$GPGSA,A,3,08,11,19,07,13,01,,,,,,,2.4,1.7,1.7*30
$GPRMC,032838.000,A,3353.7559,N,09832.0260,W,0.08,329.87,010412,,,D*7E
$GPGGA,032839.000,3353.7560,N,09832.0261,W,2,06,1.7,313.0,M,-23.7,M,0.8,0000*45
$GPGSA,A,3,08,11,19,07,13,01,,,,,,,2.4,1.7,1.7*30
$GPGSV,3,1,10,08,74,352,34,07,59,122,28,28,47,302,,11,42,087,32*72
$GPGSV,3,2,10,17,36,219,,01,34,112,40,26,28,304,,19,24,043,31*72
$GPGSV,3,3,10,13,12,178,29,51,49,195,38*73
$GPRMC,032839.000,A,3353.7560,N,09832.0261,W,0.08,298.38,010412,,,D*7B
$GPGGA,032840.000,3353.7560,N,09832.0261,W,2,06,1.7,312.7,M,-23.7,M,0.8,0000*4D
$GPGSA,A,3,08,11,19,07,13,01,,,,,,,2.4,1.7,1.7*30
$GPRMC,032840.000,A,3353.7560,N,09832.0261,W,0.09,325.04,010412,,,D*7C
$GPGGA,032841.000,3353.7560,N,09832.0262,W,2,06,1.7,312.5,M,-23.7,M,0.8,0000*4D
$GPGSA,A,3,08,11,19,07,13,01,,,,,,,2.4,1.7,1.7*30
$GPRMC,032841.000,A,3353.7560,N,09832.0262,W,0.06,3.94,010412,,,D*7F
$GPGGA,032842.000,3353.7560,N,09832.0262,W,2,06,1.7,312.3,M,-23.7,M,0.8,0000*48
$GPGSA,A,3,08,11,19,07,13,01,,,,,,,2.4,1.7,1.7*30
$GPRMC,032842.000,A,3353.7560,N,09832.0262,W,0.07,355.19,010412,,,D*78
$GPGGA,032843.000,3353.7560,N,09832.0262,W,2,06,1.7,312.1,M,-23.7,M,0.8,0000*4B
$GPGSA,A,3,08,11,19,07,13,01,,,,,,,2.4,1.7,1.7*30
$GPRMC,032843.000,A,3353.7560,N,09832.0262,W,0.03,342.28,010412,,,D*79
$GPGGA,032844.000,3353.7560,N,09832.0263,W,2,06,1.7,311.9,M,-23.7,M,1.8,0000*47
$GPGSA,A,3,08,11,19,07,13,01,,,,,,,2.4,1.7,1.7*30
$GPGSV,3,1,10,08,74,352,34,07,59,122,27,28,47,302,,11,42,087,32*7D
$GPGSV,3,2,10,17,36,219,,01,34,112,40,26,28,304,,19,24,043,31*72
$GPGSV,3,3,10,13,12,178,29,51,49,195,37*7C
$GPRMC,032844.000,A,3353.7560,N,09832.0263,W,0.08,0.62,010412,,,D*7F
$GPGGA,032845.000,3353.7560,N,09832.0263,W,2,07,1.2,311.7,M,-23.7,M,0.8,0000*4D
$GPGSA,A,3,08,11,19,07,28,13,01,,,,,,2.1,1.2,1.7*3A
$GPRMC,032845.000,A,3353.7560,N,09832.0263,W,0.20,93.74,010412,,,D*49
$GPGGA,032846.000,3353.7560,N,09832.0262,W,2,07,1.2,311.5,M,-23.7,M,0.8,0000*4D
$GPGSA,A,3,08,11,19,07,28,13,01,,,,,,2.1,1.2,1.7*3A
$GPRMC,032846.000,A,3353.7560,N,09832.0262,W,0.27,88.82,010412,,,D*4F
$GPGGA,032847.000,3353.7561,N,09832.0262,W,2,07,1.2,311.2,M,-23.7,M,0.8,0000*4A
$GPGSA,A,3,08,11,19,07,28,13,01,,,,,,2.1,1.2,1.7*3A
$GPRMC,032847.000,A,3353.7561,N,09832.0262,W,0.12,75.40,010412,,,D*45
$GPGGA,032848.000,3353.7561,N,09832.0263,W,2,07,1.2,310.9,M,-23.7,M,1.8,0000*4F
$GPGSA,A,3,08,11,19,07,28,13,01,,,,,,2.1,1.2,1.7*3A
$GPRMC,032848.000,A,3353.7561,N,09832.0263,W,0.21,307.22,010412,,,D*79
$GPGGA,032849.000,3353.7561,N,09832.0264,W,2,08,1.1,310.7,M,-23.7,M,0.8,0000*4A
$GPGSA,A,3,08,11,19,07,28,13,01,17,,,,,2.0,1.1,1.7*3E
$GPGSV,3,1,10,08,74,352,33,07,59,122,27,28,47,302,20,11,42,087,32*78
$GPGSV,3,2,10,17,36,219,23,01,34,112,40,26,28,304,,19,24,043,32*70
$GPGSV,3,3,10,13,12,178,29,51,49,195,37*7C
$GPRMC,032849.000,A,3353.7561,N,09832.0264,W,0.45,293.00,010412,,,D*71
$GPGGA,032850.000,3353.7562,N,09832.0265,W,2,08,1.1,310.5,M,-23.7,M,0.8,0000*42
$GPGSA,A,3,08,11,19,07,28,13,01,17,,,,,2.0,1.1,1.7*3E
$GPRMC,032850.000,A,3353.7562,N,09832.0265,W,0.13,65.14,010412,,,D*46
$GPGGA,032851.000,3353.7562,N,09832.0264,W,2,08,1.1,310.4,M,-23.7,M,0.8,0000*43
$GPGSA,A,3,08,11,19,07,28,13,01,17,,,,,2.0,1.1,1.7*3E
$GPRMC,032851.000,A,3353.7562,N,09832.0264,W,0.18,89.49,010412,,,D*47
$GPGGA,032852.000,3353.7562,N,09832.0264,W,2,08,1.1,310.2,M,-23.7,M,0.8,0000*46
$GPGSA,A,3,08,11,19,07,28,13,01,17,,,,,2.0,1.1,1.7*3E
$GPRMC,032852.000,A,3353.7562,N,09832.0264,W,0.10,80.78,010412,,,D*47
$GPGGA,032853.000,3353.7562,N,09832.0264,W,2,08,1.1,310.2,M,-23.7,M,0.8,0000*47
$GPGSA,A,3,08,11,19,07,28,13,01,17,,,,,2.0,1.1,1.7*3E
$GPRMC,032853.000,A,3353.7562,N,09832.0264,W,0.33,81.03,010412,,,D*4A
$GPGGA,032854.000,3353.7562,N,09832.0263,W,2,08,1.1,310.2,M,-23.7,M,1.8,0000*46
$GPGSA,A,3,08,11,19,07,28,13,01,17,,,,,2.0,1.1,1.7*3E
$GPGSV,3,1,10,08,75,354,33,07,58,124,27,28,48,304,20,11,42,085,32*73
$GPGSV,3,2,10,17,37,220,24,01,35,111,40,26,28,302,18,19,23,043,32*76
$GPGSV,3,3,10,13,11,178,28,51,49,195,37*7E
$GPRMC,032854.000,A,3353.7562,N,09832.0263,W,0.25,58.25,010412,,,D*4D
$GPGGA,032855.000,3353.7562,N,09832.0263,W,2,08,1.1,310.2,M,-23.7,M,2.8,0000*44
$GPGSA,A,3,08,11,19,07,28,13,01,17,,,,,2.0,1.1,1.7*3E
$GPRMC,032855.000,A,3353.7562,N,09832.0263,W,0.04,103.47,010412,,,D*74
$GPGGA,032856.000,3353.7562,N,09832.0263,W,2,08,1.1,310.2,M,-23.7,M,3.8,0000*46
$GPGSA,A,3,08,11,19,07,28,13,01,17,,,,,2.0,1.1,1.7*3E
$GPRMC,032856.000,A,3353.7562,N,09832.0263,W,0.29,84.38,010412,,,D*4E
$GPGGA,032857.000,3353.7562,N,09832.0263,W,2,08,1.1,310.2,M,-23.7,M,0.8,0000*44
$GPGSA,A,3,08,11,19,07,28,13,01,17,,,,,2.0,1.1,1.7*3E
$GPRMC,032857.000,A,3353.7562,N,09832.0263,W,0.09,349.82,010412,,,D*7E
$GPGGA,032858.000,3353.7562,N,09832.0263,W,2,08,1.1,310.2,M,-23.7,M,0.8,0000*4B
$GPGSA,A,3,08,11,19,07,28,13,01,17,,,,,2.0,1.1,1.7*3E
$GPRMC,032858.000,A,3353.7562,N,09832.0263,W,0.15,96.96,010412,,,D*48
$GPGGA,032859.000,3353.7562,N,09832.0263,W,2,08,1.1,310.1,M,-23.7,M,0.8,0000*49
$GPGSA,A,3,08,11,19,07,28,13,01,17,,,,,2.0,1.1,1.7*3E
$GPGSV,3,1,10,08,75,354,32,07,58,124,26,28,48,304,21,11,42,085,32*72
$GPGSV,3,2,10,17,37,220,25,01,35,111,40,26,28,302,19,19,23,043,32*76
$GPGSV,3,3,10,13,11,178,29,51,49,195,38*70
$GPRMC,032859.000,A,3353.7562,N,09832.0263,W,0.15,105.66,010412,,,D*7D
$GPGGA,032900.000,3353.7562,N,09832.0263,W,2,08,1.1,310.1,M,-23.7,M,1.8,0000*45
$GPGSA,A,3,08,11,19,07,28,13,01,17,,,,,2.0,1.1,1.7*3E
$GPRMC,032900.000,A,3353.7562,N,09832.0263,W,0.16,105.96,010412,,,D*7C
$GPGGA,032901.000,3353.7561,N,09832.0263,W,2,08,1.1,310.0,M,-23.7,M,0.8,0000*47
$GPGSA,A,3,08,11,19,07,28,13,01,17,,,,,2.0,1.1,1.7*3E
$GPRMC,032901.000,A,3353.7561,N,09832.0263,W,0.22,106.67,010412,,,D*74
$GPGGA,032902.000,3353.7561,N,09832.0262,W,2,08,1.1,310.0,M,-23.7,M,1.8,0000*44
$GPGSA,A,3,08,11,19,07,28,13,01,17,,,,,2.0,1.1,1.7*3E
$GPRMC,032902.000,A,3353.7561,N,09832.0262,W,0.09,93.67,010412,,,D*42
$GPGGA,032903.000,3353.7561,N,09832.0262,W,2,08,1.1,309.9,M,-23.7,M,0.8,0000*45
$GPGSA,A,3,08,11,19,07,28,13,01,17,,,,,2.0,1.1,1.7*3E
$GPRMC,032903.000,A,3353.7561,N,09832.0262,W,0.08,351.53,010412,,,D*78
$GPGGA,032904.000,3353.7561,N,09832.0263,W,2,08,1.1,309.9,M,-23.7,M,0.8,0000*43
$GPGSA,A,3,08,11,19,07,28,13,01,17,,,,,2.0,1.1,1.7*3E
$GPGSV,3,1,10,08,75,354,31,07,58,124,25,28,48,304,21,11,42,085,31*71
$GPGSV,3,2,10,17,37,220,26,01,35,111,40,26,28,302,11,19,23,043,32*7D
$GPGSV,3,3,10,13,11,178,29,51,49,195,38*70
$GPRMC,032904.000,A,3353.7561,N,09832.0263,W,0.09,101.95,010412,,,D*72
$GPGGA,032905.000,3353.7561,N,09832.0262,W,2,08,1.1,310.0,M,-23.7,M,0.8,0000*42
$GPGSA,A,3,08,11,19,07,28,13,01,17,,,,,2.0,1.1,1.7*3E
$GPRMC,032905.000,A,3353.7561,N,09832.0262,W,0.22,116.14,010412,,,D*74
$GPGGA,032906.000,3353.7561,N,09832.0263,W,2,08,1.1,310.1,M,-23.7,M,1.8,0000*40
$GPGSA,A,3,08,11,19,07,28,13,01,17,,,,,2.0,1.1,1.7*3E
$GPRMC,032906.000,A,3353.7561,N,09832.0263,W,0.13,313.50,010412,,,D*73
$GPGGA,032907.000,3353.7561,N,09832.0263,W,2,08,1.1,310.2,M,-23.7,M,0.8,0000*43
$GPGSA,A,3,08,11,19,07,28,13,01,17,,,,,2.0,1.1,1.7*3E
$GPRMC,032907.000,A,3353.7561,N,09832.0263,W,0.14,111.64,010412,,,D*72
$GPGGA,032908.000,3353.7562,N,09832.0259,W,2,08,1.1,310.6,M,-23.7,M,1.8,0000*43
$GPGSA,A,3,08,11,19,07,28,13,01,17,,,,,2.0,1.1,1.7*3E
$GPRMC,032908.000,A,3353.7562,N,09832.0259,W,0.12,331.46,010412,,,D*71
$GPGGA,032909.000,3353.7562,N,09832.0260,W,2,08,1.1,310.7,M,-23.7,M,0.8,0000*48
$GPGSA,A,3,08,11,19,07,28,13,01,17,,,,,2.0,1.1,1.7*3E
$GPGSV,3,1,10,08,75,354,26,07,58,124,24,28,48,304,21,11,42,085,32*75
$GPGSV,3,2,10,17,37,220,26,01,35,111,40,26,28,302,,19,23,043,32*7D
$GPGSV,3,3,10,13,11,178,29,51,49,195,38*70
$GPRMC,032909.000,A,3353.7562,N,09832.0260,W,0.05,321.75,010412,,,D*7D
$GPGGA,032910.000,3353.7564,N,09832.0256,W,2,08,1.1,311.2,M,-23.7,M,0.8,0000*47
$GPGSA,A,3,08,11,19,07,28,13,01,17,,,,,2.0,1.1,1.7*3E
$GPRMC,032910.000,A,3353.7564,N,09832.0256,W,0.10,336.53,010412,,,D*70
$GPGGA,032911.000,3353.7564,N,09832.0257,W,2,08,1.1,311.2,M,-23.7,M,0.8,0000*47
$GPGSA,A,3,08,11,19,07,28,13,01,17,,,,,2.0,1.1,1.7*3E
$GPRMC,032911.000,A,3353.7564,N,09832.0257,W,0.03,39.02,010412,,,D*4A
$GPGGA,032912.000,3353.7568,N,09832.0246,W,2,08,1.1,311.7,M,-23.7,M,1.8,0000*4C
$GPGSA,A,3,08,11,19,07,28,13,01,17,,,,,2.0,1.1,1.7*3E
$GPRMC,032912.000,A,3353.7568,N,09832.0246,W,0.28,91.02,010412,,,D*4E
$GPGGA,032913.000,3353.7570,N,09832.0237,W,2,08,1.1,311.8,M,-23.7,M,0.8,0000*4C
$GPGSA,A,3,08,11,19,07,28,13,01,17,,,,,2.0,1.1,1.7*3E
$GPRMC,032913.000,A,3353.7570,N,09832.0237,W,0.39,102.45,010412,,,D*78
$GPGGA,032914.000,3353.7571,N,09832.0230,W,2,08,1.1,311.9,M,-23.7,M,1.8,0000*4D
$GPGSA,A,3,08,11,19,07,28,13,01,17,,,,,2.0,1.1,1.7*3E
$GPGSV,3,1,10,08,75,354,25,07,58,124,23,28,48,304,20,11,42,085,33*71
$GPGSV,3,2,10,17,37,220,26,01,35,111,40,26,28,302,,19,23,043,33*7C
$GPGSV,3,3,10,13,11,178,29,51,49,195,37*7F
$GPRMC,032914.000,A,3353.7571,N,09832.0230,W,0.19,80.27,010412,,,D*44
$GPGGA,032915.000,3353.7573,N,09832.0225,W,2,08,1.1,312.0,M,-23.7,M,0.8,0000*41
$GPGSA,A,3,08,11,19,07,28,13,01,17,,,,,2.0,1.1,1.7*3E
$GPRMC,032915.000,A,3353.7573,N,09832.0225,W,0.27,334.95,010412,,,D*7B
$GPGGA,032916.000,3353.7574,N,09832.0221,W,2,08,1.1,311.9,M,-23.7,M,0.8,0000*4B
$GPGSA,A,3,08,11,19,07,28,13,01,17,,,,,2.0,1.1,1.7*3E
$GPRMC,032916.000,A,3353.7574,N,09832.0221,W,0.10,71.30,010412,,,D*42
$GPGGA,032917.000,3353.7575,N,09832.0217,W,2,08,1.1,311.7,M,-23.7,M,0.8,0000*40
$GPGSA,A,3,08,11,19,07,28,13,01,17,,,,,2.0,1.1,1.7*3E
$GPRMC,032917.000,A,3353.7575,N,09832.0217,W,0.08,29.78,010412,,,D*4F
$GPGGA,032918.000,3353.7575,N,09832.0215,W,2,08,1.1,311.4,M,-23.7,M,1.8,0000*4F
$GPGSA,A,3,08,11,19,07,28,13,01,17,,,,,2.0,1.1,1.7*3E
$GPRMC,032918.000,A,3353.7575,N,09832.0215,W,0.15,313.52,010412,,,D*7C
$GPGGA,032919.000,3353.7576,N,09832.0212,W,2,08,1.1,311.1,M,-23.7,M,2.8,0000*4C
$GPGSA,A,3,08,11,19,07,28,13,01,17,,,,,2.0,1.1,1.7*3E
$GPGSV,3,1,10,08,75,355,24,07,57,124,22,28,48,304,20,11,42,085,33*7F
$GPGSV,3,2,10,17,37,220,26,01,35,110,40,26,28,302,,19,22,043,33*7C
$GPGSV,3,3,10,13,11,178,30,51,49,195,37*77
$GPRMC,032919.000,A,3353.7576,N,09832.0212,W,0.22,330.58,010412,,,D*76
