$GPGGA,183210.000,3352.7461,N,09833.0293,W,2,06,1.4,328.6,M,-23.7,M,,0000*69
$GPGSA,A,3,25,22,18,31,14,11,,,,,,,2.3,1.4,1.7*39
$GPRMC,183210.000,A,3352.7461,N,09833.0293,W,0.11,153.41,300312,,,D*7B
$GPGGA,183211.000,3352.7461,N,09833.0295,W,2,06,1.4,327.7,M,-23.7,M,,0000*60
$GPGSA,A,3,25,22,18,31,14,11,,,,,,,2.3,1.4,1.7*39
$GPGSV,3,1,11,22,63,092,32,14,62,007,27,31,53,192,35,11,25,294,24*71
$GPGSV,3,2,11,18,21,114,33,25,21,098,21,01,18,316,14,32,14,306,*78
$GPGSV,3,3,11,12,11,058,12,19,06,255,22,51,49,195,41*49
$GPRMC,183211.000,A,3352.7461,N,09833.0295,W,0.24,278.41,300312,,,D*70
$GPGGA,183212.000,3352.7460,N,09833.0295,W,2,06,1.4,327.3,M,-23.7,M,1.8,0000*41
$GPGSA,A,3,25,22,18,31,14,11,,,,,,,2.3,1.4,1.7*39
$GPRMC,183212.000,A,3352.7460,N,09833.0295,W,0.13,89.25,300312,,,D*48
$GPGGA,183213.000,3352.7459,N,09833.0292,W,2,06,1.4,327.6,M,-23.7,M,,0000*6F
$GPGSA,A,3,25,22,18,31,14,11,,,,,,,2.3,1.4,1.7*39
$GPRMC,183213.000,A,3352.7459,N,09833.0292,W,0.08,129.13,300312,,,D*70
$GPGGA,183214.000,3352.7458,N,09833.0292,W,2,06,1.4,327.5,M,-23.7,M,,0000*6A
$GPGSA,A,3,25,22,18,31,14,11,,,,,,,2.3,1.4,1.7*39
$GPRMC,183214.000,A,3352.7458,N,09833.0292,W,0.14,215.07,300312,,,D*72
$GPGGA,183215.000,3352.7457,N,09833.0292,W,2,06,1.4,327.4,M,-23.7,M,,0000*65
$GPGSA,A,3,25,22,18,31,14,11,,,,,,,2.3,1.4,1.7*39
$GPRMC,183215.000,A,3352.7457,N,09833.0292,W,0.21,197.61,300312,,,D*73
$GPGGA,183216.000,3352.7456,N,09833.0290,W,2,06,1.4,327.6,M,-23.7,M,,0000*67
$GPGSA,A,3,25,22,18,31,14,11,,,,,,,2.3,1.4,1.7*39
$GPGSV,3,1,11,22,63,092,32,14,62,007,27,31,53,192,35,11,25,294,24*71
$GPGSV,3,2,11,18,21,114,33,25,21,098,22,01,18,316,14,32,14,306,*7B
$GPGSV,3,3,11,12,11,058,11,19,06,255,22,51,49,195,40*4B
$GPRMC,183216.000,A,3352.7456,N,09833.0290,W,0.27,110.02,300312,,,D*7F
$GPGGA,183217.000,3352.7456,N,09833.0287,W,2,06,1.4,328.1,M,-23.7,M,,0000*68
$GPGSA,A,3,25,22,18,31,14,11,,,,,,,2.3,1.4,1.7*39
$GPRMC,183217.000,A,3352.7456,N,09833.0287,W,0.08,101.93,300312,,,D*7D
$GPGGA,183218.000,3352.7455,N,09833.0285,W,2,06,1.4,328.4,M,-23.7,M,1.8,0000*44
$GPGSA,A,3,25,22,18,31,14,11,,,,,,,2.3,1.4,1.7*39
$GPRMC,183218.000,A,3352.7455,N,09833.0285,W,0.36,88.72,300312,,,D*41
$GPGGA,183219.000,3352.7455,N,09833.0282,W,2,06,1.4,328.9,M,-23.7,M,2.8,0000*4C
$GPGSA,A,3,25,22,18,31,14,11,,,,,,,2.3,1.4,1.7*39
$GPRMC,183219.000,A,3352.7455,N,09833.0282,W,0.30,82.61,300312,,,D*49
$GPGGA,183220.000,3352.7456,N,09833.0284,W,2,06,1.4,328.0,M,-23.7,M,,0000*6E
$GPGSA,A,3,25,22,18,31,14,11,,,,,,,2.3,1.4,1.7*39
$GPRMC,183220.000,A,3352.7456,N,09833.0284,W,0.32,349.90,300312,,,D*7E
$GPGGA,183221.000,3352.7457,N,09833.0284,W,2,06,1.4,327.7,M,-23.7,M,,0000*66
$GPGSA,A,3,25,22,18,31,14,11,,,,,,,2.3,1.4,1.7*39
$GPGSV,3,1,11,22,63,092,33,14,62,007,27,31,53,192,36,11,25,294,23*74
$GPGSV,3,2,11,18,21,114,32,25,21,098,22,01,18,316,15,32,14,306,*7B
$GPGSV,3,3,11,12,11,058,12,19,06,255,22,51,49,195,40*48
$GPRMC,183221.000,A,3352.7457,N,09833.0284,W,0.24,86.67,300312,,,D*41
$GPGGA,183222.000,3352.7458,N,09833.0285,W,2,06,1.4,327.2,M,-23.7,M,,0000*6E
$GPGSA,A,3,25,22,18,31,14,11,,,,,,,2.3,1.4,1.7*39
$GPRMC,183222.000,A,3352.7458,N,09833.0285,W,0.24,149.50,300312,,,D*7A
$GPGGA,183223.000,3352.7460,N,09833.0290,W,2,06,1.4,325.6,M,-23.7,M,,0000*66
$GPGSA,A,3,25,22,18,31,14,11,,,,,,,2.3,1.4,1.7*39
$GPRMC,183223.000,A,3352.7460,N,09833.0290,W,0.36,322.90,300312,,,D*74
$GPGGA,183224.000,3352.7462,N,09833.0294,W,2,06,1.4,324.4,M,-23.7,M,1.8,0000*43
$GPGSA,A,3,25,22,18,31,14,11,,,,,,,2.3,1.4,1.7*39
$GPRMC,183224.000,A,3352.7462,N,09833.0294,W,0.31,298.03,300312,,,D*78
$GPGGA,183225.000,3352.7463,N,09833.0299,W,2,06,1.4,323.3,M,-23.7,M,,0000*69
$GPGSA,A,3,25,22,18,31,14,11,,,,,,,2.3,1.4,1.7*39
$GPRMC,183225.000,A,3352.7463,N,09833.0299,W,0.81,294.21,300312,,,D*72
$GPGGA,183226.000,3352.7465,N,09833.0305,W,2,06,1.4,322.5,M,-23.7,M,1.8,0000*48
$GPGSA,A,3,25,22,18,31,14,11,,,,,,,2.3,1.4,1.7*39
$GPGSV,3,1,11,22,63,092,33,14,62,007,27,31,53,192,36,11,25,294,22*75
$GPGSV,3,2,11,18,21,114,32,25,21,098,22,01,18,316,15,32,14,306,*7B
$GPGSV,3,3,11,12,11,058,,19,06,255,22,51,49,195,40*4B
$GPRMC,183226.000,A,3352.7465,N,09833.0305,W,0.73,300.95,300312,,,D*7D
$GPGGA,183227.000,3352.7466,N,09833.0307,W,2,06,1.4,322.1,M,-23.7,M,,0000*6B
$GPGSA,A,3,25,22,18,31,14,11,,,,,,,2.3,1.4,1.7*39
$GPRMC,183227.000,A,3352.7466,N,09833.0307,W,0.59,313.22,300312,,,D*7B
$GPGGA,183228.000,3352.7465,N,09833.0309,W,2,06,1.4,322.5,M,-23.7,M,1.8,0000*4A
$GPGSA,A,3,25,22,18,31,14,11,,,,,,,2.3,1.4,1.7*39
$GPRMC,183228.000,A,3352.7465,N,09833.0309,W,0.50,285.52,300312,,,D*79
$GPGGA,183229.000,3352.7466,N,09833.0314,W,2,06,1.4,321.6,M,-23.7,M,,0000*63
$GPGSA,A,3,25,22,18,31,14,11,,,,,,,2.3,1.4,1.7*39
$GPRMC,183229.000,A,3352.7466,N,09833.0314,W,0.24,304.41,300312,,,D*7E
$GPGGA,183230.000,3352.7466,N,09833.0315,W,2,06,1.4,321.5,M,-23.7,M,1.8,0000*4E
$GPGSA,A,3,25,22,18,31,14,11,,,,,,,2.3,1.4,1.7*39
$GPRMC,183230.000,A,3352.7466,N,09833.0315,W,0.33,277.85,300312,,,D*7C
$GPGGA,183231.000,3352.7466,N,09833.0317,W,2,06,1.4,321.1,M,-23.7,M,2.8,0000*4A
$GPGSA,A,3,25,22,18,31,14,11,,,,,,,2.3,1.4,1.7*39
$GPGSV,3,1,11,22,63,092,33,14,62,007,28,31,53,192,36,11,25,294,21*79
$GPGSV,3,2,11,18,21,114,31,25,21,098,22,01,18,316,15,32,14,306,*78
$GPGSV,3,3,11,12,11,058,,19,06,255,23,51,49,195,40*4A
$GPRMC,183231.000,A,3352.7466,N,09833.0317,W,0.38,285.32,300312,,,D*75
$GPGGA,183232.000,3352.7466,N,09833.0316,W,2,06,1.4,321.1,M,-23.7,M,3.8,0000*49
$GPGSA,A,3,25,22,18,31,14,11,,,,,,,2.3,1.4,1.7*39
$GPRMC,183232.000,A,3352.7466,N,09833.0316,W,0.07,95.77,300312,,,D*49
$GPGGA,183233.000,3352.7466,N,09833.0315,W,2,06,1.4,320.6,M,-23.7,M,,0000*68
$GPGSA,A,3,25,22,18,31,14,11,,,,,,,2.3,1.4,1.7*39
$GPRMC,183233.000,A,3352.7466,N,09833.0315,W,0.26,340.19,300312,,,D*7B
$GPGGA,183234.000,3352.7466,N,09833.0314,W,2,06,1.4,320.5,M,-23.7,M,,0000*6D
$GPGSA,A,3,25,22,18,31,14,11,,,,,,,2.3,1.4,1.7*39
$GPRMC,183234.000,A,3352.7466,N,09833.0314,W,0.41,312.12,300312,,,D*70
$GPGGA,183235.000,3352.7468,N,09833.0318,W,2,06,1.4,319.0,M,-23.7,M,,0000*61
$GPGSA,A,3,25,22,18,31,14,11,,,,,,,2.3,1.4,1.7*39
$GPRMC,183235.000,A,3352.7468,N,09833.0318,W,0.48,325.38,300312,,,D*76
$GPGGA,183236.000,3352.7467,N,09833.0314,W,2,06,1.4,319.4,M,-23.7,M,1.8,0000*42
$GPGSA,A,3,25,22,18,31,14,11,,,,,,,2.3,1.4,1.7*39
$GPGSV,3,1,11,22,63,092,33,14,62,007,27,31,53,192,37,11,25,294,20*76
$GPGSV,3,2,11,18,21,114,30,25,21,098,22,01,18,316,14,32,14,306,*78
$GPGSV,3,3,11,12,11,058,,19,06,255,23,51,49,195,40*4A
$GPRMC,183236.000,A,3352.7467,N,09833.0314,W,0.22,68.83,300312,,,D*40
$GPGGA,183237.000,3352.7466,N,09833.0309,W,2,06,1.4,319.5,M,-23.7,M,2.8,0000*4C
$GPGSA,A,3,25,22,18,31,14,11,,,,,,,2.3,1.4,1.7*39
$GPRMC,183237.000,A,3352.7466,N,09833.0309,W,0.42,111.15,300312,,,D*7A
$GPGGA,183238.000,3352.7466,N,09833.0307,W,2,06,1.4,318.7,M,-23.7,M,3.8,0000*4F
$GPGSA,A,3,25,22,18,31,14,11,,,,,,,2.3,1.4,1.7*39
$GPRMC,183238.000,A,3352.7466,N,09833.0307,W,0.21,16.70,300312,,,D*4B
$GPGGA,183239.000,3352.7466,N,09833.0305,W,2,06,1.4,318.2,M,-23.7,M,,0000*6C
$GPGSA,A,3,25,22,18,31,14,11,,,,,,,2.3,1.4,1.7*39
$GPRMC,183239.000,A,3352.7466,N,09833.0305,W,0.17,147.08,300312,,,D*77
$GPGGA,183240.000,3352.7466,N,09833.0305,W,2,05,2.7,317.8,M,-23.7,M,,0000*64
$GPGSA,A,3,25,22,18,31,14,,,,,,,,4.9,2.7,4.1*36
$GPRMC,183240.000,A,3352.7466,N,09833.0305,W,0.23,157.73,300312,,,D*73
$GPGGA,183241.000,3352.7466,N,09833.0306,W,2,05,2.7,318.0,M,-23.7,M,,0000*61
$GPGSA,A,3,25,22,18,31,14,,,,,,,,4.9,2.7,4.1*36
$GPGSV,3,1,11,22,63,092,33,14,62,007,27,31,53,192,37,11,25,294,19*7C
$GPGSV,3,2,11,18,21,114,30,25,21,098,21,01,18,316,13,32,14,306,*7C
$GPGSV,3,3,11,12,11,058,,19,06,255,23,51,49,195,40*4A
$GPRMC,183241.000,A,3352.7466,N,09833.0306,W,0.29,140.86,300312,,,D*77
$GPGGA,183242.000,3352.7466,N,09833.0308,W,2,05,2.7,318.1,M,-23.7,M,,0000*6D
$GPGSA,A,3,25,22,18,31,14,,,,,,,,4.9,2.7,4.1*36
$GPRMC,183242.000,A,3352.7466,N,09833.0308,W,0.14,39.73,300312,,,D*41
$GPGGA,183243.000,3352.7467,N,09833.0309,W,2,06,1.4,318.2,M,-23.7,M,1.8,0000*4B
$GPGSA,A,3,25,22,18,31,14,11,,,,,,,2.3,1.4,1.7*39
$GPRMC,183243.000,A,3352.7467,N,09833.0309,W,0.40,352.85,300312,,,D*76
$GPGGA,183244.000,3352.7468,N,09833.0311,W,2,06,1.4,318.1,M,-23.7,M,2.8,0000*4A
$GPGSA,A,3,25,22,18,31,14,11,,,,,,,2.3,1.4,1.7*39
$GPRMC,183244.000,A,3352.7468,N,09833.0311,W,0.56,334.58,300312,,,D*70
$GPGGA,183245.000,3352.7468,N,09833.0312,W,2,06,1.4,318.5,M,-23.7,M,,0000*68
$GPGSA,A,3,25,22,18,31,14,11,,,,,,,2.3,1.4,1.7*39
$GPRMC,183245.000,A,3352.7468,N,09833.0312,W,0.67,312.24,300312,,,D*7F
$GPGGA,183246.000,3352.7467,N,09833.0311,W,2,06,1.4,318.9,M,-23.7,M,,0000*6B
$GPGSA,A,3,25,22,18,31,14,11,,,,,,,2.3,1.4,1.7*39
$GPGSV,3,1,11,22,63,092,33,14,62,007,27,31,53,192,37,11,25,294,17*72
$GPGSV,3,2,11,18,21,114,30,25,21,098,22,01,18,316,13,32,14,306,*7F
$GPGSV,3,3,11,12,11,058,,19,06,255,22,51,49,195,40*4B
$GPRMC,183246.000,A,3352.7467,N,09833.0311,W,0.46,305.58,300312,,,D*7E
$GPGGA,183247.000,3352.7467,N,09833.0312,W,2,06,1.4,319.3,M,-23.7,M,,0000*62
$GPGSA,A,3,25,22,18,31,14,11,,,,,,,2.3,1.4,1.7*39
$GPRMC,183247.000,A,3352.7467,N,09833.0312,W,0.42,293.12,300312,,,D*78
$GPGGA,183248.000,3352.7467,N,09833.0316,W,2,05,2.7,319.1,M,-23.7,M,1.8,0000*4F
$GPGSA,A,3,25,22,18,31,14,,,,,,,,4.9,2.7,4.1*36
$GPRMC,183248.000,A,3352.7467,N,09833.0316,W,0.45,279.77,300312,,,D*73
$GPGGA,183249.000,3352.7467,N,09833.0320,W,2,05,2.7,319.0,M,-23.7,M,2.8,0000*49
$GPGSA,A,3,25,22,18,31,14,,,,,,,,4.9,2.7,4.1*36
$GPRMC,183249.000,A,3352.7467,N,09833.0320,W,0.36,284.41,300312,,,D*74
$GPGGA,183250.000,3352.7468,N,09833.0323,W,2,05,2.7,318.7,M,-23.7,M,,0000*6F
$GPGSA,A,3,25,22,18,31,14,,,,,,,,4.9,2.7,4.1*36
$GPRMC,183250.000,A,3352.7468,N,09833.0323,W,0.23,288.03,300312,,,D*7E
$GPGGA,183251.000,3352.7469,N,09833.0327,W,2,05,2.7,318.1,M,-23.7,M,,0000*6D
$GPGSA,A,3,25,22,18,31,14,,,,,,,,4.9,2.7,4.1*36
$GPGSV,3,1,11,22,63,092,34,14,62,007,27,31,53,192,36,11,25,294,11*72
$GPGSV,3,2,11,18,21,114,29,25,21,098,22,01,18,316,13,32,14,306,*77
$GPGSV,3,3,11,12,11,058,,19,06,255,21,51,49,195,40*48
$GPRMC,183251.000,A,3352.7469,N,09833.0327,W,0.18,334.67,300312,,,D*76
$GPGGA,183252.000,3352.7470,N,09833.0329,W,2,05,2.7,317.2,M,-23.7,M,,0000*64
$GPGSA,A,3,25,22,18,31,14,,,,,,,,4.9,2.7,4.1*36
$GPRMC,183252.000,A,3352.7470,N,09833.0329,W,0.22,1.24,300312,,,D*78
$GPGGA,183253.000,3352.7471,N,09833.0333,W,2,05,2.7,316.6,M,-23.7,M,,0000*6A
$GPGSA,A,3,25,22,18,31,14,,,,,,,,4.9,2.7,4.1*36
$GPRMC,183253.000,A,3352.7471,N,09833.0333,W,0.46,302.50,300312,,,D*72
$GPGGA,183254.000,3352.7472,N,09833.0338,W,2,05,2.7,315.9,M,-23.7,M,1.8,0000*4E
$GPGSA,A,3,25,22,18,31,14,,,,,,,,4.9,2.7,4.1*36
$GPRMC,183254.000,A,3352.7472,N,09833.0338,W,0.55,292.36,300312,,,D*77
$GPGGA,183255.000,3352.7474,N,09833.0342,W,2,05,2.7,315.2,M,-23.7,M,2.8,0000*4C
$GPGSA,A,3,25,22,18,31,14,,,,,,,,4.9,2.7,4.1*36
$GPRMC,183255.000,A,3352.7474,N,09833.0342,W,0.41,316.39,300312,,,D*7A
$GPGGA,183256.000,3352.7477,N,09833.0352,W,2,06,1.4,313.1,M,-23.7,M,,0000*6F
$GPGSA,A,3,25,22,18,31,14,11,,,,,,,2.3,1.4,1.7*39
$GPGSV,3,1,11,22,63,092,34,14,62,007,27,31,53,192,36,11,25,294,12*71
$GPGSV,3,2,11,18,21,114,29,25,21,098,21,01,18,316,13,32,14,306,*74
$GPGSV,3,3,11,12,11,058,,19,06,255,20,51,49,195,40*49
$GPRMC,183256.000,A,3352.7477,N,09833.0352,W,0.90,299.36,300312,,,D*7E
$GPGGA,183257.000,3352.7474,N,09833.0344,W,2,06,1.4,314.6,M,-23.7,M,,0000*6A
$GPGSA,A,3,25,22,18,31,14,11,,,,,,,2.3,1.4,1.7*39
$GPRMC,183257.000,A,3352.7474,N,09833.0344,W,0.68,295.68,300312,,,D*7B
$GPGGA,183258.000,3352.7473,N,09833.0340,W,2,06,1.4,315.0,M,-23.7,M,,0000*61
$GPGSA,A,3,25,22,18,31,14,11,,,,,,,2.3,1.4,1.7*39
$GPRMC,183258.000,A,3352.7473,N,09833.0340,W,0.77,291.09,300312,,,D*7A
$GPGGA,183259.000,3352.7473,N,09833.0335,W,2,06,1.4,316.1,M,-23.7,M,,0000*60
$GPGSA,A,3,25,22,18,31,14,11,,,,,,,2.3,1.4,1.7*39
$GPRMC,183259.000,A,3352.7473,N,09833.0335,W,0.26,321.47,300312,,,D*7D
$GPGGA,183300.000,3352.7476,N,09833.0333,W,2,05,2.7,315.3,M,-23.7,M,1.8,0000*4B
$GPGSA,A,3,25,22,18,31,14,,,,,,,,4.9,2.7,4.1*36
$GPRMC,183300.000,A,3352.7476,N,09833.0333,W,0.26,63.54,300312,,,D*44
$GPGGA,183301.000,3352.7478,N,09833.0332,W,2,05,2.7,313.8,M,-23.7,M,,0000*6F
$GPGSA,A,3,25,22,18,31,14,,,,,,,,4.9,2.7,4.1*36
$GPGSV,3,1,11,22,63,092,35,14,62,007,26,31,53,192,36,11,25,294,15*76
$GPGSV,3,2,11,18,21,114,29,25,21,098,21,01,18,316,14,32,14,306,*73
$GPGSV,3,3,11,12,11,058,,19,06,255,11,51,49,195,40*4B
$GPRMC,183301.000,A,3352.7478,N,09833.0332,W,0.35,99.56,300312,,,D*4F
$GPGGA,183302.000,3352.7481,N,09833.0330,W,2,05,2.7,312.6,M,-23.7,M,1.8,0000*40
$GPGSA,A,3,25,22,18,31,14,,,,,,,,4.9,2.7,4.1*36
$GPRMC,183302.000,A,3352.7481,N,09833.0330,W,0.46,100.65,300312,,,D*7D
$GPGGA,183303.000,3352.7484,N,09833.0328,W,2,05,2.7,311.0,M,-23.7,M,,0000*6F
$GPGSA,A,3,25,22,18,31,14,,,,,,,,4.9,2.7,4.1*36
$GPRMC,183303.000,A,3352.7484,N,09833.0328,W,0.52,98.74,300312,,,D*45
$GPGGA,183304.000,3352.7487,N,09833.0328,W,2,05,2.7,309.8,M,-23.7,M,,0000*6A
$GPGSA,A,3,25,22,18,31,14,,,,,,,,4.9,2.7,4.1*36
$GPRMC,183304.000,A,3352.7487,N,09833.0328,W,0.30,121.66,300312,,,D*75
$GPGGA,183305.000,3352.7490,N,09833.0328,W,2,05,2.7,308.8,M,-23.7,M,,0000*6C
$GPGSA,A,3,25,22,18,31,14,,,,,,,,4.9,2.7,4.1*36
$GPRMC,183305.000,A,3352.7490,N,09833.0328,W,0.14,147.57,300312,,,D*76
$GPGGA,183306.000,3352.7494,N,09833.0331,W,2,05,2.7,307.7,M,-23.7,M,1.8,0000*44
$GPGSA,A,3,25,22,18,31,14,,,,,,,,4.9,2.7,4.1*36
$GPGSV,3,1,11,22,63,092,35,14,62,007,26,31,53,192,35,11,25,294,17*77
$GPGSV,3,2,11,18,21,114,29,25,21,098,21,01,18,316,15,32,14,306,*72
$GPGSV,3,3,11,12,11,058,,19,06,255,12,51,49,195,40*48
$GPRMC,183306.000,A,3352.7494,N,09833.0331,W,0.33,310.77,300312,,,D*7E
$GPGGA,183307.000,3352.7501,N,09833.0333,W,2,05,2.7,306.2,M,-23.7,M,,0000*69
$GPGSA,A,3,25,22,18,31,14,,,,,,,,4.9,2.7,4.1*36
$GPRMC,183307.000,A,3352.7501,N,09833.0333,W,0.43,359.52,300312,,,D*7D
$GPGGA,183308.000,3352.7507,N,09833.0335,W,2,05,2.7,304.6,M,-23.7,M,1.8,0000*47
$GPGSA,A,3,25,22,18,31,14,,,,,,,,4.9,2.7,4.1*36
$GPRMC,183308.000,A,3352.7507,N,09833.0335,W,0.28,33.86,300312,,,D*49
$GPGGA,183309.000,3352.7514,N,09833.0339,W,2,05,2.7,303.6,M,-23.7,M,,0000*68
$GPGSA,A,3,25,22,18,31,14,,,,,,,,4.9,2.7,4.1*36
$GPRMC,183309.000,A,3352.7514,N,09833.0339,W,0.28,350.81,300312,,,D*77
$GPGGA,183310.000,3352.7517,N,09833.0343,W,2,05,2.7,302.5,M,-23.7,M,,0000*6C
$GPGSA,A,3,25,22,18,31,14,,,,,,,,4.9,2.7,4.1*36
$GPRMC,183310.000,A,3352.7517,N,09833.0343,W,0.42,284.63,300312,,,D*79
$GPGGA,183311.000,3352.7520,N,09833.0347,W,2,05,2.7,301.5,M,-23.7,M,,0000*6E
$GPGSA,A,3,25,22,18,31,14,,,,,,,,4.9,2.7,4.1*36
$GPGSV,3,1,11,22,63,092,35,14,62,007,25,31,53,192,35,11,25,294,18*7B
$GPGSV,3,2,11,18,21,114,29,25,21,098,23,01,18,316,15,32,14,306,*70
$GPGSV,3,3,11,12,11,058,19,19,06,255,15,51,49,195,40*47
$GPRMC,183311.000,A,3352.7520,N,09833.0347,W,0.49,280.05,300312,,,D*77
$GPGGA,183312.000,3352.7523,N,09833.0351,W,2,05,2.7,300.6,M,-23.7,M,1.8,0000*4C
$GPGSA,A,3,25,22,18,31,14,,,,,,,,4.9,2.7,4.1*36
$GPRMC,183312.000,A,3352.7523,N,09833.0351,W,0.42,261.57,300312,,,D*73
$GPGGA,183313.000,3352.7527,N,09833.0355,W,2,05,2.7,299.7,M,-23.7,M,2.8,0000*4E
$GPGSA,A,3,25,22,18,31,14,,,,,,,,4.9,2.7,4.1*36
$GPRMC,183313.000,A,3352.7527,N,09833.0355,W,0.31,240.88,300312,,,D*77
$GPGGA,183314.000,3352.7526,N,09833.0357,W,2,05,2.7,298.9,M,-23.7,M,3.8,0000*44
$GPGSA,A,3,25,22,18,31,14,,,,,,,,4.9,2.7,4.1*36
$GPRMC,183314.000,A,3352.7526,N,09833.0357,W,0.16,272.23,300312,,,D*76
$GPGGA,183315.000,3352.7526,N,09833.0359,W,2,05,2.7,298.0,M,-23.7,M,,0000*67
$GPGSA,A,3,25,22,18,31,14,,,,,,,,4.9,2.7,4.1*36
$GPRMC,183315.000,A,3352.7526,N,09833.0359,W,0.06,331.43,300312,,,D*78
$GPGGA,183316.000,3352.7531,N,09833.0362,W,2,05,2.7,297.1,M,-23.7,M,,0000*64
$GPGSA,A,3,25,22,18,31,14,,,,,,,,4.9,2.7,4.1*36
$GPGSV,3,1,11,22,63,092,35,14,62,007,24,31,53,192,35,11,25,294,18*7A
$GPGSV,3,2,11,18,21,114,29,25,21,098,25,01,18,316,15,32,14,306,*76
$GPGSV,3,3,11,12,11,058,19,19,06,255,16,51,49,195,40*44
$GPRMC,183316.000,A,3352.7531,N,09833.0362,W,0.14,318.56,300312,,,D*79
$GPGGA,183317.000,3352.7534,N,09833.0365,W,2,05,2.7,296.3,M,-23.7,M,,0000*64
$GPGSA,A,3,25,22,18,31,14,,,,,,,,4.9,2.7,4.1*36
$GPRMC,183317.000,A,3352.7534,N,09833.0365,W,0.04,358.23,300312,,,D*7D
$GPGGA,183318.000,3352.7538,N,09833.0369,W,2,05,2.7,295.4,M,-23.7,M,1.8,0000*48
$GPGSA,A,3,25,22,18,31,14,,,,,,,,4.9,2.7,4.1*36
$GPRMC,183318.000,A,3352.7538,N,09833.0369,W,0.20,278.32,300312,,,D*77
$GPGGA,183319.000,3352.7541,N,09833.0372,W,2,05,2.7,294.7,M,-23.7,M,2.8,0000*4C
$GPGSA,A,3,25,22,18,31,14,,,,,,,,4.9,2.7,4.1*36
$GPRMC,183319.000,A,3352.7541,N,09833.0372,W,0.29,355.67,300312,,,D*75
$GPGGA,183320.000,3352.7543,N,09833.0374,W,2,05,2.7,294.0,M,-23.7,M,3.8,0000*44
$GPGSA,A,3,25,22,18,31,14,,,,,,,,4.9,2.7,4.1*36
$GPRMC,183320.000,A,3352.7543,N,09833.0374,W,0.35,154.39,300312,,,D*7E
$GPGGA,183321.000,3352.7543,N,09833.0376,W,2,05,2.7,293.5,M,-23.7,M,,0000*60
$GPGSA,A,3,25,22,18,31,14,,,,,,,,4.9,2.7,4.1*36
$GPGSV,3,1,11,22,63,092,35,14,62,007,23,31,53,192,34,11,25,294,16*72
$GPGSV,3,2,11,18,21,114,30,25,21,098,26,01,18,316,16,32,14,306,*7E
$GPGSV,3,3,11,12,11,058,19,19,06,255,18,51,49,195,40*4A
$GPRMC,183321.000,A,3352.7543,N,09833.0376,W,0.51,152.15,300312,,,D*77
$GPGGA,183322.000,3352.7542,N,09833.0377,W,2,05,2.7,293.0,M,-23.7,M,,0000*66
$GPGSA,A,3,25,22,18,31,14,,,,,,,,4.9,2.7,4.1*36
$GPRMC,183322.000,A,3352.7542,N,09833.0377,W,0.40,176.08,300312,,,D*7E
$GPGGA,183323.000,3352.7539,N,09833.0379,W,2,05,2.7,292.6,M,-23.7,M,,0000*62
$GPGSA,A,3,25,22,18,31,14,,,,,,,,4.9,2.7,4.1*36
$GPRMC,183323.000,A,3352.7539,N,09833.0379,W,0.94,162.75,300312,,,D*7B
$GPGGA,183324.000,3352.7542,N,09833.0382,W,2,05,2.7,292.1,M,-23.7,M,1.8,0000*4D
$GPGSA,A,3,25,22,18,31,14,,,,,,,,4.9,2.7,4.1*36
$GPRMC,183324.000,A,3352.7542,N,09833.0382,W,0.63,159.80,300312,,,D*7E
$GPGGA,183325.000,3352.7540,N,09833.0383,W,2,05,2.7,291.6,M,-23.7,M,2.8,0000*48
$GPGSA,A,3,25,22,18,31,14,,,,,,,,4.9,2.7,4.1*36
$GPRMC,183325.000,A,3352.7540,N,09833.0383,W,0.80,168.29,300312,,,D*70
$GPGGA,183326.000,3352.7536,N,09833.0384,W,2,05,2.7,291.1,M,-23.7,M,3.8,0000*4B
$GPGSA,A,3,25,22,18,31,14,,,,,,,,4.9,2.7,4.1*36
$GPGSV,3,1,11,22,62,095,35,14,61,010,23,31,55,192,34,11,25,293,14*72
$GPGSV,3,2,11,25,21,096,27,18,20,115,30,01,19,315,15,32,15,307,*70
$GPGSV,3,3,11,12,11,057,18,19,05,254,18,51,49,195,40*46
$GPRMC,183326.000,A,3352.7536,N,09833.0384,W,0.63,186.57,300312,,,D*71
$GPGGA,183327.000,3352.7534,N,09833.0387,W,2,05,2.7,290.5,M,-23.7,M,,0000*6B
$GPGSA,A,3,25,22,18,31,14,,,,,,,,4.9,2.7,4.1*36
$GPRMC,183327.000,A,3352.7534,N,09833.0387,W,0.51,215.73,300312,,,D*7F
$GPGGA,183328.000,3352.7534,N,09833.0390,W,2,05,2.7,289.8,M,-23.7,M,,0000*67
$GPGSA,A,3,25,22,18,31,14,,,,,,,,4.9,2.7,4.1*36
$GPRMC,183328.000,A,3352.7534,N,09833.0390,W,0.73,317.28,300312,,,D*7B
$GPGGA,183329.000,3352.7536,N,09833.0394,W,2,05,2.7,289.0,M,-23.7,M,,0000*68
$GPGSA,A,3,25,22,18,31,14,,,,,,,,4.9,2.7,4.1*36
$GPRMC,183329.000,A,3352.7536,N,09833.0394,W,0.85,308.08,300312,,,D*79
$GPGGA,183330.000,3352.7541,N,09833.0400,W,2,05,2.7,287.9,M,-23.7,M,,0000*6D
$GPGSA,A,3,25,22,18,31,14,,,,,,,,4.9,2.7,4.1*36
$GPRMC,183330.000,A,3352.7541,N,09833.0400,W,0.98,308.76,300312,,,D*7E
$GPGGA,183331.000,3352.7541,N,09833.0403,W,2,05,2.7,287.1,M,-23.7,M,1.8,0000*40
$GPGSA,A,3,25,22,18,31,14,,,,,,,,4.9,2.7,4.1*36
$GPGSV,3,1,11,22,62,095,35,14,61,010,23,31,55,192,33,11,25,293,13*72
$GPGSV,3,2,11,25,21,096,27,18,20,115,31,01,19,315,15,32,15,307,*71
$GPGSV,3,3,11,12,11,057,19,19,05,254,19,51,49,195,40*46
$GPRMC,183331.000,A,3352.7541,N,09833.0403,W,1.10,307.74,300312,,,D*70
$GPGGA,183332.000,3352.7538,N,09833.0407,W,2,05,2.7,286.3,M,-23.7,M,2.8,0000*49
$GPGSA,A,3,25,22,18,31,14,,,,,,,,4.9,2.7,4.1*36
$GPRMC,183332.000,A,3352.7538,N,09833.0407,W,1.07,301.10,300312,,,D*7B
$GPGGA,183333.000,3352.7541,N,09833.0411,W,2,05,2.7,285.4,M,-23.7,M,,0000*61
$GPGSA,A,3,25,22,18,31,14,,,,,,,,4.9,2.7,4.1*36
$GPRMC,183333.000,A,3352.7541,N,09833.0411,W,1.32,312.71,300312,,,D*70
$GPGGA,183334.000,3352.7538,N,09833.0414,W,2,05,2.7,285.3,M,-23.7,M,,0000*6A
$GPGSA,A,3,25,22,18,31,14,,,,,,,,4.9,2.7,4.1*36
$GPRMC,183334.000,A,3352.7538,N,09833.0414,W,1.14,296.92,300312,,,D*78
$GPGGA,183335.000,3352.7536,N,09833.0418,W,2,05,2.7,284.8,M,-23.7,M,,0000*63
$GPGSA,A,3,25,22,18,31,14,,,,,,,,4.9,2.7,4.1*36
$GPRMC,183335.000,A,3352.7536,N,09833.0418,W,1.09,297.57,300312,,,D*7F
$GPGGA,183336.000,3352.7541,N,09833.0422,W,2,04,2.8,283.7,M,-23.7,M,1.8,0000*48
$GPGSA,A,3,22,18,31,14,,,,,,,,,5.1,2.8,4.3*35
$GPGSV,3,1,11,22,62,095,35,14,61,010,23,31,55,192,33,11,25,293,14*75
$GPGSV,3,2,11,25,21,096,21,18,20,115,32,01,19,315,14,32,15,307,*75
$GPGSV,3,3,11,12,11,057,19,19,05,254,20,51,49,195,40*4C
$GPRMC,183336.000,A,3352.7541,N,09833.0422,W,1.18,305.51,300312,,,D*79
$GPGGA,183337.000,3352.7542,N,09833.0426,W,2,05,2.7,283.5,M,-23.7,M,2.8,0000*41
$GPGSA,A,3,25,22,18,31,14,,,,,,,,4.9,2.7,4.1*36
$GPRMC,183337.000,A,3352.7542,N,09833.0426,W,0.70,284.32,300312,,,D*7D
$GPGGA,183338.000,3352.7537,N,09833.0425,W,2,06,1.4,284.3,M,-23.7,M,3.8,0000*4C
$GPGSA,A,3,25,22,18,31,14,11,,,,,,,2.3,1.4,1.7*39
$GPRMC,183338.000,A,3352.7537,N,09833.0425,W,0.47,233.56,300312,,,D*79
$GPGGA,183339.000,3352.7537,N,09833.0423,W,2,06,1.4,284.4,M,-23.7,M,,0000*69
$GPGSA,A,3,25,22,18,31,14,11,,,,,,,2.3,1.4,1.7*39
$GPRMC,183339.000,A,3352.7537,N,09833.0423,W,0.30,267.51,300312,,,D*78
$GPGGA,183340.000,3352.7540,N,09833.0421,W,2,06,1.4,283.5,M,-23.7,M,,0000*63
$GPGSA,A,3,25,22,18,31,14,11,,,,,,,2.3,1.4,1.7*39
$GPRMC,183340.000,A,3352.7540,N,09833.0421,W,0.29,22.78,300312,,,D*44
$GPGGA,183341.000,3352.7544,N,09833.0422,W,2,06,1.4,283.7,M,-23.7,M,,0000*67
$GPGSA,A,3,25,22,18,31,14,11,,,,,,,2.3,1.4,1.7*39
$GPGSV,3,1,11,22,62,095,35,14,61,010,23,31,55,192,33,11,25,293,21*73
$GPGSV,3,2,11,25,21,096,19,18,20,115,32,01,19,315,15,32,15,307,*7F
$GPGSV,3,3,11,12,11,057,18,19,05,254,21,51,49,195,40*4C
$GPRMC,183341.000,A,3352.7544,N,09833.0422,W,0.47,347.18,300312,,,D*7C
$GPGGA,183342.000,3352.7549,N,09833.0424,W,2,05,2.7,283.1,M,-23.7,M,1.8,0000*4D
$GPGSA,A,3,25,22,18,31,14,,,,,,,,4.9,2.7,4.1*36
$GPRMC,183342.000,A,3352.7549,N,09833.0424,W,0.28,335.43,300312,,,D*76
$GPGGA,183343.000,3352.7547,N,09833.0426,W,2,05,2.7,283.2,M,-23.7,M,2.8,0000*40
$GPGSA,A,3,25,22,18,31,14,,,,,,,,4.9,2.7,4.1*36
$GPRMC,183343.000,A,3352.7547,N,09833.0426,W,0.69,312.06,300312,,,D*7A
$GPGGA,183344.000,3352.7547,N,09833.0429,W,2,05,2.7,282.7,M,-23.7,M,3.8,0000*4D
$GPGSA,A,3,25,22,18,31,14,,,,,,,,4.9,2.7,4.1*36
$GPRMC,183344.000,A,3352.7547,N,09833.0429,W,0.84,301.23,300312,,,D*74
$GPGGA,183345.000,3352.7553,N,09833.0434,W,2,05,2.7,281.8,M,-23.7,M,,0000*6C
$GPGSA,A,3,25,22,18,31,14,,,,,,,,4.9,2.7,4.1*36
$GPRMC,183345.000,A,3352.7553,N,09833.0434,W,1.06,306.06,300312,,,D*77
$GPGGA,183346.000,3352.7552,N,09833.0437,W,2,05,2.7,281.8,M,-23.7,M,,0000*6D
$GPGSA,A,3,25,22,18,31,14,,,,,,,,4.9,2.7,4.1*36
$GPGSV,3,1,11,22,62,095,35,14,61,010,24,31,55,192,33,11,25,293,14*72
$GPGSV,3,2,11,25,21,096,20,18,20,115,33,01,19,315,14,32,15,307,*75
$GPGSV,3,3,11,12,11,057,17,19,05,254,20,51,49,195,41*43
$GPRMC,183346.000,A,3352.7552,N,09833.0437,W,0.71,287.94,300312,,,D*74
$GPGGA,183347.000,3352.7551,N,09833.0437,W,2,05,2.7,281.6,M,-23.7,M,,0000*61
$GPGSA,A,3,25,22,18,31,14,,,,,,,,4.9,2.7,4.1*36
$GPRMC,183347.000,A,3352.7551,N,09833.0437,W,0.27,297.44,300312,,,D*79
$GPGGA,183348.000,3352.7545,N,09833.0437,W,2,05,2.7,281.9,M,-23.7,M,,0000*64
$GPGSA,A,3,25,22,18,31,14,,,,,,,,4.9,2.7,4.1*36
$GPRMC,183348.000,A,3352.7545,N,09833.0437,W,0.21,266.74,300312,,,D*78
$GPGGA,183349.000,3352.7545,N,09833.0438,W,2,05,2.7,281.5,M,-23.7,M,,0000*66
$GPGSA,A,3,25,22,18,31,14,,,,,,,,4.9,2.7,4.1*36
$GPRMC,183349.000,A,3352.7545,N,09833.0438,W,0.38,308.32,300312,,,D*75
$GPGGA,183350.000,3352.7547,N,09833.0440,W,2,05,2.7,280.9,M,-23.7,M,1.8,0000*49
$GPGSA,A,3,25,22,18,31,14,,,,,,,,4.9,2.7,4.1*36
$GPRMC,183350.000,A,3352.7547,N,09833.0440,W,0.97,311.70,300312,,,D*7B
$GPGGA,183351.000,3352.7544,N,09833.0440,W,2,05,2.7,280.9,M,-23.7,M,,0000*6C
$GPGSA,A,3,25,22,18,31,14,,,,,,,,4.9,2.7,4.1*36
$GPGSV,3,1,11,22,62,095,35,14,61,010,24,31,55,192,33,11,25,293,14*72
$GPGSV,3,2,11,25,21,096,20,18,20,115,33,01,19,315,15,32,15,307,*74
$GPGSV,3,3,11,12,11,057,17,19,05,254,20,51,49,195,41*43
$GPRMC,183351.000,A,3352.7544,N,09833.0440,W,0.67,275.86,300312,,,D*7C
$GPGGA,183352.000,3352.7545,N,09833.0441,W,2,05,2.7,280.5,M,-23.7,M,,0000*63
$GPGSA,A,3,25,22,18,31,14,,,,,,,,4.9,2.7,4.1*36
$GPRMC,183352.000,A,3352.7545,N,09833.0441,W,0.56,300.89,300312,,,D*71
$GPGGA,183353.000,3352.7550,N,09833.0444,W,2,05,2.7,280.0,M,-23.7,M,,0000*66
$GPGSA,A,3,25,22,18,31,14,,,,,,,,4.9,2.7,4.1*36
$GPRMC,183353.000,A,3352.7550,N,09833.0444,W,0.72,330.72,300312,,,D*70
$GPGGA,183354.000,3352.7553,N,09833.0446,W,2,05,2.7,279.8,M,-23.7,M,1.8,0000*49
$GPGSA,A,3,25,22,18,31,14,,,,,,,,4.9,2.7,4.1*36
$GPRMC,183354.000,A,3352.7553,N,09833.0446,W,0.50,314.96,300312,,,D*7A
$GPGGA,183355.000,3352.7554,N,09833.0449,W,2,05,2.7,280.1,M,-23.7,M,,0000*68
$GPGSA,A,3,25,22,18,31,14,,,,,,,,4.9,2.7,4.1*36
$GPRMC,183355.000,A,3352.7554,N,09833.0449,W,0.27,242.29,300312,,,D*75
$GPGGA,183356.000,3352.7553,N,09833.0449,W,2,05,2.7,280.3,M,-23.7,M,1.8,0000*49
$GPGSA,A,3,25,22,18,31,14,,,,,,,,4.9,2.7,4.1*36
$GPGSV,3,1,11,22,62,095,36,14,61,010,24,31,55,192,33,11,25,293,13*76
$GPGSV,3,2,11,25,21,096,20,18,20,115,34,01,19,315,16,32,15,307,*70
$GPGSV,3,3,11,12,11,057,17,19,05,254,19,51,49,195,40*48
$GPRMC,183356.000,A,3352.7553,N,09833.0449,W,0.14,253.58,300312,,,D*77
$GPGGA,183357.000,3352.7546,N,09833.0448,W,2,05,2.7,281.5,M,-23.7,M,,0000*6D
$GPGSA,A,3,25,22,18,31,14,,,,,,,,4.9,2.7,4.1*36
$GPRMC,183357.000,A,3352.7546,N,09833.0448,W,0.18,186.52,300312,,,D*7E
$GPGGA,183358.000,3352.7543,N,09833.0446,W,2,05,2.7,281.9,M,-23.7,M,,0000*65
$GPGSA,A,3,25,22,18,31,14,,,,,,,,4.9,2.7,4.1*36
$GPRMC,183358.000,A,3352.7543,N,09833.0446,W,0.05,138.78,300312,,,D*7B
$GPGGA,183359.000,3352.7540,N,09833.0444,W,2,05,2.7,282.2,M,-23.7,M,,0000*6D
$GPGSA,A,3,25,22,18,31,14,,,,,,,,4.9,2.7,4.1*36
$GPRMC,183359.000,A,3352.7540,N,09833.0444,W,0.17,94.21,300312,,,D*43
$GPGGA,183400.000,3352.7537,N,09833.0443,W,2,05,2.7,282.2,M,-23.7,M,1.8,0000*46
$GPGSA,A,3,25,22,18,31,14,,,,,,,,4.9,2.7,4.1*36
$GPRMC,183400.000,A,3352.7537,N,09833.0443,W,0.04,61.81,300312,,,D*4D
$GPGGA,183401.000,3352.7536,N,09833.0442,W,2,05,2.7,282.3,M,-23.7,M,2.8,0000*45
$GPGSA,A,3,25,22,18,31,14,,,,,,,,4.9,2.7,4.1*36
$GPGSV,3,1,11,22,62,095,36,14,61,010,24,31,55,192,32,11,25,293,12*76
$GPGSV,3,2,11,25,21,096,21,18,20,115,34,01,19,315,16,32,15,307,*71
$GPGSV,3,3,11,12,11,057,18,19,05,254,19,51,49,195,40*47
$GPRMC,183401.000,A,3352.7536,N,09833.0442,W,0.23,286.00,300312,,,D*7B
$GPGGA,183402.000,3352.7534,N,09833.0441,W,2,05,2.7,282.3,M,-23.7,M,3.8,0000*46
$GPGSA,A,3,25,22,18,31,14,,,,,,,,4.9,2.7,4.1*36
$GPRMC,183402.000,A,3352.7534,N,09833.0441,W,0.21,278.67,300312,,,D*7B
$GPGGA,183403.000,3352.7533,N,09833.0441,W,2,05,2.7,282.2,M,-23.7,M,,0000*64
$GPGSA,A,3,25,22,18,31,14,,,,,,,,4.9,2.7,4.1*36
$GPRMC,183403.000,A,3352.7533,N,09833.0441,W,0.22,318.88,300312,,,D*78
$GPGGA,183404.000,3352.7532,N,09833.0441,W,2,05,2.7,282.4,M,-23.7,M,1.8,0000*43
$GPGSA,A,3,25,22,18,31,14,,,,,,,,4.9,2.7,4.1*36
$GPRMC,183404.000,A,3352.7532,N,09833.0441,W,0.41,302.07,300312,,,D*77
$GPGGA,183405.000,3352.7531,N,09833.0441,W,2,05,2.7,282.5,M,-23.7,M,,0000*67
$GPGSA,A,3,25,22,18,31,14,,,,,,,,4.9,2.7,4.1*36
$GPRMC,183405.000,A,3352.7531,N,09833.0441,W,0.33,283.05,300312,,,D*7A
$GPGGA,183406.000,3352.7529,N,09833.0441,W,2,05,2.7,282.6,M,-23.7,M,1.8,0000*49
$GPGSA,A,3,25,22,18,31,14,,,,,,,,4.9,2.7,4.1*36
$GPGSV,3,1,11,22,62,095,36,14,61,010,25,31,55,192,32,11,25,293,12*77
$GPGSV,3,2,11,25,21,096,22,18,20,115,35,01,19,315,15,32,15,307,*70
$GPGSV,3,3,11,12,11,057,18,19,05,254,18,51,49,195,40*46
$GPRMC,183406.000,A,3352.7529,N,09833.0441,W,0.21,273.70,300312,,,D*7E
$GPGGA,183407.000,3352.7527,N,09833.0440,W,2,05,2.7,282.6,M,-23.7,M,2.8,0000*44
$GPGSA,A,3,25,22,18,31,14,,,,,,,,4.9,2.7,4.1*36
$GPRMC,183407.000,A,3352.7527,N,09833.0440,W,0.12,54.73,300312,,,D*44
$GPGGA,183408.000,3352.7526,N,09833.0438,W,2,05,2.7,282.7,M,-23.7,M,3.8,0000*45
$GPGSA,A,3,25,22,18,31,14,,,,,,,,4.9,2.7,4.1*36
$GPRMC,183408.000,A,3352.7526,N,09833.0438,W,0.03,4.27,300312,,,D*71
$GPGGA,183409.000,3352.7524,N,09833.0436,W,2,05,2.7,282.9,M,-23.7,M,,0000*63
$GPGSA,A,3,25,22,18,31,14,,,,,,,,4.9,2.7,4.1*36
$GPRMC,183409.000,A,3352.7524,N,09833.0436,W,0.10,213.78,300312,,,D*70
$GPGGA,183410.000,3352.7520,N,09833.0434,W,2,05,2.7,283.8,M,-23.7,M,,0000*6D
$GPGSA,A,3,25,22,18,31,14,,,,,,,,4.9,2.7,4.1*36
$GPRMC,183410.000,A,3352.7520,N,09833.0434,W,0.31,134.82,300312,,,D*7E
$GPGGA,183411.000,3352.7517,N,09833.0433,W,2,05,2.7,285.2,M,-23.7,M,,0000*63
$GPGSA,A,3,25,22,18,31,14,,,,,,,,4.9,2.7,4.1*36
$GPGSV,3,1,11,22,62,095,36,14,61,010,25,31,55,192,31,11,25,293,12*74
$GPGSV,3,2,11,25,21,096,23,18,20,115,35,01,19,315,14,32,15,307,*70
$GPGSV,3,3,11,12,11,057,18,19,05,254,17,51,49,195,40*49
$GPRMC,183411.000,A,3352.7517,N,09833.0433,W,0.55,117.20,300312,,,D*77
$GPGGA,183412.000,3352.7513,N,09833.0431,W,2,05,2.7,286.6,M,-23.7,M,,0000*61
$GPGSA,A,3,25,22,18,31,14,,,,,,,,4.9,2.7,4.1*36
$GPRMC,183412.000,A,3352.7513,N,09833.0431,W,0.45,143.04,300312,,,D*74
$GPGGA,183413.000,3352.7510,N,09833.0429,W,2,05,2.7,288.0,M,-23.7,M,1.8,0000*45
$GPGSA,A,3,25,22,18,31,14,,,,,,,,4.9,2.7,4.1*36
$GPRMC,183413.000,A,3352.7510,N,09833.0429,W,0.56,127.05,300312,,,D*7E
$GPGGA,183414.000,3352.7507,N,09833.0427,W,2,05,2.7,288.9,M,-23.7,M,2.8,0000*40
$GPGSA,A,3,25,22,18,31,14,,,,,,,,4.9,2.7,4.1*36
$GPRMC,183414.000,A,3352.7507,N,09833.0427,W,0.59,121.84,300312,,,D*71
$GPGGA,183415.000,3352.7505,N,09833.0425,W,2,05,2.7,289.4,M,-23.7,M,,0000*69
$GPGSA,A,3,25,22,18,31,14,,,,,,,,4.9,2.7,4.1*36
$GPRMC,183415.000,A,3352.7505,N,09833.0425,W,0.55,102.44,300312,,,D*71
$GPGGA,183416.000,3352.7503,N,09833.0423,W,2,05,2.7,290.1,M,-23.7,M,,0000*67
$GPGSA,A,3,25,22,18,31,14,,,,,,,,4.9,2.7,4.1*36
$GPGSV,3,1,11,22,62,095,36,14,61,010,26,31,55,192,30,11,25,293,12*76
$GPGSV,3,2,11,25,21,096,23,18,20,115,35,01,19,315,13,32,15,307,*77
$GPGSV,3,3,11,12,11,057,18,19,05,254,16,51,49,195,40*48
$GPRMC,183416.000,A,3352.7503,N,09833.0423,W,0.32,145.41,300312,,,D*75
$GPGGA,183417.000,3352.7501,N,09833.0421,W,2,05,2.7,290.3,M,-23.7,M,,0000*64
$GPGSA,A,3,25,22,18,31,14,,,,,,,,4.9,2.7,4.1*36
$GPRMC,183417.000,A,3352.7501,N,09833.0421,W,0.37,134.21,300312,,,D*71
$GPGGA,183418.000,3352.7498,N,09833.0419,W,2,05,2.7,290.9,M,-23.7,M,0.8,0000*4D
$GPGSA,A,3,25,22,18,31,14,,,,,,,,4.9,2.7,4.1*36
$GPRMC,183418.000,A,3352.7498,N,09833.0419,W,0.36,159.40,300312,,,D*79
$GPGGA,183419.000,3352.7496,N,09833.0418,W,2,05,2.7,291.5,M,-23.7,M,1.8,0000*4F
$GPGSA,A,3,25,22,18,31,14,,,,,,,,4.9,2.7,4.1*36
$GPRMC,183419.000,A,3352.7496,N,09833.0418,W,0.43,122.66,300312,,,D*7D
$GPGGA,183420.000,3352.7494,N,09833.0415,W,2,05,2.7,291.7,M,-23.7,M,0.8,0000*49
$GPGSA,A,3,25,22,18,31,14,,,,,,,,4.9,2.7,4.1*36
$GPRMC,183420.000,A,3352.7494,N,09833.0415,W,0.42,127.77,300312,,,D*7C
$GPGGA,183421.000,3352.7492,N,09833.0412,W,2,05,2.7,292.2,M,-23.7,M,0.8,0000*4F
$GPGSA,A,3,25,22,18,31,14,,,,,,,,4.9,2.7,4.1*36
$GPGSV,3,1,11,22,62,095,36,14,61,010,27,31,55,192,30,11,25,293,*74
$GPGSV,3,2,11,25,21,096,23,18,20,115,36,01,19,315,12,32,15,307,*75
$GPGSV,3,3,11,12,11,057,18,19,05,254,16,51,49,195,40*48
$GPRMC,183421.000,A,3352.7492,N,09833.0412,W,0.46,143.53,300312,,,D*7C
$GPGGA,183422.000,3352.7490,N,09833.0409,W,2,05,2.7,292.8,M,-23.7,M,0.8,0000*4E
$GPGSA,A,3,25,22,18,31,14,,,,,,,,4.9,2.7,4.1*36
$GPRMC,183422.000,A,3352.7490,N,09833.0409,W,0.48,134.17,300312,,,D*79
$GPGGA,183423.000,3352.7488,N,09833.0406,W,2,05,2.7,293.1,M,-23.7,M,0.8,0000*41
$GPGSA,A,3,25,22,18,31,14,,,,,,,,4.9,2.7,4.1*36
$GPRMC,183423.000,A,3352.7488,N,09833.0406,W,0.52,126.23,300312,,,D*71
$GPGGA,183424.000,3352.7486,N,09833.0403,W,2,05,2.7,293.4,M,-23.7,M,0.8,0000*48
$GPGSA,A,3,25,22,18,31,14,,,,,,,,4.9,2.7,4.1*36
$GPRMC,183424.000,A,3352.7486,N,09833.0403,W,0.62,112.26,300312,,,D*7C
$GPGGA,183425.000,3352.7484,N,09833.0399,W,2,05,2.7,293.8,M,-23.7,M,1.8,0000*42
$GPGSA,A,3,25,22,18,31,14,,,,,,,,4.9,2.7,4.1*36
$GPRMC,183425.000,A,3352.7484,N,09833.0399,W,0.56,122.56,300312,,,D*78
$GPGGA,183426.000,3352.7483,N,09833.0397,W,2,05,2.7,294.3,M,-23.7,M,2.8,0000*47
$GPGSA,A,3,25,22,18,31,14,,,,,,,,4.9,2.7,4.1*36
$GPGSV,3,1,11,22,62,095,37,14,61,010,27,31,55,192,30,11,25,293,*75
$GPGSV,3,2,11,25,21,096,24,18,20,115,36,01,19,315,,32,15,307,*71
$GPGSV,3,3,11,12,11,057,17,19,05,254,17,51,49,195,40*46
$GPRMC,183426.000,A,3352.7483,N,09833.0397,W,0.58,120.25,300312,,,D*7A
$GPGGA,183427.000,3352.7482,N,09833.0394,W,2,05,2.7,294.6,M,-23.7,M,0.8,0000*43
$GPGSA,A,3,25,22,18,31,14,,,,,,,,4.9,2.7,4.1*36
$GPRMC,183427.000,A,3352.7482,N,09833.0394,W,0.47,112.53,300312,,,D*77
$GPGGA,183428.000,3352.7481,N,09833.0393,W,2,05,2.7,294.8,M,-23.7,M,0.8,0000*46
$GPGSA,A,3,25,22,18,31,14,,,,,,,,4.9,2.7,4.1*36
$GPRMC,183428.000,A,3352.7481,N,09833.0393,W,0.44,120.31,300312,,,D*7A
$GPGGA,183429.000,3352.7480,N,09833.0392,W,2,05,2.7,295.1,M,-23.7,M,0.8,0000*4F
$GPGSA,A,3,25,22,18,31,14,,,,,,,,4.9,2.7,4.1*36
$GPRMC,183429.000,A,3352.7480,N,09833.0392,W,0.40,126.76,300312,,,D*7A
$GPGGA,183430.000,3352.7479,N,09833.0391,W,2,05,2.7,295.4,M,-23.7,M,1.8,0000*46
$GPGSA,A,3,25,22,18,31,14,,,,,,,,4.9,2.7,4.1*36
$GPRMC,183430.000,A,3352.7479,N,09833.0391,W,0.37,129.81,300312,,,D*70
$GPGGA,183431.000,3352.7478,N,09833.0390,W,2,05,2.7,295.6,M,-23.7,M,2.8,0000*46
$GPGSA,A,3,25,22,18,31,14,,,,,,,,4.9,2.7,4.1*36
$GPGSV,3,1,11,22,62,095,37,14,61,010,27,31,55,192,29,11,25,293,*7D
$GPGSV,3,2,11,25,21,096,26,18,20,115,36,01,19,315,,32,15,307,*73
$GPGSV,3,3,11,12,11,057,16,19,05,254,18,51,49,195,40*48
$GPRMC,183431.000,A,3352.7478,N,09833.0390,W,0.33,123.29,300312,,,D*7D
$GPGGA,183432.000,3352.7477,N,09833.0390,W,2,05,2.7,295.9,M,-23.7,M,3.8,0000*44
$GPGSA,A,3,25,22,18,31,14,,,,,,,,4.9,2.7,4.1*36
$GPRMC,183432.000,A,3352.7477,N,09833.0390,W,0.34,129.54,300312,,,D*76
$GPGGA,183433.000,3352.7476,N,09833.0388,W,2,05,2.7,296.2,M,-23.7,M,0.8,0000*46
$GPGSA,A,3,25,22,18,31,14,,,,,,,,4.9,2.7,4.1*36
$GPRMC,183433.000,A,3352.7476,N,09833.0388,W,0.44,128.13,300312,,,D*7A
$GPGGA,183434.000,3352.7475,N,09833.0387,W,2,05,2.7,296.6,M,-23.7,M,0.8,0000*49
$GPGSA,A,3,25,22,18,31,14,,,,,,,,4.9,2.7,4.1*36
$GPRMC,183434.000,A,3352.7475,N,09833.0387,W,0.45,121.45,300312,,,D*7A
$GPGGA,183435.000,3352.7474,N,09833.0386,W,2,05,2.7,296.9,M,-23.7,M,0.8,0000*47
$GPGSA,A,3,25,22,18,31,14,,,,,,,,4.9,2.7,4.1*36
$GPRMC,183435.000,A,3352.7474,N,09833.0386,W,0.46,117.73,300312,,,D*78
$GPGGA,183436.000,3352.7473,N,09833.0384,W,2,05,2.7,297.3,M,-23.7,M,1.8,0000*4B
$GPGSA,A,3,25,22,18,31,14,,,,,,,,4.9,2.7,4.1*36
$GPGSV,3,1,11,22,62,095,37,14,61,010,27,31,55,192,28,11,25,293,*7C
$GPGSV,3,2,11,25,21,096,28,18,20,115,36,01,19,315,,32,15,307,*7D
$GPGSV,3,3,11,12,11,057,15,19,05,254,18,51,49,195,40*4B
$GPRMC,183436.000,A,3352.7473,N,09833.0384,W,0.45,116.81,300312,,,D*71
$GPGGA,183437.000,3352.7472,N,09833.0383,W,2,05,2.7,297.6,M,-23.7,M,2.8,0000*4A
$GPGSA,A,3,25,22,18,31,14,,,,,,,,4.9,2.7,4.1*36
$GPRMC,183437.000,A,3352.7472,N,09833.0383,W,0.47,114.71,300312,,,D*79
$GPGGA,183438.000,3352.7472,N,09833.0382,W,2,05,2.7,297.9,M,-23.7,M,0.8,0000*49
$GPGSA,A,3,25,22,18,31,14,,,,,,,,4.9,2.7,4.1*36
$GPRMC,183438.000,A,3352.7472,N,09833.0382,W,0.42,120.03,300312,,,D*70
$GPGGA,183439.000,3352.7472,N,09833.0382,W,2,05,2.7,298.0,M,-23.7,M,0.8,0000*4E
$GPGSA,A,3,25,22,18,31,14,,,,,,,,4.9,2.7,4.1*36
$GPRMC,183439.000,A,3352.7472,N,09833.0382,W,0.36,113.56,300312,,,D*72
$GPGGA,183440.000,3352.7471,N,09833.0381,W,2,05,2.7,298.1,M,-23.7,M,0.8,0000*41
$GPGSA,A,3,25,22,18,31,14,,,,,,,,4.9,2.7,4.1*36
$GPRMC,183440.000,A,3352.7471,N,09833.0381,W,0.31,115.11,300312,,,D*7E
$GPGGA,183441.000,3352.7471,N,09833.0382,W,2,05,2.7,298.2,M,-23.7,M,0.8,0000*40
$GPGSA,A,3,25,22,18,31,14,,,,,,,,4.9,2.7,4.1*36
$GPGSV,3,1,11,22,62,095,37,14,61,010,26,31,55,192,28,11,25,293,*7D
$GPGSV,3,2,11,25,21,096,29,18,20,115,37,01,19,315,,32,15,307,*7D
$GPGSV,3,3,11,12,11,057,14,19,05,254,19,51,49,195,40*4B
$GPRMC,183441.000,A,3352.7471,N,09833.0382,W,0.30,117.54,300312,,,D*7E
$GPGGA,183442.000,3352.7471,N,09833.0382,W,2,05,2.7,298.3,M,-23.7,M,1.8,0000*43
$GPGSA,A,3,25,22,18,31,14,,,,,,,,4.9,2.7,4.1*36
$GPRMC,183442.000,A,3352.7471,N,09833.0382,W,0.26,112.15,300312,,,D*7A
$GPGGA,183443.000,3352.7471,N,09833.0382,W,2,05,2.7,298.3,M,-23.7,M,2.8,0000*41
$GPGSA,A,3,25,22,18,31,14,,,,,,,,4.9,2.7,4.1*36
$GPRMC,183443.000,A,3352.7471,N,09833.0382,W,0.21,114.73,300312,,,D*7A
$GPGGA,183444.000,3352.7471,N,09833.0382,W,2,05,2.7,298.4,M,-23.7,M,3.8,0000*40
$GPGSA,A,3,25,22,18,31,14,,,,,,,,4.9,2.7,4.1*36
$GPRMC,183444.000,A,3352.7471,N,09833.0382,W,0.21,109.17,300312,,,D*73
$GPGGA,183445.000,3352.7471,N,09833.0381,W,2,05,2.7,298.6,M,-23.7,M,0.8,0000*43
$GPGSA,A,3,25,22,18,31,14,,,,,,,,4.9,2.7,4.1*36
$GPRMC,183445.000,A,3352.7471,N,09833.0381,W,0.29,118.85,300312,,,D*72
$GPGGA,183446.000,3352.7467,N,09833.0372,W,2,06,1.5,301.0,M,-23.7,M,0.8,0000*4E
$GPGSA,A,3,25,22,11,18,31,14,,,,,,,2.3,1.5,1.7*38
$GPGSV,3,1,11,22,62,095,37,14,61,010,26,31,55,192,28,11,25,293,14*78
$GPGSV,3,2,11,25,21,096,30,18,20,115,37,01,19,315,,32,15,307,*75
$GPGSV,3,3,11,12,11,057,14,19,05,254,19,51,49,195,40*4B
$GPRMC,183446.000,A,3352.7467,N,09833.0372,W,0.30,141.46,300312,,,D*71
$GPGGA,183447.000,3352.7467,N,09833.0374,W,2,05,2.7,300.7,M,-23.7,M,0.8,0000*4D
$GPGSA,A,3,25,22,18,31,14,,,,,,,,4.9,2.7,4.1*36
$GPRMC,183447.000,A,3352.7467,N,09833.0374,W,0.13,190.59,300312,,,D*75
$GPGGA,183448.000,3352.7467,N,09833.0375,W,2,05,2.7,300.6,M,-23.7,M,1.8,0000*43
$GPGSA,A,3,25,22,18,31,14,,,,,,,,4.9,2.7,4.1*36
$GPRMC,183448.000,A,3352.7467,N,09833.0375,W,0.18,221.90,300312,,,D*7C
$GPGGA,183449.000,3352.7467,N,09833.0377,W,2,05,2.7,300.4,M,-23.7,M,0.8,0000*43
$GPGSA,A,3,25,22,18,31,14,,,,,,,,4.9,2.7,4.1*36
$GPRMC,183449.000,A,3352.7467,N,09833.0377,W,0.12,239.77,300312,,,D*75
$GPGGA,183450.000,3352.7468,N,09833.0378,W,2,05,2.7,300.2,M,-23.7,M,1.8,0000*4C
$GPGSA,A,3,25,22,18,31,14,,,,,,,,4.9,2.7,4.1*36
$GPRMC,183450.000,A,3352.7468,N,09833.0378,W,0.29,270.92,300312,,,D*73
$GPGGA,183451.000,3352.7468,N,09833.0380,W,2,05,2.7,299.9,M,-23.7,M,0.8,0000*41
$GPGSA,A,3,25,22,18,31,14,,,,,,,,4.9,2.7,4.1*36
$GPGSV,3,1,11,22,62,095,37,14,61,010,26,31,55,192,28,11,25,293,14*78
$GPGSV,3,2,11,25,21,096,31,18,20,115,37,01,19,315,,32,15,307,*74
$GPGSV,3,3,11,12,11,057,15,19,05,254,18,51,49,195,40*4B
$GPRMC,183451.000,A,3352.7468,N,09833.0380,W,0.30,273.60,300312,,,D*73
$GPGGA,183452.000,3352.7469,N,09833.0382,W,2,05,2.7,299.7,M,-23.7,M,0.8,0000*4F
$GPGSA,A,3,25,22,18,31,14,,,,,,,,4.9,2.7,4.1*36
$GPRMC,183452.000,A,3352.7469,N,09833.0382,W,0.28,302.75,300312,,,D*79
$GPGGA,183453.000,3352.7470,N,09833.0384,W,2,05,2.7,299.4,M,-23.7,M,0.8,0000*43
$GPGSA,A,3,25,22,18,31,14,,,,,,,,4.9,2.7,4.1*36
$GPRMC,183453.000,A,3352.7470,N,09833.0384,W,0.31,301.50,300312,,,D*7A
$GPGGA,183454.000,3352.7472,N,09833.0385,W,2,05,2.7,299.1,M,-23.7,M,0.8,0000*42
$GPGSA,A,3,25,22,18,31,14,,,,,,,,4.9,2.7,4.1*36
$GPRMC,183454.000,A,3352.7472,N,09833.0385,W,0.39,297.81,300312,,,D*74
$GPGGA,183455.000,3352.7473,N,09833.0387,W,2,05,2.7,298.7,M,-23.7,M,1.8,0000*46
$GPGSA,A,3,25,22,18,31,14,,,,,,,,4.9,2.7,4.1*36
$GPRMC,183455.000,A,3352.7473,N,09833.0387,W,0.47,299.91,300312,,,D*70
$GPGGA,183456.000,3352.7470,N,09833.0388,W,2,05,2.7,298.7,M,-23.7,M,2.8,0000*4A
$GPGSA,A,3,25,22,18,31,14,,,,,,,,4.9,2.7,4.1*36
$GPGSV,3,1,11,22,62,095,37,14,61,010,26,31,55,192,27,11,25,293,14*77
$GPGSV,3,2,11,25,21,096,31,18,20,115,38,01,19,315,,32,15,307,*7B
$GPGSV,3,3,11,12,11,057,17,19,05,254,19,51,49,195,40*48
$GPRMC,183456.000,A,3352.7470,N,09833.0388,W,0.58,290.61,300312,,,D*77
$GPGGA,183457.000,3352.7464,N,09833.0391,W,2,05,2.7,298.7,M,-23.7,M,0.8,0000*44
$GPGSA,A,3,25,22,18,31,14,,,,,,,,4.9,2.7,4.1*36
$GPRMC,183457.000,A,3352.7464,N,09833.0391,W,1.00,248.83,300312,,,D*7E
$GPGGA,183458.000,3352.7455,N,09833.0397,W,2,05,2.7,298.9,M,-23.7,M,0.8,0000*41
$GPGSA,A,3,25,22,18,31,14,,,,,,,,4.9,2.7,4.1*36
$GPRMC,183458.000,A,3352.7455,N,09833.0397,W,0.90,219.06,300312,,,D*74
$GPGGA,183459.000,3352.7447,N,09833.0402,W,2,05,2.7,299.0,M,-23.7,M,0.8,0000*40
$GPGSA,A,3,25,22,18,31,14,,,,,,,,4.9,2.7,4.1*36
$GPRMC,183459.000,A,3352.7447,N,09833.0402,W,0.61,205.92,300312,,,D*73
$GPGGA,183500.000,3352.7440,N,09833.0407,W,2,05,2.7,299.0,M,-23.7,M,1.8,0000*4E
$GPGSA,A,3,25,22,18,31,14,,,,,,,,4.9,2.7,4.1*36
$GPRMC,183500.000,A,3352.7440,N,09833.0407,W,0.39,215.34,300312,,,D*7C
$GPGGA,183501.000,3352.7440,N,09833.0410,W,2,05,2.7,298.7,M,-23.7,M,2.8,0000*4C
$GPGSA,A,3,25,22,18,31,14,,,,,,,,4.9,2.7,4.1*36
$GPGSV,3,1,11,22,62,095,37,14,61,010,25,31,55,192,21,11,25,293,*77
$GPGSV,3,2,11,25,21,096,32,18,20,115,38,01,19,315,,32,15,307,*78
$GPGSV,3,3,11,12,11,057,19,19,05,254,20,51,49,195,40*4C
$GPRMC,183501.000,A,3352.7440,N,09833.0410,W,0.10,234.27,300312,,,D*71
$GPGGA,183502.000,3352.7450,N,09833.0410,W,2,05,2.7,298.1,M,-23.7,M,3.8,0000*49
$GPGSA,A,3,25,22,18,31,14,,,,,,,,4.9,2.7,4.1*36
$GPRMC,183502.000,A,3352.7450,N,09833.0410,W,1.13,14.59,300312,,,D*48
$GPGGA,183503.000,3352.7458,N,09833.0413,W,2,05,2.7,297.5,M,-23.7,M,0.8,0000*4B
$GPGSA,A,3,25,22,18,31,14,,,,,,,,4.9,2.7,4.1*36
$GPRMC,183503.000,A,3352.7458,N,09833.0413,W,0.58,4.43,300312,,,D*76
$GPGGA,183504.000,3352.7465,N,09833.0419,W,2,05,2.7,296.6,M,-23.7,M,0.8,0000*4A
$GPGSA,A,3,25,22,18,31,14,,,,,,,,4.9,2.7,4.1*36
$GPRMC,183504.000,A,3352.7465,N,09833.0419,W,0.66,342.62,300312,,,D*7A
$GPGGA,183505.000,3352.7470,N,09833.0428,W,2,05,2.7,295.5,M,-23.7,M,0.8,0000*4D
$GPGSA,A,3,25,22,18,31,14,,,,,,,,4.9,2.7,4.1*36
$GPRMC,183505.000,A,3352.7470,N,09833.0428,W,0.82,272.59,300312,,,D*7D
$GPGGA,183506.000,3352.7479,N,09833.0432,W,2,05,2.7,294.7,M,-23.7,M,1.8,0000*4E
$GPGSA,A,3,25,22,18,31,14,,,,,,,,4.9,2.7,4.1*36
$GPGSV,3,1,11,22,62,095,37,14,61,010,25,31,55,192,21,11,25,293,*77
$GPGSV,3,2,11,25,21,096,32,18,20,115,38,01,19,315,,32,15,307,*78
$GPGSV,3,3,11,12,11,057,20,19,05,254,20,51,49,195,40*46
$GPRMC,183506.000,A,3352.7479,N,09833.0432,W,0.69,284.45,300312,,,D*7D
$GPGGA,183507.000,3352.7487,N,09833.0437,W,2,05,2.8,293.7,M,-23.7,M,2.8,0000*40
$GPGSA,A,3,25,22,18,31,14,,,,,,,,4.9,2.8,4.1*39
$GPRMC,183507.000,A,3352.7487,N,09833.0437,W,0.75,322.53,300312,,,D*7F
$GPGGA,183508.000,3352.7496,N,09833.0439,W,2,05,2.8,292.8,M,-23.7,M,3.8,0000*4E
$GPGSA,A,3,25,22,18,31,14,,,,,,,,4.9,2.8,4.1*39
$GPRMC,183508.000,A,3352.7496,N,09833.0439,W,0.93,345.02,300312,,,D*73
$GPGGA,183509.000,3352.7501,N,09833.0440,W,2,05,2.8,292.4,M,-23.7,M,0.8,0000*41
$GPGSA,A,3,25,22,18,31,14,,,,,,,,4.9,2.8,4.1*39
$GPRMC,183509.000,A,3352.7501,N,09833.0440,W,0.62,355.66,300312,,,D*7E
$GPGGA,183510.000,3352.7501,N,09833.0438,W,2,05,2.8,292.4,M,-23.7,M,0.8,0000*46
$GPGSA,A,3,25,22,18,31,14,,,,,,,,4.9,2.8,4.1*39
$GPRMC,183510.000,A,3352.7501,N,09833.0438,W,0.38,258.81,300312,,,D*73
$GPGGA,183511.000,3352.7502,N,09833.0437,W,2,05,2.8,292.4,M,-23.7,M,0.8,0000*4B
$GPGSA,A,3,25,22,18,31,14,,,,,,,,4.9,2.8,4.1*39
$GPGSV,3,1,11,22,62,095,37,14,61,010,24,31,55,192,21,11,25,293,*76
$GPGSV,3,2,11,25,21,096,32,18,20,115,38,01,19,315,,32,15,307,*78
$GPGSV,3,3,11,12,11,057,22,19,05,254,21,51,49,195,40*45
$GPRMC,183511.000,A,3352.7502,N,09833.0437,W,0.40,309.71,300312,,,D*7B
$GPGGA,183512.000,3352.7507,N,09833.0440,W,2,05,2.8,291.7,M,-23.7,M,1.8,0000*4C
$GPGSA,A,3,25,22,18,31,14,,,,,,,,4.9,2.8,4.1*39
$GPRMC,183512.000,A,3352.7507,N,09833.0440,W,0.43,18.36,300312,,,D*4E
$GPGGA,183513.000,3352.7512,N,09833.0440,W,2,05,2.8,291.2,M,-23.7,M,2.8,0000*4F
$GPGSA,A,3,25,22,18,31,14,,,,,,,,4.9,2.8,4.1*39
$GPRMC,183513.000,A,3352.7512,N,09833.0440,W,0.28,316.30,300312,,,D*7D
$GPGGA,183514.000,3352.7514,N,09833.0436,W,2,05,2.8,291.4,M,-23.7,M,0.8,0000*4B
$GPGSA,A,3,25,22,18,31,14,,,,,,,,4.9,2.8,4.1*39
$GPRMC,183514.000,A,3352.7514,N,09833.0436,W,0.10,214.80,300312,,,D*7E
$GPGGA,183515.000,3352.7517,N,09833.0436,W,2,05,2.8,291.1,M,-23.7,M,0.8,0000*4C
$GPGSA,A,3,25,22,18,31,14,,,,,,,,4.9,2.8,4.1*39
$GPRMC,183515.000,A,3352.7517,N,09833.0436,W,0.23,346.67,300312,,,D*73
$GPGGA,183516.000,3352.7519,N,09833.0430,W,2,05,2.8,291.5,M,-23.7,M,0.8,0000*43
$GPGSA,A,3,25,22,18,31,14,,,,,,,,4.9,2.8,4.1*39
$GPGSV,3,1,11,22,62,095,37,14,61,010,24,31,55,192,21,11,25,293,*76
$GPGSV,3,2,11,25,21,096,33,18,20,115,37,01,19,315,,32,15,307,*76
$GPGSV,3,3,11,12,11,057,22,19,05,254,20,51,49,195,40*44
$GPRMC,183516.000,A,3352.7519,N,09833.0430,W,0.99,14.16,300312,,,D*4B
$GPGGA,183517.000,3352.7522,N,09833.0428,W,2,05,2.8,291.6,M,-23.7,M,0.8,0000*40
$GPGSA,A,3,25,22,18,31,14,,,,,,,,4.9,2.8,4.1*39
$GPRMC,183517.000,A,3352.7522,N,09833.0428,W,0.10,240.63,300312,,,D*7B
$GPGGA,183518.000,3352.7520,N,09833.0427,W,2,05,2.8,291.9,M,-23.7,M,1.8,0000*4C
$GPGSA,A,3,25,22,18,31,14,,,,,,,,4.9,2.8,4.1*39
$GPRMC,183518.000,A,3352.7520,N,09833.0427,W,0.86,221.04,300312,,,D*70
$GPGGA,183519.000,3352.7526,N,09833.0425,W,2,05,2.8,291.7,M,-23.7,M,2.8,0000*44
$GPGSA,A,3,25,22,18,31,14,,,,,,,,4.9,2.8,4.1*39
$GPRMC,183519.000,A,3352.7526,N,09833.0425,W,0.27,245.61,300312,,,D*7F
$GPGGA,183520.000,3352.7535,N,09833.0433,W,2,05,2.8,290.1,M,-23.7,M,0.8,0000*4E
$GPGSA,A,3,25,22,18,31,14,,,,,,,,4.9,2.8,4.1*39
$GPRMC,183520.000,A,3352.7535,N,09833.0433,W,0.87,302.58,300312,,,D*72
$GPGGA,183521.000,3352.7538,N,09833.0437,W,2,05,2.8,289.6,M,-23.7,M,0.8,0000*49
$GPGSA,A,3,25,22,18,31,14,,,,,,,,4.9,2.8,4.1*39
$GPGSV,3,1,11,22,62,095,37,14,61,010,24,31,55,192,20,11,25,293,*77
$GPGSV,3,2,11,25,21,096,33,18,20,115,37,01,19,315,,32,15,307,*76
$GPGSV,3,3,11,12,11,057,22,19,05,254,19,51,49,195,40*4E
$GPRMC,183521.000,A,3352.7538,N,09833.0437,W,1.07,291.64,300312,,,D*77
$GPGGA,183522.000,3352.7535,N,09833.0432,W,2,05,2.8,290.4,M,-23.7,M,0.8,0000*48
$GPGSA,A,3,25,22,18,31,14,,,,,,,,4.9,2.8,4.1*39
$GPRMC,183522.000,A,3352.7535,N,09833.0432,W,0.28,248.17,300312,,,D*70
$GPGGA,183523.000,3352.7534,N,09833.0429,W,2,05,2.8,290.9,M,-23.7,M,0.8,0000*4F
$GPGSA,A,3,25,22,18,31,14,,,,,,,,4.9,2.8,4.1*39
$GPRMC,183523.000,A,3352.7534,N,09833.0429,W,0.81,250.02,300312,,,D*74
$GPGGA,183524.000,3352.7539,N,09833.0429,W,2,05,2.8,290.7,M,-23.7,M,0.8,0000*4B
$GPGSA,A,3,25,22,18,31,14,,,,,,,,4.9,2.8,4.1*39
$GPRMC,183524.000,A,3352.7539,N,09833.0429,W,1.15,252.23,300312,,,D*73
$GPGGA,183525.000,3352.7537,N,09833.0442,W,2,05,2.8,289.6,M,-23.7,M,1.8,0000*41
$GPGSA,A,3,25,22,18,31,14,,,,,,,,4.9,2.8,4.1*39
$GPRMC,183525.000,A,3352.7537,N,09833.0442,W,1.93,231.95,300312,,,D*77
$GPGGA,183526.000,3352.7535,N,09833.0452,W,2,04,6.1,288.8,M,-23.7,M,0.8,0000*43
$GPGSA,A,3,25,22,18,14,,,,,,,,,7.7,6.1,4.7*3D
$GPGSV,3,1,11,22,62,095,37,14,61,010,24,31,55,192,19,11,25,293,*7D
$GPGSV,3,2,11,25,21,096,34,18,20,115,37,01,19,315,,32,15,307,*71
$GPGSV,3,3,11,12,11,057,23,19,05,254,17,51,49,195,40*41
$GPRMC,183526.000,A,3352.7535,N,09833.0452,W,2.01,228.82,300312,,,D*71
$GPGGA,183527.000,3352.7541,N,09833.0447,W,2,05,2.8,288.9,M,-23.7,M,0.8,0000*48
$GPGSA,A,3,25,22,18,31,14,,,,,,,,4.9,2.8,4.1*39
$GPRMC,183527.000,A,3352.7541,N,09833.0447,W,0.82,262.77,300312,,,D*7A
$GPGGA,183528.000,3352.7547,N,09833.0436,W,2,05,2.8,289.7,M,-23.7,M,0.8,0000*48
$GPGSA,A,3,25,22,18,31,14,,,,,,,,4.9,2.8,4.1*39
$GPRMC,183528.000,A,3352.7547,N,09833.0436,W,0.86,1.33,300312,,,D*76
$GPGGA,183529.000,3352.7554,N,09833.0428,W,2,05,2.8,290.2,M,-23.7,M,0.8,0000*49
$GPGSA,A,3,25,22,18,31,14,,,,,,,,4.9,2.8,4.1*39
$GPRMC,183529.000,A,3352.7554,N,09833.0428,W,0.95,9.35,300312,,,D*76
$GPGGA,183530.000,3352.7558,N,09833.0417,W,2,05,2.8,291.2,M,-23.7,M,1.8,0000*41
$GPGSA,A,3,25,22,18,31,14,,,,,,,,4.9,2.8,4.1*39
$GPRMC,183530.000,A,3352.7558,N,09833.0417,W,1.48,29.30,300312,,,D*48
$GPGGA,183531.000,3352.7558,N,09833.0411,W,2,05,2.8,292.1,M,-23.7,M,2.8,0000*45
$GPGSA,A,3,25,22,18,31,14,,,,,,,,4.9,2.8,4.1*39
$GPGSV,3,1,11,22,62,095,38,14,61,010,24,31,55,192,18,11,25,293,*73
$GPGSV,3,2,11,25,21,096,34,18,20,115,36,01,19,315,,32,15,307,*70
$GPGSV,3,3,11,12,11,057,23,19,05,254,16,51,49,195,40*40
$GPRMC,183531.000,A,3352.7558,N,09833.0411,W,1.67,41.56,300312,,,D*4C
$GPGGA,183532.000,3352.7563,N,09833.0399,W,2,05,2.8,293.1,M,-23.7,M,3.8,0000*49
$GPGSA,A,3,25,22,18,31,14,,,,,,,,4.9,2.8,4.1*39
$GPRMC,183532.000,A,3352.7563,N,09833.0399,W,1.95,54.10,300312,,,D*4B
$GPGGA,183533.000,3352.7567,N,09833.0383,W,2,05,2.8,294.6,M,-23.7,M,0.8,0000*44
$GPGSA,A,3,25,22,18,31,14,,,,,,,,4.9,2.8,4.1*39
$GPRMC,183533.000,A,3352.7567,N,09833.0383,W,2.01,59.08,300312,,,D*4F
$GPGGA,183534.000,3352.7570,N,09833.0376,W,2,05,2.8,295.2,M,-23.7,M,0.8,0000*4A
$GPGSA,A,3,25,22,18,31,14,,,,,,,,4.9,2.8,4.1*39
$GPRMC,183534.000,A,3352.7570,N,09833.0376,W,1.39,59.21,300312,,,D*47
$GPGGA,183535.000,3352.7556,N,09833.0373,W,2,05,2.8,296.7,M,-23.7,M,0.8,0000*4C
$GPGSA,A,3,25,22,18,31,14,,,,,,,,4.9,2.8,4.1*39
$GPRMC,183535.000,A,3352.7556,N,09833.0373,W,0.82,130.21,300312,,,D*78
$GPGGA,183536.000,3352.7548,N,09833.0369,W,2,05,2.8,297.9,M,-23.7,M,1.8,0000*45
$GPGSA,A,3,25,22,18,31,14,,,,,,,,4.9,2.8,4.1*39
$GPGSV,3,1,11,22,62,095,38,14,61,010,25,31,55,192,17,11,25,293,*7D
$GPGSV,3,2,11,25,21,096,34,18,20,115,36,01,19,315,,32,15,307,*70
$GPGSV,3,3,11,12,11,057,23,19,05,254,16,51,49,195,40*40
$GPRMC,183536.000,A,3352.7548,N,09833.0369,W,1.10,176.31,300312,,,D*76
$GPGGA,183537.000,3352.7534,N,09833.0376,W,2,05,2.8,298.5,M,-23.7,M,0.8,0000*43
$GPGSA,A,3,25,22,18,31,14,,,,,,,,4.9,2.8,4.0*38
$GPRMC,183537.000,A,3352.7534,N,09833.0376,W,1.81,201.06,300312,,,D*7D
$GPGGA,183538.000,3352.7523,N,09833.0382,W,2,05,2.8,298.9,M,-23.7,M,0.8,0000*4D
$GPGSA,A,3,25,22,18,31,14,,,,,,,,4.9,2.8,4.0*38
$GPRMC,183538.000,A,3352.7523,N,09833.0382,W,1.73,203.19,300312,,,D*7E
$GPGGA,183539.000,3352.7516,N,09833.0385,W,2,05,2.8,299.4,M,-23.7,M,0.8,0000*41
$GPGSA,A,3,25,22,18,31,14,,,,,,,,4.9,2.8,4.0*38
$GPRMC,183539.000,A,3352.7516,N,09833.0385,W,2.01,212.61,300312,,,D*77
$GPGGA,183540.000,3352.7509,N,09833.0387,W,2,05,2.8,299.9,M,-23.7,M,1.8,0000*4F
$GPGSA,A,3,25,22,18,31,14,,,,,,,,4.9,2.8,4.0*38
$GPRMC,183540.000,A,3352.7509,N,09833.0387,W,2.03,213.90,300312,,,D*78
$GPGGA,183541.000,3352.7505,N,09833.0385,W,2,05,2.8,300.8,M,-23.7,M,0.8,0000*41
$GPGSA,A,3,25,22,18,31,14,,,,,,,,4.9,2.8,4.0*38
$GPGSV,3,1,11,22,62,095,38,14,61,010,25,31,55,192,18,11,25,293,*72
$GPGSV,3,2,11,25,21,096,33,18,20,115,35,01,19,315,,32,15,307,*74
$GPGSV,3,3,11,12,11,057,23,19,05,254,16,51,49,195,40*40
$GPRMC,183541.000,A,3352.7505,N,09833.0385,W,1.19,207.86,300312,,,D*7D
$GPGGA,183542.000,3352.7497,N,09833.0389,W,2,05,2.8,301.2,M,-23.7,M,1.8,0000*4E
$GPGSA,A,3,25,22,18,31,14,,,,,,,,4.9,2.8,4.0*38
$GPRMC,183542.000,A,3352.7497,N,09833.0389,W,0.87,199.30,300312,,,D*77
$GPGGA,183543.000,3352.7495,N,09833.0387,W,2,05,2.8,301.9,M,-23.7,M,2.8,0000*4B
$GPGSA,A,3,25,22,18,31,14,,,,,,,,4.9,2.8,4.0*38
$GPRMC,183543.000,A,3352.7495,N,09833.0387,W,0.37,126.81,300312,,,D*7F
$GPGGA,183544.000,3352.7494,N,09833.0381,W,2,05,2.8,302.7,M,-23.7,M,3.8,0000*47
$GPGSA,A,3,25,22,18,31,14,,,,,,,,4.9,2.8,4.0*38
$GPRMC,183544.000,A,3352.7494,N,09833.0381,W,0.86,74.92,300312,,,D*41
$GPGGA,183545.000,3352.7491,N,09833.0379,W,2,05,2.8,303.4,M,-23.7,M,0.8,0000*45
$GPGSA,A,3,25,22,18,31,14,,,,,,,,4.9,2.8,4.0*38
$GPRMC,183545.000,A,3352.7491,N,09833.0379,W,0.56,130.77,300312,,,D*75
$GPGGA,183546.000,3352.7486,N,09833.0380,W,2,05,2.8,303.8,M,-23.7,M,0.8,0000*4A
$GPGSA,A,3,25,22,18,31,14,,,,,,,,4.9,2.8,4.0*38
$GPGSV,3,1,11,22,62,095,38,14,61,010,26,31,55,192,19,11,25,293,*70
$GPGSV,3,2,11,25,21,096,32,18,20,115,35,01,19,315,,32,15,307,*75
$GPGSV,3,3,11,12,11,057,22,19,05,254,16,51,49,195,40*41
$GPRMC,183546.000,A,3352.7486,N,09833.0380,W,0.73,170.60,300312,,,D*73
$GPGGA,183547.000,3352.7482,N,09833.0377,W,2,05,2.8,304.5,M,-23.7,M,0.8,0000*4D
$GPGSA,A,3,25,22,18,31,14,,,,,,,,4.9,2.8,4.0*38
$GPRMC,183547.000,A,3352.7482,N,09833.0377,W,0.56,139.61,300312,,,D*75
$GPGGA,183548.000,3352.7482,N,09833.0371,W,2,05,2.8,305.4,M,-23.7,M,1.8,0000*45
$GPGSA,A,3,25,22,18,31,14,,,,,,,,4.9,2.8,4.0*38
$GPRMC,183548.000,A,3352.7482,N,09833.0371,W,0.69,102.50,300312,,,D*7A
$GPGGA,183549.000,3352.7478,N,09833.0370,W,2,05,2.8,305.9,M,-23.7,M,2.8,0000*4E
$GPGSA,A,3,25,22,18,31,14,,,,,,,,4.9,2.8,4.0*38
$GPRMC,183549.000,A,3352.7478,N,09833.0370,W,0.61,129.37,300312,,,D*7F
$GPGGA,183550.000,3352.7473,N,09833.0372,W,2,05,2.8,306.2,M,-23.7,M,3.8,0000*46
$GPGSA,A,3,25,22,18,31,14,,,,,,,,4.9,2.8,4.0*38
$GPRMC,183550.000,A,3352.7473,N,09833.0372,W,0.73,98.24,300312,,,D*44
$GPGGA,183551.000,3352.7470,N,09833.0373,W,2,05,2.8,306.7,M,-23.7,M,0.8,0000*43
$GPGSA,A,3,25,22,18,31,14,,,,,,,,4.9,2.8,4.0*38
$GPGSV,3,1,11,22,62,095,38,14,61,010,27,31,55,192,19,11,25,293,*71
$GPGSV,3,2,11,25,21,096,26,18,20,115,35,01,19,315,,32,15,307,*70
$GPGSV,3,3,11,12,11,057,21,19,05,254,18,51,49,195,40*4C
$GPRMC,183551.000,A,3352.7470,N,09833.0373,W,0.46,123.27,300312,,,D*73
$GPGGA,183552.000,3352.7462,N,09833.0379,W,2,05,2.8,306.5,M,-23.7,M,0.8,0000*4B
$GPGSA,A,3,25,22,18,31,14,,,,,,,,4.9,2.8,4.0*38
$GPRMC,183552.000,A,3352.7462,N,09833.0379,W,1.22,206.10,300312,,,D*7A
$GPGGA,183553.000,3352.7456,N,09833.0385,W,2,05,2.8,306.7,M,-23.7,M,0.8,0000*4C
$GPGSA,A,3,25,22,18,31,14,,,,,,,,4.9,2.8,4.0*38
$GPRMC,183553.000,A,3352.7456,N,09833.0385,W,1.00,207.96,300312,,,D*70
$GPGGA,183554.000,3352.7452,N,09833.0388,W,2,05,2.8,306.8,M,-23.7,M,1.8,0000*4C
$GPGSA,A,3,25,22,18,31,14,,,,,,,,4.9,2.8,4.0*38
$GPRMC,183554.000,A,3352.7452,N,09833.0388,W,0.53,193.48,300312,,,D*74
$GPGGA,183555.000,3352.7449,N,09833.0389,W,2,05,2.8,306.8,M,-23.7,M,2.8,0000*45
$GPGSA,A,3,25,22,18,31,14,,,,,,,,4.9,2.8,4.0*38
$GPRMC,183555.000,A,3352.7449,N,09833.0389,W,0.26,176.04,300312,,,D*7F
$GPGGA,183556.000,3352.7447,N,09833.0388,W,2,05,2.8,306.5,M,-23.7,M,0.8,0000*46
$GPGSA,A,3,25,22,18,31,14,,,,,,,,4.9,2.8,4.0*38
$GPGSV,3,1,11,22,62,095,37,14,61,010,28,31,55,192,20,11,25,293,*7B
$GPGSV,3,2,11,25,21,096,25,18,20,115,34,01,19,315,,32,15,307,*72
$GPGSV,3,3,11,12,11,057,20,19,05,254,19,51,49,195,40*4C
$GPRMC,183556.000,A,3352.7447,N,09833.0388,W,0.21,147.36,300312,,,D*77
$GPGGA,183557.000,3352.7446,N,09833.0386,W,2,05,2.8,306.6,M,-23.7,M,0.8,0000*4B
$GPGSA,A,3,25,22,18,31,14,,,,,,,,4.9,2.8,4.0*38
$GPRMC,183557.000,A,3352.7446,N,09833.0386,W,0.73,74.16,300312,,,D*4D
$GPGGA,183558.000,3352.7446,N,09833.0382,W,2,05,2.8,306.4,M,-23.7,M,0.8,0000*42
$GPGSA,A,3,25,22,18,31,14,,,,,,,,4.9,2.8,4.0*38
$GPRMC,183558.000,A,3352.7446,N,09833.0382,W,1.04,65.36,300312,,,D*45
$GPGGA,183559.000,3352.7441,N,09833.0384,W,2,05,2.8,305.5,M,-23.7,M,0.8,0000*40
$GPGSA,A,3,25,22,18,31,14,,,,,,,,4.9,2.8,4.0*38
$GPRMC,183559.000,A,3352.7441,N,09833.0384,W,0.56,106.86,300312,,,D*7C
$GPGGA,183600.000,3352.7438,N,09833.0384,W,2,05,2.8,304.8,M,-23.7,M,1.8,0000*4C
$GPGSA,A,3,25,22,18,31,14,,,,,,,,4.9,2.8,4.0*38
$GPRMC,183600.000,A,3352.7438,N,09833.0384,W,0.52,169.75,300312,,,D*7C
$GPGGA,183601.000,3352.7433,N,09833.0387,W,2,05,2.8,304.2,M,-23.7,M,2.8,0000*4C
$GPGSA,A,3,25,22,18,31,14,,,,,,,,4.9,2.8,4.0*38
$GPGSV,3,1,11,22,62,095,37,14,61,010,28,31,55,192,21,11,25,293,*7A
$GPGSV,3,2,11,25,21,096,25,18,20,115,33,01,19,315,,32,15,307,*75
$GPGSV,3,3,11,12,11,057,11,19,05,254,19,51,49,195,40*4E
$GPRMC,183601.000,A,3352.7433,N,09833.0387,W,1.01,207.64,300312,,,D*79
$GPGGA,183602.000,3352.7430,N,09833.0391,W,2,05,2.8,304.3,M,-23.7,M,0.8,0000*48
$GPGSA,A,3,25,22,18,31,14,,,,,,,,4.9,2.8,4.0*38
$GPRMC,183602.000,A,3352.7430,N,09833.0391,W,0.99,215.10,300312,,,D*7E
$GPGGA,183603.000,3352.7430,N,09833.0390,W,2,05,2.8,304.6,M,-23.7,M,0.8,0000*4D
$GPGSA,A,3,25,22,18,31,14,,,,,,,,4.9,2.8,4.0*38
$GPRMC,183603.000,A,3352.7430,N,09833.0390,W,0.36,218.11,300312,,,D*77
$GPGGA,183604.000,3352.7429,N,09833.0391,W,2,05,2.8,304.8,M,-23.7,M,0.8,0000*4D
$GPGSA,A,3,25,22,18,31,14,,,,,,,,4.9,2.8,4.0*38
$GPRMC,183604.000,A,3352.7429,N,09833.0391,W,0.01,255.31,300312,,,D*76
$GPGGA,183605.000,3352.7429,N,09833.0391,W,2,05,2.8,305.0,M,-23.7,M,0.8,0000*45
$GPGSA,A,3,25,22,18,31,14,,,,,,,,4.9,2.8,4.0*38
$GPRMC,183605.000,A,3352.7429,N,09833.0391,W,0.06,221.28,300312,,,D*7B
$GPGGA,183606.000,3352.7431,N,09833.0388,W,2,05,2.8,305.4,M,-23.7,M,1.8,0000*42
$GPGSA,A,3,25,22,18,31,14,,,,,,,,4.9,2.8,4.0*38
$GPGSV,3,1,11,22,62,095,37,14,61,010,28,31,55,192,23,11,25,293,*78
$GPGSV,3,2,11,25,21,096,26,18,20,115,33,01,19,315,,32,15,307,*76
$GPGSV,3,3,11,12,11,057,,19,05,254,19,51,49,195,40*4E
$GPRMC,183606.000,A,3352.7431,N,09833.0388,W,0.28,50.33,300312,,,D*4B
$GPGGA,183607.000,3352.7434,N,09833.0383,W,2,05,2.8,305.8,M,-23.7,M,2.8,0000*42
$GPGSA,A,3,25,22,18,31,14,,,,,,,,4.9,2.8,4.0*38
$GPRMC,183607.000,A,3352.7434,N,09833.0383,W,0.37,54.07,300312,,,D*49
$GPGGA,183608.000,3352.7436,N,09833.0380,W,2,05,2.8,306.2,M,-23.7,M,3.8,0000*44
$GPGSA,A,3,25,22,18,31,14,,,,,,,,4.9,2.8,4.0*38
$GPRMC,183608.000,A,3352.7436,N,09833.0380,W,0.21,59.69,300312,,,D*45
$GPGGA,183609.000,3352.7440,N,09833.0372,W,2,05,2.8,306.9,M,-23.7,M,0.8,0000*41
$GPGSA,A,3,25,22,18,31,14,,,,,,,,4.9,2.8,4.0*38
$GPRMC,183609.000,A,3352.7440,N,09833.0372,W,0.41,73.11,300312,,,D*49
$GPGGA,183610.000,3352.7445,N,09833.0364,W,2,05,2.8,307.5,M,-23.7,M,0.8,0000*46
$GPGSA,A,3,25,22,18,31,14,,,,,,,,4.9,2.8,4.0*38
$GPRMC,183610.000,A,3352.7445,N,09833.0364,W,0.53,72.07,300312,,,D*46
$GPGGA,183611.000,3352.7445,N,09833.0361,W,2,05,2.8,308.0,M,-23.7,M,0.8,0000*48
$GPGSA,A,3,25,22,18,31,14,,,,,,,,4.9,2.8,4.0*38
$GPGSV,3,1,11,22,62,095,37,14,61,010,28,31,55,192,25,11,25,293,*7E
$GPGSV,3,2,11,25,21,096,27,18,20,115,32,01,19,315,,32,15,307,*76
$GPGSV,3,3,11,12,11,057,,19,05,254,20,51,49,195,40*44
$GPRMC,183611.000,A,3352.7445,N,09833.0361,W,0.36,94.24,300312,,,D*48
$GPGGA,183612.000,3352.7444,N,09833.0359,W,2,05,2.8,308.5,M,-23.7,M,1.8,0000*45
$GPGSA,A,3,25,22,18,31,14,,,,,,,,4.9,2.8,4.0*38
$GPRMC,183612.000,A,3352.7444,N,09833.0359,W,0.28,121.60,300312,,,D*71
$GPGGA,183613.000,3352.7444,N,09833.0358,W,2,05,2.8,308.9,M,-23.7,M,2.8,0000*4A
$GPGSA,A,3,25,22,18,31,14,,,,,,,,4.9,2.8,4.0*38
$GPRMC,183613.000,A,3352.7444,N,09833.0358,W,0.30,122.13,300312,,,D*7F
$GPGGA,183614.000,3352.7444,N,09833.0356,W,2,05,2.8,309.4,M,-23.7,M,3.8,0000*4E
$GPGSA,A,3,25,22,18,31,14,,,,,,,,4.9,2.8,4.0*38
$GPRMC,183614.000,A,3352.7444,N,09833.0356,W,0.29,117.04,300312,,,D*7E
$GPGGA,183615.000,3352.7444,N,09833.0355,W,2,05,2.8,309.8,M,-23.7,M,0.8,0000*43
$GPGSA,A,3,25,22,18,31,14,,,,,,,,4.9,2.8,4.0*38
$GPRMC,183615.000,A,3352.7444,N,09833.0355,W,0.17,121.72,300312,,,D*75
$GPGGA,183616.000,3352.7444,N,09833.0354,W,2,05,2.8,310.2,M,-23.7,M,0.8,0000*43
$GPGSA,A,3,25,22,18,31,14,,,,,,,,4.9,2.8,4.0*38
$GPGSV,3,1,11,22,62,095,37,14,61,010,28,31,55,192,26,11,25,293,*7D
$GPGSV,3,2,11,25,21,096,28,18,20,115,32,01,19,315,,32,15,307,*79
$GPGSV,3,3,11,12,11,057,,19,05,254,20,51,49,195,40*44
$GPRMC,183616.000,A,3352.7444,N,09833.0354,W,0.19,94.67,300312,,,D*42
$GPGGA,183617.000,3352.7445,N,09833.0352,W,2,05,2.8,310.5,M,-23.7,M,0.8,0000*42
$GPGSA,A,3,25,22,18,31,14,,,,,,,,4.9,2.8,4.0*38
$GPRMC,183617.000,A,3352.7445,N,09833.0352,W,0.21,78.70,300312,,,D*4B
$GPGGA,183618.000,3352.7445,N,09833.0351,W,2,05,2.8,310.9,M,-23.7,M,0.8,0000*42
$GPGSA,A,3,25,22,18,31,14,,,,,,,,4.9,2.8,4.0*38
$GPRMC,183618.000,A,3352.7445,N,09833.0351,W,0.18,85.61,300312,,,D*4F
$GPGGA,183619.000,3352.7446,N,09833.0350,W,2,05,2.8,311.3,M,-23.7,M,1.8,0000*4B
$GPGSA,A,3,25,22,18,31,14,,,,,,,,4.9,2.8,4.0*38
$GPRMC,183619.000,A,3352.7446,N,09833.0350,W,0.19,87.38,300312,,,D*43
