$GPGGA,044210.000,3353.7540,N,09832.0257,W,2,07,1.1,321.0,M,-23.7,M,3.8,0000*47
$GPGSA,A,3,26,11,28,08,07,01,17,,,,,,2.3,1.1,2.0*37
$GPGSV,3,1,11,08,67,150,38,17,64,255,36,28,61,352,32,01,40,069,29*77
$GPGSV,3,2,11,26,29,266,24,11,28,052,36,07,27,148,28,27,10,321,*7A
$GPGSV,3,3,11,15,09,308,,04,05,193,,51,49,195,29*4A
$GPRMC,044210.000,A,3353.7540,N,09832.0257,W,0.19,267.62,310312,,,D*77
$GPGGA,044211.000,3353.7547,N,09832.0258,W,2,07,1.1,322.3,M,-23.7,M,0.8,0000*4D
$GPGSA,A,3,26,11,28,08,07,01,17,,,,,,2.3,1.1,2.0*37
$GPRMC,044211.000,A,3353.7547,N,09832.0258,W,0.12,285.77,310312,,,D*7D
$GPGGA,044212.000,3353.7552,N,09832.0259,W,2,07,1.1,323.5,M,-23.7,M,1.8,0000*4D
$GPGSA,A,3,26,11,28,08,07,01,17,,,,,,2.3,1.1,2.0*37
$GPRMC,044212.000,A,3353.7552,N,09832.0259,W,0.09,4.00,310312,,,D*7A
$GPGGA,044213.000,3353.7557,N,09832.0259,W,2,07,1.1,324.4,M,-23.7,M,0.8,0000*4E
$GPGSA,A,3,26,11,28,08,07,01,17,,,,,,2.3,1.1,2.0*37
$GPRMC,044213.000,A,3353.7557,N,09832.0259,W,0.09,4.18,310312,,,D*77
$GPGGA,044214.000,3353.7560,N,09832.0259,W,2,07,1.1,325.2,M,-23.7,M,1.8,0000*4B
$GPGSA,A,3,26,11,28,08,07,01,17,,,,,,2.3,1.1,2.0*37
$GPRMC,044214.000,A,3353.7560,N,09832.0259,W,0.11,32.52,310312,,,D*46
$GPGGA,044215.000,3353.7563,N,09832.0259,W,2,07,1.1,325.8,M,-23.7,M,0.8,0000*42
$GPGSA,A,3,26,11,28,08,07,01,17,,,,,,2.3,1.1,2.0*37
$GPGSV,3,1,11,08,67,150,40,17,64,255,37,28,61,352,33,01,40,069,31*71
$GPGSV,3,2,11,26,29,266,25,11,28,052,37,07,27,148,29,27,10,321,*7B
$GPGSV,3,3,11,15,09,308,,04,05,193,,51,49,195,30*42
$GPRMC,044215.000,A,3353.7563,N,09832.0259,W,0.13,39.71,310312,,,D*4C
$GPGGA,044216.000,3353.7565,N,09832.0258,W,2,07,1.1,326.3,M,-23.7,M,0.8,0000*4E
$GPGSA,A,3,26,11,28,08,07,01,17,,,,,,2.3,1.1,2.0*37
$GPRMC,044216.000,A,3353.7565,N,09832.0258,W,0.12,54.68,310312,,,D*4A
$GPGGA,044217.000,3353.7566,N,09832.0258,W,2,07,1.1,326.8,M,-23.7,M,0.8,0000*47
$GPGSA,A,3,26,11,28,08,07,01,17,,,,,,2.3,1.1,2.0*37
$GPRMC,044217.000,A,3353.7566,N,09832.0258,W,0.12,126.26,310312,,,D*76
$GPGGA,044218.000,3353.7567,N,09832.0257,W,2,07,1.1,327.3,M,-23.7,M,0.8,0000*4C
$GPGSA,A,3,26,11,28,08,07,01,17,,,,,,2.3,1.1,2.0*37
$GPRMC,044218.000,A,3353.7567,N,09832.0257,W,0.15,129.47,310312,,,D*78
$GPGGA,044219.000,3353.7568,N,09832.0257,W,2,07,1.1,327.8,M,-23.7,M,1.8,0000*48
$GPGSA,A,3,26,11,28,08,07,01,17,,,,,,2.3,1.1,2.0*37
$GPRMC,044219.000,A,3353.7568,N,09832.0257,W,0.13,120.12,310312,,,D*79
$GPGGA,044220.000,3353.7569,N,09832.0256,W,2,07,1.1,328.2,M,-23.7,M,2.8,0000*44
$GPGSA,A,3,26,11,28,08,07,01,17,,,,,,2.3,1.1,2.0*37
$GPGSV,3,1,12,08,66,150,40,17,64,256,37,28,61,352,33,01,40,069,31*70
$GPGSV,3,2,12,26,28,265,25,11,28,052,37,07,27,148,30,27,10,321,*72
$GPGSV,3,3,12,15,09,308,,04,06,193,,20,00,114,,51,49,195,30*74
$GPRMC,044220.000,A,3353.7569,N,09832.0256,W,0.12,126.74,310312,,,D*74
$GPGGA,044221.000,3353.7570,N,09832.0255,W,2,07,1.1,328.6,M,-23.7,M,0.8,0000*48
$GPGSA,A,3,26,11,28,08,07,01,17,,,,,,2.3,1.1,2.0*37
$GPRMC,044221.000,A,3353.7570,N,09832.0255,W,0.15,125.80,310312,,,D*71
$GPGGA,044222.000,3353.7570,N,09832.0255,W,2,07,1.1,329.0,M,-23.7,M,0.8,0000*4C
$GPGSA,A,3,26,11,28,08,07,01,17,,,,,,2.3,1.1,2.0*37
$GPRMC,044222.000,A,3353.7570,N,09832.0255,W,0.17,123.84,310312,,,D*72
$GPGGA,044223.000,3353.7571,N,09832.0254,W,2,07,1.1,329.3,M,-23.7,M,0.8,0000*4E
$GPGSA,A,3,26,11,28,08,07,01,17,,,,,,2.3,1.1,2.0*37
$GPRMC,044223.000,A,3353.7571,N,09832.0254,W,0.15,72.91,310312,,,D*40
$GPGGA,044224.000,3353.7572,N,09832.0253,W,2,07,1.1,329.6,M,-23.7,M,1.8,0000*49
$GPGSA,A,3,26,11,28,08,07,01,17,,,,,,2.3,1.1,2.0*37
$GPRMC,044224.000,A,3353.7572,N,09832.0253,W,0.14,65.49,310312,,,D*41
$GPGGA,044225.000,3353.7573,N,09832.0253,W,2,07,1.1,329.9,M,-23.7,M,2.8,0000*45
$GPGSA,A,3,26,11,28,08,07,01,17,,,,,,2.3,1.1,2.0*37
$GPGSV,3,1,12,08,66,150,40,17,64,256,37,28,61,352,33,01,40,069,31*70
$GPGSV,3,2,12,26,28,265,25,11,28,052,37,07,27,148,31,27,10,321,*73
$GPGSV,3,3,12,15,09,308,,04,06,193,,20,00,114,,51,49,195,30*74
$GPRMC,044225.000,A,3353.7573,N,09832.0253,W,0.13,59.50,310312,,,D*41
$GPGGA,044226.000,3353.7574,N,09832.0252,W,2,07,1.1,330.2,M,-23.7,M,3.8,0000*42
$GPGSA,A,3,26,11,28,08,07,01,17,,,,,,2.3,1.1,2.0*37
$GPRMC,044226.000,A,3353.7574,N,09832.0252,W,0.11,65.45,310312,,,D*4D
$GPGGA,044227.000,3353.7575,N,09832.0252,W,2,07,1.1,330.4,M,-23.7,M,0.8,0000*47
$GPGSA,A,3,26,11,28,08,07,01,17,,,,,,2.3,1.1,2.0*37
$GPRMC,044227.000,A,3353.7575,N,09832.0252,W,0.09,22.62,310312,,,D*42
$GPGGA,044228.000,3353.7576,N,09832.0252,W,2,07,1.1,330.6,M,-23.7,M,0.8,0000*49
$GPGSA,A,3,26,11,28,08,07,01,17,,,,,,2.3,1.1,2.0*37
$GPRMC,044228.000,A,3353.7576,N,09832.0252,W,0.09,345.43,310312,,,D*7F
$GPGGA,044229.000,3353.7577,N,09832.0252,W,2,07,1.1,330.8,M,-23.7,M,0.8,0000*47
$GPGSA,A,3,26,11,28,08,07,01,17,,,,,,2.3,1.1,2.0*37
$GPRMC,044229.000,A,3353.7577,N,09832.0252,W,0.09,147.01,310312,,,D*79
$GPGGA,044230.000,3353.7577,N,09832.0252,W,2,07,1.1,331.1,M,-23.7,M,1.8,0000*46
$GPGSA,A,3,26,11,28,08,07,01,17,,,,,,2.3,1.1,2.0*37
$GPGSV,3,1,12,08,66,150,40,17,64,256,37,28,61,352,32,01,40,069,31*71
$GPGSV,3,2,12,26,28,265,25,11,28,052,37,07,27,148,31,27,10,321,*73
$GPGSV,3,3,12,15,09,308,,04,06,193,,20,00,114,,51,49,195,30*74
$GPRMC,044230.000,A,3353.7577,N,09832.0252,W,0.13,132.69,310312,,,D*76
$GPGGA,044231.000,3353.7578,N,09832.0251,W,2,07,1.1,331.4,M,-23.7,M,2.8,0000*4D
$GPGSA,A,3,26,11,28,08,07,01,17,,,,,,2.3,1.1,2.0*37
$GPRMC,044231.000,A,3353.7578,N,09832.0251,W,0.12,116.40,310312,,,D*77
$GPGGA,044232.000,3353.7578,N,09832.0250,W,2,07,1.1,331.7,M,-23.7,M,3.8,0000*4D
$GPGSA,A,3,26,11,28,08,07,01,17,,,,,,2.3,1.1,2.0*37
$GPRMC,044232.000,A,3353.7578,N,09832.0250,W,0.21,122.07,310312,,,D*71
$GPGGA,044233.000,3353.7578,N,09832.0250,W,2,07,1.1,332.0,M,-23.7,M,0.8,0000*4B
$GPGSA,A,3,26,11,28,08,07,01,17,,,,,,2.3,1.1,2.0*37
$GPRMC,044233.000,A,3353.7578,N,09832.0250,W,0.18,119.68,310312,,,D*7B
$GPGGA,044234.000,3353.7578,N,09832.0249,W,2,07,1.1,332.2,M,-23.7,M,0.8,0000*46
$GPGSA,A,3,26,11,28,08,07,01,17,,,,,,2.3,1.1,2.0*37
$GPRMC,044234.000,A,3353.7578,N,09832.0249,W,0.16,123.09,310312,,,D*74
$GPGGA,044235.000,3353.7579,N,09832.0248,W,2,07,1.1,332.3,M,-23.7,M,0.8,0000*46
$GPGSA,A,3,26,11,28,08,07,01,17,,,,,,2.3,1.1,2.0*37
$GPGSV,3,1,12,08,66,150,40,17,64,256,37,28,61,352,32,01,40,069,31*71
$GPGSV,3,2,12,26,28,265,25,11,28,052,37,07,27,148,31,27,10,321,*73
$GPGSV,3,3,12,15,09,308,,04,06,193,,20,00,114,,51,49,195,30*74
$GPRMC,044235.000,A,3353.7579,N,09832.0248,W,0.16,85.65,310312,,,D*42
$GPGGA,044236.000,3353.7579,N,09832.0247,W,2,07,1.1,332.4,M,-23.7,M,1.8,0000*4C
$GPGSA,A,3,26,11,28,08,07,01,17,,,,,,2.3,1.1,2.0*37
$GPRMC,044236.000,A,3353.7579,N,09832.0247,W,0.18,79.02,310312,,,D*42
$GPGGA,044237.000,3353.7579,N,09832.0247,W,2,07,1.1,332.5,M,-23.7,M,0.8,0000*4D
$GPGSA,A,3,26,11,28,08,07,01,17,,,,,,2.3,1.1,2.0*37
$GPRMC,044237.000,A,3353.7579,N,09832.0247,W,0.16,84.11,310312,,,D*4D
$GPGGA,044238.000,3353.7579,N,09832.0246,W,2,07,1.1,332.5,M,-23.7,M,0.8,0000*43
$GPGSA,A,3,26,11,28,08,07,01,17,,,,,,2.3,1.1,2.0*37
$GPRMC,044238.000,A,3353.7579,N,09832.0246,W,0.15,91.11,310312,,,D*44
$GPGGA,044239.000,3353.7579,N,09832.0246,W,2,07,1.1,332.5,M,-23.7,M,0.8,0000*42
$GPGSA,A,3,26,11,28,08,07,01,17,,,,,,2.3,1.1,2.0*37
$GPRMC,044239.000,A,3353.7579,N,09832.0246,W,0.08,75.10,310312,,,D*42
$GPGGA,044240.000,3353.7579,N,09832.0246,W,2,07,1.1,332.5,M,-23.7,M,0.8,0000*4C
$GPGSA,A,3,26,11,28,08,07,01,17,,,,,,2.3,1.1,2.0*37
$GPGSV,3,1,12,08,66,150,40,17,64,256,37,28,61,352,32,01,40,069,31*71
$GPGSV,3,2,12,26,28,265,25,11,28,052,37,07,27,148,31,27,10,321,*73
$GPGSV,3,3,12,15,09,308,,04,06,193,,20,00,114,,51,49,195,30*74
$GPRMC,044240.000,A,3353.7579,N,09832.0246,W,0.05,10.65,310312,,,D*40
$GPGGA,044241.000,3353.7579,N,09832.0245,W,2,07,1.1,332.5,M,-23.7,M,0.8,0000*4E
$GPGSA,A,3,26,11,28,08,07,01,17,,,,,,2.3,1.1,2.0*37
$GPRMC,044241.000,A,3353.7579,N,09832.0245,W,0.13,161.47,310312,,,D*72
$GPGGA,044242.000,3353.7578,N,09832.0245,W,2,07,1.1,332.4,M,-23.7,M,1.8,0000*4C
$GPGSA,A,3,26,11,28,08,07,01,17,,,,,,2.3,1.1,2.0*37
$GPRMC,044242.000,A,3353.7578,N,09832.0245,W,0.14,153.13,310312,,,D*77
$GPGGA,044243.000,3353.7578,N,09832.0245,W,2,07,1.1,332.4,M,-23.7,M,2.8,0000*4E
$GPGSA,A,3,26,11,28,08,07,01,17,,,,,,2.3,1.1,2.0*37
$GPRMC,044243.000,A,3353.7578,N,09832.0245,W,0.13,164.39,310312,,,D*7D
$GPGGA,044244.000,3353.7577,N,09832.0245,W,2,07,1.1,332.5,M,-23.7,M,3.8,0000*46
$GPGSA,A,3,26,11,28,08,07,01,17,,,,,,2.3,1.1,2.0*37
$GPRMC,044244.000,A,3353.7577,N,09832.0245,W,0.28,126.03,310312,,,D*72
$GPGGA,044245.000,3353.7576,N,09832.0244,W,2,07,1.1,332.5,M,-23.7,M,0.8,0000*44
$GPGSA,A,3,26,11,28,08,07,01,17,,,,,,2.3,1.1,2.0*37
$GPGSV,3,1,12,08,66,150,40,17,64,256,37,28,61,352,32,01,40,069,31*71
$GPGSV,3,2,12,26,28,265,24,11,28,052,37,07,27,148,31,27,10,321,*72
$GPGSV,3,3,12,15,09,308,,04,06,193,,20,00,114,,51,49,195,29*7C
$GPRMC,044245.000,A,3353.7576,N,09832.0244,W,0.37,118.21,310312,,,D*70
$GPGGA,044246.000,3353.7576,N,09832.0243,W,2,07,1.1,332.4,M,-23.7,M,0.8,0000*41
$GPGSA,A,3,26,11,28,08,07,01,17,,,,,,2.3,1.1,2.0*37
$GPRMC,044246.000,A,3353.7576,N,09832.0243,W,0.20,142.09,310312,,,D*77
$GPGGA,044247.000,3353.7575,N,09832.0243,W,2,07,1.1,332.2,M,-23.7,M,0.8,0000*45
$GPGSA,A,3,26,11,28,08,07,01,17,,,,,,2.3,1.1,2.0*37
$GPRMC,044247.000,A,3353.7575,N,09832.0243,W,0.02,88.20,310312,,,D*49
$GPGGA,044248.000,3353.7575,N,09832.0243,W,2,07,1.1,332.0,M,-23.7,M,1.8,0000*49
$GPGSA,A,3,26,11,28,08,07,01,17,,,,,,2.3,1.1,2.0*37
$GPRMC,044248.000,A,3353.7575,N,09832.0243,W,0.07,104.15,310312,,,D*70
$GPGGA,044249.000,3353.7574,N,09832.0243,W,2,07,1.1,331.9,M,-23.7,M,0.8,0000*42
$GPGSA,A,3,26,11,28,08,07,01,17,,,,,,2.3,1.1,2.0*37
$GPRMC,044249.000,A,3353.7574,N,09832.0243,W,0.29,101.75,310312,,,D*7F
$GPGGA,044250.000,3353.7574,N,09832.0242,W,2,07,1.1,331.6,M,-23.7,M,1.8,0000*45
$GPGSA,A,3,26,11,28,08,07,01,17,,,,,,2.3,1.1,2.0*37
$GPGSV,3,1,12,08,66,151,40,17,64,256,37,28,61,353,32,01,40,069,32*72
$GPGSV,3,2,12,26,28,265,24,11,27,052,37,07,27,148,30,27,10,321,*7C
$GPGSV,3,3,12,15,09,308,,04,06,193,,20,00,114,,51,49,195,29*7C
$GPRMC,044250.000,A,3353.7574,N,09832.0242,W,0.07,104.82,310312,,,D*77
$GPGGA,044251.000,3353.7573,N,09832.0243,W,2,07,1.1,331.4,M,-23.7,M,0.8,0000*41
$GPGSA,A,3,26,11,28,08,07,01,17,,,,,,2.3,1.1,2.0*37
$GPRMC,044251.000,A,3353.7573,N,09832.0243,W,0.02,201.02,310312,,,D*7B
$GPGGA,044252.000,3353.7573,N,09832.0243,W,2,07,1.1,331.0,M,-23.7,M,0.8,0000*46
$GPGSA,A,3,26,11,28,08,07,01,17,,,,,,2.3,1.1,2.0*37
$GPRMC,044252.000,A,3353.7573,N,09832.0243,W,0.16,284.24,310312,,,D*74
$GPGGA,044253.000,3353.7572,N,09832.0244,W,2,07,1.1,330.9,M,-23.7,M,0.8,0000*49
$GPGSA,A,3,26,11,28,08,07,01,17,,,,,,2.3,1.1,2.0*37
$GPRMC,044253.000,A,3353.7572,N,09832.0244,W,0.15,157.54,310312,,,D*7A
$GPGGA,044254.000,3353.7571,N,09832.0243,W,2,07,1.1,330.8,M,-23.7,M,1.8,0000*4A
$GPGSA,A,3,26,11,28,08,07,01,17,,,,,,2.3,1.1,2.0*37
$GPRMC,044254.000,A,3353.7571,N,09832.0243,W,0.26,130.41,310312,,,D*7C
$GPGGA,044255.000,3353.7571,N,09832.0243,W,2,07,1.1,330.7,M,-23.7,M,2.8,0000*47
$GPGSA,A,3,26,11,28,08,07,01,17,,,,,,2.3,1.1,2.0*37
$GPGSV,3,1,12,08,66,151,40,17,64,256,36,28,61,353,32,01,40,069,32*73
$GPGSV,3,2,12,26,28,265,23,11,27,052,37,07,27,148,30,27,10,321,*7B
$GPGSV,3,3,12,15,09,307,,04,06,193,,20,00,114,,51,49,195,29*73
$GPRMC,044255.000,A,3353.7571,N,09832.0243,W,0.19,145.19,310312,,,D*7E
$GPGGA,044256.000,3353.7570,N,09832.0243,W,2,07,1.1,330.7,M,-23.7,M,3.8,0000*44
$GPGSA,A,3,26,11,28,08,07,01,17,,,,,,2.3,1.1,2.0*37
$GPRMC,044256.000,A,3353.7570,N,09832.0243,W,0.28,124.21,310312,,,D*72
$GPGGA,044257.000,3353.7569,N,09832.0243,W,2,07,1.1,330.6,M,-23.7,M,0.8,0000*4F
$GPGSA,A,3,26,11,28,08,07,01,17,,,,,,2.3,1.1,2.0*37
$GPRMC,044257.000,A,3353.7569,N,09832.0243,W,0.12,173.68,310312,,,D*7D
$GPGGA,044258.000,3353.7568,N,09832.0243,W,2,07,1.1,330.3,M,-23.7,M,0.8,0000*44
$GPGSA,A,3,26,11,28,08,07,01,17,,,,,,2.3,1.1,2.0*37
$GPRMC,044258.000,A,3353.7568,N,09832.0243,W,0.15,193.36,310312,,,D*71
$GPGGA,044259.000,3353.7567,N,09832.0244,W,2,07,1.1,330.1,M,-23.7,M,0.8,0000*4F
$GPGSA,A,3,26,11,28,08,07,01,17,,,,,,2.3,1.1,2.0*37
$GPRMC,044259.000,A,3353.7567,N,09832.0244,W,0.09,269.93,310312,,,D*7C
$GPGGA,044300.000,3353.7567,N,09832.0244,W,2,07,1.1,329.8,M,-23.7,M,1.8,0000*42
$GPGSA,A,3,26,11,28,08,07,01,17,,,,,,2.3,1.1,2.0*37
$GPGSV,3,1,12,08,66,151,39,17,64,256,36,28,61,353,32,01,40,069,32*7D
$GPGSV,3,2,12,26,28,265,18,11,27,052,37,07,27,148,30,27,10,321,*73
$GPGSV,3,3,12,15,09,307,,04,06,193,,20,00,114,,51,49,195,29*73
$GPRMC,044300.000,A,3353.7567,N,09832.0244,W,0.02,204.44,310312,,,D*7B
$GPGGA,044301.000,3353.7567,N,09832.0244,W,2,07,1.1,329.7,M,-23.7,M,2.8,0000*4F
$GPGSA,A,3,26,11,28,08,07,01,17,,,,,,2.3,1.1,2.0*37
$GPRMC,044301.000,A,3353.7567,N,09832.0244,W,0.05,110.71,310312,,,D*7D
$GPGGA,044302.000,3353.7566,N,09832.0243,W,2,07,1.1,329.7,M,-23.7,M,3.8,0000*4B
$GPGSA,A,3,26,11,28,08,07,01,17,,,,,,2.3,1.1,2.0*37
$GPRMC,044302.000,A,3353.7566,N,09832.0243,W,0.25,102.37,310312,,,D*7B
$GPGGA,044303.000,3353.7566,N,09832.0243,W,2,07,1.1,329.8,M,-23.7,M,0.8,0000*46
$GPGSA,A,3,26,11,28,08,07,01,17,,,,,,2.3,1.1,2.0*37
$GPRMC,044303.000,A,3353.7566,N,09832.0243,W,0.30,101.44,310312,,,D*79
$GPGGA,044304.000,3353.7566,N,09832.0242,W,2,07,1.1,329.7,M,-23.7,M,0.8,0000*4F
$GPGSA,A,3,26,11,28,08,07,01,17,,,,,,2.3,1.1,2.0*37
$GPRMC,044304.000,A,3353.7566,N,09832.0242,W,0.08,78.00,310312,,,D*4B
$GPGGA,044305.000,3353.7566,N,09832.0242,W,2,07,1.1,329.8,M,-23.7,M,0.8,0000*41
$GPGSA,A,3,26,11,28,08,07,01,17,,,,,,2.3,1.1,2.0*37
$GPGSV,3,1,12,08,66,151,39,17,64,256,36,28,61,353,33,01,40,069,33*7D
$GPGSV,3,2,12,26,28,265,19,11,27,052,37,07,27,148,31,27,10,321,*73
$GPGSV,3,3,12,15,09,307,,04,06,193,,20,00,114,,51,49,195,30*7B
$GPRMC,044305.000,A,3353.7566,N,09832.0242,W,0.18,140.02,310312,,,D*73
$GPGGA,044306.000,3353.7565,N,09832.0243,W,2,07,1.1,329.7,M,-23.7,M,0.8,0000*4F
$GPGSA,A,3,26,11,28,08,07,01,17,,,,,,2.3,1.1,2.0*37
$GPRMC,044306.000,A,3353.7565,N,09832.0243,W,0.14,233.17,310312,,,D*7D
$GPGGA,044307.000,3353.7565,N,09832.0243,W,2,07,1.1,329.7,M,-23.7,M,1.8,0000*4F
$GPGSA,A,3,26,11,28,08,07,01,17,,,,,,2.3,1.1,2.0*37
$GPRMC,044307.000,A,3353.7565,N,09832.0243,W,0.13,145.36,310312,,,D*7A
$GPGGA,044308.000,3353.7564,N,09832.0243,W,2,07,1.1,329.8,M,-23.7,M,2.8,0000*4D
$GPGSA,A,3,26,11,28,08,07,01,17,,,,,,2.3,1.1,2.0*37
$GPRMC,044308.000,A,3353.7564,N,09832.0243,W,0.23,129.58,310312,,,D*75
$GPGGA,044309.000,3353.7564,N,09832.0242,W,2,07,1.1,329.8,M,-23.7,M,0.8,0000*4F
$GPGSA,A,3,26,11,28,08,07,01,17,,,,,,2.3,1.1,2.0*37
$GPRMC,044309.000,A,3353.7564,N,09832.0242,W,0.16,138.36,310312,,,D*7B
$GPGGA,044310.000,3353.7563,N,09832.0242,W,2,07,1.1,329.8,M,-23.7,M,0.8,0000*40
$GPGSA,A,3,26,11,28,08,07,01,17,,,,,,2.3,1.1,2.0*37
$GPGSV,3,1,12,08,66,151,39,17,64,256,37,28,61,353,33,01,40,069,33*7C
$GPGSV,3,2,12,26,28,265,20,11,27,052,37,07,27,148,32,27,10,321,*7A
$GPGSV,3,3,12,15,09,307,,04,06,193,,20,00,114,,51,49,195,29*73
$GPRMC,044310.000,A,3353.7563,N,09832.0242,W,0.16,149.98,310312,,,D*76
$GPGGA,044311.000,3353.7563,N,09832.0241,W,2,07,1.1,330.0,M,-23.7,M,0.8,0000*42
$GPGSA,A,3,26,11,28,08,07,01,17,,,,,,2.3,1.1,2.0*37
$GPRMC,044311.000,A,3353.7563,N,09832.0241,W,0.34,97.06,310312,,,D*41
$GPGGA,044312.000,3353.7563,N,09832.0241,W,2,07,1.1,330.0,M,-23.7,M,0.8,0000*41
$GPGSA,A,3,26,11,28,08,07,01,17,,,,,,2.3,1.1,2.0*37
$GPRMC,044312.000,A,3353.7563,N,09832.0241,W,0.21,94.29,310312,,,D*48
$GPGGA,044313.000,3353.7564,N,09832.0241,W,2,07,1.1,330.3,M,-23.7,M,1.8,0000*45
$GPGSA,A,3,26,11,28,08,07,01,17,,,,,,2.3,1.1,2.0*37
$GPRMC,044313.000,A,3353.7564,N,09832.0241,W,0.23,87.58,310312,,,D*48
$GPGGA,044314.000,3353.7566,N,09832.0242,W,2,07,1.1,330.5,M,-23.7,M,0.8,0000*44
$GPGSA,A,3,26,11,28,08,07,01,17,,,,,,2.3,1.1,2.0*37
$GPRMC,044314.000,A,3353.7566,N,09832.0242,W,0.13,66.59,310312,,,D*43
$GPGGA,044315.000,3353.7567,N,09832.0242,W,2,07,1.1,330.7,M,-23.7,M,0.8,0000*46
$GPGSA,A,3,26,11,28,08,07,01,17,,,,,,2.3,1.1,2.0*37
$GPGSV,3,1,12,08,66,151,39,17,64,256,37,28,61,353,33,01,40,069,33*7C
$GPGSV,3,2,12,26,28,265,22,11,27,052,37,07,27,148,33,27,10,321,*79
$GPGSV,3,3,12,15,09,307,,04,06,193,,20,00,114,,51,49,195,29*73
$GPRMC,044315.000,A,3353.7567,N,09832.0242,W,0.06,38.46,310312,,,D*42
$GPGGA,044316.000,3353.7569,N,09832.0244,W,2,07,1.1,330.9,M,-23.7,M,0.8,0000*43
$GPGSA,A,3,26,11,28,08,07,01,17,,,,,,2.3,1.1,2.0*37
$GPRMC,044316.000,A,3353.7569,N,09832.0244,W,0.08,347.95,310312,,,D*72
$GPGGA,044317.000,3353.7570,N,09832.0244,W,2,07,1.1,331.2,M,-23.7,M,0.8,0000*40
$GPGSA,A,3,26,11,28,08,07,01,17,,,,,,2.3,1.1,1.9*3D
$GPRMC,044317.000,A,3353.7570,N,09832.0244,W,0.14,117.95,310312,,,D*71
$GPGGA,044318.000,3353.7571,N,09832.0245,W,2,07,1.1,331.4,M,-23.7,M,1.8,0000*48
$GPGSA,A,3,26,11,28,08,07,01,17,,,,,,2.3,1.1,1.9*3D
$GPRMC,044318.000,A,3353.7571,N,09832.0245,W,0.04,197.07,310312,,,D*7C
$GPGGA,044319.000,3353.7571,N,09832.0246,W,2,07,1.1,331.6,M,-23.7,M,2.8,0000*4B
$GPGSA,A,3,26,11,28,08,07,01,17,,,,,,2.3,1.1,1.9*3D
$GPRMC,044319.000,A,3353.7571,N,09832.0246,W,0.13,123.72,310312,,,D*75
$GPGGA,044320.000,3353.7572,N,09832.0247,W,2,07,1.1,331.8,M,-23.7,M,3.8,0000*4C
$GPGSA,A,3,26,11,28,08,07,01,17,,,,,,2.3,1.1,1.9*3D
$GPGSV,3,1,12,08,66,151,39,17,65,257,37,28,61,353,33,01,40,068,33*7D
$GPGSV,3,2,12,26,28,265,24,11,27,052,37,07,27,149,34,27,10,321,*79
$GPGSV,3,3,12,15,09,307,,04,06,193,,20,00,114,,51,49,195,30*7B
$GPRMC,044320.000,A,3353.7572,N,09832.0247,W,0.05,195.93,310312,,,D*78
$GPGGA,044321.000,3353.7573,N,09832.0247,W,2,07,1.1,332.1,M,-23.7,M,0.8,0000*45
$GPGSA,A,3,26,11,28,08,07,01,17,,,,,,2.3,1.1,1.9*3D
$GPRMC,044321.000,A,3353.7573,N,09832.0247,W,0.22,111.66,310312,,,D*7B
$GPGGA,044322.000,3353.7574,N,09832.0247,W,2,07,1.1,332.4,M,-23.7,M,0.8,0000*44
$GPGSA,A,3,26,11,28,08,07,01,17,,,,,,2.3,1.1,1.9*3D
$GPRMC,044322.000,A,3353.7574,N,09832.0247,W,0.20,116.12,310312,,,D*79
$GPGGA,044323.000,3353.7575,N,09832.0248,W,2,07,1.1,332.5,M,-23.7,M,0.8,0000*4A
$GPGSA,A,3,26,11,28,08,07,01,17,,,,,,2.3,1.1,1.9*3D
$GPRMC,044323.000,A,3353.7575,N,09832.0248,W,0.15,82.30,310312,,,D*4C
$GPGGA,044324.000,3353.7576,N,09832.0248,W,2,07,1.1,332.6,M,-23.7,M,0.8,0000*4D
$GPGSA,A,3,26,11,28,08,07,01,17,,,,,,2.3,1.1,1.9*3D
$GPRMC,044324.000,A,3353.7576,N,09832.0248,W,0.15,76.59,310312,,,D*4C
$GPGGA,044325.000,3353.7577,N,09832.0248,W,2,07,1.1,332.7,M,-23.7,M,0.8,0000*4C
$GPGSA,A,3,26,11,28,08,07,01,17,,,,,,2.3,1.1,1.9*3D
$GPGSV,3,1,12,08,66,151,39,17,65,257,36,28,61,353,33,01,40,068,33*7C
$GPGSV,3,2,12,26,28,265,26,11,27,052,37,07,27,149,34,27,10,321,*7B
$GPGSV,3,3,12,15,09,307,,04,06,193,,20,00,114,,51,49,195,30*7B
$GPRMC,044325.000,A,3353.7577,N,09832.0248,W,0.14,79.39,310312,,,D*44
$GPGGA,044326.000,3353.7578,N,09832.0249,W,2,07,1.1,332.8,M,-23.7,M,1.8,0000*4F
$GPGSA,A,3,26,11,28,08,07,01,17,,,,,,2.3,1.1,1.9*3D
$GPRMC,044326.000,A,3353.7578,N,09832.0249,W,0.14,75.16,310312,,,D*48
$GPGGA,044327.000,3353.7579,N,09832.0249,W,2,07,1.1,332.8,M,-23.7,M,0.8,0000*4E
$GPGSA,A,3,26,11,28,08,07,01,17,,,,,,2.3,1.1,1.9*3D
$GPRMC,044327.000,A,3353.7579,N,09832.0249,W,0.08,75.22,310312,,,D*42
$GPGGA,044328.000,3353.7579,N,09832.0250,W,2,07,1.1,332.9,M,-23.7,M,0.8,0000*48
$GPGSA,A,3,26,11,28,08,07,01,17,,,,,,2.3,1.1,1.9*3D
$GPRMC,044328.000,A,3353.7579,N,09832.0250,W,0.08,31.96,310312,,,D*4A
$GPGGA,044329.000,3353.7580,N,09832.0251,W,2,07,1.1,333.0,M,-23.7,M,0.8,0000*46
$GPGSA,A,3,26,11,28,08,07,01,17,,,,,,2.3,1.1,1.9*3D
$GPRMC,044329.000,A,3353.7580,N,09832.0251,W,0.10,149.68,310312,,,D*7A
$GPGGA,044330.000,3353.7580,N,09832.0251,W,2,07,1.1,333.1,M,-23.7,M,1.8,0000*4E
$GPGSA,A,3,26,11,28,08,07,01,17,,,,,,2.3,1.1,1.9*3D
$GPGSV,3,1,12,08,66,151,39,17,65,257,36,28,61,353,33,01,40,068,33*7C
$GPGSV,3,2,12,26,28,265,28,11,27,052,37,07,27,149,33,27,10,321,*72
$GPGSV,3,3,12,15,09,307,,04,06,193,,20,00,114,,51,49,195,30*7B
$GPRMC,044330.000,A,3353.7580,N,09832.0251,W,0.09,152.26,310312,,,D*7A
$GPGGA,044331.000,3353.7580,N,09832.0251,W,2,07,1.1,333.3,M,-23.7,M,0.8,0000*4C
$GPGSA,A,3,26,11,28,08,07,01,17,,,,,,2.3,1.1,1.9*3D
$GPRMC,044331.000,A,3353.7580,N,09832.0251,W,0.10,148.38,310312,,,D*77
$GPGGA,044332.000,3353.7580,N,09832.0252,W,2,07,1.1,333.4,M,-23.7,M,1.8,0000*4A
$GPGSA,A,3,26,11,28,08,07,01,17,,,,,,2.3,1.1,1.9*3D
$GPRMC,044332.000,A,3353.7580,N,09832.0252,W,0.09,158.04,310312,,,D*71
$GPGGA,044333.000,3353.7580,N,09832.0252,W,2,07,1.1,333.5,M,-23.7,M,0.8,0000*4B
$GPGSA,A,3,26,11,28,08,07,01,17,,,,,,2.3,1.1,1.9*3D
$GPRMC,044333.000,A,3353.7580,N,09832.0252,W,0.14,137.24,310312,,,D*77
$GPGGA,044334.000,3353.7580,N,09832.0252,W,2,07,1.1,333.6,M,-23.7,M,1.8,0000*4E
$GPGSA,A,3,26,11,28,08,07,01,17,,,,,,2.3,1.1,1.9*3D
$GPRMC,044334.000,A,3353.7580,N,09832.0252,W,0.12,136.56,310312,,,D*72
$GPGGA,044335.000,3353.7581,N,09832.0252,W,2,07,1.1,333.6,M,-23.7,M,0.8,0000*4F
$GPGSA,A,3,26,11,28,08,07,01,17,,,,,,2.3,1.1,1.9*3D
$GPGSV,3,1,12,08,66,151,39,17,65,257,36,28,61,353,32,01,40,068,33*7D
$GPGSV,3,2,12,26,28,265,29,11,27,052,37,07,27,149,33,27,10,321,*73
$GPGSV,3,3,12,15,09,307,,04,06,193,,20,00,114,,51,49,195,30*7B
$GPRMC,044335.000,A,3353.7581,N,09832.0252,W,0.12,73.76,310312,,,D*40
$GPGGA,044336.000,3353.7581,N,09832.0252,W,2,07,1.1,333.6,M,-23.7,M,1.8,0000*4D
$GPGSA,A,3,26,11,28,08,07,01,17,,,,,,2.3,1.1,1.9*3D
$GPRMC,044336.000,A,3353.7581,N,09832.0252,W,0.10,71.22,310312,,,D*42
$GPGGA,044337.000,3353.7582,N,09832.0252,W,2,07,1.1,333.6,M,-23.7,M,0.8,0000*4E
$GPGSA,A,3,26,11,28,08,07,01,17,,,,,,2.3,1.1,1.9*3D
$GPRMC,044337.000,A,3353.7582,N,09832.0252,W,0.10,73.14,310312,,,D*47
$GPGGA,044338.000,3353.7582,N,09832.0252,W,2,07,1.1,333.6,M,-23.7,M,0.8,0000*41
$GPGSA,A,3,26,11,28,08,07,01,17,,,,,,2.3,1.1,1.9*3D
$GPRMC,044338.000,A,3353.7582,N,09832.0252,W,0.11,73.17,310312,,,D*4A
$GPGGA,044339.000,3353.7582,N,09832.0252,W,2,07,1.1,333.6,M,-23.7,M,0.8,0000*40
$GPGSA,A,3,26,11,28,08,07,01,17,,,,,,2.3,1.1,1.9*3D
$GPRMC,044339.000,A,3353.7582,N,09832.0252,W,0.05,51.46,310312,,,D*4A
$GPGGA,044340.000,3353.7582,N,09832.0253,W,2,07,1.1,333.5,M,-23.7,M,0.8,0000*4C
$GPGSA,A,3,26,11,28,08,07,01,17,,,,,,2.3,1.1,1.9*3D
$GPGSV,3,1,12,08,66,151,39,17,65,257,36,28,61,353,32,01,40,068,34*7A
$GPGSV,3,2,12,26,28,265,29,11,27,052,37,07,27,149,33,27,10,321,*73
$GPGSV,3,3,12,15,09,307,,04,06,193,,20,00,114,,51,49,195,30*7B
$GPRMC,044340.000,A,3353.7582,N,09832.0253,W,0.04,35.21,310312,,,D*47
$GPGGA,044341.000,3353.7582,N,09832.0253,W,2,07,1.1,333.5,M,-23.7,M,0.8,0000*4D
$GPGSA,A,3,26,11,28,08,07,01,17,,,,,,2.3,1.1,1.9*3D
$GPRMC,044341.000,A,3353.7582,N,09832.0253,W,0.12,157.65,310312,,,D*74
$GPGGA,044342.000,3353.7582,N,09832.0253,W,2,07,1.1,333.5,M,-23.7,M,1.8,0000*4F
$GPGSA,A,3,26,11,28,08,07,01,17,,,,,,2.3,1.1,1.9*3D
$GPRMC,044342.000,A,3353.7582,N,09832.0253,W,0.12,153.54,310312,,,D*71
$GPGGA,044343.000,3353.7582,N,09832.0254,W,2,07,1.1,333.5,M,-23.7,M,2.8,0000*4A
$GPGSA,A,3,26,11,28,08,07,01,17,,,,,,2.3,1.1,1.9*3D
$GPRMC,044343.000,A,3353.7582,N,09832.0254,W,0.13,166.62,310312,,,D*75
$GPGGA,044344.000,3353.7581,N,09832.0254,W,2,07,1.1,333.5,M,-23.7,M,3.8,0000*4F
$GPGSA,A,3,26,11,28,08,07,01,17,,,,,,2.3,1.1,1.9*3D
$GPRMC,044344.000,A,3353.7581,N,09832.0254,W,0.12,161.67,310312,,,D*72
$GPGGA,044345.000,3353.7581,N,09832.0254,W,2,07,1.1,333.4,M,-23.7,M,0.8,0000*4C
$GPGSA,A,3,26,11,28,08,07,01,17,,,,,,2.3,1.1,1.9*3D
$GPGSV,3,1,12,08,66,151,39,17,65,257,36,28,61,353,31,01,40,068,34*79
$GPGSV,3,2,12,26,28,265,30,11,27,052,37,07,27,149,33,27,10,321,*7B
$GPGSV,3,3,12,15,09,307,,04,06,193,,20,00,114,,51,49,195,30*7B
$GPRMC,044345.000,A,3353.7581,N,09832.0254,W,0.17,142.26,310312,,,D*72
$GPGGA,044346.000,3353.7581,N,09832.0254,W,2,07,1.1,333.4,M,-23.7,M,0.8,0000*4F
$GPGSA,A,3,26,11,28,08,07,01,17,,,,,,2.3,1.1,1.9*3D
$GPRMC,044346.000,A,3353.7581,N,09832.0254,W,0.17,143.54,310312,,,D*75
$GPGGA,044347.000,3353.7580,N,09832.0254,W,2,07,1.1,333.4,M,-23.7,M,0.8,0000*4F
$GPGSA,A,3,26,11,28,08,07,01,17,,,,,,2.3,1.1,1.9*3D
$GPRMC,044347.000,A,3353.7580,N,09832.0254,W,0.08,111.68,310312,,,D*73
$GPGGA,044348.000,3353.7580,N,09832.0254,W,2,07,1.1,333.3,M,-23.7,M,1.8,0000*46
$GPGSA,A,3,26,11,28,08,07,01,17,,,,,,2.3,1.1,1.9*3D
$GPRMC,044348.000,A,3353.7580,N,09832.0254,W,0.10,106.23,310312,,,D*7C
$GPGGA,044349.000,3353.7580,N,09832.0254,W,2,07,1.1,333.2,M,-23.7,M,2.8,0000*45
$GPGSA,A,3,26,11,28,08,07,01,17,,,,,,2.2,1.1,1.9*3C
$GPRMC,044349.000,A,3353.7580,N,09832.0254,W,0.11,115.10,310312,,,D*7E
$GPGGA,044350.000,3353.7580,N,09832.0254,W,2,07,1.1,333.2,M,-23.7,M,3.8,0000*4C
$GPGSA,A,3,26,11,28,08,07,01,17,,,,,,2.2,1.1,1.9*3C
$GPGSV,3,1,12,08,66,151,39,17,65,257,37,28,61,354,31,01,40,068,35*7E
$GPGSV,3,2,12,26,28,265,30,11,27,052,37,07,26,149,34,27,10,321,*7D
$GPGSV,3,3,12,15,09,307,,04,06,193,,20,00,114,,51,49,195,30*7B
$GPRMC,044350.000,A,3353.7580,N,09832.0254,W,0.10,110.61,310312,,,D*74
$GPGGA,044351.000,3353.7580,N,09832.0255,W,2,07,1.1,333.1,M,-23.7,M,0.8,0000*4C
$GPGSA,A,3,26,11,28,08,07,01,17,,,,,,2.2,1.1,1.9*3C
$GPRMC,044351.000,A,3353.7580,N,09832.0255,W,0.04,140.12,310312,,,D*70
$GPGGA,044352.000,3353.7580,N,09832.0255,W,2,07,1.1,333.0,M,-23.7,M,0.8,0000*4E
$GPGSA,A,3,26,11,28,08,07,01,17,,,,,,2.2,1.1,1.9*3C
$GPRMC,044352.000,A,3353.7580,N,09832.0255,W,0.02,65.58,310312,,,D*4D
$GPGGA,044353.000,3353.7580,N,09832.0255,W,2,07,1.1,333.0,M,-23.7,M,0.8,0000*4F
$GPGSA,A,3,26,11,28,08,07,01,17,,,,,,2.2,1.1,1.9*3C
$GPRMC,044353.000,A,3353.7580,N,09832.0255,W,0.09,156.39,310312,,,D*71
$GPGGA,044354.000,3353.7580,N,09832.0256,W,2,07,1.1,332.9,M,-23.7,M,1.8,0000*42
$GPGSA,A,3,26,11,28,08,07,01,17,,,,,,2.2,1.1,1.9*3C
$GPRMC,044354.000,A,3353.7580,N,09832.0256,W,0.10,157.09,310312,,,D*7F
$GPGGA,044355.000,3353.7580,N,09832.0256,W,2,07,1.1,332.9,M,-23.7,M,2.8,0000*40
$GPGSA,A,3,26,11,28,08,07,01,17,,,,,,2.2,1.1,1.9*3C
$GPGSV,3,1,12,08,66,151,39,17,65,257,37,28,61,354,31,01,40,068,35*7E
$GPGSV,3,2,12,26,28,265,29,11,27,052,37,07,26,149,35,27,10,321,*74
$GPGSV,3,3,12,15,09,307,,04,06,193,18,20,00,114,,51,49,195,30*72
$GPRMC,044355.000,A,3353.7580,N,09832.0256,W,0.09,151.77,310312,,,D*79
$GPGGA,044356.000,3353.7579,N,09832.0256,W,2,07,1.1,332.9,M,-23.7,M,3.8,0000*44
$GPGSA,A,3,26,11,28,08,07,01,17,,,,,,2.2,1.1,1.9*3C
$GPRMC,044356.000,A,3353.7579,N,09832.0256,W,0.10,153.07,310312,,,D*71
$GPGGA,044357.000,3353.7579,N,09832.0256,W,2,07,1.1,332.8,M,-23.7,M,0.8,0000*47
$GPGSA,A,3,26,11,28,08,07,01,17,,,,,,2.2,1.1,1.9*3C
$GPRMC,044357.000,A,3353.7579,N,09832.0256,W,0.14,132.69,310312,,,D*7B
$GPGGA,044358.000,3353.7579,N,09832.0256,W,2,07,1.1,332.8,M,-23.7,M,0.8,0000*48
$GPGSA,A,3,26,11,28,08,07,01,17,,,,,,2.2,1.1,1.9*3C
$GPRMC,044358.000,A,3353.7579,N,09832.0256,W,0.15,128.25,310312,,,D*76
$GPGGA,044359.000,3353.7579,N,09832.0256,W,2,07,1.1,332.7,M,-23.7,M,0.8,0000*46
$GPGSA,A,3,26,11,28,08,07,01,17,,,,,,2.2,1.1,1.9*3C
$GPRMC,044359.000,A,3353.7579,N,09832.0256,W,0.05,238.83,310312,,,D*78
$GPGGA,044400.000,3353.7579,N,09832.0256,W,2,07,1.1,332.6,M,-23.7,M,1.8,0000*4D
$GPGSA,A,3,26,11,28,08,07,01,17,,,,,,2.2,1.1,1.9*3C
$GPGSV,3,1,12,08,66,151,38,17,65,257,37,28,61,354,30,01,40,068,36*7D
$GPGSV,3,2,12,26,28,265,28,11,27,052,37,07,26,149,35,27,10,321,*75
$GPGSV,3,3,12,15,09,307,,04,06,193,19,20,00,114,,51,49,195,30*73
$GPRMC,044400.000,A,3353.7579,N,09832.0256,W,0.14,100.40,310312,,,D*74
$GPGGA,044401.000,3353.7579,N,09832.0256,W,2,07,1.1,332.7,M,-23.7,M,2.8,0000*4E
$GPGSA,A,3,26,11,28,08,07,01,17,,,,,,2.2,1.1,1.9*3C
$GPRMC,044401.000,A,3353.7579,N,09832.0256,W,0.30,103.59,310312,,,D*78
$GPGGA,044402.000,3353.7579,N,09832.0255,W,2,07,1.1,332.7,M,-23.7,M,0.8,0000*4C
$GPGSA,A,3,26,11,28,08,07,01,17,,,,,,2.2,1.1,1.9*3C
$GPRMC,044402.000,A,3353.7579,N,09832.0255,W,0.18,107.19,310312,,,D*72
$GPGGA,044403.000,3353.7579,N,09832.0255,W,2,07,1.1,332.7,M,-23.7,M,0.8,0000*4D
$GPGSA,A,3,26,11,28,08,07,01,17,,,,,,2.2,1.1,1.9*3C
$GPRMC,044403.000,A,3353.7579,N,09832.0255,W,0.06,117.11,310312,,,D*75
$GPGGA,044404.000,3353.7579,N,09832.0255,W,2,07,1.1,332.7,M,-23.7,M,0.8,0000*4A
$GPGSA,A,3,26,11,28,08,07,01,17,,,,,,2.2,1.1,1.9*3C
$GPRMC,044404.000,A,3353.7579,N,09832.0255,W,0.02,119.50,310312,,,D*7D
$GPGGA,044405.000,3353.7579,N,09832.0256,W,2,07,1.1,332.6,M,-23.7,M,0.8,0000*49
$GPGSA,A,3,26,11,28,08,07,01,17,,,,,,2.2,1.1,1.9*3C
$GPGSV,3,1,12,08,66,151,38,17,65,257,37,28,61,354,30,01,40,068,36*7D
$GPGSV,3,2,12,26,28,265,27,11,27,052,37,07,26,149,36,27,10,321,*79
$GPGSV,3,3,12,15,09,307,,04,06,193,19,20,00,114,,51,49,195,29*7B
$GPRMC,044405.000,A,3353.7579,N,09832.0256,W,0.05,172.94,310312,,,D*7D
$GPGGA,044406.000,3353.7578,N,09832.0256,W,2,07,1.1,332.6,M,-23.7,M,1.8,0000*4A
$GPGSA,A,3,26,11,28,08,07,01,17,,,,,,2.2,1.1,1.9*3C
$GPRMC,044406.000,A,3353.7578,N,09832.0256,W,0.07,138.93,310312,,,D*74
$GPGGA,044407.000,3353.7578,N,09832.0256,W,2,07,1.1,332.6,M,-23.7,M,2.8,0000*48
$GPGSA,A,3,26,11,28,08,07,01,17,,,,,,2.2,1.1,1.9*3C
$GPRMC,044407.000,A,3353.7578,N,09832.0256,W,0.10,147.70,310312,,,D*76
$GPGGA,044408.000,3353.7578,N,09832.0256,W,2,07,1.1,332.6,M,-23.7,M,3.8,0000*46
$GPGSA,A,3,26,11,28,08,07,01,17,,,,,,2.2,1.1,1.9*3C
$GPRMC,044408.000,A,3353.7578,N,09832.0256,W,0.08,141.80,310312,,,D*79
$GPGGA,044409.000,3353.7578,N,09832.0256,W,2,07,1.1,332.6,M,-23.7,M,0.8,0000*44
$GPGSA,A,3,26,11,28,08,07,01,17,,,,,,2.2,1.1,1.9*3C
$GPRMC,044409.000,A,3353.7578,N,09832.0256,W,0.14,119.80,310312,,,D*78
$GPGGA,044410.000,3353.7577,N,09832.0256,W,2,07,1.1,332.7,M,-23.7,M,0.8,0000*42
$GPGSA,A,3,26,11,28,08,07,01,17,,,,,,2.2,1.1,1.9*3C
$GPGSV,3,1,12,08,66,151,38,17,65,257,37,28,61,354,29,01,40,068,36*75
$GPGSV,3,2,12,26,28,265,26,11,27,052,37,07,26,149,36,27,10,321,*78
$GPGSV,3,3,12,15,09,307,,04,06,193,18,20,00,114,,51,49,195,30*72
$GPRMC,044410.000,A,3353.7577,N,09832.0256,W,0.19,127.90,310312,,,D*7E
$GPGGA,044411.000,3353.7577,N,09832.0255,W,2,07,1.1,332.7,M,-23.7,M,0.8,0000*40
$GPGSA,A,3,26,11,28,08,07,01,17,,,,,,2.2,1.1,1.9*3C
$GPRMC,044411.000,A,3353.7577,N,09832.0255,W,0.11,105.66,310312,,,D*7D
$GPGGA,044412.000,3353.7577,N,09832.0255,W,2,07,1.1,332.6,M,-23.7,M,0.8,0000*42
$GPGSA,A,3,26,11,28,08,07,01,17,,,,,,2.2,1.1,1.9*3C
$GPRMC,044412.000,A,3353.7577,N,09832.0255,W,0.12,95.73,310312,,,D*41
$GPGGA,044413.000,3353.7577,N,09832.0255,W,2,07,1.1,332.6,M,-23.7,M,1.8,0000*42
$GPGSA,A,3,26,11,28,08,07,01,17,,,,,,2.2,1.1,1.9*3C
$GPRMC,044413.000,A,3353.7577,N,09832.0255,W,0.09,99.17,310312,,,D*44
$GPGGA,044414.000,3353.7577,N,09832.0255,W,2,07,1.1,332.6,M,-23.7,M,2.8,0000*46
$GPGSA,A,3,26,11,28,08,07,01,17,,,,,,2.2,1.1,1.9*3C
$GPRMC,044414.000,A,3353.7577,N,09832.0255,W,0.08,107.30,310312,,,D*71
$GPGGA,044415.000,3353.7577,N,09832.0255,W,2,07,1.1,332.5,M,-23.7,M,0.8,0000*46
$GPGSA,A,3,26,11,28,08,07,01,17,,,,,,2.2,1.1,1.9*3C
$GPGSV,3,1,12,08,66,151,38,17,65,257,37,28,61,354,28,01,40,068,36*74
$GPGSV,3,2,12,26,28,265,25,11,27,052,37,07,26,149,36,27,10,321,*7B
$GPGSV,3,3,12,15,09,307,,04,06,193,18,20,00,114,,51,49,195,30*72
$GPRMC,044415.000,A,3353.7577,N,09832.0255,W,0.02,57.83,310312,,,D*46
$GPGGA,044416.000,3353.7577,N,09832.0255,W,2,07,1.1,332.6,M,-23.7,M,0.8,0000*46
$GPGSA,A,3,26,11,28,08,07,01,17,,,,,,2.2,1.1,1.9*3C
$GPRMC,044416.000,A,3353.7577,N,09832.0255,W,0.11,90.94,310312,,,D*4A
$GPGGA,044417.000,3353.7577,N,09832.0255,W,2,07,1.1,332.5,M,-23.7,M,0.8,0000*44
$GPGSA,A,3,26,11,28,08,07,01,17,,,,,,2.2,1.1,1.9*3C
$GPRMC,044417.000,A,3353.7577,N,09832.0255,W,0.06,156.84,310312,,,D*77
$GPGGA,044418.000,3353.7577,N,09832.0256,W,2,07,1.1,332.4,M,-23.7,M,0.8,0000*49
$GPGSA,A,3,26,11,28,08,07,01,17,,,,,,2.2,1.1,1.9*3C
$GPRMC,044418.000,A,3353.7577,N,09832.0256,W,0.07,196.91,310312,,,D*72
$GPGGA,044419.000,3353.7577,N,09832.0256,W,2,07,1.1,332.2,M,-23.7,M,1.8,0000*4F
$GPGSA,A,3,26,11,28,08,07,01,17,,,,,,2.2,1.1,1.9*3C
$GPRMC,044419.000,A,3353.7577,N,09832.0256,W,0.11,254.18,310312,,,D*78
$GPGGA,044420.000,3353.7577,N,09832.0256,W,2,07,1.1,332.2,M,-23.7,M,2.8,0000*46
$GPGSA,A,3,26,11,28,08,07,01,17,,,,,,2.2,1.1,1.9*3C
$GPGSV,3,1,12,08,66,151,38,17,65,257,37,28,61,354,22,01,40,068,36*7E
$GPGSV,3,2,12,26,28,265,25,11,27,052,37,07,26,149,36,27,10,321,*7B
$GPGSV,3,3,12,15,09,307,,04,06,193,18,20,00,114,,51,49,195,29*7A
$GPRMC,044420.000,A,3353.7577,N,09832.0256,W,0.05,13.08,310312,,,D*47
$GPGGA,044421.000,3353.7577,N,09832.0256,W,2,07,1.1,332.2,M,-23.7,M,0.8,0000*45
$GPGSA,A,3,26,11,28,08,07,01,17,,,,,,2.2,1.1,1.9*3C
$GPRMC,044421.000,A,3353.7577,N,09832.0256,W,0.06,44.48,310312,,,D*43
$GPGGA,044422.000,3353.7577,N,09832.0256,W,2,07,1.1,332.1,M,-23.7,M,0.8,0000*45
$GPGSA,A,3,26,11,28,08,07,01,17,,,,,,2.2,1.1,1.9*3C
$GPRMC,044422.000,A,3353.7577,N,09832.0256,W,0.12,123.84,310312,,,D*75
$GPGGA,044423.000,3353.7577,N,09832.0256,W,2,07,1.1,332.1,M,-23.7,M,0.8,0000*44
$GPGSA,A,3,26,11,28,08,07,01,17,,,,,,2.2,1.1,1.9*3C
$GPRMC,044423.000,A,3353.7577,N,09832.0256,W,0.15,129.43,310312,,,D*72
$GPGGA,044424.000,3353.7576,N,09832.0256,W,2,07,1.1,332.0,M,-23.7,M,1.8,0000*42
$GPGSA,A,3,26,11,28,08,07,01,17,,,,,,2.2,1.1,1.9*3C
$GPRMC,044424.000,A,3353.7576,N,09832.0256,W,0.07,18.10,310312,,,D*42
$GPGGA,044425.000,3353.7576,N,09832.0256,W,2,07,1.1,332.0,M,-23.7,M,2.8,0000*40
$GPGSA,A,3,26,11,28,08,07,01,17,,,,,,2.2,1.1,1.9*3C
$GPGSV,3,1,12,08,65,151,38,17,65,258,37,28,61,354,23,01,40,068,36*73
$GPGSV,3,2,12,26,28,264,25,11,27,052,37,07,26,149,36,27,11,321,*7B
$GPGSV,3,3,12,15,09,307,,04,06,192,18,20,00,114,,51,49,195,29*7B
$GPRMC,044425.000,A,3353.7576,N,09832.0256,W,0.09,78.17,310312,,,D*4C
$GPGGA,044426.000,3353.7576,N,09832.0256,W,2,07,1.1,332.0,M,-23.7,M,3.8,0000*42
$GPGSA,A,3,26,11,28,08,07,01,17,,,,,,2.2,1.1,1.9*3C
$GPRMC,044426.000,A,3353.7576,N,09832.0256,W,0.23,120.75,310312,,,D*7F
$GPGGA,044427.000,3353.7576,N,09832.0255,W,2,07,1.1,331.9,M,-23.7,M,0.8,0000*49
$GPGSA,A,3,26,11,28,08,07,01,17,,,,,,2.2,1.1,1.9*3C
$GPRMC,044427.000,A,3353.7576,N,09832.0255,W,0.11,136.71,310312,,,D*7F
$GPGGA,044428.000,3353.7576,N,09832.0256,W,2,07,1.1,331.9,M,-23.7,M,0.8,0000*45
$GPGSA,A,3,26,11,28,08,07,01,17,,,,,,2.2,1.1,1.9*3C
$GPRMC,044428.000,A,3353.7576,N,09832.0256,W,0.01,282.65,310312,,,D*7B
$GPGGA,044429.000,3353.7576,N,09832.0256,W,2,07,1.1,331.8,M,-23.7,M,0.8,0000*45
$GPGSA,A,3,26,11,28,08,07,01,17,,,,,,2.2,1.1,1.9*3C
$GPRMC,044429.000,A,3353.7576,N,09832.0256,W,0.06,96.03,310312,,,D*4A
$GPGGA,044430.000,3353.7575,N,09832.0256,W,2,07,1.1,331.7,M,-23.7,M,0.8,0000*41
$GPGSA,A,3,26,11,28,08,07,01,17,,,,,,2.2,1.1,1.9*3C
$GPGSV,3,1,12,08,65,151,38,17,65,258,37,28,61,354,23,01,40,068,36*73
$GPGSV,3,2,12,26,28,264,25,11,27,052,37,07,26,149,36,27,11,321,*7B
$GPGSV,3,3,12,15,09,307,,04,06,192,18,20,00,114,,51,49,195,29*7B
$GPRMC,044430.000,A,3353.7575,N,09832.0256,W,0.15,134.50,310312,,,D*7C
$GPGGA,044431.000,3353.7575,N,09832.0256,W,2,07,1.1,331.6,M,-23.7,M,1.8,0000*40
$GPGSA,A,3,26,11,28,08,07,01,17,,,,,,2.2,1.1,1.9*3C
$GPRMC,044431.000,A,3353.7575,N,09832.0256,W,0.15,139.28,310312,,,D*7F
$GPGGA,044432.000,3353.7575,N,09832.0256,W,2,07,1.1,331.6,M,-23.7,M,2.8,0000*40
$GPGSA,A,3,26,11,28,08,07,01,17,,,,,,2.2,1.1,1.9*3C
$GPRMC,044432.000,A,3353.7575,N,09832.0256,W,0.05,113.54,310312,,,D*7E
$GPGGA,044433.000,3353.7574,N,09832.0255,W,2,07,1.1,331.5,M,-23.7,M,0.8,0000*42
$GPGSA,A,3,26,11,28,08,07,01,17,,,,,,2.2,1.1,1.9*3C
$GPRMC,044433.000,A,3353.7574,N,09832.0255,W,0.15,106.87,310312,,,D*76
$GPGGA,044434.000,3353.7574,N,09832.0255,W,2,07,1.1,331.4,M,-23.7,M,0.8,0000*44
$GPGSA,A,3,26,11,28,08,07,01,17,,,,,,2.2,1.1,1.9*3C
$GPRMC,044434.000,A,3353.7574,N,09832.0255,W,0.14,112.89,310312,,,D*7B
$GPGGA,044435.000,3353.7574,N,09832.0255,W,2,07,1.1,331.3,M,-23.7,M,0.8,0000*42
$GPGSA,A,3,26,11,28,08,07,01,17,,,,,,2.2,1.1,1.9*3C
$GPGSV,3,1,12,08,65,151,38,17,65,258,37,28,61,354,23,01,40,068,37*72
$GPGSV,3,2,12,26,28,264,25,11,27,052,37,07,26,149,36,27,11,321,*7B
$GPGSV,3,3,12,15,09,307,,04,06,192,18,20,00,114,,51,49,195,29*7B
$GPRMC,044435.000,A,3353.7574,N,09832.0255,W,0.11,134.51,310312,,,D*7E
$GPGGA,044436.000,3353.7574,N,09832.0255,W,2,07,1.1,331.3,M,-23.7,M,1.8,0000*40
$GPGSA,A,3,26,11,28,08,07,01,17,,,,,,2.2,1.1,1.9*3C
$GPRMC,044436.000,A,3353.7574,N,09832.0255,W,0.06,5.92,310312,,,D*77
$GPGGA,044437.000,3353.7574,N,09832.0255,W,2,07,1.1,331.3,M,-23.7,M,2.8,0000*42
$GPGSA,A,3,26,11,28,08,07,01,17,,,,,,2.2,1.1,1.9*3C
$GPRMC,044437.000,A,3353.7574,N,09832.0255,W,0.08,11.41,310312,,,D*43
$GPGGA,044438.000,3353.7574,N,09832.0255,W,2,07,1.1,331.2,M,-23.7,M,3.8,0000*4D
$GPGSA,A,3,26,11,28,08,07,01,17,,,,,,2.2,1.1,1.9*3C
$GPRMC,044438.000,A,3353.7574,N,09832.0255,W,0.04,75.99,310312,,,D*47
$GPGGA,044439.000,3353.7574,N,09832.0256,W,2,07,1.1,331.1,M,-23.7,M,0.8,0000*4F
$GPGSA,A,3,26,11,28,08,07,01,17,,,,,,2.2,1.1,1.9*3C
$GPRMC,044439.000,A,3353.7574,N,09832.0256,W,0.08,159.11,310312,,,D*76
$GPGGA,044440.000,3353.7573,N,09832.0256,W,2,07,1.1,331.0,M,-23.7,M,0.8,0000*47
$GPGSA,A,3,26,11,28,08,07,01,17,,,,,,2.2,1.1,1.9*3C
$GPGSV,3,1,12,08,65,151,37,17,65,258,37,28,61,354,24,01,40,068,37*7A
$GPGSV,3,2,12,26,28,264,26,11,27,052,37,07,26,149,37,27,11,321,*79
$GPGSV,3,3,12,15,09,307,,04,06,192,19,20,00,114,,51,49,195,29*7A
$GPRMC,044440.000,A,3353.7573,N,09832.0256,W,0.04,263.47,310312,,,D*7A
$GPGGA,044441.000,3353.7573,N,09832.0256,W,2,07,1.1,330.9,M,-23.7,M,0.8,0000*4E
$GPGSA,A,3,26,11,28,08,07,01,17,,,,,,2.2,1.1,1.9*3C
$GPRMC,044441.000,A,3353.7573,N,09832.0256,W,0.06,349.06,310312,,,D*75
$GPGGA,044442.000,3353.7573,N,09832.0257,W,2,07,1.1,330.8,M,-23.7,M,0.8,0000*4D
$GPGSA,A,3,26,11,28,08,07,01,17,,,,,,2.2,1.1,1.9*3C
$GPRMC,044442.000,A,3353.7573,N,09832.0257,W,0.13,142.73,310312,,,D*78
$GPGGA,044443.000,3353.7572,N,09832.0257,W,2,07,1.1,330.7,M,-23.7,M,0.8,0000*42
$GPGSA,A,3,26,11,28,08,07,01,17,,,,,,2.2,1.1,1.9*3C
$GPRMC,044443.000,A,3353.7572,N,09832.0257,W,0.15,144.88,310312,,,D*7C
$GPGGA,044444.000,3353.7572,N,09832.0257,W,2,07,1.1,330.7,M,-23.7,M,0.8,0000*45
$GPGSA,A,3,26,11,28,08,07,01,17,,,,,,2.2,1.1,1.9*3C
$GPRMC,044444.000,A,3353.7572,N,09832.0257,W,0.02,346.60,310312,,,D*7B
$GPGGA,044445.000,3353.7572,N,09832.0257,W,2,07,1.1,330.7,M,-23.7,M,0.8,0000*44
$GPGSA,A,3,26,11,28,08,07,01,17,,,,,,2.2,1.1,1.9*3C
$GPGSV,3,1,12,08,65,151,37,17,65,258,37,28,61,354,23,01,40,068,37*7D
$GPGSV,3,2,12,26,28,264,27,11,27,052,37,07,26,149,37,27,11,321,*78
$GPGSV,3,3,12,15,09,307,,04,06,192,18,20,00,114,,51,49,195,29*7B
$GPRMC,044445.000,A,3353.7572,N,09832.0257,W,0.07,61.38,310312,,,D*44
$GPGGA,044446.000,3353.7572,N,09832.0257,W,2,07,1.1,330.7,M,-23.7,M,0.8,0000*47
$GPGSA,A,3,26,11,28,08,07,01,17,,,,,,2.2,1.1,1.9*3C
$GPRMC,044446.000,A,3353.7572,N,09832.0257,W,0.07,68.98,310312,,,D*44
$GPGGA,044447.000,3353.7572,N,09832.0256,W,2,07,1.1,330.7,M,-23.7,M,0.8,0000*47
$GPGSA,A,3,26,11,28,08,07,01,17,,,,,,2.2,1.1,1.9*3C
$GPRMC,044447.000,A,3353.7572,N,09832.0256,W,0.08,22.65,310312,,,D*47
$GPGGA,044448.000,3353.7572,N,09832.0256,W,2,07,1.1,330.6,M,-23.7,M,1.8,0000*48
$GPGSA,A,3,26,11,28,08,07,01,17,,,,,,2.2,1.1,1.9*3C
$GPRMC,044448.000,A,3353.7572,N,09832.0256,W,0.12,111.28,310312,,,D*7B
$GPGGA,044449.000,3353.7572,N,09832.0256,W,2,07,1.1,330.6,M,-23.7,M,2.8,0000*4A
$GPGSA,A,3,26,11,28,08,07,01,17,,,,,,2.2,1.1,1.9*3C
$GPRMC,044449.000,A,3353.7572,N,09832.0256,W,0.07,31.96,310312,,,D*48
$GPGGA,044450.000,3353.7571,N,09832.0256,W,2,07,1.1,330.5,M,-23.7,M,0.8,0000*40
$GPGSA,A,3,26,11,28,08,07,01,17,,,,,,2.2,1.1,1.9*3C
$GPGSV,3,1,12,08,65,151,37,17,65,258,37,28,61,354,22,01,40,068,37*7C
$GPGSV,3,2,12,26,28,264,27,11,27,052,37,07,26,149,37,27,11,321,*78
$GPGSV,3,3,12,15,09,307,,04,06,192,19,20,00,114,,51,49,195,30*72
$GPRMC,044450.000,A,3353.7571,N,09832.0256,W,0.14,126.51,310312,,,D*7D
$GPGGA,044451.000,3353.7571,N,09832.0256,W,2,07,1.1,330.4,M,-23.7,M,0.8,0000*40
$GPGSA,A,3,26,11,28,08,07,01,17,,,,,,2.2,1.1,1.9*3C
$GPRMC,044451.000,A,3353.7571,N,09832.0256,W,0.12,137.93,310312,,,D*74
$GPGGA,044452.000,3353.7571,N,09832.0256,W,2,07,1.1,330.4,M,-23.7,M,0.8,0000*43
$GPGSA,A,3,26,11,28,08,07,01,17,,,,,,2.2,1.1,1.9*3C
$GPRMC,044452.000,A,3353.7571,N,09832.0256,W,0.08,155.58,310312,,,D*7F
$GPGGA,044453.000,3353.7570,N,09832.0256,W,2,07,1.1,330.3,M,-23.7,M,0.8,0000*44
$GPGSA,A,3,26,11,28,08,07,01,17,,,,,,2.2,1.1,1.9*3C
$GPRMC,044453.000,A,3353.7570,N,09832.0256,W,0.11,143.12,310312,,,D*7E
$GPGGA,044454.000,3353.7570,N,09832.0256,W,2,07,1.1,330.3,M,-23.7,M,1.8,0000*42
$GPGSA,A,3,26,11,28,08,07,01,17,,,,,,2.2,1.1,1.9*3C
$GPRMC,044454.000,A,3353.7570,N,09832.0256,W,0.10,155.12,310312,,,D*7F
$GPGGA,044455.000,3353.7569,N,09832.0256,W,2,07,1.1,330.3,M,-23.7,M,2.8,0000*48
$GPGSA,A,3,26,11,28,08,07,01,17,,,,,,2.2,1.1,1.9*3C
$GPGSV,3,1,12,08,65,151,36,17,65,258,37,28,61,354,21,01,40,068,37*7E
$GPGSV,3,2,12,26,28,264,26,11,27,052,37,07,26,149,37,27,11,321,*79
$GPGSV,3,3,12,15,09,307,,04,06,192,19,20,00,114,,51,49,195,30*72
$GPRMC,044455.000,A,3353.7569,N,09832.0256,W,0.25,130.92,310312,,,D*7B
$GPGGA,044456.000,3353.7569,N,09832.0256,W,2,07,1.1,330.2,M,-23.7,M,3.8,0000*4B
$GPGSA,A,3,26,11,28,08,07,01,17,,,,,,2.2,1.1,1.9*3C
$GPRMC,044456.000,A,3353.7569,N,09832.0256,W,0.17,150.25,310312,,,D*73
$GPGGA,044457.000,3353.7568,N,09832.0255,W,2,07,1.1,330.1,M,-23.7,M,0.8,0000*48
$GPGSA,A,3,26,11,28,08,07,01,17,,,,,,2.2,1.1,1.9*3C
$GPRMC,044457.000,A,3353.7568,N,09832.0255,W,0.09,122.08,310312,,,D*75
$GPGGA,044458.000,3353.7568,N,09832.0255,W,2,07,1.1,330.1,M,-23.7,M,0.8,0000*47
$GPGSA,A,3,26,11,28,08,07,01,17,,,,,,2.2,1.1,1.9*3C
$GPRMC,044458.000,A,3353.7568,N,09832.0255,W,0.24,136.94,310312,,,D*75
$GPGGA,044459.000,3353.7568,N,09832.0254,W,2,07,1.1,330.1,M,-23.7,M,0.8,0000*47
$GPGSA,A,3,26,11,28,08,07,01,17,,,,,,2.2,1.1,1.9*3C
$GPRMC,044459.000,A,3353.7568,N,09832.0254,W,0.14,128.46,310312,,,D*76
$GPGGA,044500.000,3353.7567,N,09832.0254,W,2,07,1.1,330.1,M,-23.7,M,1.8,0000*44
$GPGSA,A,3,26,11,28,08,07,01,17,,,,,,2.2,1.1,1.9*3C
$GPGSV,3,1,12,08,65,151,36,17,65,258,37,28,61,354,20,01,40,068,37*7F
$GPGSV,3,2,12,26,28,264,26,11,27,052,37,07,26,149,37,27,11,321,*79
$GPGSV,3,3,12,15,09,307,,04,06,192,20,20,00,114,,51,49,195,30*78
$GPRMC,044500.000,A,3353.7567,N,09832.0254,W,0.09,88.89,310312,,,D*40
$GPGGA,044501.000,3353.7567,N,09832.0254,W,2,07,1.1,330.2,M,-23.7,M,2.8,0000*45
$GPGSA,A,3,26,11,28,08,07,01,17,,,,,,2.2,1.1,1.9*3C
$GPRMC,044501.000,A,3353.7567,N,09832.0254,W,0.08,29.86,310312,,,D*44
$GPGGA,044502.000,3353.7567,N,09832.0253,W,2,07,1.1,330.2,M,-23.7,M,0.8,0000*43
$GPGSA,A,3,26,11,28,08,07,01,17,,,,,,2.2,1.1,1.9*3C
$GPRMC,044502.000,A,3353.7567,N,09832.0253,W,0.14,117.93,310312,,,D*75
$GPGGA,044503.000,3353.7567,N,09832.0253,W,2,07,1.1,330.1,M,-23.7,M,0.8,0000*41
$GPGSA,A,3,26,11,28,08,07,01,17,,,,,,2.2,1.1,1.9*3C
$GPRMC,044503.000,A,3353.7567,N,09832.0253,W,0.11,146.46,310312,,,D*7D
$GPGGA,044504.000,3353.7567,N,09832.0253,W,2,07,1.1,330.2,M,-23.7,M,0.8,0000*45
$GPGSA,A,3,26,11,28,08,07,01,17,,,,,,2.2,1.1,1.9*3C
$GPRMC,044504.000,A,3353.7567,N,09832.0253,W,0.05,28.89,310312,,,D*45
$GPGGA,044505.000,3353.7567,N,09832.0253,W,2,07,1.1,330.2,M,-23.7,M,0.8,0000*44
$GPGSA,A,3,26,11,28,08,07,01,17,,,,,,2.2,1.1,1.9*3C
$GPGSV,3,1,12,08,65,151,36,17,65,258,37,28,61,354,21,01,40,068,37*7E
$GPGSV,3,2,12,26,28,264,26,11,27,052,37,07,26,149,37,27,11,321,*79
$GPGSV,3,3,12,15,09,307,,04,06,192,20,20,00,114,,51,49,195,29*70
$GPRMC,044505.000,A,3353.7567,N,09832.0253,W,0.05,340.63,310312,,,D*7D
$GPGGA,044506.000,3353.7567,N,09832.0253,W,2,07,1.1,330.2,M,-23.7,M,1.8,0000*46
$GPGSA,A,3,26,11,28,08,07,01,17,,,,,,2.2,1.1,1.9*3C
$GPRMC,044506.000,A,3353.7567,N,09832.0253,W,0.12,145.02,310312,,,D*78
$GPGGA,044507.000,3353.7566,N,09832.0253,W,2,07,1.1,330.2,M,-23.7,M,2.8,0000*45
$GPGSA,A,3,26,11,28,08,07,01,17,,,,,,2.2,1.1,1.9*3C
$GPRMC,044507.000,A,3353.7566,N,09832.0253,W,0.02,78.85,310312,,,D*49
$GPGGA,044508.000,3353.7566,N,09832.0253,W,2,07,1.1,330.3,M,-23.7,M,3.8,0000*4A
$GPGSA,A,3,26,11,28,08,07,01,17,,,,,,2.2,1.1,1.9*3C
$GPRMC,044508.000,A,3353.7566,N,09832.0253,W,0.03,38.84,310312,,,D*42
$GPGGA,044509.000,3353.7566,N,09832.0253,W,2,07,1.1,330.2,M,-23.7,M,0.8,0000*49
$GPGSA,A,3,26,11,28,08,07,01,17,,,,,,2.2,1.1,1.9*3C
$GPRMC,044509.000,A,3353.7566,N,09832.0253,W,0.11,117.63,310312,,,D*75
$GPGGA,044510.000,3353.7566,N,09832.0253,W,2,07,1.1,330.2,M,-23.7,M,1.8,0000*40
$GPGSA,A,3,26,11,28,08,07,01,17,,,,,,2.2,1.1,1.9*3C
$GPGSV,3,1,12,08,65,151,36,17,65,258,37,28,61,354,21,01,40,068,37*7E
$GPGSV,3,2,12,26,28,264,25,11,27,052,37,07,26,149,37,27,11,321,*7A
$GPGSV,3,3,12,15,09,307,,04,06,192,20,20,00,114,,51,49,195,29*70
$GPRMC,044510.000,A,3353.7566,N,09832.0253,W,0.17,129.16,310312,,,D*74
$GPGGA,044511.000,3353.7565,N,09832.0253,W,2,07,1.1,330.1,M,-23.7,M,0.8,0000*40
$GPGSA,A,3,26,11,28,08,07,01,17,,,,,,2.2,1.1,1.9*3C
$GPRMC,044511.000,A,3353.7565,N,09832.0253,W,0.07,153.92,310312,,,D*76
$GPGGA,044512.000,3353.7565,N,09832.0252,W,2,07,1.1,330.0,M,-23.7,M,1.8,0000*42
$GPGSA,A,3,26,11,28,08,07,01,17,,,,,,2.2,1.1,1.9*3C
$GPRMC,044512.000,A,3353.7565,N,09832.0252,W,0.16,129.84,310312,,,D*7E
$GPGGA,044513.000,3353.7565,N,09832.0252,W,2,07,1.1,330.1,M,-23.7,M,0.8,0000*43
$GPGSA,A,3,26,11,28,08,07,01,17,,,,,,2.2,1.1,1.9*3C
$GPRMC,044513.000,A,3353.7565,N,09832.0252,W,0.20,115.79,310312,,,D*77
$GPGGA,044514.000,3353.7564,N,09832.0251,W,2,07,1.1,330.1,M,-23.7,M,0.8,0000*46
$GPGSA,A,3,26,11,28,08,07,01,17,,,,,,2.2,1.1,1.9*3C
$GPRMC,044514.000,A,3353.7564,N,09832.0251,W,0.15,116.08,310312,,,D*71
$GPGGA,044515.000,3353.7564,N,09832.0251,W,2,07,1.1,330.0,M,-23.7,M,0.8,0000*46
$GPGSA,A,3,26,11,28,08,07,01,17,,,,,,2.2,1.1,1.9*3C
$GPGSV,3,1,12,08,65,151,37,17,65,258,37,28,61,354,22,01,40,068,37*7C
$GPGSV,3,2,12,26,28,264,25,11,27,052,37,07,26,149,37,27,11,321,*7A
$GPGSV,3,3,12,15,09,307,,04,06,192,20,20,00,114,,51,49,195,30*78
$GPRMC,044515.000,A,3353.7564,N,09832.0251,W,0.10,295.12,310312,,,D*76
$GPGGA,044516.000,3353.7564,N,09832.0252,W,2,07,1.1,329.9,M,-23.7,M,0.8,0000*47
$GPGSA,A,3,26,11,28,08,07,01,17,,,,,,2.2,1.1,1.9*3C
$GPRMC,044516.000,A,3353.7564,N,09832.0252,W,0.09,292.36,310312,,,D*7F
$GPGGA,044517.000,3353.7564,N,09832.0251,W,2,07,1.1,329.9,M,-23.7,M,0.8,0000*45
$GPGSA,A,3,26,11,28,08,07,01,17,,,,,,2.2,1.1,1.9*3C
$GPRMC,044517.000,A,3353.7564,N,09832.0251,W,0.24,118.61,310312,,,D*71
$GPGGA,044518.000,3353.7564,N,09832.0251,W,2,07,1.1,329.9,M,-23.7,M,1.8,0000*4B
$GPGSA,A,3,26,11,28,08,07,01,17,,,,,,2.2,1.1,1.9*3C
$GPRMC,044518.000,A,3353.7564,N,09832.0251,W,0.02,178.04,310312,,,D*7F
$GPGGA,044519.000,3353.7563,N,09832.0251,W,2,07,1.1,330.0,M,-23.7,M,2.8,0000*4F
$GPGSA,A,3,26,11,28,08,07,01,17,,,,,,2.2,1.1,1.9*3C
$GPRMC,044519.000,A,3353.7563,N,09832.0251,W,0.24,110.02,310312,,,D*75
$GPGGA,044520.000,3353.7563,N,09832.0251,W,2,07,1.1,329.9,M,-23.7,M,3.8,0000*45
$GPGSA,A,3,26,11,28,08,07,01,17,,,,,,2.2,1.1,1.9*3C
$GPGSV,3,1,12,08,65,151,37,17,65,258,37,28,61,354,23,01,40,068,37*7D
$GPGSV,3,2,12,26,28,264,24,11,27,052,37,07,26,149,37,27,11,321,*7B
$GPGSV,3,3,12,15,09,307,,04,06,192,20,20,00,114,17,51,49,195,29*76
$GPRMC,044520.000,A,3353.7563,N,09832.0251,W,0.08,153.38,310312,,,D*7F
$GPGGA,044521.000,3353.7563,N,09832.0251,W,2,07,1.1,329.7,M,-23.7,M,0.8,0000*49
$GPGSA,A,3,26,11,28,08,07,01,17,,,,,,2.2,1.1,1.9*3C
$GPRMC,044521.000,A,3353.7563,N,09832.0251,W,0.07,181.58,310312,,,D*78
$GPGGA,044522.000,3353.7563,N,09832.0251,W,2,07,1.1,329.5,M,-23.7,M,0.8,0000*48
$GPGSA,A,3,26,11,28,08,07,01,17,,,,,,2.2,1.1,1.9*3C
$GPRMC,044522.000,A,3353.7563,N,09832.0251,W,0.11,245.69,310312,,,D*75
$GPGGA,044523.000,3353.7562,N,09832.0251,W,2,07,1.1,329.5,M,-23.7,M,0.8,0000*48
$GPGSA,A,3,26,11,28,08,07,01,17,,,,,,2.2,1.1,1.9*3C
$GPRMC,044523.000,A,3353.7562,N,09832.0251,W,0.21,117.78,310312,,,D*72
$GPGGA,044524.000,3353.7562,N,09832.0251,W,2,07,1.1,329.4,M,-23.7,M,1.8,0000*4F
$GPGSA,A,3,26,11,28,08,07,01,17,,,,,,2.2,1.1,1.9*3C
$GPRMC,044524.000,A,3353.7562,N,09832.0251,W,0.14,126.73,310312,,,D*7A
$GPGGA,044525.000,3353.7562,N,09832.0250,W,2,07,1.1,329.5,M,-23.7,M,0.8,0000*4F
$GPGSA,A,3,26,11,28,08,07,01,17,,,,,,2.2,1.1,1.9*3C
$GPGSV,3,1,12,08,65,151,37,17,65,258,37,28,61,354,24,01,40,068,38*75
$GPGSV,3,2,12,26,28,264,24,11,27,052,37,07,26,149,37,27,11,321,*7B
$GPGSV,3,3,12,15,09,307,,04,06,192,21,20,00,114,16,51,49,195,30*7E
$GPRMC,044525.000,A,3353.7562,N,09832.0250,W,0.06,2.99,310312,,,D*7A
$GPGGA,044526.000,3353.7562,N,09832.0250,W,2,07,1.1,329.4,M,-23.7,M,1.8,0000*4C
$GPGSA,A,3,26,11,28,08,07,01,17,,,,,,2.2,1.1,1.9*3C
$GPRMC,044526.000,A,3353.7562,N,09832.0250,W,0.08,94.30,310312,,,D*4B
$GPGGA,044527.000,3353.7562,N,09832.0250,W,2,07,1.1,329.4,M,-23.7,M,0.8,0000*4C
$GPGSA,A,3,26,11,28,08,07,01,17,,,,,,2.2,1.1,1.9*3C
$GPRMC,044527.000,A,3353.7562,N,09832.0250,W,0.01,184.84,310312,,,D*7C
$GPGGA,044528.000,3353.7562,N,09832.0250,W,2,07,1.1,329.4,M,-23.7,M,0.8,0000*43
$GPGSA,A,3,26,11,28,08,07,01,17,,,,,,2.2,1.1,1.9*3C
$GPRMC,044528.000,A,3353.7562,N,09832.0250,W,0.03,336.59,310312,,,D*7A
$GPGGA,044529.000,3353.7562,N,09832.0250,W,2,07,1.1,329.4,M,-23.7,M,0.8,0000*42
$GPGSA,A,3,26,11,28,08,07,01,17,,,,,,2.2,1.1,1.9*3C
$GPRMC,044529.000,A,3353.7562,N,09832.0250,W,0.02,322.15,310312,,,D*77
$GPGGA,044530.000,3353.7562,N,09832.0251,W,2,07,1.1,329.3,M,-23.7,M,0.8,0000*4C
$GPGSA,A,3,26,11,28,08,07,01,17,,,,,,2.2,1.1,1.9*3C
$GPGSV,3,1,12,08,65,151,37,17,65,258,37,28,61,354,24,01,40,068,38*75
$GPGSV,3,2,12,26,28,264,25,11,27,052,37,07,26,149,37,27,11,321,*7A
$GPGSV,3,3,12,15,09,307,,04,06,192,20,20,00,114,15,51,49,195,30*7C
$GPRMC,044530.000,A,3353.7562,N,09832.0251,W,0.05,173.98,310312,,,D*7A
$GPGGA,044531.000,3353.7562,N,09832.0251,W,2,07,1.1,329.3,M,-23.7,M,1.8,0000*4C
$GPGSA,A,3,26,11,28,08,07,01,17,,,,,,2.2,1.1,1.9*3C
$GPRMC,044531.000,A,3353.7562,N,09832.0251,W,0.06,132.64,310312,,,D*7E
$GPGGA,044532.000,3353.7562,N,09832.0251,W,2,07,1.1,329.2,M,-23.7,M,2.8,0000*4D
$GPGSA,A,3,26,11,28,08,07,01,17,,,,,,2.2,1.1,1.9*3C
$GPRMC,044532.000,A,3353.7562,N,09832.0251,W,0.03,187.53,310312,,,D*72
$GPGGA,044533.000,3353.7561,N,09832.0251,W,2,07,1.1,329.1,M,-23.7,M,0.8,0000*4E
$GPGSA,A,3,26,11,28,08,07,01,17,,,,,,2.2,1.1,1.9*3C
$GPRMC,044533.000,A,3353.7561,N,09832.0251,W,0.09,122.09,310312,,,D*7A
$GPGGA,044534.000,3353.7561,N,09832.0250,W,2,07,1.1,329.1,M,-23.7,M,0.8,0000*48
$GPGSA,A,3,26,11,28,08,07,01,17,,,,,,2.2,1.1,1.9*3C
$GPRMC,044534.000,A,3353.7561,N,09832.0250,W,0.09,126.57,310312,,,D*73
$GPGGA,044535.000,3353.7561,N,09832.0250,W,2,07,1.1,329.1,M,-23.7,M,0.8,0000*49
$GPGSA,A,3,26,11,28,08,07,01,17,,,,,,2.2,1.1,1.9*3C
$GPGSV,3,1,12,08,65,151,37,17,65,258,37,28,61,354,24,01,40,068,38*75
$GPGSV,3,2,12,26,28,264,25,11,27,052,37,07,26,149,37,27,11,321,*7A
$GPGSV,3,3,12,15,09,307,,04,06,192,20,20,00,114,15,51,49,195,30*7C
$GPRMC,044535.000,A,3353.7561,N,09832.0250,W,0.08,84.29,310312,,,D*43
$GPGGA,044536.000,3353.7561,N,09832.0250,W,2,07,1.1,329.0,M,-23.7,M,1.8,0000*4A
$GPGSA,A,3,26,11,28,08,07,01,17,,,,,,2.2,1.1,1.9*3C
$GPRMC,044536.000,A,3353.7561,N,09832.0250,W,0.07,71.16,310312,,,D*49
$GPGGA,044537.000,3353.7561,N,09832.0249,W,2,07,1.1,329.0,M,-23.7,M,2.8,0000*40
$GPGSA,A,3,26,11,28,08,07,01,17,,,,,,2.2,1.1,1.9*3C
$GPRMC,044537.000,A,3353.7561,N,09832.0249,W,0.07,67.56,310312,,,D*43
$GPGGA,044538.000,3353.7561,N,09832.0249,W,2,07,1.1,329.0,M,-23.7,M,3.8,0000*4E
$GPGSA,A,3,26,11,28,08,07,01,17,,,,,,2.2,1.1,1.9*3C
$GPRMC,044538.000,A,3353.7561,N,09832.0249,W,0.08,68.21,310312,,,D*4C
$GPGGA,044539.000,3353.7561,N,09832.0249,W,2,07,1.1,329.0,M,-23.7,M,0.8,0000*4C
$GPGSA,A,3,26,11,28,08,07,01,17,,,,,,2.2,1.1,1.9*3C
$GPRMC,044539.000,A,3353.7561,N,09832.0249,W,0.05,20.69,310312,,,D*40
$GPGGA,044540.000,3353.7561,N,09832.0249,W,2,07,1.1,329.0,M,-23.7,M,0.8,0000*42
$GPGSA,A,3,26,11,28,08,07,01,17,,,,,,2.2,1.1,1.9*3C
$GPGSV,3,1,12,08,65,151,36,17,65,258,37,28,61,354,24,01,40,068,38*74
$GPGSV,3,2,12,26,28,264,26,11,27,052,37,07,26,149,37,27,11,321,*79
$GPGSV,3,3,12,15,09,307,,04,06,192,20,20,00,114,16,51,49,195,30*7F
$GPRMC,044540.000,A,3353.7561,N,09832.0249,W,0.03,32.27,310312,,,D*41
$GPGGA,044541.000,3353.7561,N,09832.0249,W,2,07,1.1,329.0,M,-23.7,M,0.8,0000*43
$GPGSA,A,3,26,11,28,08,07,01,17,,,,,,2.2,1.1,1.9*3C
$GPRMC,044541.000,A,3353.7561,N,09832.0249,W,0.10,166.28,310312,,,D*7D
$GPGGA,044542.000,3353.7561,N,09832.0249,W,2,07,1.1,329.0,M,-23.7,M,1.8,0000*41
$GPGSA,A,3,26,11,28,08,07,01,17,,,,,,2.2,1.1,1.9*3C
$GPRMC,044542.000,A,3353.7561,N,09832.0249,W,0.10,172.37,310312,,,D*75
$GPGGA,044543.000,3353.7560,N,09832.0249,W,2,07,1.1,329.1,M,-23.7,M,2.8,0000*43
$GPGSA,A,3,26,11,28,08,07,01,17,,,,,,2.2,1.1,1.9*3C
$GPRMC,044543.000,A,3353.7560,N,09832.0249,W,0.08,171.43,310312,,,D*7C
$GPGGA,044544.000,3353.7560,N,09832.0249,W,2,07,1.1,329.1,M,-23.7,M,0.8,0000*46
$GPGSA,A,3,26,11,28,08,07,01,17,,,,,,2.2,1.1,1.9*3C
$GPRMC,044544.000,A,3353.7560,N,09832.0249,W,0.10,177.49,310312,,,D*7E
$GPGGA,044545.000,3353.7559,N,09832.0249,W,2,07,1.1,329.1,M,-23.7,M,0.8,0000*4D
$GPGSA,A,3,26,11,28,08,07,01,17,,,,,,2.2,1.1,1.9*3C
$GPGSV,3,1,12,08,65,151,36,17,65,258,37,28,61,354,24,01,40,068,39*75
$GPGSV,3,2,12,26,28,264,26,11,27,052,37,07,26,149,36,27,11,321,*78
$GPGSV,3,3,12,15,09,307,,04,06,192,20,20,00,114,16,51,49,195,30*7F
$GPRMC,044545.000,A,3353.7559,N,09832.0249,W,0.14,143.62,310312,,,D*7F
$GPGGA,044546.000,3353.7559,N,09832.0248,W,2,07,1.1,329.2,M,-23.7,M,0.8,0000*4C
$GPGSA,A,3,26,11,28,08,07,01,17,,,,,,2.2,1.1,1.9*3C
$GPRMC,044546.000,A,3353.7559,N,09832.0248,W,0.12,139.69,310312,,,D*7D
$GPGGA,044547.000,3353.7559,N,09832.0248,W,2,07,1.1,329.2,M,-23.7,M,0.8,0000*4D
$GPGSA,A,3,26,11,28,08,07,01,17,,,,,,2.2,1.1,1.9*3C
$GPRMC,044547.000,A,3353.7559,N,09832.0248,W,0.10,73.35,310312,,,D*48
$GPGGA,044548.000,3353.7559,N,09832.0247,W,2,07,1.1,329.2,M,-23.7,M,1.8,0000*4C
$GPGSA,A,3,26,11,28,08,07,01,17,,,,,,2.2,1.1,1.9*3C
$GPRMC,044548.000,A,3353.7559,N,09832.0247,W,0.12,79.18,310312,,,D*4F
$GPGGA,044549.000,3353.7559,N,09832.0247,W,2,07,1.1,329.2,M,-23.7,M,0.8,0000*4C
$GPGSA,A,3,26,11,28,08,07,01,17,,,,,,2.2,1.1,1.9*3C
$GPRMC,044549.000,A,3353.7559,N,09832.0247,W,0.17,101.33,310312,,,D*7C
$GPGGA,044550.000,3353.7559,N,09832.0247,W,2,07,1.1,329.2,M,-23.7,M,1.8,0000*45
$GPGSA,A,3,26,11,28,08,07,01,17,,,,,,2.2,1.1,1.9*3C
$GPGSV,3,1,12,08,65,151,36,17,65,258,37,28,61,354,24,01,40,068,39*75
$GPGSV,3,2,12,26,28,264,27,11,27,052,38,07,26,149,36,27,11,321,*76
$GPGSV,3,3,12,15,09,307,,04,06,192,19,20,00,114,15,51,49,195,30*76
$GPRMC,044550.000,A,3353.7559,N,09832.0247,W,0.07,54.11,310312,,,D*44
$GPGGA,044551.000,3353.7559,N,09832.0246,W,2,07,1.1,329.2,M,-23.7,M,0.8,0000*44
$GPGSA,A,3,26,11,28,08,07,01,17,,,,,,2.2,1.1,1.9*3C
$GPRMC,044551.000,A,3353.7559,N,09832.0246,W,0.09,10.49,310312,,,D*47
$GPGGA,044552.000,3353.7559,N,09832.0246,W,2,07,1.1,329.2,M,-23.7,M,0.8,0000*47
$GPGSA,A,3,26,11,28,08,07,01,17,,,,,,2.2,1.1,1.9*3C
$GPRMC,044552.000,A,3353.7559,N,09832.0246,W,0.07,16.84,310312,,,D*4D
$GPGGA,044553.000,3353.7559,N,09832.0246,W,2,07,1.1,329.2,M,-23.7,M,0.8,0000*46
$GPGSA,A,3,26,11,28,08,07,01,17,,,,,,2.2,1.1,1.9*3C
$GPRMC,044553.000,A,3353.7559,N,09832.0246,W,0.05,261.93,310312,,,D*7A
$GPGGA,044554.000,3353.7559,N,09832.0247,W,2,07,1.1,329.3,M,-23.7,M,0.8,0000*41
$GPGSA,A,3,26,11,28,08,07,01,17,,,,,,2.2,1.1,1.9*3C
$GPRMC,044554.000,A,3353.7559,N,09832.0247,W,0.05,207.04,310312,,,D*72
$GPGGA,044555.000,3353.7558,N,09832.0247,W,2,07,1.1,329.2,M,-23.7,M,0.8,0000*40
$GPGSA,A,3,26,11,28,08,07,01,17,,,,,,2.2,1.1,1.9*3C
$GPGSV,3,1,12,08,65,151,36,17,65,258,37,28,61,354,24,01,40,068,40*7B
$GPGSV,3,2,12,26,28,264,27,11,27,052,38,07,26,149,35,27,11,321,*75
$GPGSV,3,3,12,15,09,307,,04,06,192,19,20,00,114,13,51,49,195,30*70
$GPRMC,044555.000,A,3353.7558,N,09832.0247,W,0.10,172.86,310312,,,D*7D
$GPGGA,044556.000,3353.7558,N,09832.0247,W,2,07,1.1,329.3,M,-23.7,M,1.8,0000*43
$GPGSA,A,3,26,11,28,08,07,01,17,,,,,,2.2,1.1,1.9*3C
$GPRMC,044556.000,A,3353.7558,N,09832.0247,W,0.05,267.46,310312,,,D*71
$GPGGA,044557.000,3353.7558,N,09832.0247,W,2,07,1.1,329.3,M,-23.7,M,0.8,0000*43
$GPGSA,A,3,26,11,28,08,07,01,17,,,,,,2.2,1.1,1.9*3C
$GPRMC,044557.000,A,3353.7558,N,09832.0247,W,0.20,140.00,310312,,,D*73
$GPGGA,044558.000,3353.7557,N,09832.0246,W,2,07,1.1,329.3,M,-23.7,M,0.8,0000*42
$GPGSA,A,3,26,11,28,08,07,01,17,,,,,,2.2,1.1,1.9*3C
$GPRMC,044558.000,A,3353.7557,N,09832.0246,W,0.12,142.97,310312,,,D*7F
$GPGGA,044559.000,3353.7557,N,09832.0246,W,2,07,1.1,329.3,M,-23.7,M,0.8,0000*43
$GPGSA,A,3,26,11,28,08,07,01,17,,,,,,2.2,1.1,1.9*3C
$GPRMC,044559.000,A,3353.7557,N,09832.0246,W,0.10,63.25,310312,,,D*47
$GPGGA,044600.000,3353.7557,N,09832.0246,W,2,07,1.1,329.3,M,-23.7,M,1.8,0000*4D
$GPGSA,A,3,26,11,28,08,07,01,17,,,,,,2.2,1.1,1.9*3C
$GPGSV,3,1,12,08,65,151,35,17,65,258,37,28,61,354,23,01,40,068,40*7F
$GPGSV,3,2,12,26,28,264,27,11,27,052,38,07,26,149,35,27,11,321,*75
$GPGSV,3,3,12,15,09,307,,04,06,192,18,20,00,114,,51,49,195,29*7B
$GPRMC,044600.000,A,3353.7557,N,09832.0246,W,0.10,25.29,310312,,,D*46
$GPGGA,044601.000,3353.7557,N,09832.0245,W,2,07,1.1,329.2,M,-23.7,M,0.8,0000*4F
$GPGSA,A,3,26,11,28,08,07,01,17,,,,,,2.2,1.1,1.9*3C
$GPRMC,044601.000,A,3353.7557,N,09832.0245,W,0.15,94.91,310312,,,D*48
$GPGGA,044602.000,3353.7557,N,09832.0245,W,2,07,1.1,329.1,M,-23.7,M,1.8,0000*4E
$GPGSA,A,3,26,11,28,08,07,01,17,,,,,,2.2,1.1,1.9*3C
$GPRMC,044602.000,A,3353.7557,N,09832.0245,W,0.15,102.51,310312,,,D*79
$GPGGA,044603.000,3353.7556,N,09832.0244,W,2,07,1.1,329.1,M,-23.7,M,0.8,0000*4E
$GPGSA,A,3,26,11,28,08,07,01,17,,,,,,2.2,1.1,1.9*3C
$GPRMC,044603.000,A,3353.7556,N,09832.0244,W,0.12,120.45,310312,,,D*7A
$GPGGA,044604.000,3353.7556,N,09832.0244,W,2,07,1.1,329.0,M,-23.7,M,0.8,0000*48
$GPGSA,A,3,26,11,28,08,07,01,17,,,,,,2.2,1.1,1.9*3C
$GPRMC,044604.000,A,3353.7556,N,09832.0244,W,0.12,119.71,310312,,,D*70
$GPGGA,044605.000,3353.7555,N,09832.0244,W,2,07,1.1,328.9,M,-23.7,M,0.8,0000*42
$GPGSA,A,3,26,11,28,08,07,01,17,,,,,,2.2,1.1,1.9*3C
$GPGSV,3,1,12,08,65,151,35,17,65,258,37,28,61,354,17,01,40,068,40*78
$GPGSV,3,2,12,26,28,264,27,11,27,052,38,07,26,149,35,27,11,321,*75
$GPGSV,3,3,12,15,09,307,,04,06,192,18,20,00,114,,51,49,195,30*73
$GPRMC,044605.000,A,3353.7555,N,09832.0244,W,0.18,166.78,310312,,,D*79
$GPGGA,044606.000,3353.7555,N,09832.0244,W,2,07,1.1,328.9,M,-23.7,M,1.8,0000*40
$GPGSA,A,3,26,11,28,08,07,01,17,,,,,,2.2,1.1,1.9*3C
$GPRMC,044606.000,A,3353.7555,N,09832.0244,W,0.05,244.51,310312,,,D*7E
$GPGGA,044607.000,3353.7555,N,09832.0244,W,2,07,1.1,329.0,M,-23.7,M,2.8,0000*4A
$GPGSA,A,3,26,11,28,08,07,01,17,,,,,,2.2,1.1,1.9*3C
$GPRMC,044607.000,A,3353.7555,N,09832.0244,W,0.06,278.49,310312,,,D*7A
$GPGGA,044608.000,3353.7554,N,09832.0244,W,2,07,1.1,329.1,M,-23.7,M,3.8,0000*44
$GPGSA,A,3,26,11,28,08,07,01,17,,,,,,2.2,1.1,1.9*3C
$GPRMC,044608.000,A,3353.7554,N,09832.0244,W,0.04,257.31,310312,,,D*74
$GPGGA,044609.000,3353.7554,N,09832.0244,W,2,07,1.1,329.1,M,-23.7,M,0.8,0000*46
$GPGSA,A,3,26,11,28,08,07,01,17,,,,,,2.2,1.1,1.9*3C
$GPRMC,044609.000,A,3353.7554,N,09832.0244,W,0.04,137.89,310312,,,D*73
$GPGGA,044610.000,3353.7554,N,09832.0244,W,2,07,1.1,329.1,M,-23.7,M,0.8,0000*4E
$GPGSA,A,3,26,11,28,08,07,01,17,,,,,,2.2,1.1,1.9*3C
$GPGSV,3,1,12,17,65,259,37,08,64,152,36,28,61,356,16,01,39,067,40*7A
$GPGSV,3,2,12,26,28,263,26,11,26,051,38,07,25,149,35,27,11,321,*72
$GPGSV,3,3,12,15,09,306,,04,07,192,18,20,00,113,,51,49,195,30*74
$GPRMC,044610.000,A,3353.7554,N,09832.0244,W,0.05,132.89,310312,,,D*7F
$GPGGA,044611.000,3353.7553,N,09832.0243,W,2,07,1.1,329.1,M,-23.7,M,0.8,0000*4F
$GPGSA,A,3,26,11,28,08,07,01,17,,,,,,2.2,1.1,1.9*3C
$GPRMC,044611.000,A,3353.7553,N,09832.0243,W,0.12,24.54,310312,,,D*4E
$GPGGA,044612.000,3353.7554,N,09832.0243,W,2,07,1.1,329.0,M,-23.7,M,1.8,0000*4B
$GPGSA,A,3,26,11,28,08,07,01,17,,,,,,2.2,1.1,1.9*3C
$GPRMC,044612.000,A,3353.7554,N,09832.0243,W,0.16,10.44,310312,,,D*48
