$GPGGA,125141.000,3353.7526,N,09832.0241,W,2,05,1.7,322.2,M,-23.7,M,0.8,0000*47
$GPGSA,A,3,29,15,05,21,26,,,,,,,,4.0,1.7,3.6*38
$GPRMC,125141.000,A,3353.7526,N,09832.0241,W,0.24,224.72,300312,,,D*78
$GPGGA,125142.000,3353.7525,N,09832.0239,W,2,05,1.7,322.5,M,-23.7,M,0.8,0000*4F
$GPGSA,A,3,29,15,05,21,26,,,,,,,,4.0,1.7,3.6*38
$GPGSV,3,1,11,29,80,240,38,15,46,151,36,26,44,085,37,21,35,303,26*7F
$GPGSV,3,2,11,18,33,243,,05,29,046,37,25,14,214,,30,10,300,*78
$GPGSV,3,3,11,02,09,095,25,16,02,325,,51,49,195,39*46
$GPRMC,125142.000,A,3353.7525,N,09832.0239,W,0.18,220.77,300312,,,D*79
$GPGGA,125143.000,3353.7524,N,09832.0239,W,2,05,1.7,322.4,M,-23.7,M,1.8,0000*4F
$GPGSA,A,3,29,15,05,21,26,,,,,,,,4.0,1.7,3.6*38
$GPRMC,125143.000,A,3353.7524,N,09832.0239,W,0.17,226.17,300312,,,D*76
$GPGGA,125144.000,3353.7524,N,09832.0234,W,2,05,1.7,323.5,M,-23.7,M,2.8,0000*46
$GPGSA,A,3,29,15,05,21,26,,,,,,,,4.0,1.7,3.6*38
$GPRMC,125144.000,A,3353.7524,N,09832.0234,W,0.24,144.76,300312,,,D*7C
$GPGGA,125145.000,3353.7524,N,09832.0232,W,2,05,1.7,324.0,M,-23.7,M,0.8,0000*41
$GPGSA,A,3,29,15,05,21,26,,,,,,,,4.0,1.7,3.6*38
$GPRMC,125145.000,A,3353.7524,N,09832.0232,W,0.03,55.17,300312,,,D*48
$GPGGA,125146.000,3353.7524,N,09832.0231,W,2,05,1.7,324.0,M,-23.7,M,0.8,0000*41
$GPGSA,A,3,29,15,05,21,26,,,,,,,,4.0,1.7,3.6*38
$GPRMC,125146.000,A,3353.7524,N,09832.0231,W,0.07,40.92,300312,,,D*45
$GPGGA,125147.000,3353.7524,N,09832.0231,W,2,05,1.7,324.0,M,-23.7,M,0.8,0000*40
$GPGSA,A,3,29,15,05,21,26,,,,,,,,4.0,1.7,3.6*38
$GPGSV,3,1,11,29,80,240,38,15,46,151,36,26,44,085,36,21,35,303,26*7E
$GPGSV,3,2,11,18,33,243,,05,29,046,37,25,14,214,,30,10,300,*78
$GPGSV,3,3,11,02,09,095,24,16,02,325,,51,49,195,39*47
$GPRMC,125147.000,A,3353.7524,N,09832.0231,W,0.06,84.82,300312,,,D*4C
$GPGGA,125148.000,3353.7524,N,09832.0231,W,2,05,1.7,323.9,M,-23.7,M,1.8,0000*40
$GPGSA,A,3,29,15,05,21,26,,,,,,,,4.0,1.7,3.6*38
$GPRMC,125148.000,A,3353.7524,N,09832.0231,W,0.02,318.25,300312,,,D*7C
$GPGGA,125149.000,3353.7524,N,09832.0231,W,2,05,1.7,323.7,M,-23.7,M,2.8,0000*4C
$GPGSA,A,3,29,15,05,21,26,,,,,,,,4.0,1.7,3.6*38
$GPRMC,125149.000,A,3353.7524,N,09832.0231,W,0.03,58.26,300312,,,D*48
$GPGGA,125150.000,3353.7525,N,09832.0232,W,2,05,1.7,323.6,M,-23.7,M,3.8,0000*46
$GPGSA,A,3,29,15,05,21,26,,,,,,,,4.0,1.7,3.6*38
$GPRMC,125150.000,A,3353.7525,N,09832.0232,W,0.03,68.64,300312,,,D*47
$GPGGA,125151.000,3353.7524,N,09832.0232,W,2,05,1.7,323.4,M,-23.7,M,0.8,0000*47
$GPGSA,A,3,29,15,05,21,26,,,,,,,,4.0,1.7,3.6*38
$GPRMC,125151.000,A,3353.7524,N,09832.0232,W,0.07,172.53,300312,,,D*7D
$GPGGA,125152.000,3353.7524,N,09832.0232,W,2,05,1.7,323.4,M,-23.7,M,0.8,0000*44
$GPGSA,A,3,29,15,05,21,26,,,,,,,,4.0,1.7,3.6*38
$GPGSV,3,1,11,29,80,240,38,15,46,151,36,26,44,085,36,21,35,303,26*7E
$GPGSV,3,2,11,18,33,243,,05,29,046,37,25,14,214,,30,10,300,*78
$GPGSV,3,3,11,02,09,095,23,16,02,325,,51,49,195,39*40
$GPRMC,125152.000,A,3353.7524,N,09832.0232,W,0.09,196.92,300312,,,D*77
$GPGGA,125153.000,3353.7524,N,09832.0232,W,2,05,1.7,323.3,M,-23.7,M,0.8,0000*42
$GPGSA,A,3,29,15,05,21,26,,,,,,,,4.0,1.7,3.6*38
$GPRMC,125153.000,A,3353.7524,N,09832.0232,W,0.03,182.04,300312,,,D*76
$GPGGA,125154.000,3353.7524,N,09832.0232,W,2,05,1.7,323.2,M,-23.7,M,1.8,0000*45
$GPGSA,A,3,29,15,05,21,26,,,,,,,,4.0,1.7,3.6*38
$GPRMC,125154.000,A,3353.7524,N,09832.0232,W,0.03,180.71,300312,,,D*71
$GPGGA,125155.000,3353.7524,N,09832.0232,W,2,05,1.7,323.2,M,-23.7,M,0.8,0000*45
$GPGSA,A,3,29,15,05,21,26,,,,,,,,4.0,1.7,3.6*38
$GPRMC,125155.000,A,3353.7524,N,09832.0232,W,0.03,176.04,300312,,,D*7B
$GPGGA,125156.000,3353.7524,N,09832.0232,W,2,05,1.7,323.3,M,-23.7,M,1.8,0000*46
$GPGSA,A,3,29,15,05,21,26,,,,,,,,4.0,1.7,3.6*38
$GPRMC,125156.000,A,3353.7524,N,09832.0232,W,0.02,126.69,300312,,,D*77
$GPGGA,125157.000,3353.7525,N,09832.0232,W,2,05,1.7,323.4,M,-23.7,M,0.8,0000*40
$GPGSA,A,3,29,15,05,21,26,,,,,,,,4.0,1.7,3.6*38
$GPGSV,3,1,11,29,80,240,38,15,46,151,36,26,44,085,36,21,35,303,27*7F
$GPGSV,3,2,11,18,33,243,,05,29,046,37,25,14,214,,30,10,300,*78
$GPGSV,3,3,11,02,09,095,23,16,02,325,,51,49,195,39*40
$GPRMC,125157.000,A,3353.7525,N,09832.0232,W,0.07,13.17,300312,,,D*4C
$GPGGA,125158.000,3353.7526,N,09832.0231,W,2,06,1.2,323.7,M,-23.7,M,0.8,0000*4A
$GPGSA,A,3,29,25,15,05,21,26,,,,,,,2.2,1.2,1.9*33
$GPRMC,125158.000,A,3353.7526,N,09832.0231,W,0.28,38.44,300312,,,D*41
$GPGGA,125159.000,3353.7527,N,09832.0230,W,2,06,1.2,324.1,M,-23.7,M,0.8,0000*4A
$GPGSA,A,3,29,25,15,05,21,26,,,,,,,2.2,1.2,1.9*33
$GPRMC,125159.000,A,3353.7527,N,09832.0230,W,0.26,47.16,300312,,,D*41
$GPGGA,125200.000,3353.7527,N,09832.0229,W,2,06,1.2,324.1,M,-23.7,M,1.8,0000*4C
$GPGSA,A,3,29,25,15,05,21,26,,,,,,,2.2,1.2,1.9*33
$GPRMC,125200.000,A,3353.7527,N,09832.0229,W,0.11,53.29,300312,,,D*4B
$GPGGA,125201.000,3353.7527,N,09832.0229,W,2,06,1.2,324.1,M,-23.7,M,2.8,0000*4E
$GPGSA,A,3,29,25,15,05,21,26,,,,,,,2.2,1.2,1.9*33
$GPRMC,125201.000,A,3353.7527,N,09832.0229,W,0.03,145.20,300312,,,D*76
$GPGGA,125202.000,3353.7527,N,09832.0229,W,2,06,1.2,324.0,M,-23.7,M,3.8,0000*4D
$GPGSA,A,3,29,25,15,05,21,26,,,,,,,2.2,1.2,1.9*33
$GPGSV,3,1,11,29,80,240,38,15,46,151,36,26,44,085,35,21,35,303,27*7C
$GPGSV,3,2,11,18,33,243,,05,29,046,37,25,14,214,21,30,10,300,*7B
$GPGSV,3,3,11,02,09,095,23,16,02,325,,51,49,195,39*40
$GPRMC,125202.000,A,3353.7527,N,09832.0229,W,0.09,186.55,300312,,,D*72
$GPGGA,125203.000,3353.7527,N,09832.0229,W,2,06,1.2,324.1,M,-23.7,M,0.8,0000*4E
$GPGSA,A,3,29,25,15,05,21,26,,,,,,,2.2,1.2,1.9*33
$GPRMC,125203.000,A,3353.7527,N,09832.0229,W,0.09,97.39,300312,,,D*48
$GPGGA,125204.000,3353.7527,N,09832.0228,W,2,06,1.2,324.2,M,-23.7,M,0.8,0000*4B
$GPGSA,A,3,29,25,15,05,21,26,,,,,,,2.2,1.2,1.9*33
$GPRMC,125204.000,A,3353.7527,N,09832.0228,W,0.07,74.98,300312,,,D*46
$GPGGA,125205.000,3353.7527,N,09832.0228,W,2,06,1.2,324.5,M,-23.7,M,0.8,0000*4D
$GPGSA,A,3,29,25,15,05,21,26,,,,,,,2.2,1.2,1.9*33
$GPRMC,125205.000,A,3353.7527,N,09832.0228,W,0.21,49.81,300312,,,D*45
$GPGGA,125206.000,3353.7527,N,09832.0228,W,2,06,1.2,324.5,M,-23.7,M,1.8,0000*4F
$GPGSA,A,3,29,25,15,05,21,26,,,,,,,2.2,1.2,1.9*33
$GPRMC,125206.000,A,3353.7527,N,09832.0228,W,0.04,161.87,300312,,,D*7C
$GPGGA,125207.000,3353.7527,N,09832.0228,W,2,06,1.2,324.5,M,-23.7,M,2.8,0000*4D
$GPGSA,A,3,29,25,15,05,21,26,,,,,,,2.2,1.2,1.9*33
$GPGSV,3,1,11,29,80,240,39,15,46,151,36,26,44,085,35,21,35,303,27*7D
$GPGSV,3,2,11,18,33,243,,05,29,046,37,25,14,214,21,30,10,300,*7B
$GPGSV,3,3,11,02,09,095,23,16,02,325,,51,49,195,39*40
$GPRMC,125207.000,A,3353.7527,N,09832.0228,W,0.02,86.85,300312,,,D*41
$GPGGA,125208.000,3353.7527,N,09832.0228,W,2,06,1.2,324.4,M,-23.7,M,0.8,0000*41
$GPGSA,A,3,29,25,15,05,21,26,,,,,,,2.2,1.2,1.9*33
$GPRMC,125208.000,A,3353.7527,N,09832.0228,W,0.13,196.89,300312,,,D*72
$GPGGA,125209.000,3353.7527,N,09832.0228,W,2,07,1.1,324.3,M,-23.7,M,0.8,0000*45
$GPGSA,A,3,29,25,15,05,21,26,18,,,,,,2.2,1.1,1.9*39
$GPRMC,125209.000,A,3353.7527,N,09832.0228,W,0.06,181.42,300312,,,D*76
$GPGGA,125210.000,3353.7527,N,09832.0229,W,2,07,1.1,324.2,M,-23.7,M,0.8,0000*4D
$GPGSA,A,3,29,25,15,05,21,26,18,,,,,,2.2,1.1,1.9*39
$GPRMC,125210.000,A,3353.7527,N,09832.0229,W,0.17,244.83,300312,,,D*78
$GPGGA,125211.000,3353.7527,N,09832.0229,W,2,07,1.1,324.0,M,-23.7,M,0.8,0000*4E
$GPGSA,A,3,29,25,15,05,21,26,18,,,,,,2.2,1.1,1.9*39
$GPRMC,125211.000,A,3353.7527,N,09832.0229,W,0.23,234.32,300312,,,D*73
$GPGGA,125212.000,3353.7527,N,09832.0230,W,2,07,1.1,324.0,M,-23.7,M,0.8,0000*45
$GPGSA,A,3,29,25,15,05,21,26,18,,,,,,2.2,1.1,1.9*39
$GPGSV,3,1,11,29,80,240,38,15,46,151,37,26,44,085,35,21,35,303,27*7D
$GPGSV,3,2,11,18,33,243,18,05,29,046,37,25,14,214,21,30,10,300,*72
$GPGSV,3,3,11,02,09,095,23,16,02,325,,51,49,195,39*40
$GPRMC,125212.000,A,3353.7527,N,09832.0230,W,0.03,123.25,300312,,,D*79
$GPGGA,125213.000,3353.7527,N,09832.0230,W,2,07,1.1,324.1,M,-23.7,M,1.8,0000*44
$GPGSA,A,3,29,25,15,05,21,26,18,,,,,,2.2,1.1,1.9*39
$GPRMC,125213.000,A,3353.7527,N,09832.0230,W,0.11,340.13,300312,,,D*79
$GPGGA,125214.000,3353.7528,N,09832.0230,W,2,07,1.1,324.3,M,-23.7,M,0.8,0000*4F
$GPGSA,A,3,29,25,15,05,21,26,18,,,,,,2.2,1.1,1.9*39
$GPRMC,125214.000,A,3353.7528,N,09832.0230,W,0.12,5.10,300312,,,D*73
$GPGGA,125215.000,3353.7528,N,09832.0229,W,2,07,1.1,324.3,M,-23.7,M,0.8,0000*46
$GPGSA,A,3,29,25,15,05,21,26,18,,,,,,2.2,1.1,1.9*39
$GPRMC,125215.000,A,3353.7528,N,09832.0229,W,0.13,109.06,300312,,,D*71
$GPGGA,125216.000,3353.7528,N,09832.0229,W,2,07,1.1,324.5,M,-23.7,M,0.8,0000*43
$GPGSA,A,3,29,25,15,05,21,26,18,,,,,,2.2,1.1,1.9*39
$GPRMC,125216.000,A,3353.7528,N,09832.0229,W,0.26,69.62,300312,,,D*41
$GPGGA,125217.000,3353.7529,N,09832.0228,W,2,07,1.1,324.6,M,-23.7,M,0.8,0000*41
$GPGSA,A,3,29,25,15,05,21,26,18,,,,,,2.2,1.1,1.9*39
$GPGSV,3,1,11,29,80,240,38,15,46,151,37,26,44,085,35,21,35,303,27*7D
$GPGSV,3,2,11,18,33,243,19,05,29,046,37,25,14,214,22,30,10,300,*70
$GPGSV,3,3,11,02,09,095,23,16,02,325,,51,49,195,39*40
$GPRMC,125217.000,A,3353.7529,N,09832.0228,W,0.23,67.78,300312,,,D*40
$GPGGA,125218.000,3353.7529,N,09832.0229,W,2,07,1.1,324.6,M,-23.7,M,1.8,0000*4E
$GPGSA,A,3,29,25,15,05,21,26,18,,,,,,2.2,1.1,1.9*39
$GPRMC,125218.000,A,3353.7529,N,09832.0229,W,0.11,200.75,300312,,,D*71
$GPGGA,125219.000,3353.7529,N,09832.0229,W,2,07,1.1,324.5,M,-23.7,M,0.8,0000*4D
$GPGSA,A,3,29,25,15,05,21,26,18,,,,,,2.2,1.1,1.9*39
$GPRMC,125219.000,A,3353.7529,N,09832.0229,W,0.06,174.04,300312,,,D*70
$GPGGA,125220.000,3353.7529,N,09832.0229,W,2,07,1.1,324.6,M,-23.7,M,1.8,0000*45
$GPGSA,A,3,29,25,15,05,21,26,18,,,,,,2.2,1.1,1.9*39
$GPRMC,125220.000,A,3353.7529,N,09832.0229,W,0.22,78.31,300312,,,D*47
$GPGGA,125221.000,3353.7530,N,09832.0228,W,2,07,1.1,324.9,M,-23.7,M,0.8,0000*43
$GPGSA,A,3,29,25,15,05,21,26,18,,,,,,2.2,1.1,1.9*39
$GPRMC,125221.000,A,3353.7530,N,09832.0228,W,0.36,48.38,300312,,,D*40
$GPGGA,125222.000,3353.7531,N,09832.0228,W,2,07,1.1,325.0,M,-23.7,M,0.8,0000*49
$GPGSA,A,3,29,25,15,05,21,26,18,,,,,,2.2,1.1,1.9*39
$GPGSV,3,1,11,29,80,240,38,15,46,151,37,26,44,085,35,21,35,303,26*7C
$GPGSV,3,2,11,18,33,243,20,05,29,046,38,25,14,214,22,30,10,300,*75
$GPGSV,3,3,11,02,09,095,23,16,02,325,,51,49,195,39*40
$GPRMC,125222.000,A,3353.7531,N,09832.0228,W,0.27,54.91,300312,,,D*4C
$GPGGA,125223.000,3353.7531,N,09832.0228,W,2,07,1.1,325.1,M,-23.7,M,0.8,0000*49
$GPGSA,A,3,29,25,15,05,21,26,18,,,,,,2.2,1.1,1.9*39
$GPRMC,125223.000,A,3353.7531,N,09832.0228,W,0.16,73.51,300312,,,D*46
$GPGGA,125224.000,3353.7531,N,09832.0228,W,2,07,1.1,325.1,M,-23.7,M,1.8,0000*4F
$GPGSA,A,3,29,25,15,05,21,26,18,,,,,,2.2,1.1,1.9*39
$GPRMC,125224.000,A,3353.7531,N,09832.0228,W,0.05,76.98,300312,,,D*43
$GPGGA,125225.000,3353.7531,N,09832.0229,W,2,07,1.1,325.0,M,-23.7,M,0.8,0000*4F
$GPGSA,A,3,29,25,15,05,21,26,18,,,,,,2.2,1.1,1.9*39
$GPRMC,125225.000,A,3353.7531,N,09832.0229,W,0.04,263.24,300312,,,D*73
$GPGGA,125226.000,3353.7532,N,09832.0229,W,2,07,1.1,325.2,M,-23.7,M,1.8,0000*4C
$GPGSA,A,3,29,25,15,05,21,26,18,,,,,,2.2,1.1,1.9*39
$GPRMC,125226.000,A,3353.7532,N,09832.0229,W,0.21,43.11,300312,,,D*42
$GPGGA,125227.000,3353.7532,N,09832.0229,W,2,07,1.1,325.4,M,-23.7,M,0.8,0000*4A
$GPGSA,A,3,29,25,15,05,21,26,18,,,,,,2.2,1.1,1.9*39
$GPGSV,3,1,11,29,80,240,38,15,46,151,37,26,44,085,35,21,35,303,26*7C
$GPGSV,3,2,11,18,33,243,21,05,29,046,38,25,14,214,22,30,10,300,*74
$GPGSV,3,3,11,02,09,095,24,16,02,325,,51,49,195,39*47
$GPRMC,125227.000,A,3353.7532,N,09832.0229,W,0.17,42.35,300312,,,D*41
$GPGGA,125228.000,3353.7533,N,09832.0229,W,2,07,1.1,325.7,M,-23.7,M,0.8,0000*47
$GPGSA,A,3,29,25,15,05,21,26,18,,,,,,2.2,1.1,1.9*39
$GPRMC,125228.000,A,3353.7533,N,09832.0229,W,0.27,49.57,300312,,,D*43
$GPGGA,125229.000,3353.7533,N,09832.0229,W,2,07,1.1,325.7,M,-23.7,M,0.8,0000*46
$GPGSA,A,3,29,25,15,05,21,26,18,,,,,,2.2,1.1,1.9*39
$GPRMC,125229.000,A,3353.7533,N,09832.0229,W,0.18,31.80,300312,,,D*4B
$GPGGA,125230.000,3353.7533,N,09832.0230,W,2,07,1.1,325.6,M,-23.7,M,1.8,0000*46
$GPGSA,A,3,29,25,15,05,21,26,18,,,,,,2.2,1.1,1.9*39
$GPRMC,125230.000,A,3353.7533,N,09832.0230,W,0.06,240.13,300312,,,D*7A
$GPGGA,125231.000,3353.7533,N,09832.0230,W,2,07,1.1,325.6,M,-23.7,M,2.8,0000*44
$GPGSA,A,3,29,25,15,05,21,26,18,,,,,,2.2,1.1,1.9*39
$GPRMC,125231.000,A,3353.7533,N,09832.0230,W,0.10,8.23,300312,,,D*71
$GPGGA,125232.000,3353.7534,N,09832.0230,W,2,07,1.1,325.7,M,-23.7,M,3.8,0000*40
$GPGSA,A,3,29,25,15,05,21,26,18,,,,,,2.2,1.1,1.9*39
$GPGSV,3,1,11,29,80,240,38,15,46,151,37,26,44,085,35,21,35,303,26*7C
$GPGSV,3,2,11,18,33,243,22,05,29,046,38,25,14,214,21,30,10,300,*74
$GPGSV,3,3,11,02,09,095,25,16,02,325,,51,49,195,39*46
$GPRMC,125232.000,A,3353.7534,N,09832.0230,W,0.19,32.67,300312,,,D*45
$GPGGA,125233.000,3353.7534,N,09832.0230,W,2,07,1.1,325.7,M,-23.7,M,0.8,0000*42
$GPGSA,A,3,29,25,15,05,21,26,18,,,,,,2.2,1.1,1.9*39
$GPRMC,125233.000,A,3353.7534,N,09832.0230,W,0.14,67.44,300312,,,D*48
$GPGGA,125234.000,3353.7534,N,09832.0231,W,2,07,1.1,325.6,M,-23.7,M,0.8,0000*45
$GPGSA,A,3,29,25,15,05,21,26,18,,,,,,2.2,1.1,1.9*39
$GPRMC,125234.000,A,3353.7534,N,09832.0231,W,0.05,358.64,300312,,,D*73
$GPGGA,125235.000,3353.7534,N,09832.0231,W,2,07,1.1,325.5,M,-23.7,M,0.8,0000*47
$GPGSA,A,3,29,25,15,05,21,26,18,,,,,,2.2,1.1,1.9*39
$GPRMC,125235.000,A,3353.7534,N,09832.0231,W,0.20,247.05,300312,,,D*7D
$GPGGA,125236.000,3353.7534,N,09832.0232,W,2,07,1.1,325.6,M,-23.7,M,1.8,0000*45
$GPGSA,A,3,29,25,15,05,21,26,18,,,,,,2.2,1.1,1.9*39
$GPRMC,125236.000,A,3353.7534,N,09832.0232,W,0.12,317.12,300312,,,D*7E
$GPGGA,125237.000,3353.7535,N,09832.0232,W,2,07,1.1,325.7,M,-23.7,M,2.8,0000*47
$GPGSA,A,3,29,25,15,05,21,26,18,,,,,,2.2,1.1,1.9*39
$GPGSV,3,1,11,29,80,240,38,15,46,151,37,26,44,085,35,21,35,303,27*7D
$GPGSV,3,2,11,18,33,243,22,05,29,046,38,25,14,214,20,30,10,300,*75
$GPGSV,3,3,11,02,09,095,25,16,02,325,,51,49,195,39*46
$GPRMC,125237.000,A,3353.7535,N,09832.0232,W,0.17,13.63,300312,,,D*4A
$GPGGA,125238.000,3353.7535,N,09832.0232,W,2,07,1.1,326.0,M,-23.7,M,3.8,0000*4D
$GPGSA,A,3,29,25,15,05,21,26,18,,,,,,2.2,1.1,1.9*39
$GPRMC,125238.000,A,3353.7535,N,09832.0232,W,0.27,43.74,300312,,,D*45
$GPGGA,125239.000,3353.7536,N,09832.0232,W,2,07,1.1,326.2,M,-23.7,M,0.8,0000*4E
$GPGSA,A,3,29,25,15,05,21,26,18,,,,,,2.2,1.1,1.9*39
$GPRMC,125239.000,A,3353.7536,N,09832.0232,W,0.13,78.89,300312,,,D*4A
$GPGGA,125240.000,3353.7535,N,09832.0232,W,2,07,1.1,326.1,M,-23.7,M,0.8,0000*40
$GPGSA,A,3,29,25,15,05,21,26,18,,,,,,2.2,1.1,1.9*39
$GPRMC,125240.000,A,3353.7535,N,09832.0232,W,0.15,119.43,300312,,,D*71
$GPGGA,125241.000,3353.7534,N,09832.0231,W,2,07,1.1,326.1,M,-23.7,M,0.8,0000*43
$GPGSA,A,3,29,25,15,05,21,26,18,,,,,,2.2,1.1,1.9*39
$GPRMC,125241.000,A,3353.7534,N,09832.0231,W,0.24,106.01,300312,,,D*78
$GPGGA,125242.000,3353.7534,N,09832.0230,W,2,06,1.3,326.2,M,-23.7,M,1.8,0000*40
$GPGSA,A,3,29,15,05,21,26,18,,,,,,,3.1,1.3,2.8*3C
$GPGSV,3,1,11,29,80,240,38,15,46,151,37,26,44,085,35,21,35,303,26*7C
$GPGSV,3,2,11,18,33,243,23,05,29,046,38,25,14,214,11,30,10,300,*76
$GPGSV,3,3,11,02,09,095,25,16,02,325,,51,49,195,39*46
$GPRMC,125242.000,A,3353.7534,N,09832.0230,W,0.31,77.24,300312,,,D*4E
$GPGGA,125243.000,3353.7534,N,09832.0229,W,2,06,1.3,326.1,M,-23.7,M,2.8,0000*49
$GPGSA,A,3,29,15,05,21,26,18,,,,,,,3.1,1.3,2.8*3C
$GPRMC,125243.000,A,3353.7534,N,09832.0229,W,0.03,57.61,300312,,,D*45
$GPGGA,125244.000,3353.7534,N,09832.0230,W,2,06,1.3,326.0,M,-23.7,M,0.8,0000*45
$GPGSA,A,3,29,15,05,21,26,18,,,,,,,3.1,1.3,2.8*3C
$GPRMC,125244.000,A,3353.7534,N,09832.0230,W,0.07,89.84,300312,,,D*46
$GPGGA,125245.000,3353.7535,N,09832.0231,W,2,06,1.3,325.7,M,-23.7,M,0.8,0000*40
$GPGSA,A,3,29,15,05,21,26,18,,,,,,,3.1,1.3,2.8*3C
$GPRMC,125245.000,A,3353.7535,N,09832.0231,W,0.11,340.01,300312,,,D*7B
$GPGGA,125246.000,3353.7537,N,09832.0235,W,2,06,1.3,325.1,M,-23.7,M,0.8,0000*43
$GPGSA,A,3,29,15,05,21,26,18,,,,,,,3.1,1.3,2.8*3C
$GPRMC,125246.000,A,3353.7537,N,09832.0235,W,0.27,297.97,300312,,,D*7F
$GPGGA,125247.000,3353.7537,N,09832.0235,W,2,06,1.3,325.3,M,-23.7,M,0.8,0000*40
$GPGSA,A,3,29,15,05,21,26,18,,,,,,,3.1,1.3,2.8*3C
$GPGSV,3,1,11,29,80,234,38,15,47,150,37,26,44,083,34,21,36,304,25*7F
$GPGSV,3,2,11,18,34,244,24,05,29,046,38,25,13,213,,30,10,299,*70
$GPGSV,3,3,11,02,09,096,26,16,02,324,,51,49,195,39*47
$GPRMC,125247.000,A,3353.7537,N,09832.0235,W,0.13,77.39,300312,,,D*41
$GPGGA,125248.000,3353.7538,N,09832.0237,W,2,06,1.3,325.1,M,-23.7,M,1.8,0000*41
$GPGSA,A,3,29,15,05,21,26,18,,,,,,,3.1,1.3,2.8*3C
$GPRMC,125248.000,A,3353.7538,N,09832.0237,W,0.13,31.67,300312,,,D*4A
$GPGGA,125249.000,3353.7538,N,09832.0238,W,2,06,1.3,325.0,M,-23.7,M,2.8,0000*4D
$GPGSA,A,3,29,15,05,21,26,18,,,,,,,3.1,1.3,2.8*3C
$GPRMC,125249.000,A,3353.7538,N,09832.0238,W,0.17,108.43,300312,,,D*7D
$GPGGA,125250.000,3353.7539,N,09832.0240,W,2,06,1.3,324.7,M,-23.7,M,0.8,0000*4F
$GPGSA,A,3,29,15,05,21,26,18,,,,,,,3.1,1.3,2.8*3C
$GPRMC,125250.000,A,3353.7539,N,09832.0240,W,0.07,259.81,300312,,,D*73
$GPGGA,125251.000,3353.7539,N,09832.0242,W,2,06,1.3,324.4,M,-23.7,M,0.8,0000*4F
$GPGSA,A,3,29,15,05,21,26,18,,,,,,,3.1,1.3,2.8*3C
$GPRMC,125251.000,A,3353.7539,N,09832.0242,W,0.10,157.85,300312,,,D*7F
$GPGGA,125252.000,3353.7539,N,09832.0242,W,2,06,1.3,324.2,M,-23.7,M,0.8,0000*4A
$GPGSA,A,3,29,15,05,21,26,18,,,,,,,3.1,1.3,2.8*3C
$GPGSV,3,1,11,29,80,234,38,15,47,150,37,26,44,083,34,21,36,304,24*7E
$GPGSV,3,2,11,18,34,244,24,05,29,046,37,25,13,213,,30,10,299,*7F
$GPGSV,3,3,11,02,09,096,27,16,02,324,,51,49,195,39*46
$GPRMC,125252.000,A,3353.7539,N,09832.0242,W,0.37,114.82,300312,,,D*79
$GPGGA,125253.000,3353.7538,N,09832.0241,W,2,07,1.1,324.2,M,-23.7,M,0.8,0000*4A
$GPGSA,A,3,29,25,15,05,21,26,18,,,,,,2.2,1.1,1.9*39
$GPRMC,125253.000,A,3353.7538,N,09832.0241,W,0.09,118.74,300312,,,D*72
$GPGGA,125254.000,3353.7537,N,09832.0243,W,2,07,1.1,323.5,M,-23.7,M,1.8,0000*41
$GPGSA,A,3,29,25,15,05,21,26,18,,,,,,2.2,1.1,1.9*39
$GPRMC,125254.000,A,3353.7537,N,09832.0243,W,0.13,81.69,300312,,,D*4E
$GPGGA,125255.000,3353.7537,N,09832.0243,W,2,06,1.3,323.4,M,-23.7,M,2.8,0000*41
$GPGSA,A,3,29,15,05,21,26,18,,,,,,,3.1,1.3,2.8*3C
$GPRMC,125255.000,A,3353.7537,N,09832.0243,W,0.02,5.83,300312,,,D*77
$GPGGA,125256.000,3353.7537,N,09832.0244,W,2,06,1.3,323.1,M,-23.7,M,3.8,0000*41
$GPGSA,A,3,29,15,05,21,26,18,,,,,,,3.1,1.3,2.8*3C
$GPRMC,125256.000,A,3353.7537,N,09832.0244,W,0.11,359.81,300312,,,D*79
$GPGGA,125257.000,3353.7537,N,09832.0248,W,2,06,1.3,321.8,M,-23.7,M,0.8,0000*44
$GPGSA,A,3,29,15,05,21,26,18,,,,,,,3.1,1.3,2.8*3C
$GPGSV,3,1,11,29,80,234,38,15,47,150,37,26,44,083,34,21,36,304,24*7E
$GPGSV,3,2,11,18,34,244,24,05,29,046,37,25,13,213,,30,10,299,*7F
$GPGSV,3,3,11,02,09,096,27,16,02,324,,51,49,195,39*46
$GPRMC,125257.000,A,3353.7537,N,09832.0248,W,0.41,302.96,300312,,,D*79
$GPGGA,125258.000,3353.7538,N,09832.0249,W,2,06,1.3,321.7,M,-23.7,M,0.8,0000*4A
$GPGSA,A,3,29,15,05,21,26,18,,,,,,,3.1,1.3,2.8*3C
$GPRMC,125258.000,A,3353.7538,N,09832.0249,W,0.19,348.86,300312,,,D*7A
$GPGGA,125259.000,3353.7539,N,09832.0249,W,2,06,1.3,322.1,M,-23.7,M,0.8,0000*4F
$GPGSA,A,3,29,15,05,21,26,18,,,,,,,3.1,1.3,2.8*3C
$GPRMC,125259.000,A,3353.7539,N,09832.0249,W,0.17,112.19,300312,,,D*7F
$GPGGA,125300.000,3353.7539,N,09832.0248,W,2,06,1.3,322.2,M,-23.7,M,0.8,0000*40
$GPGSA,A,3,29,15,05,21,26,18,,,,,,,3.1,1.3,2.8*3C
$GPRMC,125300.000,A,3353.7539,N,09832.0248,W,0.22,130.87,300312,,,D*72
$GPGGA,125301.000,3353.7539,N,09832.0248,W,2,06,1.3,322.3,M,-23.7,M,0.8,0000*40
$GPGSA,A,3,29,15,05,21,26,18,,,,,,,3.1,1.3,2.8*3C
$GPRMC,125301.000,A,3353.7539,N,09832.0248,W,0.23,329.64,300312,,,D*75
$GPGGA,125302.000,3353.7540,N,09832.0248,W,2,06,1.3,322.7,M,-23.7,M,0.8,0000*49
$GPGSA,A,3,29,15,05,21,26,18,,,,,,,3.1,1.3,2.8*3C
$GPGSV,3,1,11,29,80,234,37,15,47,150,37,26,44,083,34,21,36,304,23*76
$GPGSV,3,2,11,18,34,244,24,05,29,046,37,25,13,213,,30,10,299,*7F
$GPGSV,3,3,11,02,09,096,27,16,02,324,,51,49,195,39*46
$GPRMC,125302.000,A,3353.7540,N,09832.0248,W,0.15,84.41,300312,,,D*4E
$GPGGA,125303.000,3353.7541,N,09832.0247,W,2,06,1.3,322.9,M,-23.7,M,0.8,0000*48
$GPGSA,A,3,29,15,05,21,26,18,,,,,,,3.1,1.3,2.8*3C
$GPRMC,125303.000,A,3353.7541,N,09832.0247,W,0.23,108.83,300312,,,D*7F
$GPGGA,125304.000,3353.7540,N,09832.0247,W,2,06,1.3,322.8,M,-23.7,M,0.8,0000*4F
$GPGSA,A,3,29,15,05,21,26,18,,,,,,,3.1,1.3,2.8*3C
$GPRMC,125304.000,A,3353.7540,N,09832.0247,W,0.20,128.26,300312,,,D*77
$GPGGA,125305.000,3353.7541,N,09832.0246,W,2,06,1.3,323.2,M,-23.7,M,0.8,0000*45
$GPGSA,A,3,29,15,05,21,26,18,,,,,,,3.1,1.3,2.8*3C
$GPRMC,125305.000,A,3353.7541,N,09832.0246,W,0.24,303.96,300312,,,D*72
$GPGGA,125306.000,3353.7542,N,09832.0247,W,2,07,1.1,323.5,M,-23.7,M,1.8,0000*41
$GPGSA,A,3,29,25,15,05,21,26,18,,,,,,2.2,1.1,1.9*39
$GPRMC,125306.000,A,3353.7542,N,09832.0247,W,0.24,343.81,300312,,,D*71
$GPGGA,125307.000,3353.7543,N,09832.0246,W,2,07,1.1,324.0,M,-23.7,M,0.8,0000*43
$GPGSA,A,3,29,25,15,05,21,26,18,,,,,,2.2,1.1,1.9*39
$GPGSV,3,1,11,29,80,234,37,15,47,150,37,26,44,083,33,21,36,304,22*70
$GPGSV,3,2,11,18,34,244,25,05,29,046,37,25,13,213,18,30,10,299,*77
$GPGSV,3,3,11,02,09,096,28,16,02,324,,51,49,195,39*49
$GPRMC,125307.000,A,3353.7543,N,09832.0246,W,0.29,83.47,300312,,,D*48
$GPGGA,125308.000,3353.7543,N,09832.0245,W,2,07,1.1,324.2,M,-23.7,M,1.8,0000*4C
$GPGSA,A,3,29,25,15,05,21,26,18,,,,,,2.2,1.1,1.9*39
$GPRMC,125308.000,A,3353.7543,N,09832.0245,W,0.07,131.31,300312,,,D*71
$GPGGA,125309.000,3353.7543,N,09832.0244,W,2,07,1.1,324.5,M,-23.7,M,0.8,0000*4A
$GPGSA,A,3,29,25,15,05,21,26,18,,,,,,2.2,1.1,1.9*39
$GPRMC,125309.000,A,3353.7543,N,09832.0244,W,0.27,135.83,300312,,,D*7E
$GPGGA,125310.000,3353.7543,N,09832.0243,W,2,07,1.1,324.7,M,-23.7,M,0.8,0000*47
$GPGSA,A,3,29,25,15,05,21,26,18,,,,,,2.2,1.1,1.9*39
$GPRMC,125310.000,A,3353.7543,N,09832.0243,W,0.13,290.61,300312,,,D*76
$GPGGA,125311.000,3353.7544,N,09832.0243,W,2,07,1.1,325.0,M,-23.7,M,0.8,0000*47
$GPGSA,A,3,29,25,15,05,21,26,18,,,,,,2.2,1.1,1.9*39
$GPRMC,125311.000,A,3353.7544,N,09832.0243,W,0.20,138.13,300312,,,D*74
$GPGGA,125312.000,3353.7544,N,09832.0242,W,2,07,1.1,325.3,M,-23.7,M,1.8,0000*47
$GPGSA,A,3,29,25,15,05,21,26,18,,,,,,2.2,1.1,1.9*39
$GPGSV,3,1,11,29,80,234,37,15,47,150,37,26,44,083,33,21,36,304,22*70
$GPGSV,3,2,11,18,34,244,26,05,29,046,36,25,13,213,18,30,10,299,*75
$GPGSV,3,3,11,02,09,096,28,16,02,324,,51,49,195,39*49
$GPRMC,125312.000,A,3353.7544,N,09832.0242,W,0.05,29.51,300312,,,D*46
$GPGGA,125313.000,3353.7545,N,09832.0241,W,2,07,1.1,325.8,M,-23.7,M,2.8,0000*4C
$GPGSA,A,3,29,25,15,05,21,26,18,,,,,,2.2,1.1,1.9*39
$GPRMC,125313.000,A,3353.7545,N,09832.0241,W,0.24,106.34,300312,,,D*79
$GPGGA,125314.000,3353.7545,N,09832.0239,W,2,07,1.1,326.4,M,-23.7,M,3.8,0000*4A
$GPGSA,A,3,29,25,15,05,21,26,18,,,,,,2.2,1.1,1.9*39
$GPRMC,125314.000,A,3353.7545,N,09832.0239,W,0.34,81.52,300312,,,D*4E
$GPGGA,125315.000,3353.7545,N,09832.0238,W,2,07,1.1,326.8,M,-23.7,M,0.8,0000*45
$GPGSA,A,3,29,25,15,05,21,26,18,,,,,,2.2,1.1,1.9*39
$GPRMC,125315.000,A,3353.7545,N,09832.0238,W,0.35,117.48,300312,,,D*7A
$GPGGA,125316.000,3353.7545,N,09832.0237,W,2,07,1.1,326.9,M,-23.7,M,0.8,0000*48
$GPGSA,A,3,29,25,15,05,21,26,18,,,,,,2.2,1.1,1.9*39
$GPRMC,125316.000,A,3353.7545,N,09832.0237,W,0.06,176.32,300312,,,D*7C
$GPGGA,125317.000,3353.7546,N,09832.0238,W,2,07,1.1,326.9,M,-23.7,M,0.8,0000*45
$GPGSA,A,3,29,25,15,05,21,26,18,,,,,,2.1,1.1,1.8*3B
$GPGSV,3,1,11,29,80,234,38,15,47,150,36,26,44,083,32,21,36,304,22*7F
$GPGSV,3,2,11,18,34,244,27,05,29,046,36,25,13,213,18,30,10,299,*74
$GPGSV,3,3,11,02,09,096,28,16,02,324,,51,49,195,39*49
$GPRMC,125317.000,A,3353.7546,N,09832.0238,W,0.25,296.29,300312,,,D*77
$GPGGA,125318.000,3353.7546,N,09832.0239,W,2,07,1.1,326.8,M,-23.7,M,1.8,0000*4B
$GPGSA,A,3,29,25,15,05,21,26,18,,,,,,2.1,1.1,1.8*3B
$GPRMC,125318.000,A,3353.7546,N,09832.0239,W,0.28,292.07,300312,,,D*7C
$GPGGA,125319.000,3353.7546,N,09832.0240,W,2,07,1.1,326.6,M,-23.7,M,0.8,0000*4B
$GPGSA,A,3,29,25,15,05,21,26,18,,,,,,2.1,1.1,1.8*3B
$GPRMC,125319.000,A,3353.7546,N,09832.0240,W,0.12,198.73,300312,,,D*70
$GPGGA,125320.000,3353.7546,N,09832.0240,W,2,07,1.1,326.4,M,-23.7,M,1.8,0000*42
$GPGSA,A,3,29,25,15,05,21,26,18,,,,,,2.1,1.1,1.8*3B
$GPRMC,125320.000,A,3353.7546,N,09832.0240,W,0.27,155.34,300312,,,D*7E
$GPGGA,125321.000,3353.7545,N,09832.0240,W,2,07,1.1,326.2,M,-23.7,M,0.8,0000*47
$GPGSA,A,3,29,25,15,05,21,26,18,,,,,,2.1,1.1,1.8*3B
$GPRMC,125321.000,A,3353.7545,N,09832.0240,W,0.10,168.15,300312,,,D*75
$GPGGA,125322.000,3353.7545,N,09832.0240,W,2,07,1.1,326.1,M,-23.7,M,0.8,0000*47
$GPGSA,A,3,29,25,15,05,21,26,18,,,,,,2.1,1.1,1.8*3B
$GPGSV,3,1,11,29,80,234,38,15,47,150,35,26,44,083,32,21,36,304,21*7F
$GPGSV,3,2,11,18,34,244,27,05,29,046,36,25,13,213,18,30,10,299,*74
$GPGSV,3,3,11,02,09,096,28,16,02,324,,51,49,195,39*49
$GPRMC,125322.000,A,3353.7545,N,09832.0240,W,0.21,153.37,300312,,,D*7C
$GPGGA,125323.000,3353.7545,N,09832.0241,W,2,07,1.1,325.9,M,-23.7,M,0.8,0000*4C
$GPGSA,A,3,29,25,15,05,21,26,18,,,,,,2.1,1.1,1.8*3B
$GPRMC,125323.000,A,3353.7545,N,09832.0241,W,0.25,277.82,300312,,,D*73
$GPGGA,125324.000,3353.7546,N,09832.0243,W,2,07,1.1,326.0,M,-23.7,M,1.8,0000*41
$GPGSA,A,3,29,25,15,05,21,26,18,,,,,,2.1,1.1,1.8*3B
$GPRMC,125324.000,A,3353.7546,N,09832.0243,W,0.46,325.89,300312,,,D*7D
$GPGGA,125325.000,3353.7548,N,09832.0244,W,2,07,1.1,326.1,M,-23.7,M,2.8,0000*4B
$GPGSA,A,3,29,25,15,05,21,26,18,,,,,,2.1,1.1,1.8*3B
$GPRMC,125325.000,A,3353.7548,N,09832.0244,W,0.49,333.99,300312,,,D*7C
$GPGGA,125326.000,3353.7549,N,09832.0245,W,2,07,1.1,326.2,M,-23.7,M,3.8,0000*4A
$GPGSA,A,3,29,25,15,05,21,26,18,,,,,,2.1,1.1,1.8*3B
$GPRMC,125326.000,A,3353.7549,N,09832.0245,W,0.43,323.78,300312,,,D*7B
$GPGGA,125327.000,3353.7550,N,09832.0246,W,2,07,1.1,326.1,M,-23.7,M,0.8,0000*40
$GPGSA,A,3,29,25,15,05,21,26,18,,,,,,2.1,1.1,1.8*3B
$GPGSV,3,1,11,29,80,234,38,15,47,150,35,26,44,083,32,21,36,304,21*7F
$GPGSV,3,2,11,18,34,244,27,05,29,046,35,25,13,213,19,30,10,299,*76
$GPGSV,3,3,11,02,09,096,28,16,02,324,,51,49,195,39*49
$GPRMC,125327.000,A,3353.7550,N,09832.0246,W,0.39,293.37,300312,,,D*7D
$GPGGA,125328.000,3353.7550,N,09832.0247,W,2,07,1.1,326.1,M,-23.7,M,0.8,0000*4E
$GPGSA,A,3,29,25,15,05,21,26,18,,,,,,2.1,1.1,1.8*3B
$GPRMC,125328.000,A,3353.7550,N,09832.0247,W,0.07,48.01,300312,,,D*4F
$GPGGA,125329.000,3353.7550,N,09832.0247,W,2,07,1.1,326.1,M,-23.7,M,0.8,0000*4F
$GPGSA,A,3,29,25,15,05,21,26,18,,,,,,2.1,1.1,1.8*3B
$GPRMC,125329.000,A,3353.7550,N,09832.0247,W,0.27,3.28,300312,,,D*78
$GPGGA,125330.000,3353.7551,N,09832.0247,W,2,07,1.1,326.1,M,-23.7,M,0.8,0000*46
$GPGSA,A,3,29,25,15,05,21,26,18,,,,,,2.1,1.1,1.8*3B
$GPRMC,125330.000,A,3353.7551,N,09832.0247,W,0.23,69.30,300312,,,D*40
$GPGGA,125331.000,3353.7551,N,09832.0246,W,2,07,1.1,326.2,M,-23.7,M,0.8,0000*45
$GPGSA,A,3,29,25,15,05,21,26,18,,,,,,2.1,1.1,1.8*3B
$GPRMC,125331.000,A,3353.7551,N,09832.0246,W,0.28,91.42,300312,,,D*49
$GPGGA,125332.000,3353.7550,N,09832.0246,W,2,07,1.1,326.0,M,-23.7,M,1.8,0000*44
$GPGSA,A,3,29,25,15,05,21,26,18,,,,,,2.1,1.1,1.8*3B
$GPGSV,3,1,11,29,80,234,38,15,47,150,34,26,44,083,31,21,36,304,21*7D
$GPGSV,3,2,11,18,34,244,27,05,29,046,35,25,13,213,19,30,10,299,*76
$GPGSV,3,3,11,02,09,096,28,16,02,324,,51,49,195,39*49
$GPRMC,125332.000,A,3353.7550,N,09832.0246,W,0.08,245.45,300312,,,D*75
$GPGGA,125333.000,3353.7550,N,09832.0247,W,2,07,1.1,325.8,M,-23.7,M,0.8,0000*4E
$GPGSA,A,3,29,25,15,05,21,26,18,,,,,,2.1,1.1,1.8*3B
$GPRMC,125333.000,A,3353.7550,N,09832.0247,W,0.27,155.51,300312,,,D*7F
$GPGGA,125334.000,3353.7549,N,09832.0247,W,2,07,1.1,325.6,M,-23.7,M,0.8,0000*4F
$GPGSA,A,3,29,25,15,05,21,26,18,,,,,,2.1,1.1,1.8*3B
$GPRMC,125334.000,A,3353.7549,N,09832.0247,W,0.44,162.11,300312,,,D*75
$GPGGA,125335.000,3353.7548,N,09832.0246,W,2,06,1.3,325.6,M,-23.7,M,0.8,0000*4D
$GPGSA,A,3,29,15,05,21,26,18,,,,,,,3.1,1.3,2.8*3C
$GPRMC,125335.000,A,3353.7548,N,09832.0246,W,0.34,136.59,300312,,,D*7E
$GPGGA,125336.000,3353.7548,N,09832.0246,W,2,06,1.3,325.7,M,-23.7,M,1.8,0000*4E
$GPGSA,A,3,29,15,05,21,26,18,,,,,,,3.1,1.3,2.8*3C
$GPRMC,125336.000,A,3353.7548,N,09832.0246,W,0.24,132.26,300312,,,D*70
$GPGGA,125337.000,3353.7548,N,09832.0247,W,2,05,1.7,325.6,M,-23.7,M,2.8,0000*4B
$GPGSA,A,3,29,15,05,26,18,,,,,,,,3.3,1.7,2.8*39
$GPGSV,3,1,11,29,80,234,38,15,47,150,34,26,44,083,31,21,36,304,13*7C
$GPGSV,3,2,11,18,34,244,27,05,29,046,35,25,13,213,,30,10,299,*7E
$GPGSV,3,3,11,02,09,096,28,16,02,324,,51,49,195,39*49
$GPRMC,125337.000,A,3353.7548,N,09832.0247,W,0.08,343.60,300312,,,D*78
$GPGGA,125338.000,3353.7549,N,09832.0247,W,2,05,1.7,325.6,M,-23.7,M,3.8,0000*44
$GPGSA,A,3,29,15,05,26,18,,,,,,,,3.3,1.7,2.8*39
$GPRMC,125338.000,A,3353.7549,N,09832.0247,W,0.13,345.37,300312,,,D*78
$GPGGA,125339.000,3353.7549,N,09832.0248,W,2,05,1.7,325.5,M,-23.7,M,0.8,0000*4A
$GPGSA,A,3,29,15,05,26,18,,,,,,,,3.3,1.7,2.8*39
$GPRMC,125339.000,A,3353.7549,N,09832.0248,W,0.11,313.18,300312,,,D*7A
$GPGGA,125340.000,3353.7549,N,09832.0249,W,2,05,1.7,325.3,M,-23.7,M,0.8,0000*43
$GPGSA,A,3,29,15,05,26,18,,,,,,,,3.3,1.7,2.8*39
$GPRMC,125340.000,A,3353.7549,N,09832.0249,W,0.04,336.45,300312,,,D*7E
$GPGGA,125341.000,3353.7549,N,09832.0249,W,2,05,1.7,325.1,M,-23.7,M,0.8,0000*40
$GPGSA,A,3,29,15,05,26,18,,,,,,,,3.3,1.7,2.8*39
$GPRMC,125341.000,A,3353.7549,N,09832.0249,W,0.02,84.84,300312,,,D*4E
$GPGGA,125342.000,3353.7549,N,09832.0250,W,2,05,1.7,324.9,M,-23.7,M,1.8,0000*43
$GPGSA,A,3,29,15,05,26,18,,,,,,,,3.3,1.7,2.8*39
$GPGSV,3,1,11,29,80,234,38,15,47,150,34,26,44,083,30,21,36,304,*7F
$GPGSV,3,2,11,18,34,244,27,05,29,046,35,25,13,213,,30,10,299,*7E
$GPGSV,3,3,11,02,09,096,27,16,02,324,,51,49,195,39*46
$GPRMC,125342.000,A,3353.7549,N,09832.0250,W,0.01,68.44,300312,,,D*48
$GPGGA,125343.000,3353.7549,N,09832.0250,W,2,05,1.7,324.7,M,-23.7,M,2.8,0000*4F
$GPGSA,A,3,29,15,05,26,18,,,,,,,,3.3,1.7,2.8*39
$GPRMC,125343.000,A,3353.7549,N,09832.0250,W,0.01,353.29,300312,,,D*79
$GPGGA,125344.000,3353.7548,N,09832.0251,W,2,05,1.7,324.4,M,-23.7,M,3.8,0000*4A
$GPGSA,A,3,29,15,05,26,18,,,,,,,,3.3,1.7,2.8*39
$GPRMC,125344.000,A,3353.7548,N,09832.0251,W,0.02,296.82,300312,,,D*74
$GPGGA,125345.000,3353.7548,N,09832.0251,W,2,05,1.7,324.2,M,-23.7,M,0.8,0000*4E
$GPGSA,A,3,29,15,05,26,18,,,,,,,,3.3,1.7,2.8*39
$GPRMC,125345.000,A,3353.7548,N,09832.0251,W,0.07,325.52,300312,,,D*74
$GPGGA,125346.000,3353.7549,N,09832.0252,W,2,05,1.7,324.0,M,-23.7,M,0.8,0000*4D
$GPGSA,A,3,29,15,05,26,18,,,,,,,,3.3,1.7,2.8*39
$GPRMC,125346.000,A,3353.7549,N,09832.0252,W,0.10,329.75,300312,,,D*7A
$GPGGA,125347.000,3353.7549,N,09832.0253,W,2,05,1.7,323.9,M,-23.7,M,0.8,0000*43
$GPGSA,A,3,29,15,05,26,18,,,,,,,,3.3,1.7,2.8*39
$GPGSV,3,1,11,29,80,234,38,15,47,150,33,26,44,083,29,21,36,304,*70
$GPGSV,3,2,11,18,34,244,27,05,29,046,35,25,13,213,,30,10,299,*7E
$GPGSV,3,3,11,02,09,096,27,16,02,324,,51,49,195,39*46
$GPRMC,125347.000,A,3353.7549,N,09832.0253,W,0.10,318.93,300312,,,D*70
$GPGGA,125348.000,3353.7549,N,09832.0254,W,2,05,1.7,323.7,M,-23.7,M,0.8,0000*45
$GPGSA,A,3,29,15,05,26,18,,,,,,,,3.3,1.7,2.8*39
$GPRMC,125348.000,A,3353.7549,N,09832.0254,W,0.13,304.01,300312,,,D*7D
$GPGGA,125349.000,3353.7549,N,09832.0254,W,2,05,1.7,323.6,M,-23.7,M,0.8,0000*45
$GPGSA,A,3,29,15,05,26,18,,,,,,,,3.3,1.7,2.8*39
$GPRMC,125349.000,A,3353.7549,N,09832.0254,W,0.11,319.25,300312,,,D*74
$GPGGA,125350.000,3353.7550,N,09832.0255,W,2,05,1.7,323.4,M,-23.7,M,1.8,0000*47
$GPGSA,A,3,29,15,05,26,18,,,,,,,,3.3,1.7,2.8*39
$GPRMC,125350.000,A,3353.7550,N,09832.0255,W,0.12,310.33,300312,,,D*78
$GPGGA,125351.000,3353.7550,N,09832.0256,W,2,05,1.7,323.3,M,-23.7,M,0.8,0000*43
$GPGSA,A,3,29,15,05,26,18,,,,,,,,3.3,1.7,2.8*39
$GPRMC,125351.000,A,3353.7550,N,09832.0256,W,0.08,304.18,300312,,,D*7D
$GPGGA,125352.000,3353.7549,N,09832.0256,W,2,05,1.7,323.0,M,-23.7,M,0.8,0000*4B
$GPGSA,A,3,29,15,05,26,18,,,,,,,,3.3,1.7,2.8*39
$GPGSV,3,1,11,29,80,234,38,15,47,150,34,26,44,083,28,21,36,304,*76
$GPGSV,3,2,11,18,34,244,27,05,29,046,35,25,13,213,,30,10,299,*7E
$GPGSV,3,3,11,02,09,096,27,16,02,324,,51,49,195,39*46
$GPRMC,125352.000,A,3353.7549,N,09832.0256,W,0.03,203.38,300312,,,D*79
$GPGGA,125353.000,3353.7549,N,09832.0257,W,2,05,1.7,322.8,M,-23.7,M,0.8,0000*42
$GPGSA,A,3,29,15,05,26,18,,,,,,,,3.3,1.7,2.8*39
$GPRMC,125353.000,A,3353.7549,N,09832.0257,W,0.03,194.86,300312,,,D*71
$GPGGA,125354.000,3353.7549,N,09832.0257,W,2,05,1.7,322.6,M,-23.7,M,0.8,0000*4B
$GPGSA,A,3,29,15,05,26,18,,,,,,,,3.3,1.7,2.8*39
$GPRMC,125354.000,A,3353.7549,N,09832.0257,W,0.05,195.50,300312,,,D*7A
$GPGGA,125355.000,3353.7548,N,09832.0258,W,2,05,1.7,322.3,M,-23.7,M,1.8,0000*40
$GPGSA,A,3,29,15,05,26,18,,,,,,,,3.3,1.7,2.8*39
$GPRMC,125355.000,A,3353.7548,N,09832.0258,W,0.07,183.87,300312,,,D*7A
$GPGGA,125356.000,3353.7548,N,09832.0258,W,2,05,1.7,322.1,M,-23.7,M,2.8,0000*42
$GPGSA,A,3,29,15,05,26,18,,,,,,,,3.3,1.7,2.8*39
$GPRMC,125356.000,A,3353.7548,N,09832.0258,W,0.05,186.49,300312,,,D*7C
$GPGGA,125357.000,3353.7548,N,09832.0259,W,2,05,1.7,321.9,M,-23.7,M,0.8,0000*4B
$GPGSA,A,3,29,15,05,26,18,,,,,,,,3.3,1.7,2.8*39
$GPGSV,3,1,11,29,80,234,39,15,47,150,34,26,44,083,28,21,36,304,*77
$GPGSV,3,2,11,18,34,244,27,05,29,046,36,25,13,213,,30,10,299,*7D
$GPGSV,3,3,11,02,09,096,27,16,02,324,,51,49,195,39*46
$GPRMC,125357.000,A,3353.7548,N,09832.0259,W,0.04,274.48,300312,,,D*72
$GPGGA,125358.000,3353.7548,N,09832.0259,W,2,05,1.7,321.8,M,-23.7,M,0.8,0000*45
$GPGSA,A,3,29,15,05,26,18,,,,,,,,3.3,1.7,2.9*38
$GPRMC,125358.000,A,3353.7548,N,09832.0259,W,0.09,266.49,300312,,,D*72
$GPGGA,125359.000,3353.7548,N,09832.0260,W,2,05,1.7,321.7,M,-23.7,M,0.8,0000*41
$GPGSA,A,3,29,15,05,26,18,,,,,,,,3.3,1.7,2.9*38
$GPRMC,125359.000,A,3353.7548,N,09832.0260,W,0.14,319.42,300312,,,D*77
$GPGGA,125400.000,3353.7548,N,09832.0260,W,2,05,1.7,321.6,M,-23.7,M,1.8,0000*4A
$GPGSA,A,3,29,15,05,26,18,,,,,,,,3.3,1.7,2.9*38
$GPRMC,125400.000,A,3353.7548,N,09832.0260,W,0.14,321.49,300312,,,D*7C
$GPGGA,125401.000,3353.7549,N,09832.0261,W,2,05,1.7,321.5,M,-23.7,M,2.8,0000*4B
$GPGSA,A,3,29,15,05,26,18,,,,,,,,3.3,1.7,2.9*38
$GPRMC,125401.000,A,3353.7549,N,09832.0261,W,0.11,326.12,300312,,,D*71
$GPGGA,125402.000,3353.7549,N,09832.0261,W,2,05,1.7,321.5,M,-23.7,M,3.8,0000*49
$GPGSA,A,3,29,15,05,26,18,,,,,,,,3.3,1.7,2.9*38
$GPGSV,3,1,11,29,80,234,39,15,47,150,34,26,44,083,28,21,36,304,*77
$GPGSV,3,2,11,18,34,244,28,05,29,046,36,25,13,213,,30,10,299,*72
$GPGSV,3,3,11,02,09,096,26,16,02,324,,51,49,195,39*47
$GPRMC,125402.000,A,3353.7549,N,09832.0261,W,0.14,327.30,300312,,,D*76
$GPGGA,125403.000,3353.7549,N,09832.0261,W,2,05,1.7,321.5,M,-23.7,M,0.8,0000*4B
$GPGSA,A,3,29,15,05,26,18,,,,,,,,3.3,1.7,2.9*38
$GPRMC,125403.000,A,3353.7549,N,09832.0261,W,0.06,3.39,300312,,,D*78
$GPGGA,125404.000,3353.7549,N,09832.0260,W,2,05,1.7,321.5,M,-23.7,M,0.8,0000*4D
$GPGSA,A,3,29,15,05,26,18,,,,,,,,3.3,1.7,2.9*38
$GPRMC,125404.000,A,3353.7549,N,09832.0260,W,0.07,73.50,300312,,,D*47
$GPGGA,125405.000,3353.7549,N,09832.0259,W,2,05,1.7,321.6,M,-23.7,M,0.8,0000*45
$GPGSA,A,3,29,15,05,26,18,,,,,,,,3.3,1.7,2.9*38
$GPRMC,125405.000,A,3353.7549,N,09832.0259,W,0.06,118.64,300312,,,D*76
$GPGGA,125406.000,3353.7548,N,09832.0258,W,2,05,1.7,321.6,M,-23.7,M,1.8,0000*47
$GPGSA,A,3,29,15,05,26,18,,,,,,,,3.3,1.7,2.9*38
$GPRMC,125406.000,A,3353.7548,N,09832.0258,W,0.07,112.85,300312,,,D*71
$GPGGA,125407.000,3353.7548,N,09832.0257,W,2,05,1.7,321.7,M,-23.7,M,2.8,0000*4B
$GPGSA,A,3,29,15,05,26,18,,,,,,,,3.3,1.7,2.9*38
$GPGSV,3,1,11,29,80,234,39,15,47,150,34,26,44,083,28,21,36,304,*77
$GPGSV,3,2,11,18,34,244,28,05,29,046,36,25,13,213,,30,10,299,*72
$GPGSV,3,3,11,02,09,096,26,16,02,324,,51,49,195,39*47
$GPRMC,125407.000,A,3353.7548,N,09832.0257,W,0.10,121.96,300312,,,D*7B
$GPGGA,125408.000,3353.7547,N,09832.0256,W,2,05,1.7,321.7,M,-23.7,M,3.8,0000*4B
$GPGSA,A,3,29,15,05,26,18,,,,,,,,3.3,1.7,2.9*38
$GPRMC,125408.000,A,3353.7547,N,09832.0256,W,0.05,105.74,300312,,,D*74
$GPGGA,125409.000,3353.7547,N,09832.0256,W,2,05,1.7,321.7,M,-23.7,M,0.8,0000*49
$GPGSA,A,3,29,15,05,26,18,,,,,,,,3.3,1.7,2.9*38
$GPRMC,125409.000,A,3353.7547,N,09832.0256,W,0.02,21.15,300312,,,D*42
$GPGGA,125410.000,3353.7547,N,09832.0257,W,2,05,1.7,321.4,M,-23.7,M,0.8,0000*43
$GPGSA,A,3,29,15,05,26,18,,,,,,,,3.3,1.7,2.9*38
$GPRMC,125410.000,A,3353.7547,N,09832.0257,W,0.05,18.07,300312,,,D*45
$GPGGA,125411.000,3353.7548,N,09832.0257,W,2,05,1.7,321.5,M,-23.7,M,0.8,0000*4C
$GPGSA,A,3,29,15,05,26,18,,,,,,,,3.3,1.7,2.9*38
$GPRMC,125411.000,A,3353.7548,N,09832.0257,W,0.10,350.75,300312,,,D*75
$GPGGA,125412.000,3353.7548,N,09832.0257,W,2,05,1.7,321.5,M,-23.7,M,1.8,0000*4E
$GPGSA,A,3,29,15,05,26,18,,,,,,,,3.3,1.7,2.9*38
$GPGSV,3,1,11,29,80,234,39,15,47,150,34,26,44,083,28,21,36,304,*77
$GPGSV,3,2,11,18,34,244,29,05,29,046,37,25,13,213,,30,10,299,*72
$GPGSV,3,3,11,02,09,096,26,16,02,324,,51,49,195,39*47
$GPRMC,125412.000,A,3353.7548,N,09832.0257,W,0.16,342.48,300312,,,D*7D
$GPGGA,125413.000,3353.7548,N,09832.0258,W,2,05,1.7,321.3,M,-23.7,M,2.8,0000*45
$GPGSA,A,3,29,15,05,26,18,,,,,,,,3.3,1.7,2.9*38
$GPRMC,125413.000,A,3353.7548,N,09832.0258,W,0.16,334.21,300312,,,D*7D
$GPGGA,125414.000,3353.7549,N,09832.0258,W,2,05,1.7,321.2,M,-23.7,M,3.8,0000*43
$GPGSA,A,3,29,15,05,26,18,,,,,,,,3.3,1.7,2.9*38
$GPRMC,125414.000,A,3353.7549,N,09832.0258,W,0.12,342.88,300312,,,D*7D
$GPGGA,125415.000,3353.7549,N,09832.0258,W,2,06,1.3,321.1,M,-23.7,M,0.8,0000*45
$GPGSA,A,3,29,21,15,05,26,18,,,,,,,3.1,1.3,2.9*3D
$GPRMC,125415.000,A,3353.7549,N,09832.0258,W,0.19,121.66,300312,,,D*70
$GPGGA,125416.000,3353.7548,N,09832.0258,W,2,06,1.3,321.0,M,-23.7,M,0.8,0000*46
$GPGSA,A,3,29,21,15,05,26,18,,,,,,,3.1,1.3,2.9*3D
$GPRMC,125416.000,A,3353.7548,N,09832.0258,W,0.13,356.96,300312,,,D*75
$GPGGA,125417.000,3353.7548,N,09832.0258,W,2,06,1.3,321.0,M,-23.7,M,0.8,0000*47
$GPGSA,A,3,29,21,15,05,26,18,,,,,,,3.1,1.3,2.9*3D
$GPGSV,3,1,11,29,80,234,39,15,47,150,34,26,44,083,27,21,36,304,17*7E
$GPGSV,3,2,11,18,34,244,30,05,29,046,37,25,13,213,,30,10,299,*7A
$GPGSV,3,3,11,02,09,096,26,16,02,324,,51,49,195,39*47
$GPRMC,125417.000,A,3353.7548,N,09832.0258,W,0.18,328.37,300312,,,D*7D
$GPGGA,125418.000,3353.7548,N,09832.0257,W,2,06,1.3,321.0,M,-23.7,M,0.8,0000*47
$GPGSA,A,3,29,21,15,05,26,18,,,,,,,3.1,1.3,2.9*3D
$GPRMC,125418.000,A,3353.7548,N,09832.0257,W,0.16,124.51,300312,,,D*7D
$GPGGA,125419.000,3353.7548,N,09832.0257,W,2,06,1.3,321.0,M,-23.7,M,0.8,0000*46
$GPGSA,A,3,29,21,15,05,26,18,,,,,,,3.1,1.3,2.9*3D
$GPRMC,125419.000,A,3353.7548,N,09832.0257,W,0.04,96.84,300312,,,D*4F
$GPGGA,125420.000,3353.7547,N,09832.0256,W,2,06,1.3,321.1,M,-23.7,M,1.8,0000*42
$GPGSA,A,3,29,21,15,05,26,18,,,,,,,3.1,1.3,2.9*3D
$GPRMC,125420.000,A,3353.7547,N,09832.0256,W,0.15,328.19,300312,,,D*79
$GPGGA,125421.000,3353.7547,N,09832.0256,W,2,06,1.3,321.1,M,-23.7,M,0.8,0000*42
$GPGSA,A,3,29,21,15,05,26,18,,,,,,,3.2,1.3,2.9*3E
$GPRMC,125421.000,A,3353.7547,N,09832.0256,W,0.08,348.89,300312,,,D*7B
$GPGGA,125422.000,3353.7547,N,09832.0256,W,2,06,1.3,321.2,M,-23.7,M,0.8,0000*42
$GPGSA,A,3,29,21,15,05,26,18,,,,,,,3.2,1.3,2.9*3E
$GPGSV,3,1,11,29,80,234,39,15,47,150,35,26,44,083,26,21,36,304,17*7E
$GPGSV,3,2,11,18,34,244,30,05,29,046,37,25,13,213,,30,10,299,*7A
$GPGSV,3,3,11,02,09,096,26,16,02,324,,51,49,195,39*47
$GPRMC,125422.000,A,3353.7547,N,09832.0256,W,0.22,138.59,300312,,,D*78
$GPGGA,125423.000,3353.7547,N,09832.0255,W,2,06,1.3,321.3,M,-23.7,M,0.8,0000*41
$GPGSA,A,3,29,21,15,05,26,18,,,,,,,3.2,1.3,2.9*3E
$GPRMC,125423.000,A,3353.7547,N,09832.0255,W,0.30,128.73,300312,,,D*70
$GPGGA,125424.000,3353.7547,N,09832.0255,W,2,06,1.3,321.4,M,-23.7,M,1.8,0000*40
$GPGSA,A,3,29,21,15,05,26,18,,,,,,,3.2,1.3,2.9*3E
$GPRMC,125424.000,A,3353.7547,N,09832.0255,W,0.09,77.09,300312,,,D*4B
$GPGGA,125425.000,3353.7547,N,09832.0254,W,2,06,1.3,321.4,M,-23.7,M,2.8,0000*43
$GPGSA,A,3,29,21,15,05,26,18,,,,,,,3.2,1.3,2.9*3E
$GPRMC,125425.000,A,3353.7547,N,09832.0254,W,0.14,49.61,300312,,,D*44
$GPGGA,125426.000,3353.7547,N,09832.0254,W,2,06,1.3,321.5,M,-23.7,M,0.8,0000*43
$GPGSA,A,3,29,21,15,05,26,18,,,,,,,3.2,1.3,2.9*3E
$GPRMC,125426.000,A,3353.7547,N,09832.0254,W,0.17,100.92,300312,,,D*74
$GPGGA,125427.000,3353.7547,N,09832.0253,W,2,06,1.3,321.6,M,-23.7,M,0.8,0000*46
$GPGSA,A,3,29,21,15,05,26,18,,,,,,,3.2,1.3,2.9*3E
$GPGSV,3,1,11,29,80,234,39,15,47,150,35,26,44,083,19,21,36,304,18*7D
$GPGSV,3,2,11,18,34,244,30,05,29,046,37,25,13,213,,30,10,299,*7A
$GPGSV,3,3,11,02,09,096,25,16,02,324,,51,49,195,39*44
$GPRMC,125427.000,A,3353.7547,N,09832.0253,W,0.24,92.82,300312,,,D*49
$GPGGA,125428.000,3353.7547,N,09832.0253,W,2,06,1.3,321.6,M,-23.7,M,0.8,0000*49
$GPGSA,A,3,29,21,15,05,26,18,,,,,,,3.2,1.3,2.9*3E
$GPRMC,125428.000,A,3353.7547,N,09832.0253,W,0.34,102.84,300312,,,D*79
$GPGGA,125429.000,3353.7547,N,09832.0252,W,2,06,1.3,321.6,M,-23.7,M,0.8,0000*49
$GPGSA,A,3,29,21,15,05,26,18,,,,,,,3.2,1.3,2.9*3E
$GPRMC,125429.000,A,3353.7547,N,09832.0252,W,0.14,39.04,300312,,,D*4A
$GPGGA,125430.000,3353.7547,N,09832.0252,W,2,06,1.3,321.5,M,-23.7,M,1.8,0000*43
$GPGSA,A,3,29,21,15,05,26,18,,,,,,,3.2,1.3,2.9*3E
$GPRMC,125430.000,A,3353.7547,N,09832.0252,W,0.11,357.54,300312,,,D*79
$GPGGA,125431.000,3353.7547,N,09832.0253,W,2,06,1.3,321.5,M,-23.7,M,2.8,0000*40
$GPGSA,A,3,29,21,15,05,26,18,,,,,,,3.2,1.3,2.9*3E
$GPRMC,125431.000,A,3353.7547,N,09832.0253,W,0.09,305.65,300312,,,D*75
$GPGGA,125432.000,3353.7546,N,09832.0253,W,2,06,1.3,321.5,M,-23.7,M,3.8,0000*43
$GPGSA,A,3,29,21,15,05,26,18,,,,,,,3.2,1.3,2.9*3E
$GPGSV,3,1,11,29,80,234,40,15,47,150,36,26,44,083,18,21,36,304,19*70
$GPGSV,3,2,11,18,34,244,29,05,29,046,38,25,13,213,,30,10,299,*7D
$GPGSV,3,3,11,02,09,096,24,16,02,324,,51,49,195,39*45
$GPRMC,125432.000,A,3353.7546,N,09832.0253,W,0.18,154.70,300312,,,D*75
$GPGGA,125433.000,3353.7546,N,09832.0253,W,2,06,1.3,321.4,M,-23.7,M,0.8,0000*40
$GPGSA,A,3,29,21,15,05,26,18,,,,,,,3.2,1.3,2.9*3E
$GPRMC,125433.000,A,3353.7546,N,09832.0253,W,0.20,137.74,300312,,,D*7E
$GPGGA,125434.000,3353.7546,N,09832.0254,W,2,06,1.3,321.4,M,-23.7,M,0.8,0000*40
$GPGSA,A,3,29,21,15,05,26,18,,,,,,,3.2,1.3,2.9*3E
$GPRMC,125434.000,A,3353.7546,N,09832.0254,W,0.36,305.40,300312,,,D*7D
$GPGGA,125435.000,3353.7547,N,09832.0255,W,2,05,1.4,321.3,M,-23.7,M,0.8,0000*42
$GPGSA,A,3,29,21,15,05,18,,,,,,,,3.2,1.4,2.9*3D
$GPRMC,125435.000,A,3353.7547,N,09832.0255,W,0.33,324.04,300312,,,D*7A
$GPGGA,125436.000,3353.7547,N,09832.0256,W,2,05,1.4,321.2,M,-23.7,M,0.8,0000*43
$GPGSA,A,3,29,21,15,05,18,,,,,,,,3.2,1.4,2.9*3D
$GPRMC,125436.000,A,3353.7547,N,09832.0256,W,0.09,356.18,300312,,,D*7B
$GPGGA,125437.000,3353.7547,N,09832.0257,W,2,05,1.4,321.2,M,-23.7,M,0.8,0000*43
$GPGSA,A,3,29,21,15,05,18,,,,,,,,3.2,1.4,2.9*3D
$GPGSV,3,1,11,29,79,229,40,15,48,150,36,26,44,082,,21,37,304,20*76
$GPGSV,3,2,11,18,35,244,29,05,28,047,38,25,13,212,,30,10,298,*7C
$GPGSV,3,3,11,02,08,097,24,16,02,323,,51,49,195,39*42
$GPRMC,125437.000,A,3353.7547,N,09832.0257,W,0.07,66.83,300312,,,D*47
$GPGGA,125438.000,3353.7547,N,09832.0257,W,2,05,1.4,321.1,M,-23.7,M,0.8,0000*4F
$GPGSA,A,3,29,21,15,05,18,,,,,,,,3.2,1.4,2.9*3D
$GPRMC,125438.000,A,3353.7547,N,09832.0257,W,0.06,74.70,300312,,,D*46
$GPGGA,125439.000,3353.7547,N,09832.0257,W,2,05,1.4,321.1,M,-23.7,M,0.8,0000*4E
$GPGSA,A,3,29,21,15,05,18,,,,,,,,3.2,1.4,2.9*3D
$GPRMC,125439.000,A,3353.7547,N,09832.0257,W,0.25,118.57,300312,,,D*78
$GPGGA,125440.000,3353.7547,N,09832.0257,W,2,05,1.4,321.0,M,-23.7,M,0.8,0000*41
$GPGSA,A,3,29,21,15,05,18,,,,,,,,3.2,1.4,2.9*3D
$GPRMC,125440.000,A,3353.7547,N,09832.0257,W,0.10,78.06,300312,,,D*43
$GPGGA,125441.000,3353.7546,N,09832.0257,W,2,05,1.4,320.9,M,-23.7,M,0.8,0000*49
$GPGSA,A,3,29,21,15,05,18,,,,,,,,3.2,1.4,2.9*3D
$GPRMC,125441.000,A,3353.7546,N,09832.0257,W,0.16,128.69,300312,,,D*78
$GPGGA,125442.000,3353.7546,N,09832.0256,W,2,06,1.2,321.1,M,-23.7,M,1.8,0000*46
$GPGSA,A,3,29,21,15,05,25,18,,,,,,,2.2,1.2,1.8*3F
$GPGSV,3,1,11,29,79,229,40,15,48,150,36,26,44,082,,21,37,304,22*74
$GPGSV,3,2,11,18,35,244,28,05,28,047,38,25,13,212,19,30,10,298,*75
$GPGSV,3,3,11,02,08,097,23,16,02,323,,51,49,195,39*45
$GPRMC,125442.000,A,3353.7546,N,09832.0256,W,0.30,109.91,300312,,,D*7A
$GPGGA,125443.000,3353.7546,N,09832.0256,W,2,06,1.2,321.1,M,-23.7,M,0.8,0000*46
$GPGSA,A,3,29,21,15,05,25,18,,,,,,,2.2,1.2,1.8*3F
$GPRMC,125443.000,A,3353.7546,N,09832.0256,W,0.20,9.97,300312,,,D*7D
$GPGGA,125444.000,3353.7546,N,09832.0257,W,2,06,1.2,320.9,M,-23.7,M,1.8,0000*48
$GPGSA,A,3,29,21,15,05,25,18,,,,,,,2.2,1.2,1.8*3F
$GPRMC,125444.000,A,3353.7546,N,09832.0257,W,0.06,316.91,300312,,,D*74
$GPGGA,125445.000,3353.7546,N,09832.0258,W,2,06,1.2,320.6,M,-23.7,M,0.8,0000*48
$GPGSA,A,3,29,21,15,05,25,18,,,,,,,2.2,1.2,1.8*3F
$GPRMC,125445.000,A,3353.7546,N,09832.0258,W,0.10,277.41,300312,,,D*76
$GPGGA,125446.000,3353.7546,N,09832.0259,W,2,06,1.2,320.3,M,-23.7,M,0.8,0000*4F
$GPGSA,A,3,29,21,15,05,25,18,,,,,,,2.2,1.2,1.8*3F
$GPRMC,125446.000,A,3353.7546,N,09832.0259,W,0.22,276.36,300312,,,D*74
$GPGGA,125447.000,3353.7546,N,09832.0260,W,2,06,1.2,320.3,M,-23.7,M,0.8,0000*44
$GPGSA,A,3,29,21,15,05,25,18,,,,,,,2.2,1.2,1.8*3F
$GPGSV,3,1,11,29,79,229,41,15,48,150,36,26,44,082,,21,37,304,23*74
$GPGSV,3,2,11,18,35,244,27,05,28,047,38,25,13,212,20,30,10,298,*70
$GPGSV,3,3,11,02,08,097,22,16,02,323,,51,49,195,39*44
$GPRMC,125447.000,A,3353.7546,N,09832.0260,W,0.01,335.42,300312,,,D*7B
$GPGGA,125448.000,3353.7546,N,09832.0261,W,2,06,1.2,320.0,M,-23.7,M,1.8,0000*48
$GPGSA,A,3,29,21,15,05,25,18,,,,,,,2.2,1.2,1.8*3F
$GPRMC,125448.000,A,3353.7546,N,09832.0261,W,0.31,296.11,300312,,,D*78
$GPGGA,125449.000,3353.7546,N,09832.0262,W,2,06,1.2,320.0,M,-23.7,M,0.8,0000*4B
$GPGSA,A,3,29,21,15,05,25,18,,,,,,,2.2,1.2,1.8*3F
$GPRMC,125449.000,A,3353.7546,N,09832.0262,W,0.22,316.16,300312,,,D*76
$GPGGA,125450.000,3353.7547,N,09832.0264,W,2,06,1.2,319.7,M,-23.7,M,0.8,0000*49
$GPGSA,A,3,29,21,15,05,25,18,,,,,,,2.2,1.2,1.8*3F
$GPRMC,125450.000,A,3353.7547,N,09832.0264,W,0.41,299.10,300312,,,D*7C
$GPGGA,125451.000,3353.7547,N,09832.0265,W,2,06,1.2,319.6,M,-23.7,M,0.8,0000*48
$GPGSA,A,3,29,21,15,05,25,18,,,,,,,2.2,1.2,1.8*3F
$GPRMC,125451.000,A,3353.7547,N,09832.0265,W,0.39,310.20,300312,,,D*70
$GPGGA,125452.000,3353.7548,N,09832.0265,W,2,07,1.1,319.5,M,-23.7,M,0.8,0000*45
$GPGSA,A,3,29,21,15,05,25,26,18,,,,,,2.1,1.1,1.8*3B
$GPGSV,3,1,11,29,79,229,41,15,48,150,36,26,44,082,19,21,37,304,23*7C
$GPGSV,3,2,11,18,35,244,26,05,28,047,38,25,13,212,21,30,10,298,*70
$GPGSV,3,3,11,02,08,097,22,16,02,323,,51,49,195,39*44
$GPRMC,125452.000,A,3353.7548,N,09832.0265,W,0.10,344.19,300312,,,D*7C
$GPGGA,125453.000,3353.7547,N,09832.0265,W,2,07,1.1,319.5,M,-23.7,M,0.8,0000*4B
$GPGSA,A,3,29,21,15,05,25,26,18,,,,,,2.1,1.1,1.8*3B
$GPRMC,125453.000,A,3353.7547,N,09832.0265,W,0.08,110.75,300312,,,D*72
$GPGGA,125454.000,3353.7547,N,09832.0265,W,2,07,1.1,319.5,M,-23.7,M,1.8,0000*4D
$GPGSA,A,3,29,21,15,05,25,26,18,,,,,,2.1,1.1,1.8*3B
$GPRMC,125454.000,A,3353.7547,N,09832.0265,W,0.31,119.83,300312,,,D*7F
$GPGGA,125455.000,3353.7546,N,09832.0264,W,2,07,1.1,319.5,M,-23.7,M,2.8,0000*4F
$GPGSA,A,3,29,21,15,05,25,26,18,,,,,,2.1,1.1,1.8*3B
$GPRMC,125455.000,A,3353.7546,N,09832.0264,W,0.06,323.56,300312,,,D*79
$GPGGA,125456.000,3353.7546,N,09832.0264,W,2,07,1.1,319.5,M,-23.7,M,3.8,0000*4D
$GPGSA,A,3,29,21,15,05,25,26,18,,,,,,2.1,1.1,1.8*3B
$GPRMC,125456.000,A,3353.7546,N,09832.0264,W,0.18,154.58,300312,,,D*79
$GPGGA,125457.000,3353.7545,N,09832.0264,W,2,07,1.1,319.3,M,-23.7,M,0.8,0000*4A
$GPGSA,A,3,29,21,15,05,25,26,18,,,,,,2.1,1.1,1.8*3B
$GPGSV,3,1,11,29,79,229,41,15,48,150,36,26,44,082,17,21,37,304,23*72
$GPGSV,3,2,11,18,35,244,26,05,28,047,38,25,13,212,22,30,10,298,*73
$GPGSV,3,3,11,02,08,097,23,16,02,323,,51,49,195,39*45
$GPRMC,125457.000,A,3353.7545,N,09832.0264,W,0.19,169.90,300312,,,D*70
$GPGGA,125458.000,3353.7545,N,09832.0264,W,2,07,1.1,319.4,M,-23.7,M,0.8,0000*42
$GPGSA,A,3,29,21,15,05,25,26,18,,,,,,2.1,1.1,1.8*3B
$GPRMC,125458.000,A,3353.7545,N,09832.0264,W,0.07,190.48,300312,,,D*73
$GPGGA,125459.000,3353.7545,N,09832.0265,W,2,07,1.1,319.3,M,-23.7,M,0.8,0000*45
$GPGSA,A,3,29,21,15,05,25,26,18,,,,,,2.1,1.1,1.8*3B
$GPRMC,125459.000,A,3353.7545,N,09832.0265,W,0.44,314.93,300312,,,D*7C
$GPGGA,125500.000,3353.7546,N,09832.0266,W,2,07,1.1,319.3,M,-23.7,M,1.8,0000*49
$GPGSA,A,3,29,21,15,05,25,26,18,,,,,,2.1,1.1,1.8*3B
$GPRMC,125500.000,A,3353.7546,N,09832.0266,W,0.17,322.53,300312,,,D*7E
$GPGGA,125501.000,3353.7546,N,09832.0266,W,2,07,1.1,319.3,M,-23.7,M,2.8,0000*4B
$GPGSA,A,3,29,21,15,05,25,26,18,,,,,,2.1,1.1,1.8*3B
$GPRMC,125501.000,A,3353.7546,N,09832.0266,W,0.04,357.66,300312,,,D*79
$GPGGA,125502.000,3353.7546,N,09832.0266,W,2,07,1.1,319.4,M,-23.7,M,3.8,0000*4E
$GPGSA,A,3,29,21,15,05,25,26,18,,,,,,2.1,1.1,1.8*3B
$GPGSV,3,1,11,29,79,229,41,15,48,150,36,26,44,082,17,21,37,304,22*73
$GPGSV,3,2,11,18,35,244,27,05,28,047,38,25,13,212,23,30,10,298,*73
$GPGSV,3,3,11,02,08,097,23,16,02,323,,51,49,195,39*45
$GPRMC,125502.000,A,3353.7546,N,09832.0266,W,0.20,109.85,300312,,,D*78
$GPGGA,125503.000,3353.7546,N,09832.0266,W,2,07,1.1,319.4,M,-23.7,M,0.8,0000*4C
$GPGSA,A,3,29,21,15,05,25,26,18,,,,,,2.1,1.1,1.8*3B
$GPRMC,125503.000,A,3353.7546,N,09832.0266,W,0.13,7.68,300312,,,D*75
$GPGGA,125504.000,3353.7546,N,09832.0265,W,2,07,1.1,319.4,M,-23.7,M,0.8,0000*48
$GPGSA,A,3,29,21,15,05,25,26,18,,,,,,2.1,1.1,1.8*3B
$GPRMC,125504.000,A,3353.7546,N,09832.0265,W,0.35,110.13,300312,,,D*7E
$GPGGA,125505.000,3353.7545,N,09832.0264,W,2,07,1.1,319.4,M,-23.7,M,0.8,0000*4B
$GPGSA,A,3,29,21,15,05,25,26,18,,,,,,2.1,1.1,1.8*3B
$GPRMC,125505.000,A,3353.7545,N,09832.0264,W,0.50,130.78,300312,,,D*71
$GPGGA,125506.000,3353.7544,N,09832.0263,W,2,07,1.1,319.4,M,-23.7,M,0.8,0000*4E
$GPGSA,A,3,29,21,15,05,25,26,18,,,,,,2.1,1.1,1.8*3B
$GPRMC,125506.000,A,3353.7544,N,09832.0263,W,0.33,125.22,300312,,,D*7A
$GPGGA,125507.000,3353.7544,N,09832.0262,W,2,07,1.1,319.5,M,-23.7,M,1.8,0000*4E
$GPGSA,A,3,29,21,15,05,25,26,18,,,,,,2.1,1.1,1.8*3B
$GPGSV,3,1,11,29,79,229,41,15,48,150,37,26,44,082,17,21,37,304,22*72
$GPGSV,3,2,11,18,35,244,27,05,28,047,38,25,13,212,23,30,10,298,*73
$GPGSV,3,3,11,02,08,097,23,16,02,323,,51,49,195,39*45
$GPRMC,125507.000,A,3353.7544,N,09832.0262,W,0.28,119.77,300312,,,D*7F
$GPGGA,125508.000,3353.7543,N,09832.0261,W,2,07,1.1,319.5,M,-23.7,M,2.8,0000*46
$GPGSA,A,3,29,21,15,05,25,26,18,,,,,,2.1,1.1,1.8*3B
$GPRMC,125508.000,A,3353.7543,N,09832.0261,W,0.39,131.15,300312,,,D*7A
$GPGGA,125509.000,3353.7543,N,09832.0261,W,2,07,1.1,319.5,M,-23.7,M,0.8,0000*45
$GPGSA,A,3,29,21,15,05,25,26,18,,,,,,2.1,1.1,1.8*3B
$GPRMC,125509.000,A,3353.7543,N,09832.0261,W,0.29,126.97,300312,,,D*76
$GPGGA,125510.000,3353.7543,N,09832.0261,W,2,07,1.1,319.6,M,-23.7,M,0.8,0000*4E
$GPGSA,A,3,29,21,15,05,25,26,18,,,,,,2.1,1.1,1.8*3B
$GPRMC,125510.000,A,3353.7543,N,09832.0261,W,0.21,342.83,300312,,,D*73
$GPGGA,125511.000,3353.7543,N,09832.0261,W,2,07,1.1,319.6,M,-23.7,M,0.8,0000*4F
$GPGSA,A,3,29,21,15,05,25,26,18,,,,,,2.1,1.1,1.8*3B
$GPRMC,125511.000,A,3353.7543,N,09832.0261,W,0.16,115.46,300312,,,D*7F
$GPGGA,125512.000,3353.7543,N,09832.0261,W,2,07,1.1,319.7,M,-23.7,M,1.8,0000*4C
$GPGSA,A,3,29,21,15,05,25,26,18,,,,,,2.1,1.1,1.8*3B
$GPGSV,3,1,11,29,79,229,41,15,48,150,37,26,44,082,19,21,37,304,21*7F
$GPGSV,3,2,11,18,35,244,27,05,28,047,38,25,13,212,23,30,10,298,*73
$GPGSV,3,3,11,02,08,097,22,16,02,323,,51,49,195,40*4A
$GPRMC,125512.000,A,3353.7543,N,09832.0261,W,0.11,66.32,300312,,,D*4D
$GPGGA,125513.000,3353.7544,N,09832.0262,W,2,07,1.1,319.8,M,-23.7,M,2.8,0000*45
$GPGSA,A,3,29,21,15,05,25,26,18,,,,,,2.1,1.1,1.8*3B
$GPRMC,125513.000,A,3353.7544,N,09832.0262,W,0.33,346.11,300312,,,D*78
$GPGGA,125514.000,3353.7545,N,09832.0263,W,2,07,1.1,319.9,M,-23.7,M,3.8,0000*42
$GPGSA,A,3,29,21,15,05,25,26,18,,,,,,2.1,1.1,1.8*3B
$GPRMC,125514.000,A,3353.7545,N,09832.0263,W,0.55,332.84,300312,,,D*70
$GPGGA,125515.000,3353.7546,N,09832.0263,W,2,07,1.1,320.1,M,-23.7,M,0.8,0000*41
$GPGSA,A,3,29,21,15,05,25,26,18,,,,,,2.1,1.1,1.8*3B
$GPRMC,125515.000,A,3353.7546,N,09832.0263,W,0.21,16.21,300312,,,D*4B
$GPGGA,125516.000,3353.7547,N,09832.0262,W,2,07,1.1,320.3,M,-23.7,M,0.8,0000*40
$GPGSA,A,3,29,21,15,05,25,26,18,,,,,,2.1,1.1,1.8*3B
$GPRMC,125516.000,A,3353.7547,N,09832.0262,W,0.21,57.70,300312,,,D*49
$GPGGA,125517.000,3353.7547,N,09832.0261,W,2,07,1.1,320.4,M,-23.7,M,0.8,0000*45
$GPGSA,A,3,29,21,15,05,25,26,18,,,,,,2.1,1.1,1.8*3B
$GPGSV,3,1,11,29,79,227,41,15,48,149,37,26,44,081,21,21,37,305,20*71
$GPGSV,3,2,11,18,35,245,27,05,28,047,38,25,13,212,23,30,10,298,*72
$GPGSV,3,3,11,02,08,097,17,16,03,323,,51,49,195,39*43
$GPRMC,125517.000,A,3353.7547,N,09832.0261,W,0.19,19.85,300312,,,D*40
$GPGGA,125518.000,3353.7547,N,09832.0261,W,2,07,1.1,320.4,M,-23.7,M,1.8,0000*4B
$GPGSA,A,3,29,21,15,05,25,26,18,,,,,,2.1,1.1,1.8*3B
$GPRMC,125518.000,A,3353.7547,N,09832.0261,W,0.12,357.86,300312,,,D*7E
$GPGGA,125519.000,3353.7547,N,09832.0261,W,2,07,1.1,320.5,M,-23.7,M,2.8,0000*48
$GPGSA,A,3,29,21,15,05,25,26,18,,,,,,2.1,1.1,1.8*3B
$GPRMC,125519.000,A,3353.7547,N,09832.0261,W,0.36,123.86,300312,,,D*78
$GPGGA,125520.000,3353.7546,N,09832.0260,W,2,06,1.3,320.4,M,-23.7,M,3.8,0000*41
$GPGSA,A,3,29,21,15,05,26,18,,,,,,,3.2,1.3,2.9*3E
$GPRMC,125520.000,A,3353.7546,N,09832.0260,W,0.32,124.74,300312,,,D*7C
$GPGGA,125521.000,3353.7546,N,09832.0260,W,2,06,1.3,320.4,M,-23.7,M,0.8,0000*43
$GPGSA,A,3,29,21,15,05,26,18,,,,,,,3.2,1.3,2.9*3E
$GPRMC,125521.000,A,3353.7546,N,09832.0260,W,0.19,119.26,300312,,,D*7D
$GPGGA,125522.000,3353.7545,N,09832.0260,W,2,06,1.3,320.5,M,-23.7,M,0.8,0000*42
$GPGSA,A,3,29,21,15,05,26,18,,,,,,,3.2,1.3,2.9*3E
$GPGSV,3,1,11,29,79,227,41,15,48,149,37,26,44,081,21,21,37,305,19*7B
$GPGSV,3,2,11,18,35,245,26,05,28,047,38,25,13,212,,30,10,298,*72
$GPGSV,3,3,11,02,08,097,17,16,03,323,,51,49,195,39*43
$GPRMC,125522.000,A,3353.7545,N,09832.0260,W,0.19,128.31,300312,,,D*79
$GPGGA,125523.000,3353.7546,N,09832.0261,W,2,06,1.3,320.5,M,-23.7,M,0.8,0000*41
$GPGSA,A,3,29,21,15,05,26,18,,,,,,,3.2,1.3,2.9*3E
$GPRMC,125523.000,A,3353.7546,N,09832.0261,W,0.11,93.32,300312,,,D*40
$GPGGA,125524.000,3353.7546,N,09832.0261,W,2,06,1.3,320.6,M,-23.7,M,0.8,0000*45
$GPGSA,A,3,29,21,15,05,26,18,,,,,,,3.2,1.3,2.9*3E
$GPRMC,125524.000,A,3353.7546,N,09832.0261,W,0.07,34.77,300312,,,D*4C
$GPGGA,125525.000,3353.7546,N,09832.0261,W,2,06,1.3,320.7,M,-23.7,M,0.8,0000*45
$GPGSA,A,3,29,21,15,05,26,18,,,,,,,3.2,1.3,2.9*3E
$GPRMC,125525.000,A,3353.7546,N,09832.0261,W,0.26,96.23,300312,,,D*47
$GPGGA,125526.000,3353.7547,N,09832.0261,W,2,06,1.3,320.6,M,-23.7,M,1.8,0000*47
$GPGSA,A,3,29,21,15,05,26,18,,,,,,,3.2,1.3,2.9*3E
$GPRMC,125526.000,A,3353.7547,N,09832.0261,W,0.24,346.45,300312,,,D*79
$GPGGA,125527.000,3353.7547,N,09832.0262,W,2,06,1.3,320.7,M,-23.7,M,0.8,0000*45
$GPGSA,A,3,29,21,15,05,26,18,,,,,,,3.2,1.3,2.9*3E
$GPGSV,3,1,11,29,79,227,41,15,48,149,37,26,44,081,21,21,37,305,19*7B
$GPGSV,3,2,11,18,35,245,26,05,28,047,38,25,13,212,,30,10,298,*72
$GPGSV,3,3,11,02,08,097,17,16,03,323,,51,49,195,39*43
$GPRMC,125527.000,A,3353.7547,N,09832.0262,W,0.06,16.25,300312,,,D*4B
$GPGGA,125528.000,3353.7547,N,09832.0261,W,2,06,1.3,320.7,M,-23.7,M,0.8,0000*49
$GPGSA,A,3,29,21,15,05,26,18,,,,,,,3.2,1.3,2.9*3E
$GPRMC,125528.000,A,3353.7547,N,09832.0261,W,0.19,90.74,300312,,,D*43
$GPGGA,125529.000,3353.7547,N,09832.0261,W,2,06,1.3,320.8,M,-23.7,M,0.8,0000*47
$GPGSA,A,3,29,21,15,05,26,18,,,,,,,3.2,1.3,2.9*3E
$GPRMC,125529.000,A,3353.7547,N,09832.0261,W,0.19,118.79,300312,,,D*7E
$GPGGA,125530.000,3353.7547,N,09832.0261,W,2,06,1.3,320.7,M,-23.7,M,1.8,0000*41
$GPGSA,A,3,29,21,15,05,26,18,,,,,,,3.2,1.3,2.9*3E
$GPRMC,125530.000,A,3353.7547,N,09832.0261,W,0.10,74.97,300312,,,D*44
$GPGGA,125531.000,3353.7547,N,09832.0255,W,2,06,1.3,322.1,M,-23.7,M,2.8,0000*40
$GPGSA,A,3,29,21,15,05,26,18,,,,,,,3.2,1.3,2.9*3E
$GPRMC,125531.000,A,3353.7547,N,09832.0255,W,0.16,49.39,300312,,,D*4E
$GPGGA,125532.000,3353.7547,N,09832.0250,W,2,06,1.3,323.3,M,-23.7,M,3.8,0000*44
$GPGSA,A,3,29,21,15,05,26,18,,,,,,,3.2,1.3,2.9*3E
$GPGSV,3,1,11,29,79,227,41,15,48,149,37,26,44,081,21,21,37,305,20*71
$GPGSV,3,2,11,18,35,245,25,05,28,047,38,25,13,212,,30,10,298,*71
$GPGSV,3,3,11,02,08,097,16,16,03,323,,51,49,195,39*42
$GPRMC,125532.000,A,3353.7547,N,09832.0250,W,0.25,89.06,300312,,,D*48
$GPGGA,125533.000,3353.7548,N,09832.0246,W,2,06,1.3,324.2,M,-23.7,M,0.8,0000*48
$GPGSA,A,3,29,21,15,05,26,18,,,,,,,3.2,1.3,2.9*3E
$GPRMC,125533.000,A,3353.7548,N,09832.0246,W,0.40,95.33,300312,,,D*49
$GPGGA,125534.000,3353.7548,N,09832.0244,W,2,06,1.3,325.0,M,-23.7,M,0.8,0000*4E
$GPGSA,A,3,29,21,15,05,26,18,,,,,,,3.2,1.3,2.9*3E
$GPRMC,125534.000,A,3353.7548,N,09832.0244,W,0.24,72.43,300312,,,D*40
$GPGGA,125535.000,3353.7549,N,09832.0243,W,2,06,1.3,325.4,M,-23.7,M,0.8,0000*4D
$GPGSA,A,3,29,21,15,05,26,18,,,,,,,3.2,1.3,2.9*3E
$GPRMC,125535.000,A,3353.7549,N,09832.0243,W,0.29,36.41,300312,,,D*48
$GPGGA,125536.000,3353.7549,N,09832.0244,W,2,06,1.3,325.4,M,-23.7,M,1.8,0000*48
$GPGSA,A,3,29,21,15,05,26,18,,,,,,,3.2,1.3,2.9*3E
$GPRMC,125536.000,A,3353.7549,N,09832.0244,W,0.18,18.97,300312,,,D*49
$GPGGA,125537.000,3353.7550,N,09832.0244,W,2,06,1.3,325.8,M,-23.7,M,0.8,0000*4C
$GPGSA,A,3,29,21,15,05,26,18,,,,,,,3.2,1.3,2.9*3E
$GPGSV,3,1,11,29,79,227,41,15,48,149,37,26,44,081,22,21,37,305,22*70
$GPGSV,3,2,11,18,35,245,20,05,28,047,38,25,13,212,,30,10,298,*74
$GPGSV,3,3,11,02,08,097,17,16,03,323,,51,49,195,39*43
$GPRMC,125537.000,A,3353.7550,N,09832.0244,W,0.35,70.13,300312,,,D*4D
$GPGGA,125538.000,3353.7551,N,09832.0242,W,2,06,1.3,326.4,M,-23.7,M,0.8,0000*4B
$GPGSA,A,3,29,21,15,05,26,18,,,,,,,3.2,1.3,2.9*3E
$GPRMC,125538.000,A,3353.7551,N,09832.0242,W,0.46,78.36,300312,,,D*4E
$GPGGA,125539.000,3353.7553,N,09832.0243,W,2,06,1.3,326.7,M,-23.7,M,0.8,0000*4A
$GPGSA,A,3,29,21,15,05,26,18,,,,,,,3.2,1.3,2.9*3E
$GPRMC,125539.000,A,3353.7553,N,09832.0243,W,0.40,48.49,300312,,,D*41
$GPGGA,125540.000,3353.7553,N,09832.0241,W,2,06,1.3,327.1,M,-23.7,M,0.8,0000*41
$GPGSA,A,3,29,21,15,05,26,18,,,,,,,3.2,1.3,2.9*3E
$GPRMC,125540.000,A,3353.7553,N,09832.0241,W,0.44,56.96,300312,,,D*44
$GPGGA,125541.000,3353.7554,N,09832.0243,W,2,06,1.3,327.0,M,-23.7,M,0.8,0000*44
$GPGSA,A,3,29,21,15,05,26,18,,,,,,,3.2,1.3,2.9*3E
$GPRMC,125541.000,A,3353.7554,N,09832.0243,W,0.21,64.24,300312,,,D*4B
$GPGGA,125542.000,3353.7555,N,09832.0245,W,2,06,1.3,326.6,M,-23.7,M,1.8,0000*46
$GPGSA,A,3,29,21,15,05,26,18,,,,,,,3.2,1.3,2.9*3E
$GPGSV,3,1,11,29,79,226,41,15,48,149,37,26,44,081,23,21,37,305,23*71
$GPGSV,3,2,11,18,35,245,18,05,27,047,38,25,12,212,,30,10,298,*71
$GPGSV,3,3,11,02,08,097,18,16,03,323,,51,49,195,39*4C
$GPRMC,125542.000,A,3353.7555,N,09832.0245,W,0.16,359.84,300312,,,D*7C
$GPGGA,125543.000,3353.7554,N,09832.0245,W,2,06,1.3,326.7,M,-23.7,M,2.8,0000*44
$GPGSA,A,3,29,21,15,05,26,18,,,,,,,3.2,1.3,2.9*3E
$GPRMC,125543.000,A,3353.7554,N,09832.0245,W,0.17,97.11,300312,,,D*40
$GPGGA,125544.000,3353.7554,N,09832.0245,W,2,06,1.3,326.6,M,-23.7,M,3.8,0000*43
$GPGSA,A,3,29,21,15,05,26,18,,,,,,,3.2,1.3,2.9*3E
$GPRMC,125544.000,A,3353.7554,N,09832.0245,W,0.02,13.17,300312,,,D*49
$GPGGA,125545.000,3353.7555,N,09832.0248,W,2,06,1.3,326.0,M,-23.7,M,0.8,0000*4B
$GPGSA,A,3,29,21,15,05,26,18,,,,,,,3.2,1.3,2.9*3E
$GPRMC,125545.000,A,3353.7555,N,09832.0248,W,0.19,340.43,300312,,,D*7A
$GPGGA,125546.000,3353.7556,N,09832.0249,W,2,05,1.4,326.1,M,-23.7,M,0.8,0000*4F
$GPGSA,A,3,29,21,15,05,18,,,,,,,,3.2,1.4,2.9*3D
$GPRMC,125546.000,A,3353.7556,N,09832.0249,W,0.13,339.11,300312,,,D*78
$GPGGA,125547.000,3353.7558,N,09832.0254,W,2,05,1.4,325.7,M,-23.7,M,0.8,0000*49
$GPGSA,A,3,29,21,15,05,18,,,,,,,,3.2,1.4,2.9*3D
$GPGSV,3,1,11,29,79,226,41,15,48,149,37,26,44,081,15,21,37,305,23*74
$GPGSV,3,2,11,18,35,245,18,05,27,047,38,25,12,212,,30,10,298,*71
$GPGSV,3,3,11,02,08,097,17,16,03,323,,51,49,195,39*43
$GPRMC,125547.000,A,3353.7558,N,09832.0254,W,0.14,59.71,300312,,,D*4F
$GPGGA,125548.000,3353.7559,N,09832.0256,W,2,05,1.4,325.4,M,-23.7,M,1.8,0000*47
