$GPGGA,065108.000,3353.7430,N,09832.0211,W,2,06,1.7,315.9,M,-23.7,M,0.8,0000*40
$GPGSA,A,3,17,10,28,20,02,04,,,,,,,2.6,1.7,2.0*3B
$GPRMC,065108.000,A,3353.7430,N,09832.0211,W,0.17,55.77,030412,,,D*45
$GPGGA,065109.000,3353.7432,N,09832.0212,W,2,06,1.7,315.7,M,-23.7,M,0.8,0000*4E
$GPGSA,A,3,17,10,28,20,02,04,,,,,,,2.6,1.7,2.0*3B
$GPRMC,065109.000,A,3353.7432,N,09832.0212,W,0.22,25.27,030412,,,D*41
$GPGGA,065110.000,3353.7433,N,09832.0212,W,2,06,1.7,315.5,M,-23.7,M,1.8,0000*44
$GPGSA,A,3,17,10,28,20,02,04,,,,,,,2.6,1.7,2.0*3B
$GPGSV,3,1,11,04,72,194,32,17,49,042,37,28,43,115,42,27,43,271,*76
$GPGSV,3,2,11,02,38,214,28,09,36,292,,10,17,151,30,20,15,056,21*7E
$GPGSV,3,3,11,12,14,313,,32,00,035,,51,49,195,36*48
$GPRMC,065110.000,A,3353.7433,N,09832.0212,W,0.24,26.23,030412,,,D*49
$GPGGA,065111.000,3353.7434,N,09832.0213,W,2,06,1.7,315.6,M,-23.7,M,2.8,0000*43
$GPGSA,A,3,17,10,28,20,02,04,,,,,,,2.6,1.7,2.0*3B
$GPRMC,065111.000,A,3353.7434,N,09832.0213,W,0.04,103.33,030412,,,D*7B
$GPGGA,065112.000,3353.7434,N,09832.0214,W,2,06,1.7,315.6,M,-23.7,M,0.8,0000*45
$GPGSA,A,3,17,10,28,20,02,04,,,,,,,2.6,1.7,2.0*3B
$GPRMC,065112.000,A,3353.7434,N,09832.0214,W,0.10,85.01,030412,,,D*44
$GPGGA,065113.000,3353.7434,N,09832.0214,W,2,06,1.7,315.4,M,-23.7,M,0.8,0000*46
$GPGSA,A,3,17,10,28,20,02,04,,,,,,,2.6,1.7,2.0*3B
$GPRMC,065113.000,A,3353.7434,N,09832.0214,W,0.25,72.99,030412,,,D*4A
$GPGGA,065114.000,3353.7435,N,09832.0214,W,2,06,1.7,315.3,M,-23.7,M,0.8,0000*47
$GPGSA,A,3,17,10,28,20,02,04,,,,,,,2.6,1.7,2.0*3B
$GPRMC,065114.000,A,3353.7435,N,09832.0214,W,0.12,76.29,030412,,,D*47
$GPGGA,065115.000,3353.7435,N,09832.0214,W,2,06,1.7,315.4,M,-23.7,M,1.8,0000*40
$GPGSA,A,3,17,10,28,20,02,04,,,,,,,2.6,1.7,2.0*3B
$GPGSV,3,1,11,04,72,194,33,17,49,042,37,28,43,115,42,27,43,271,*77
$GPGSV,3,2,11,02,38,214,28,09,36,292,,10,17,151,29,20,15,056,21*76
$GPGSV,3,3,11,12,14,313,,32,00,035,,51,49,195,35*4B
$GPRMC,065115.000,A,3353.7435,N,09832.0214,W,0.20,149.36,030412,,,D*74
$GPGGA,065116.000,3353.7435,N,09832.0214,W,2,06,1.7,315.3,M,-23.7,M,2.8,0000*47
$GPGSA,A,3,17,10,28,20,02,04,,,,,,,2.6,1.7,2.0*3B
$GPRMC,065116.000,A,3353.7435,N,09832.0214,W,0.16,87.52,030412,,,D*43
$GPGGA,065117.000,3353.7435,N,09832.0214,W,2,06,1.7,315.3,M,-23.7,M,3.8,0000*47
$GPGSA,A,3,17,10,28,20,02,04,,,,,,,2.6,1.7,2.0*3B
$GPRMC,065117.000,A,3353.7435,N,09832.0214,W,0.13,110.51,030412,,,D*7B
$GPGGA,065118.000,3353.7435,N,09832.0215,W,2,06,1.7,315.2,M,-23.7,M,0.8,0000*4B
$GPGSA,A,3,17,10,28,20,02,04,,,,,,,2.6,1.7,2.0*3B
$GPRMC,065118.000,A,3353.7435,N,09832.0215,W,0.14,63.28,030412,,,D*49
$GPGGA,065119.000,3353.7435,N,09832.0215,W,2,06,1.7,315.1,M,-23.7,M,0.8,0000*49
$GPGSA,A,3,17,10,28,20,02,04,,,,,,,2.6,1.7,2.0*3B
$GPRMC,065119.000,A,3353.7435,N,09832.0215,W,0.07,11.53,030412,,,D*43
$GPGGA,065120.000,3353.7435,N,09832.0215,W,2,06,1.7,315.2,M,-23.7,M,0.8,0000*40
$GPGSA,A,3,17,10,28,20,02,04,,,,,,,2.6,1.7,2.0*3B
$GPGSV,3,1,11,04,72,194,33,17,49,042,37,28,43,115,42,27,43,271,*77
$GPGSV,3,2,11,02,38,214,29,09,36,292,,10,17,151,29,20,15,056,21*77
$GPGSV,3,3,11,12,14,313,,32,00,035,,51,49,195,36*48
$GPRMC,065120.000,A,3353.7435,N,09832.0215,W,0.10,122.85,030412,,,D*75
$GPGGA,065121.000,3353.7435,N,09832.0216,W,2,06,1.7,315.3,M,-23.7,M,0.8,0000*43
$GPGSA,A,3,17,10,28,20,02,04,,,,,,,2.6,1.7,2.0*3B
$GPRMC,065121.000,A,3353.7435,N,09832.0216,W,0.10,137.18,030412,,,D*77
$GPGGA,065122.000,3353.7436,N,09832.0216,W,2,06,1.7,315.2,M,-23.7,M,1.8,0000*43
$GPGSA,A,3,17,10,28,20,02,04,,,,,,,2.6,1.7,2.0*3B
$GPRMC,065122.000,A,3353.7436,N,09832.0216,W,0.19,36.87,030412,,,D*48
$GPGGA,065123.000,3353.7437,N,09832.0216,W,2,06,1.7,315.0,M,-23.7,M,0.8,0000*40
$GPGSA,A,3,17,10,28,20,02,04,,,,,,,2.6,1.7,2.0*3B
$GPRMC,065123.000,A,3353.7437,N,09832.0216,W,0.24,26.83,030412,,,D*43
$GPGGA,065124.000,3353.7437,N,09832.0216,W,2,06,1.7,314.9,M,-23.7,M,0.8,0000*4F
$GPGSA,A,3,17,10,28,20,02,04,,,,,,,2.6,1.7,2.0*3B
$GPRMC,065124.000,A,3353.7437,N,09832.0216,W,0.17,44.71,030412,,,D*4D
$GPGGA,065125.000,3353.7438,N,09832.0216,W,2,06,1.7,314.8,M,-23.7,M,0.8,0000*40
$GPGSA,A,3,17,10,28,20,02,04,,,,,,,2.6,1.7,2.0*3B
$GPGSV,3,1,11,04,72,194,33,17,49,042,37,28,43,115,41,27,43,271,*74
$GPGSV,3,2,11,02,38,214,29,09,36,292,,10,17,151,29,20,15,056,20*76
$GPGSV,3,3,11,12,14,313,,32,00,035,,51,49,195,36*48
$GPRMC,065125.000,A,3353.7438,N,09832.0216,W,0.28,61.32,030412,,,D*4F
$GPGGA,065126.000,3353.7437,N,09832.0216,W,2,06,1.7,314.8,M,-23.7,M,0.8,0000*4C
$GPGSA,A,3,17,10,28,20,02,04,,,,,,,2.6,1.7,2.0*3B
$GPRMC,065126.000,A,3353.7437,N,09832.0216,W,0.16,136.29,030412,,,D*77
$GPGGA,065127.000,3353.7437,N,09832.0216,W,2,06,1.7,314.8,M,-23.7,M,1.8,0000*4C
$GPGSA,A,3,17,10,28,20,02,04,,,,,,,2.6,1.7,2.0*3B
$GPRMC,065127.000,A,3353.7437,N,09832.0216,W,0.12,115.08,030412,,,D*70
$GPGGA,065128.000,3353.7436,N,09832.0216,W,2,06,1.7,315.1,M,-23.7,M,2.8,0000*49
$GPGSA,A,3,17,10,28,20,02,04,,,,,,,2.6,1.7,2.0*3B
$GPRMC,065128.000,A,3353.7436,N,09832.0216,W,0.26,152.17,030412,,,D*74
$GPGGA,065129.000,3353.7436,N,09832.0215,W,2,06,1.7,315.1,M,-23.7,M,3.8,0000*4A
$GPGSA,A,3,17,10,28,20,02,04,,,,,,,2.6,1.7,2.0*3B
$GPRMC,065129.000,A,3353.7436,N,09832.0215,W,0.17,128.13,030412,,,D*7D
$GPGGA,065130.000,3353.7435,N,09832.0215,W,2,07,1.2,315.3,M,-23.7,M,0.8,0000*44
$GPGSA,A,3,17,10,28,27,20,02,04,,,,,,2.2,1.2,1.9*35
$GPGSV,3,1,11,04,72,194,33,17,49,042,36,28,43,115,41,27,43,271,18*7C
$GPGSV,3,2,11,02,38,214,29,09,36,292,,10,17,151,29,20,15,056,21*77
$GPGSV,3,3,11,12,14,313,,32,00,035,,51,49,195,36*48
$GPRMC,065130.000,A,3353.7435,N,09832.0215,W,0.33,113.73,030412,,,D*7E
$GPGGA,065131.000,3353.7435,N,09832.0215,W,2,07,1.2,315.5,M,-23.7,M,0.8,0000*43
$GPGSA,A,3,17,10,28,27,20,02,04,,,,,,2.2,1.2,1.9*35
$GPRMC,065131.000,A,3353.7435,N,09832.0215,W,0.19,97.81,030412,,,D*47
$GPGGA,065132.000,3353.7436,N,09832.0215,W,2,07,1.2,315.7,M,-23.7,M,0.8,0000*41
$GPGSA,A,3,17,10,28,27,20,02,04,,,,,,2.2,1.2,1.9*35
$GPRMC,065132.000,A,3353.7436,N,09832.0215,W,0.23,67.00,030412,,,D*48
$GPGGA,065133.000,3353.7437,N,09832.0215,W,2,07,1.2,315.7,M,-23.7,M,1.8,0000*40
$GPGSA,A,3,17,10,28,27,20,02,04,,,,,,2.2,1.2,1.9*35
$GPRMC,065133.000,A,3353.7437,N,09832.0215,W,0.26,356.43,030412,,,D*7B
$GPGGA,065134.000,3353.7437,N,09832.0215,W,2,07,1.2,315.9,M,-23.7,M,2.8,0000*4A
$GPGSA,A,3,17,10,28,27,20,02,04,,,,,,2.2,1.2,1.9*35
$GPRMC,065134.000,A,3353.7437,N,09832.0215,W,0.23,51.08,030412,,,D*42
$GPGGA,065135.000,3353.7438,N,09832.0215,W,2,07,1.2,316.0,M,-23.7,M,3.8,0000*4F
$GPGSA,A,3,17,10,28,27,20,02,04,,,,,,2.2,1.2,1.9*35
$GPGSV,3,1,11,04,72,194,33,17,49,042,36,28,43,115,41,27,43,271,18*7C
$GPGSV,3,2,11,02,38,214,29,09,36,292,,10,17,151,28,20,15,056,21*76
$GPGSV,3,3,11,12,14,313,,32,00,035,,51,49,195,36*48
$GPRMC,065135.000,A,3353.7438,N,09832.0215,W,0.20,1.22,030412,,,D*72
$GPGGA,065136.000,3353.7438,N,09832.0216,W,2,07,1.2,316.1,M,-23.7,M,0.8,0000*4D
$GPGSA,A,3,17,10,28,27,20,02,04,,,,,,2.2,1.2,1.9*35
$GPRMC,065136.000,A,3353.7438,N,09832.0216,W,0.15,323.33,030412,,,D*77
$GPGGA,065137.000,3353.7439,N,09832.0216,W,2,07,1.2,316.2,M,-23.7,M,0.8,0000*4E
$GPGSA,A,3,17,10,28,27,20,02,04,,,,,,2.2,1.2,1.9*35
$GPRMC,065137.000,A,3353.7439,N,09832.0216,W,0.24,59.05,030412,,,D*4E
$GPGGA,065138.000,3353.7439,N,09832.0215,W,2,07,1.2,316.3,M,-23.7,M,0.8,0000*43
$GPGSA,A,3,17,10,28,27,20,02,04,,,,,,2.2,1.2,1.9*35
$GPRMC,065138.000,A,3353.7439,N,09832.0215,W,0.29,72.05,030412,,,D*46
$GPGGA,065139.000,3353.7439,N,09832.0215,W,2,07,1.2,316.4,M,-23.7,M,1.8,0000*44
$GPGSA,A,3,17,10,28,27,20,02,04,,,,,,2.2,1.2,1.9*35
$GPRMC,065139.000,A,3353.7439,N,09832.0215,W,0.32,102.19,030412,,,D*76
$GPGGA,065140.000,3353.7438,N,09832.0214,W,2,07,1.2,316.8,M,-23.7,M,0.8,0000*47
$GPGSA,A,3,17,10,28,27,20,02,04,,,,,,2.2,1.2,1.9*35
$GPGSV,3,1,11,04,73,194,34,17,49,042,36,28,43,115,41,27,43,270,17*74
$GPGSV,3,2,11,02,39,214,29,09,36,292,19,10,17,151,28,20,15,056,20*7E
$GPGSV,3,3,11,12,14,313,,32,00,035,,51,49,195,36*48
$GPRMC,065140.000,A,3353.7438,N,09832.0214,W,0.26,143.12,030412,,,D*73
$GPGGA,065141.000,3353.7438,N,09832.0215,W,2,07,1.2,317.1,M,-23.7,M,1.8,0000*4E
$GPGSA,A,3,17,10,28,27,20,02,04,,,,,,2.2,1.2,1.9*35
$GPRMC,065141.000,A,3353.7438,N,09832.0215,W,0.16,175.74,030412,,,D*75
$GPGGA,065142.000,3353.7437,N,09832.0215,W,2,07,1.2,317.4,M,-23.7,M,0.8,0000*46
$GPGSA,A,3,17,10,28,27,20,02,04,,,,,,2.2,1.2,1.9*35
$GPRMC,065142.000,A,3353.7437,N,09832.0215,W,0.17,209.10,030412,,,D*72
$GPGGA,065143.000,3353.7437,N,09832.0216,W,2,07,1.2,317.6,M,-23.7,M,0.8,0000*46
$GPGSA,A,3,17,10,28,27,20,02,04,,,,,,2.2,1.2,1.9*35
$GPRMC,065143.000,A,3353.7437,N,09832.0216,W,0.24,249.82,030412,,,D*7F
$GPGGA,065144.000,3353.7437,N,09832.0217,W,2,07,1.2,317.9,M,-23.7,M,0.8,0000*4F
$GPGSA,A,3,17,10,28,27,20,02,04,,,,,,2.2,1.2,1.9*35
$GPRMC,065144.000,A,3353.7437,N,09832.0217,W,0.19,153.02,030412,,,D*77
$GPGGA,065145.000,3353.7437,N,09832.0217,W,2,07,1.2,318.2,M,-23.7,M,1.8,0000*4B
$GPGSA,A,3,17,10,28,27,20,02,04,,,,,,2.2,1.2,1.9*35
$GPGSV,3,1,11,04,73,194,34,17,49,042,36,28,43,115,42,27,43,270,16*76
$GPGSV,3,2,11,02,39,214,28,09,36,292,20,10,17,151,28,20,15,056,15*73
$GPGSV,3,3,11,12,14,313,,32,00,035,,51,49,195,35*4B
$GPRMC,065145.000,A,3353.7437,N,09832.0217,W,0.14,220.80,030412,,,D*76
$GPGGA,065146.000,3353.7436,N,09832.0218,W,2,07,1.2,318.5,M,-23.7,M,0.8,0000*40
$GPGSA,A,3,17,10,28,27,20,02,04,,,,,,2.2,1.2,1.9*35
$GPRMC,065146.000,A,3353.7436,N,09832.0218,W,0.19,209.81,030412,,,D*7C
$GPGGA,065147.000,3353.7437,N,09832.0219,W,2,07,1.2,318.5,M,-23.7,M,1.8,0000*40
$GPGSA,A,3,17,10,28,27,20,02,04,,,,,,2.2,1.2,1.9*35
$GPRMC,065147.000,A,3353.7437,N,09832.0219,W,0.17,306.17,030412,,,D*72
$GPGGA,065148.000,3353.7437,N,09832.0220,W,2,07,1.2,318.4,M,-23.7,M,0.8,0000*45
$GPGSA,A,3,17,10,28,27,20,02,04,,,,,,2.2,1.2,1.9*35
$GPRMC,065148.000,A,3353.7437,N,09832.0220,W,0.24,341.05,030412,,,D*77
$GPGGA,065149.000,3353.7438,N,09832.0220,W,2,07,1.2,318.3,M,-23.7,M,0.8,0000*4C
$GPGSA,A,3,17,10,28,27,20,02,04,,,,,,2.2,1.2,1.9*35
$GPRMC,065149.000,A,3353.7438,N,09832.0220,W,0.28,61.99,030412,,,D*41
$GPGGA,065150.000,3353.7438,N,09832.0219,W,2,07,1.2,318.6,M,-23.7,M,0.8,0000*4B
$GPGSA,A,3,17,10,28,27,20,02,04,,,,,,2.2,1.2,1.9*35
$GPGSV,3,1,11,04,73,194,34,17,49,042,36,28,43,115,41,27,43,270,21*71
$GPGSV,3,2,11,02,39,214,28,09,36,291,21,10,17,151,27,20,15,056,23*7B
$GPGSV,3,3,11,12,14,313,,32,00,035,,51,49,195,36*48
$GPRMC,065150.000,A,3353.7438,N,09832.0219,W,0.24,119.95,030412,,,D*7D
$GPGGA,065151.000,3353.7438,N,09832.0219,W,2,07,1.2,318.8,M,-23.7,M,1.8,0000*45
$GPGSA,A,3,17,10,28,27,20,02,04,,,,,,2.2,1.2,1.9*35
$GPRMC,065151.000,A,3353.7438,N,09832.0219,W,0.15,145.99,030412,,,D*7B
$GPGGA,065152.000,3353.7438,N,09832.0220,W,2,07,1.2,318.9,M,-23.7,M,2.8,0000*4E
$GPGSA,A,3,17,10,28,27,20,02,04,,,,,,2.2,1.2,1.9*35
$GPRMC,065152.000,A,3353.7438,N,09832.0220,W,0.08,261.29,030412,,,D*70
$GPGGA,065153.000,3353.7438,N,09832.0220,W,2,07,1.2,319.1,M,-23.7,M,3.8,0000*47
$GPGSA,A,3,17,10,28,27,20,02,04,,,,,,2.2,1.2,1.9*35
$GPRMC,065153.000,A,3353.7438,N,09832.0220,W,0.06,119.79,030412,,,D*76
$GPGGA,065154.000,3353.7437,N,09832.0220,W,2,07,1.2,319.3,M,-23.7,M,0.8,0000*4E
$GPGSA,A,3,17,10,28,27,20,02,04,,,,,,2.2,1.2,1.9*35
$GPRMC,065154.000,A,3353.7437,N,09832.0220,W,0.08,189.18,030412,,,D*7E
$GPGGA,065155.000,3353.7437,N,09832.0221,W,2,07,1.2,319.2,M,-23.7,M,0.8,0000*4F
$GPGSA,A,3,17,10,28,27,20,02,04,,,,,,2.2,1.2,1.9*35
$GPGSV,3,1,11,04,73,194,35,17,49,042,35,28,43,115,41,27,43,270,23*71
$GPGSV,3,2,11,02,39,214,27,09,36,291,22,10,17,151,26,20,15,056,24*71
$GPGSV,3,3,11,12,14,313,,32,00,035,,51,49,195,36*48
$GPRMC,065155.000,A,3353.7437,N,09832.0221,W,0.10,108.16,030412,,,D*70
$GPGGA,065156.000,3353.7437,N,09832.0221,W,2,07,1.2,319.1,M,-23.7,M,0.8,0000*4F
$GPGSA,A,3,17,10,28,27,20,02,04,,,,,,2.2,1.2,1.9*35
$GPRMC,065156.000,A,3353.7437,N,09832.0221,W,0.05,306.77,030412,,,D*7C
$GPGGA,065157.000,3353.7438,N,09832.0222,W,2,07,1.2,319.1,M,-23.7,M,0.8,0000*42
$GPGSA,A,3,17,10,28,27,20,02,04,,,,,,2.2,1.2,1.9*35
$GPRMC,065157.000,A,3353.7438,N,09832.0222,W,0.13,351.81,030412,,,D*7D
$GPGGA,065158.000,3353.7438,N,09832.0223,W,2,07,1.2,318.9,M,-23.7,M,1.8,0000*44
$GPGSA,A,3,17,10,28,27,20,02,04,,,,,,2.2,1.2,1.9*35
$GPRMC,065158.000,A,3353.7438,N,09832.0223,W,0.12,298.33,030412,,,D*7F
$GPGGA,065159.000,3353.7438,N,09832.0223,W,2,07,1.2,318.9,M,-23.7,M,2.8,0000*46
$GPGSA,A,3,17,10,28,27,20,02,04,,,,,,2.2,1.2,1.9*35
$GPRMC,065159.000,A,3353.7438,N,09832.0223,W,0.20,97.27,030412,,,D*47
$GPGGA,065200.000,3353.7438,N,09832.0223,W,2,07,1.2,318.7,M,-23.7,M,0.8,0000*45
$GPGSA,A,3,17,10,28,27,20,02,04,,,,,,2.2,1.2,1.9*35
$GPGSV,3,1,11,04,73,194,36,17,49,042,35,28,43,115,41,27,43,270,23*72
$GPGSV,3,2,11,02,39,214,26,09,36,291,23,10,17,151,25,20,15,056,25*73
$GPGSV,3,3,11,12,14,313,,32,00,035,,51,49,195,36*48
$GPRMC,065200.000,A,3353.7438,N,09832.0223,W,0.02,354.77,030412,,,D*71
$GPGGA,065201.000,3353.7438,N,09832.0223,W,2,07,1.2,318.6,M,-23.7,M,0.8,0000*45
$GPGSA,A,3,17,10,28,27,20,02,04,,,,,,2.2,1.2,1.9*35
$GPRMC,065201.000,A,3353.7438,N,09832.0223,W,0.10,93.02,030412,,,D*49
$GPGGA,065202.000,3353.7437,N,09832.0225,W,2,07,1.2,318.1,M,-23.7,M,0.8,0000*48
$GPGSA,A,3,17,10,28,27,20,02,04,,,,,,2.2,1.2,1.9*35
$GPRMC,065202.000,A,3353.7437,N,09832.0225,W,0.24,123.16,030412,,,D*7B
$GPGGA,065203.000,3353.7437,N,09832.0226,W,2,07,1.2,317.4,M,-23.7,M,0.8,0000*40
$GPGSA,A,3,17,10,28,27,20,02,04,,,,,,2.2,1.2,1.9*35
$GPRMC,065203.000,A,3353.7437,N,09832.0226,W,0.18,70.21,030412,,,D*45
$GPGGA,065204.000,3353.7435,N,09832.0231,W,2,07,1.2,315.9,M,-23.7,M,1.8,0000*4D
$GPGSA,A,3,17,10,28,27,20,02,04,,,,,,2.2,1.2,1.9*35
$GPRMC,065204.000,A,3353.7435,N,09832.0231,W,0.22,258.07,030412,,,D*73
$GPGGA,065205.000,3353.7434,N,09832.0235,W,2,07,1.2,314.7,M,-23.7,M,2.8,0000*45
$GPGSA,A,3,17,10,28,27,20,02,04,,,,,,2.2,1.2,1.9*35
$GPGSV,3,1,11,04,73,194,36,17,49,042,35,28,43,115,41,27,43,270,17*75
$GPGSV,3,2,11,02,39,214,26,09,36,291,23,10,17,151,25,20,15,056,25*73
$GPGSV,3,3,11,12,14,313,,32,00,035,,51,49,195,38*46
$GPRMC,065205.000,A,3353.7434,N,09832.0235,W,0.25,260.62,030412,,,D*78
$GPGGA,065206.000,3353.7433,N,09832.0236,W,2,06,1.7,314.0,M,-23.7,M,0.8,0000*43
$GPGSA,A,3,17,10,28,20,02,04,,,,,,,2.6,1.7,2.0*3B
$GPRMC,065206.000,A,3353.7433,N,09832.0236,W,0.17,194.28,030412,,,D*78
$GPGGA,065207.000,3353.7430,N,09832.0240,W,2,06,1.7,312.7,M,-23.7,M,0.8,0000*41
$GPGSA,A,3,17,10,28,20,02,04,,,,,,,2.6,1.7,2.0*3B
$GPRMC,065207.000,A,3353.7430,N,09832.0240,W,0.28,242.63,030412,,,D*70
$GPGGA,065208.000,3353.7427,N,09832.0245,W,2,06,1.7,311.5,M,-23.7,M,0.8,0000*4C
$GPGSA,A,3,17,10,28,20,02,04,,,,,,,2.6,1.7,2.0*3B
$GPRMC,065208.000,A,3353.7427,N,09832.0245,W,0.09,282.37,030412,,,D*72
$GPGGA,065209.000,3353.7426,N,09832.0248,W,2,06,1.7,310.0,M,-23.7,M,1.8,0000*44
$GPGSA,A,3,17,10,28,20,02,04,,,,,,,2.6,1.7,2.0*3B
$GPRMC,065209.000,A,3353.7426,N,09832.0248,W,0.26,216.85,030412,,,D*76
$GPGGA,065210.000,3353.7426,N,09832.0252,W,2,06,1.7,308.8,M,-23.7,M,2.8,0000*45
$GPGSA,A,3,17,10,28,20,02,04,,,,,,,2.6,1.7,2.0*3B
$GPGSV,3,1,11,04,73,194,36,17,49,042,35,28,43,115,41,27,43,270,11*73
$GPGSV,3,2,11,02,39,214,25,09,36,291,23,10,17,151,24,20,15,056,25*71
$GPGSV,3,3,11,12,14,313,,32,00,035,,51,49,195,38*46
$GPRMC,065210.000,A,3353.7426,N,09832.0252,W,0.21,271.16,030412,,,D*79
$GPGGA,065211.000,3353.7425,N,09832.0256,W,2,07,1.2,307.5,M,-23.7,M,3.8,0000*44
$GPGSA,A,3,17,10,28,27,20,02,04,,,,,,2.2,1.2,1.9*35
$GPRMC,065211.000,A,3353.7425,N,09832.0256,W,0.41,266.94,030412,,,D*75
$GPGGA,065212.000,3353.7425,N,09832.0261,W,2,07,1.2,306.0,M,-23.7,M,0.8,0000*44
$GPGSA,A,3,17,10,28,27,20,02,04,,,,,,2.2,1.2,1.9*35
$GPRMC,065212.000,A,3353.7425,N,09832.0261,W,0.33,303.71,030412,,,D*7E
$GPGGA,065213.000,3353.7426,N,09832.0262,W,2,07,1.2,305.4,M,-23.7,M,0.8,0000*42
$GPGSA,A,3,17,10,28,27,20,02,04,,,,,,2.2,1.2,1.9*35
$GPRMC,065213.000,A,3353.7426,N,09832.0262,W,0.32,307.29,030412,,,D*77
$GPGGA,065214.000,3353.7427,N,09832.0263,W,2,07,1.2,304.9,M,-23.7,M,0.8,0000*49
$GPGSA,A,3,17,10,28,27,20,02,04,,,,,,2.2,1.2,1.9*35
$GPRMC,065214.000,A,3353.7427,N,09832.0263,W,0.11,180.29,030412,,,D*7C
$GPGGA,065215.000,3353.7426,N,09832.0265,W,2,07,1.2,303.7,M,-23.7,M,1.8,0000*47
$GPGSA,A,3,17,10,28,27,20,02,04,,,,,,2.2,1.2,1.9*35
$GPGSV,3,1,11,04,73,194,36,17,49,042,35,28,43,115,41,27,43,270,20*71
$GPGSV,3,2,11,02,39,214,25,09,36,291,24,10,17,151,23,20,15,056,24*70
$GPGSV,3,3,11,12,14,313,,32,00,035,,51,49,195,37*49
$GPRMC,065215.000,A,3353.7426,N,09832.0265,W,0.26,186.73,030412,,,D*77
$GPGGA,065216.000,3353.7426,N,09832.0268,W,2,07,1.2,302.4,M,-23.7,M,2.8,0000*48
$GPGSA,A,3,17,10,28,27,20,02,04,,,,,,2.2,1.2,1.9*35
$GPRMC,065216.000,A,3353.7426,N,09832.0268,W,0.15,169.92,030412,,,D*77
$GPGGA,065217.000,3353.7426,N,09832.0271,W,2,07,1.2,300.8,M,-23.7,M,3.8,0000*4E
$GPGSA,A,3,17,10,28,27,20,02,04,,,,,,2.2,1.2,1.9*35
$GPRMC,065217.000,A,3353.7426,N,09832.0271,W,0.29,246.61,030412,,,D*73
$GPGGA,065218.000,3353.7425,N,09832.0275,W,2,07,1.2,299.4,M,-23.7,M,0.8,0000*48
$GPGSA,A,3,17,10,28,27,20,02,04,,,,,,2.2,1.2,1.9*35
$GPRMC,065218.000,A,3353.7425,N,09832.0275,W,0.20,258.94,030412,,,D*77
$GPGGA,065219.000,3353.7425,N,09832.0279,W,2,07,1.2,298.3,M,-23.7,M,0.8,0000*43
$GPGSA,A,3,17,10,28,27,20,02,04,,,,,,2.2,1.2,1.9*35
$GPRMC,065219.000,A,3353.7425,N,09832.0279,W,0.48,277.88,030412,,,D*74
$GPGGA,065220.000,3353.7428,N,09832.0275,W,2,06,1.7,298.9,M,-23.7,M,0.8,0000*46
$GPGSA,A,3,17,10,28,20,02,04,,,,,,,2.6,1.7,2.0*3B
$GPGSV,3,1,11,04,73,194,36,17,49,042,34,28,43,115,41,27,43,270,12*71
$GPGSV,3,2,11,02,39,214,24,09,36,291,24,10,17,151,22,20,15,056,25*71
$GPGSV,3,3,11,12,14,313,,32,00,035,,51,49,195,36*48
$GPRMC,065220.000,A,3353.7428,N,09832.0275,W,0.04,9.04,030412,,,D*78
$GPGGA,065221.000,3353.7429,N,09832.0274,W,2,06,1.7,298.9,M,-23.7,M,1.8,0000*46
$GPGSA,A,3,17,10,28,20,02,04,,,,,,,2.6,1.7,2.0*3B
$GPRMC,065221.000,A,3353.7429,N,09832.0274,W,0.13,336.68,030412,,,D*7A
$GPGGA,065222.000,3353.7430,N,09832.0273,W,2,06,1.7,298.8,M,-23.7,M,2.8,0000*48
$GPGSA,A,3,17,10,28,20,02,04,,,,,,,2.6,1.7,2.0*3B
$GPRMC,065222.000,A,3353.7430,N,09832.0273,W,0.13,172.15,030412,,,D*7E
$GPGGA,065223.000,3353.7430,N,09832.0273,W,2,06,1.7,298.5,M,-23.7,M,3.8,0000*45
$GPGSA,A,3,17,10,28,20,02,04,,,,,,,2.6,1.7,2.0*3B
$GPRMC,065223.000,A,3353.7430,N,09832.0273,W,0.18,194.68,030412,,,D*76
$GPGGA,065224.000,3353.7432,N,09832.0269,W,2,06,1.7,299.4,M,-23.7,M,0.8,0000*48
$GPGSA,A,3,17,10,28,20,02,04,,,,,,,2.6,1.7,2.0*3B
$GPRMC,065224.000,A,3353.7432,N,09832.0269,W,0.13,119.21,030412,,,D*7B
$GPGGA,065225.000,3353.7434,N,09832.0264,W,2,06,1.7,300.5,M,-23.7,M,0.8,0000*42
$GPGSA,A,3,17,10,28,20,02,04,,,,,,,2.6,1.7,2.0*3B
$GPGSV,3,1,11,04,73,194,37,17,49,042,34,28,43,115,41,27,43,270,10*72
$GPGSV,3,2,11,02,39,214,25,09,36,291,24,10,17,151,21,20,15,056,26*70
$GPGSV,3,3,11,12,14,313,,32,00,035,,51,49,195,37*49
$GPRMC,065225.000,A,3353.7434,N,09832.0264,W,0.24,131.63,030412,,,D*79
$GPGGA,065226.000,3353.7436,N,09832.0259,W,2,06,1.7,301.9,M,-23.7,M,0.8,0000*40
$GPGSA,A,3,17,10,28,20,02,04,,,,,,,2.6,1.7,2.0*3B
$GPRMC,065226.000,A,3353.7436,N,09832.0259,W,0.21,63.43,030412,,,D*47
$GPGGA,065227.000,3353.7438,N,09832.0254,W,2,07,1.2,303.3,M,-23.7,M,0.8,0000*4E
$GPGSA,A,3,17,10,28,27,20,02,04,,,,,,2.2,1.2,1.9*35
$GPRMC,065227.000,A,3353.7438,N,09832.0254,W,0.28,89.22,030412,,,D*4F
$GPGGA,065228.000,3353.7439,N,09832.0249,W,2,07,1.2,304.5,M,-23.7,M,1.8,0000*4C
$GPGSA,A,3,17,10,28,27,20,02,04,,,,,,2.2,1.2,1.9*35
$GPRMC,065228.000,A,3353.7439,N,09832.0249,W,0.32,106.40,030412,,,D*74
$GPGGA,065229.000,3353.7440,N,09832.0245,W,2,07,1.2,305.9,M,-23.7,M,0.8,0000*43
$GPGSA,A,3,17,10,28,27,20,02,04,,,,,,2.2,1.2,1.9*35
$GPRMC,065229.000,A,3353.7440,N,09832.0245,W,0.38,89.45,030412,,,D*4E
$GPGGA,065230.000,3353.7441,N,09832.0240,W,2,07,1.2,307.3,M,-23.7,M,0.8,0000*47
$GPGSA,A,3,17,10,28,27,20,02,04,,,,,,2.2,1.2,1.9*35
$GPGSV,3,1,11,04,73,194,37,17,49,042,34,28,43,115,40,27,43,270,14*77
$GPGSV,3,2,11,02,39,214,26,09,36,291,25,10,17,151,22,20,15,056,27*70
$GPGSV,3,3,11,12,14,313,,32,00,035,,51,49,195,36*48
$GPRMC,065230.000,A,3353.7441,N,09832.0240,W,0.50,101.30,030412,,,D*7F
$GPGGA,065231.000,3353.7442,N,09832.0236,W,2,07,1.2,308.5,M,-23.7,M,0.8,0000*4D
$GPGSA,A,3,17,10,28,27,20,02,04,,,,,,2.2,1.2,1.9*35
$GPRMC,065231.000,A,3353.7442,N,09832.0236,W,0.30,96.79,030412,,,D*48
$GPGGA,065232.000,3353.7443,N,09832.0232,W,2,07,1.2,309.8,M,-23.7,M,0.8,0000*47
$GPGSA,A,3,17,10,28,27,20,02,04,,,,,,2.2,1.2,1.9*35
$GPRMC,065232.000,A,3353.7443,N,09832.0232,W,0.41,64.46,030412,,,D*49
$GPGGA,065233.000,3353.7445,N,09832.0229,W,2,07,1.2,311.0,M,-23.7,M,1.8,0000*4A
$GPGSA,A,3,17,10,28,27,20,02,04,,,,,,2.2,1.2,1.9*35
$GPRMC,065233.000,A,3353.7445,N,09832.0229,W,0.34,61.80,030412,,,D*49
$GPGGA,065234.000,3353.7446,N,09832.0226,W,2,07,1.2,312.1,M,-23.7,M,2.8,0000*40
$GPGSA,A,3,17,10,28,27,20,02,04,,,,,,2.2,1.2,1.9*35
$GPRMC,065234.000,A,3353.7446,N,09832.0226,W,0.30,85.45,030412,,,D*45
$GPGGA,065235.000,3353.7447,N,09832.0224,W,2,07,1.2,312.9,M,-23.7,M,3.8,0000*4B
$GPGSA,A,3,17,10,28,27,20,02,04,,,,,,2.2,1.2,1.9*35
$GPGSV,3,1,11,04,73,194,37,17,49,042,34,28,43,115,40,27,43,270,17*74
$GPGSV,3,2,11,02,39,214,27,09,36,291,26,10,17,151,18,20,15,056,27*7B
$GPGSV,3,3,11,12,14,313,,32,00,035,,51,49,195,36*48
$GPRMC,065235.000,A,3353.7447,N,09832.0224,W,0.18,94.79,030412,,,D*42
$GPGGA,065236.000,3353.7448,N,09832.0222,W,2,06,1.5,313.9,M,-23.7,M,0.8,0000*45
$GPGSA,A,3,17,28,27,20,02,04,,,,,,,2.7,1.5,2.3*3F
$GPRMC,065236.000,A,3353.7448,N,09832.0222,W,0.22,15.47,030412,,,D*45
$GPGGA,065237.000,3353.7449,N,09832.0220,W,2,06,1.5,314.7,M,-23.7,M,0.8,0000*4E
$GPGSA,A,3,17,28,27,20,02,04,,,,,,,2.7,1.5,2.3*3F
$GPRMC,065237.000,A,3353.7449,N,09832.0220,W,0.23,22.04,030412,,,D*45
$GPGGA,065238.000,3353.7449,N,09832.0218,W,2,06,1.5,315.6,M,-23.7,M,0.8,0000*4A
$GPGSA,A,3,17,28,27,20,02,04,,,,,,,2.7,1.5,2.3*3F
$GPRMC,065238.000,A,3353.7449,N,09832.0218,W,0.35,87.38,030412,,,D*46
$GPGGA,065239.000,3353.7449,N,09832.0216,W,2,06,1.5,316.5,M,-23.7,M,1.8,0000*44
$GPGSA,A,3,17,28,27,20,02,04,,,,,,,2.7,1.5,2.3*3F
$GPRMC,065239.000,A,3353.7449,N,09832.0216,W,0.41,93.45,030412,,,D*45
$GPGGA,065240.000,3353.7450,N,09832.0214,W,2,06,1.5,317.4,M,-23.7,M,2.8,0000*43
$GPGSA,A,3,17,28,27,20,02,04,,,,,,,2.7,1.5,2.3*3F
$GPGSV,3,1,11,04,73,194,37,17,49,042,33,28,43,115,40,27,43,270,19*7D
$GPGSV,3,2,11,02,39,214,27,09,36,291,26,10,17,151,,20,15,056,27*72
$GPGSV,3,3,11,12,14,313,,32,00,035,,51,49,195,38*46
$GPRMC,065240.000,A,3353.7450,N,09832.0214,W,0.42,96.85,030412,,,D*4B
$GPGGA,065241.000,3353.7449,N,09832.0211,W,2,06,1.5,318.3,M,-23.7,M,0.8,0000*45
$GPGSA,A,3,17,28,27,20,02,04,,,,,,,2.7,1.5,2.3*3F
$GPRMC,065241.000,A,3353.7449,N,09832.0211,W,0.57,101.19,030412,,,D*79
$GPGGA,065242.000,3353.7449,N,09832.0209,W,2,06,1.5,319.0,M,-23.7,M,0.8,0000*4D
$GPGSA,A,3,17,28,27,20,02,04,,,,,,,2.7,1.5,2.3*3F
$GPRMC,065242.000,A,3353.7449,N,09832.0209,W,0.61,94.79,030412,,,D*4D
$GPGGA,065243.000,3353.7449,N,09832.0208,W,2,06,1.5,319.4,M,-23.7,M,0.8,0000*49
$GPGSA,A,3,17,28,27,20,02,04,,,,,,,2.7,1.5,2.3*3F
$GPRMC,065243.000,A,3353.7449,N,09832.0208,W,0.29,65.97,030412,,,D*4F
$GPGGA,065244.000,3353.7449,N,09832.0207,W,2,06,1.5,319.8,M,-23.7,M,1.8,0000*4C
$GPGSA,A,3,17,28,27,20,02,04,,,,,,,2.7,1.5,2.3*3F
$GPRMC,065244.000,A,3353.7449,N,09832.0207,W,0.17,359.62,030412,,,D*7C
$GPGGA,065245.000,3353.7450,N,09832.0208,W,2,06,1.5,320.2,M,-23.7,M,0.8,0000*4B
$GPGSA,A,3,17,28,27,20,02,04,,,,,,,2.7,1.5,2.3*3F
$GPGSV,3,1,11,04,73,194,37,17,49,042,33,28,43,115,40,27,43,270,18*7C
$GPGSV,3,2,11,02,39,214,27,09,36,291,25,10,17,151,,20,15,056,26*70
$GPGSV,3,3,11,12,14,313,,32,00,035,,51,49,195,36*48
$GPRMC,065245.000,A,3353.7450,N,09832.0208,W,0.32,336.35,030412,,,D*76
$GPGGA,065246.000,3353.7450,N,09832.0208,W,2,06,1.5,320.5,M,-23.7,M,1.8,0000*4E
$GPGSA,A,3,17,28,27,20,02,04,,,,,,,2.7,1.5,2.3*3F
$GPRMC,065246.000,A,3353.7450,N,09832.0208,W,0.19,57.60,030412,,,D*48
$GPGGA,065247.000,3353.7450,N,09832.0208,W,2,06,1.5,320.8,M,-23.7,M,2.8,0000*41
$GPGSA,A,3,17,28,27,20,02,04,,,,,,,2.7,1.5,2.3*3F
$GPRMC,065247.000,A,3353.7450,N,09832.0208,W,0.14,326.11,030412,,,D*77
$GPGGA,065248.000,3353.7450,N,09832.0209,W,2,06,1.5,320.9,M,-23.7,M,0.8,0000*4C
$GPGSA,A,3,17,28,27,20,02,04,,,,,,,2.7,1.5,2.3*3F
$GPRMC,065248.000,A,3353.7450,N,09832.0209,W,0.27,318.23,030412,,,D*75
$GPGGA,065249.000,3353.7450,N,09832.0210,W,2,06,1.5,321.1,M,-23.7,M,0.8,0000*4C
$GPGSA,A,3,17,28,27,20,02,04,,,,,,,2.7,1.5,2.3*3F
$GPRMC,065249.000,A,3353.7450,N,09832.0210,W,0.08,59.84,030412,,,D*4A
$GPGGA,065250.000,3353.7450,N,09832.0209,W,2,07,1.2,321.5,M,-23.7,M,0.8,0000*4E
$GPGSA,A,3,17,28,27,20,02,04,10,,,,,,2.2,1.2,1.9*35
$GPGSV,3,1,11,04,73,194,37,17,49,042,33,28,43,115,40,27,43,270,19*7D
$GPGSV,3,2,11,02,39,214,27,09,36,291,25,10,17,151,20,20,15,056,25*71
$GPGSV,3,3,11,12,14,313,,32,00,035,,51,49,195,37*49
$GPRMC,065250.000,A,3353.7450,N,09832.0209,W,0.37,97.93,030412,,,D*42
$GPGGA,065251.000,3353.7450,N,09832.0209,W,2,07,1.2,321.7,M,-23.7,M,0.8,0000*4D
$GPGSA,A,3,17,28,27,20,02,04,10,,,,,,2.2,1.2,1.9*35
$GPRMC,065251.000,A,3353.7450,N,09832.0209,W,0.21,6.52,030412,,,D*71
$GPGGA,065252.000,3353.7450,N,09832.0209,W,2,07,1.2,321.9,M,-23.7,M,1.8,0000*41
$GPGSA,A,3,17,28,27,20,02,04,10,,,,,,2.2,1.2,1.9*35
$GPRMC,065252.000,A,3353.7450,N,09832.0209,W,0.14,58.87,030412,,,D*47
$GPGGA,065253.000,3353.7450,N,09832.0208,W,2,07,1.2,322.2,M,-23.7,M,2.8,0000*4A
$GPGSA,A,3,17,28,27,20,02,04,10,,,,,,2.2,1.2,1.9*35
$GPRMC,065253.000,A,3353.7450,N,09832.0208,W,0.34,90.51,030412,,,D*4A
$GPGGA,065254.000,3353.7450,N,09832.0208,W,2,07,1.2,322.3,M,-23.7,M,0.8,0000*4E
$GPGSA,A,3,17,28,27,20,02,04,10,,,,,,2.2,1.2,1.9*35
$GPRMC,065254.000,A,3353.7450,N,09832.0208,W,0.21,9.52,030412,,,D*7A
$GPGGA,065255.000,3353.7449,N,09832.0209,W,2,07,1.2,322.2,M,-23.7,M,0.8,0000*47
$GPGSA,A,3,17,28,27,20,02,04,10,,,,,,2.2,1.2,1.9*35
$GPGSV,3,1,11,04,73,194,37,17,49,042,32,28,43,115,40,27,43,270,19*7C
$GPGSV,3,2,11,02,39,214,26,09,36,291,25,10,17,151,21,20,15,056,25*71
$GPGSV,3,3,11,12,14,313,,32,00,035,,51,49,195,39*47
$GPRMC,065255.000,A,3353.7449,N,09832.0209,W,0.06,270.72,030412,,,D*79
$GPGGA,065256.000,3353.7449,N,09832.0210,W,2,07,1.2,322.1,M,-23.7,M,0.8,0000*4F
$GPGSA,A,3,17,28,27,20,02,04,10,,,,,,2.2,1.2,1.9*35
$GPRMC,065256.000,A,3353.7449,N,09832.0210,W,0.43,143.06,030412,,,D*73
$GPGGA,065257.000,3353.7447,N,09832.0209,W,2,07,1.2,322.0,M,-23.7,M,0.8,0000*49
$GPGSA,A,3,17,28,27,20,02,04,10,,,,,,2.2,1.2,1.9*35
$GPRMC,065257.000,A,3353.7447,N,09832.0209,W,0.47,122.93,030412,,,D*7B
$GPGGA,065258.000,3353.7447,N,09832.0210,W,2,07,1.2,322.0,M,-23.7,M,1.8,0000*4F
$GPGSA,A,3,17,28,27,20,02,04,10,,,,,,2.2,1.2,1.9*35
$GPRMC,065258.000,A,3353.7447,N,09832.0210,W,0.07,2.59,030412,,,D*7D
$GPGGA,065259.000,3353.7447,N,09832.0211,W,2,07,1.2,321.7,M,-23.7,M,2.8,0000*48
$GPGSA,A,3,17,28,27,20,02,04,10,,,,,,2.2,1.2,1.9*35
$GPRMC,065259.000,A,3353.7447,N,09832.0211,W,0.13,295.87,030412,,,D*77
$GPGGA,065300.000,3353.7447,N,09832.0211,W,2,07,1.2,321.7,M,-23.7,M,0.8,0000*47
$GPGSA,A,3,17,28,27,20,02,04,10,,,,,,2.2,1.2,1.9*35
$GPGSV,3,1,11,04,73,194,37,17,49,042,32,28,43,115,40,27,43,270,19*7C
$GPGSV,3,2,11,02,39,214,26,09,36,291,23,10,17,151,21,20,15,056,24*76
$GPGSV,3,3,11,12,14,313,,32,00,035,,51,49,195,36*48
$GPRMC,065300.000,A,3353.7447,N,09832.0211,W,0.21,111.42,030412,,,D*7D
$GPGGA,065301.000,3353.7446,N,09832.0211,W,2,07,1.2,321.5,M,-23.7,M,0.8,0000*45
$GPGSA,A,3,17,28,27,20,02,04,10,,,,,,2.2,1.2,1.9*35
$GPRMC,065301.000,A,3353.7446,N,09832.0211,W,0.43,127.59,030412,,,D*76
$GPGGA,065302.000,3353.7446,N,09832.0210,W,2,07,1.2,321.4,M,-23.7,M,0.8,0000*46
$GPGSA,A,3,17,28,27,20,02,04,10,,,,,,2.2,1.2,1.9*35
$GPRMC,065302.000,A,3353.7446,N,09832.0210,W,0.49,128.80,030412,,,D*75
$GPGGA,065303.000,3353.7445,N,09832.0210,W,2,07,1.2,321.3,M,-23.7,M,1.8,0000*42
$GPGSA,A,3,17,28,27,20,02,04,10,,,,,,2.2,1.2,1.9*35
$GPRMC,065303.000,A,3353.7445,N,09832.0210,W,0.46,128.17,030412,,,D*76
$GPGGA,065304.000,3353.7444,N,09832.0209,W,2,07,1.2,321.4,M,-23.7,M,2.8,0000*48
$GPGSA,A,3,17,28,27,20,02,04,10,,,,,,2.2,1.2,1.9*35
$GPRMC,065304.000,A,3353.7444,N,09832.0209,W,0.28,101.39,030412,,,D*77
$GPGGA,065305.000,3353.7444,N,09832.0209,W,2,07,1.2,321.3,M,-23.7,M,3.8,0000*4F
$GPGSA,A,3,17,28,27,20,02,04,10,,,,,,2.2,1.2,1.9*35
$GPGSV,3,1,11,04,73,194,37,17,49,042,32,28,43,115,40,27,43,270,18*7D
$GPGSV,3,2,11,02,39,214,26,09,36,291,21,10,17,151,22,20,15,056,24*77
$GPGSV,3,3,11,12,14,313,,32,00,035,,51,49,195,36*48
$GPRMC,065305.000,A,3353.7444,N,09832.0209,W,0.51,133.63,030412,,,D*76
$GPGGA,065306.000,3353.7443,N,09832.0209,W,2,07,1.2,321.1,M,-23.7,M,0.8,0000*4A
$GPGSA,A,3,17,28,27,20,02,04,10,,,,,,2.2,1.2,1.9*35
$GPRMC,065306.000,A,3353.7443,N,09832.0209,W,0.48,129.55,030412,,,D*74
$GPGGA,065307.000,3353.7443,N,09832.0210,W,2,07,1.2,321.1,M,-23.7,M,0.8,0000*43
$GPGSA,A,3,17,28,27,20,02,04,10,,,,,,2.2,1.2,1.9*35
$GPRMC,065307.000,A,3353.7443,N,09832.0210,W,0.18,328.16,030412,,,D*7C
$GPGGA,065308.000,3353.7443,N,09832.0211,W,2,07,1.2,320.9,M,-23.7,M,0.8,0000*44
$GPGSA,A,3,17,28,27,20,02,04,10,,,,,,2.2,1.2,1.9*35
$GPRMC,065308.000,A,3353.7443,N,09832.0211,W,0.19,282.52,030412,,,D*72
$GPGGA,065309.000,3353.7444,N,09832.0212,W,2,07,1.2,321.0,M,-23.7,M,1.8,0000*48
$GPGSA,A,3,17,28,27,20,02,04,10,,,,,,2.2,1.2,1.9*35
$GPRMC,065309.000,A,3353.7444,N,09832.0212,W,0.18,34.63,030412,,,D*4B
$GPGGA,065310.000,3353.7444,N,09832.0212,W,2,07,1.2,320.9,M,-23.7,M,2.8,0000*4B
$GPGSA,A,3,17,28,27,20,02,04,10,,,,,,2.2,1.2,1.9*35
$GPGSV,3,1,11,04,73,194,37,17,49,042,32,28,43,115,40,27,43,270,18*7D
$GPGSV,3,2,11,02,39,214,26,09,36,291,21,10,17,151,22,20,15,056,24*77
$GPGSV,3,3,11,12,14,313,,32,00,035,,51,49,195,36*48
$GPRMC,065310.000,A,3353.7444,N,09832.0212,W,0.29,113.59,030412,,,D*7C
$GPGGA,065311.000,3353.7444,N,09832.0212,W,2,07,1.2,320.8,M,-23.7,M,3.8,0000*4A
$GPGSA,A,3,17,28,27,20,02,04,10,,,,,,2.2,1.2,1.9*35
$GPRMC,065311.000,A,3353.7444,N,09832.0212,W,0.19,157.08,030412,,,D*7A
$GPGGA,065312.000,3353.7444,N,09832.0213,W,2,07,1.2,320.7,M,-23.7,M,0.8,0000*44
$GPGSA,A,3,17,28,27,20,02,04,10,,,,,,2.2,1.2,1.9*35
$GPRMC,065312.000,A,3353.7444,N,09832.0213,W,0.22,224.04,030412,,,D*7B
$GPGGA,065313.000,3353.7444,N,09832.0215,W,2,07,1.2,320.5,M,-23.7,M,0.8,0000*41
$GPGSA,A,3,17,28,27,20,02,04,10,,,,,,2.2,1.2,1.9*35
$GPRMC,065313.000,A,3353.7444,N,09832.0215,W,0.21,309.93,030412,,,D*7F
$GPGGA,065314.000,3353.7444,N,09832.0215,W,2,07,1.2,320.6,M,-23.7,M,0.8,0000*45
$GPGSA,A,3,17,28,27,20,02,04,10,,,,,,2.2,1.2,1.9*35
$GPRMC,065314.000,A,3353.7444,N,09832.0215,W,0.16,127.29,030412,,,D*73
$GPGGA,065315.000,3353.7444,N,09832.0215,W,2,07,1.2,320.8,M,-23.7,M,0.8,0000*4A
$GPGSA,A,3,17,28,27,20,02,04,10,,,,,,2.2,1.2,1.9*35
$GPGSV,3,1,11,04,73,194,37,17,49,042,33,28,43,115,40,27,43,270,20*77
$GPGSV,3,2,11,02,39,214,27,09,36,291,18,10,17,151,22,20,15,056,24*7C
$GPGSV,3,3,11,12,14,313,,32,00,035,,51,49,195,36*48
$GPRMC,065315.000,A,3353.7444,N,09832.0215,W,0.14,239.99,030412,,,D*77
$GPGGA,065316.000,3353.7443,N,09832.0215,W,2,07,1.2,320.9,M,-23.7,M,0.8,0000*4F
$GPGSA,A,3,17,28,27,20,02,04,10,,,,,,2.2,1.2,1.9*35
$GPRMC,065316.000,A,3353.7443,N,09832.0215,W,0.31,114.85,030412,,,D*75
$GPGGA,065317.000,3353.7443,N,09832.0214,W,2,07,1.2,321.1,M,-23.7,M,1.8,0000*47
$GPGSA,A,3,17,28,27,20,02,04,10,,,,,,2.2,1.2,1.9*35
$GPRMC,065317.000,A,3353.7443,N,09832.0214,W,0.44,148.42,030412,,,D*75
$GPGGA,065318.000,3353.7443,N,09832.0214,W,2,07,1.2,321.2,M,-23.7,M,0.8,0000*4A
$GPGSA,A,3,17,28,27,20,02,04,10,,,,,,2.2,1.2,1.9*35
$GPRMC,065318.000,A,3353.7443,N,09832.0214,W,0.05,17.56,030412,,,D*41
$GPGGA,065319.000,3353.7443,N,09832.0215,W,2,07,1.2,321.0,M,-23.7,M,0.8,0000*48
$GPGSA,A,3,17,28,27,20,02,04,10,,,,,,2.2,1.2,1.9*35
$GPRMC,065319.000,A,3353.7443,N,09832.0215,W,0.11,348.09,030412,,,D*77
$GPGGA,065320.000,3353.7444,N,09832.0216,W,2,07,1.2,321.2,M,-23.7,M,1.8,0000*45
$GPGSA,A,3,17,28,27,20,02,04,10,,,,,,2.2,1.2,1.9*35
$GPGSV,3,1,11,04,73,194,37,17,49,042,33,28,43,115,39,27,43,270,20*79
$GPGSV,3,2,11,02,39,214,27,09,36,291,16,10,17,151,22,20,15,056,23*75
$GPGSV,3,3,11,12,14,313,,32,00,035,,51,49,195,36*48
$GPRMC,065320.000,A,3353.7444,N,09832.0216,W,0.23,277.38,030412,,,D*77
$GPGGA,065321.000,3353.7445,N,09832.0217,W,2,07,1.2,321.1,M,-23.7,M,2.8,0000*44
$GPGSA,A,3,17,28,27,20,02,04,10,,,,,,2.2,1.2,1.9*35
$GPRMC,065321.000,A,3353.7445,N,09832.0217,W,0.63,333.48,030412,,,D*74
$GPGGA,065322.000,3353.7446,N,09832.0217,W,2,07,1.2,321.2,M,-23.7,M,3.8,0000*46
$GPGSA,A,3,17,28,27,20,02,04,10,,,,,,2.2,1.2,1.9*35
$GPRMC,065322.000,A,3353.7446,N,09832.0217,W,0.18,38.81,030412,,,D*45
$GPGGA,065323.000,3353.7445,N,09832.0217,W,2,07,1.2,321.5,M,-23.7,M,4.8,0000*44
$GPGSA,A,3,17,28,27,20,02,04,10,,,,,,2.2,1.2,1.9*35
$GPRMC,065323.000,A,3353.7445,N,09832.0217,W,0.26,132.67,030412,,,D*79
$GPGGA,065324.000,3353.7445,N,09832.0217,W,2,07,1.2,321.3,M,-23.7,M,0.8,0000*41
$GPGSA,A,3,17,28,27,20,02,04,10,,,,,,2.2,1.2,1.9*35
$GPRMC,065324.000,A,3353.7445,N,09832.0217,W,0.42,116.67,030412,,,D*7A
$GPGGA,065325.000,3353.7444,N,09832.0215,W,2,07,1.2,321.4,M,-23.7,M,0.8,0000*44
$GPGSA,A,3,17,28,27,20,02,04,10,,,,,,2.2,1.2,1.9*35
$GPGSV,3,1,11,04,73,194,37,17,49,042,34,28,43,115,39,27,43,270,18*75
$GPGSV,3,2,11,02,39,214,27,09,36,291,14,10,17,151,22,20,15,056,24*70
$GPGSV,3,3,11,12,14,313,,32,00,035,,51,49,195,36*48
$GPRMC,065325.000,A,3353.7444,N,09832.0215,W,0.63,138.50,030412,,,D*73
$GPGGA,065326.000,3353.7443,N,09832.0214,W,2,07,1.2,321.8,M,-23.7,M,0.8,0000*4D
$GPGSA,A,3,17,28,27,20,02,04,10,,,,,,2.2,1.2,1.9*35
$GPRMC,065326.000,A,3353.7443,N,09832.0214,W,0.49,133.73,030412,,,D*74
$GPGGA,065327.000,3353.7442,N,09832.0213,W,2,06,1.5,322.0,M,-23.7,M,1.8,0000*46
$GPGSA,A,3,17,28,27,20,02,04,,,,,,,2.7,1.5,2.3*3F
$GPRMC,065327.000,A,3353.7442,N,09832.0213,W,0.54,115.02,030412,,,D*7D
$GPGGA,065328.000,3353.7441,N,09832.0213,W,2,07,1.2,321.8,M,-23.7,M,2.8,0000*44
$GPGSA,A,3,17,28,27,20,02,04,10,,,,,,2.2,1.2,1.9*35
$GPRMC,065328.000,A,3353.7441,N,09832.0213,W,0.20,117.84,030412,,,D*7E
$GPGGA,065329.000,3353.7441,N,09832.0212,W,2,07,1.2,321.8,M,-23.7,M,3.8,0000*45
$GPGSA,A,3,17,28,27,20,02,04,10,,,,,,2.2,1.2,1.9*35
$GPRMC,065329.000,A,3353.7441,N,09832.0212,W,0.45,135.73,030412,,,D*75
$GPGGA,065330.000,3353.7440,N,09832.0212,W,2,07,1.2,321.7,M,-23.7,M,0.8,0000*40
$GPGSA,A,3,17,28,27,20,02,04,10,,,,,,2.2,1.2,1.9*35
$GPGSV,3,1,11,04,73,194,37,17,49,042,34,28,43,115,39,27,43,270,17*7A
$GPGSV,3,2,11,02,39,214,26,09,36,291,,10,17,151,16,20,15,056,24*73
$GPGSV,3,3,11,12,14,313,,32,00,035,,51,49,195,37*49
$GPRMC,065330.000,A,3353.7440,N,09832.0212,W,0.42,137.21,030412,,,D*7E
$GPGGA,065331.000,3353.7440,N,09832.0211,W,2,07,1.2,321.7,M,-23.7,M,1.8,0000*43
$GPGSA,A,3,17,28,27,20,02,04,10,,,,,,2.2,1.2,1.9*35
$GPRMC,065331.000,A,3353.7440,N,09832.0211,W,0.54,130.71,030412,,,D*79
$GPGGA,065332.000,3353.7439,N,09832.0210,W,2,07,1.2,321.8,M,-23.7,M,0.8,0000*41
$GPGSA,A,3,17,28,27,20,02,04,10,,,,,,2.2,1.2,1.9*35
$GPRMC,065332.000,A,3353.7439,N,09832.0210,W,0.50,118.09,030412,,,D*74
$GPGGA,065333.000,3353.7439,N,09832.0209,W,2,07,1.2,321.9,M,-23.7,M,0.8,0000*49
$GPGSA,A,3,17,28,27,20,02,04,10,,,,,,2.2,1.2,1.9*35
$GPRMC,065333.000,A,3353.7439,N,09832.0209,W,0.51,114.00,030412,,,D*79
$GPGGA,065334.000,3353.7438,N,09832.0208,W,2,07,1.2,321.9,M,-23.7,M,1.8,0000*4F
$GPGSA,A,3,17,28,27,20,02,04,10,,,,,,2.2,1.2,1.9*35
$GPRMC,065334.000,A,3353.7438,N,09832.0208,W,0.39,131.20,030412,,,D*75
$GPGGA,065335.000,3353.7437,N,09832.0211,W,2,07,1.2,321.2,M,-23.7,M,2.8,0000*41
$GPGSA,A,3,17,28,27,20,02,04,10,,,,,,2.2,1.2,1.9*35
$GPGSV,3,1,11,04,73,194,37,17,49,042,34,28,43,115,39,27,43,270,17*7A
$GPGSV,3,2,11,02,39,214,26,09,36,291,,10,17,151,15,20,15,056,24*70
$GPGSV,3,3,11,12,14,313,,32,00,035,,51,49,195,36*48
$GPRMC,065335.000,A,3353.7437,N,09832.0211,W,0.16,178.26,030412,,,D*75
$GPGGA,065336.000,3353.7436,N,09832.0213,W,2,07,1.2,320.7,M,-23.7,M,0.8,0000*47
$GPGSA,A,3,17,28,27,20,02,04,10,,,,,,2.2,1.2,1.9*35
$GPRMC,065336.000,A,3353.7436,N,09832.0213,W,0.34,218.24,030412,,,D*72
$GPGGA,065337.000,3353.7435,N,09832.0216,W,2,07,1.2,319.8,M,-23.7,M,0.8,0000*45
$GPGSA,A,3,17,28,27,20,02,04,10,,,,,,2.2,1.2,1.9*35
$GPRMC,065337.000,A,3353.7435,N,09832.0216,W,0.40,238.55,030412,,,D*72
$GPGGA,065338.000,3353.7435,N,09832.0220,W,2,07,1.2,318.9,M,-23.7,M,0.8,0000*4F
$GPGSA,A,3,17,28,27,20,02,04,10,,,,,,2.2,1.2,1.9*35
$GPRMC,065338.000,A,3353.7435,N,09832.0220,W,0.20,289.41,030412,,,D*71
$GPGGA,065339.000,3353.7436,N,09832.0225,W,2,06,1.3,317.1,M,-23.7,M,1.8,0000*4E
$GPGSA,A,3,17,28,27,20,04,10,,,,,,,2.3,1.3,1.9*37
$GPRMC,065339.000,A,3353.7436,N,09832.0225,W,0.08,98.18,030412,,,D*42
$GPGGA,065340.000,3353.7434,N,09832.0225,W,2,06,1.3,317.0,M,-23.7,M,0.8,0000*42
$GPGSA,A,3,17,28,27,20,04,10,,,,,,,2.3,1.3,1.9*37
$GPGSV,3,1,11,04,73,194,37,17,49,042,35,28,43,115,39,27,43,270,16*7A
$GPGSV,3,2,11,02,39,214,18,09,36,291,,10,17,151,17,20,15,056,24*7F
$GPGSV,3,3,11,12,14,313,,32,00,035,,51,49,195,36*48
$GPRMC,065340.000,A,3353.7434,N,09832.0225,W,0.18,208.28,030412,,,D*77
$GPGGA,065341.000,3353.7432,N,09832.0225,W,2,06,1.3,317.0,M,-23.7,M,1.8,0000*44
$GPGSA,A,3,17,28,27,20,04,10,,,,,,,2.3,1.3,1.9*37
$GPRMC,065341.000,A,3353.7432,N,09832.0225,W,0.50,213.86,030412,,,D*72
$GPGGA,065342.000,3353.7430,N,09832.0224,W,2,06,1.3,316.9,M,-23.7,M,0.8,0000*4D
$GPGSA,A,3,17,28,27,20,04,10,,,,,,,2.3,1.3,1.9*37
$GPRMC,065342.000,A,3353.7430,N,09832.0224,W,0.33,172.11,030412,,,D*7D
$GPGGA,065343.000,3353.7428,N,09832.0223,W,2,06,1.3,317.2,M,-23.7,M,0.8,0000*48
$GPGSA,A,3,17,28,27,20,04,10,,,,,,,2.3,1.3,1.9*37
$GPRMC,065343.000,A,3353.7428,N,09832.0223,W,0.35,197.77,030412,,,D*7F
$GPGGA,065344.000,3353.7428,N,09832.0224,W,2,05,2.8,316.9,M,-23.7,M,0.8,0000*49
$GPGSA,A,3,17,28,20,04,10,,,,,,,,3.9,2.8,2.7*3C
$GPRMC,065344.000,A,3353.7428,N,09832.0224,W,0.45,204.47,030412,,,D*72
$GPGGA,065345.000,3353.7427,N,09832.0225,W,2,05,2.8,317.1,M,-23.7,M,0.8,0000*4F
$GPGSA,A,3,17,28,20,04,10,,,,,,,,3.9,2.8,2.7*3C
$GPGSV,3,1,11,04,73,194,37,17,49,042,35,28,43,115,38,27,43,270,*7C
$GPGSV,3,2,11,02,39,214,18,09,36,291,17,10,17,151,18,20,15,056,24*76
$GPGSV,3,3,11,12,14,313,,32,00,035,,51,49,195,36*48
$GPRMC,065345.000,A,3353.7427,N,09832.0225,W,0.11,165.36,030412,,,D*7E
$GPGGA,065346.000,3353.7426,N,09832.0231,W,2,06,1.7,316.1,M,-23.7,M,1.8,0000*47
$GPGSA,A,3,17,28,20,02,04,10,,,,,,,2.6,1.7,2.0*3B
$GPRMC,065346.000,A,3353.7426,N,09832.0231,W,0.10,355.06,030412,,,D*7A
$GPGGA,065347.000,3353.7427,N,09832.0234,W,2,06,1.7,316.2,M,-23.7,M,2.8,0000*42
$GPGSA,A,3,17,28,20,02,04,10,,,,,,,2.6,1.7,2.0*3B
$GPRMC,065347.000,A,3353.7427,N,09832.0234,W,0.30,249.20,030412,,,D*75
$GPGGA,065348.000,3353.7428,N,09832.0235,W,2,05,2.8,316.7,M,-23.7,M,0.8,0000*4B
$GPGSA,A,3,17,28,20,04,10,,,,,,,,3.9,2.8,2.7*3C
$GPRMC,065348.000,A,3353.7428,N,09832.0235,W,0.09,18.70,030412,,,D*4D
$GPGGA,065349.000,3353.7430,N,09832.0240,W,2,06,1.7,315.8,M,-23.7,M,0.8,0000*42
$GPGSA,A,3,17,28,20,02,04,10,,,,,,,2.6,1.7,2.0*3B
$GPRMC,065349.000,A,3353.7430,N,09832.0240,W,0.25,321.03,030412,,,D*74
$GPGGA,065350.000,3353.7431,N,09832.0247,W,2,06,1.7,315.1,M,-23.7,M,0.8,0000*45
$GPGSA,A,3,17,28,20,02,04,10,,,,,,,2.6,1.7,2.0*3B
$GPGSV,3,1,11,04,73,194,37,17,49,042,34,28,43,115,38,27,43,270,*7D
$GPGSV,3,2,11,02,39,214,19,09,36,291,17,10,17,151,24,20,15,056,24*78
$GPGSV,3,3,11,12,14,313,,32,00,035,,51,49,195,36*48
$GPRMC,065350.000,A,3353.7431,N,09832.0247,W,0.65,248.32,030412,,,D*72
$GPGGA,065351.000,3353.7433,N,09832.0252,W,2,06,1.7,314.6,M,-23.7,M,1.8,0000*45
$GPGSA,A,3,17,28,20,02,04,10,,,,,,,2.6,1.7,2.0*3B
$GPRMC,065351.000,A,3353.7433,N,09832.0252,W,0.29,295.28,030412,,,D*76
$GPGGA,065352.000,3353.7434,N,09832.0250,W,2,06,1.7,314.4,M,-23.7,M,2.8,0000*42
$GPGSA,A,3,17,28,20,02,04,10,,,,,,,2.6,1.7,2.0*3B
$GPRMC,065352.000,A,3353.7434,N,09832.0250,W,0.04,123.91,030412,,,D*73
$GPGGA,065353.000,3353.7436,N,09832.0243,W,2,06,1.7,316.0,M,-23.7,M,3.8,0000*44
$GPGSA,A,3,17,28,20,02,04,10,,,,,,,2.6,1.7,2.0*3B
$GPRMC,065353.000,A,3353.7436,N,09832.0243,W,0.36,52.78,030412,,,D*43
$GPGGA,065354.000,3353.7438,N,09832.0236,W,2,06,1.7,316.8,M,-23.7,M,0.8,0000*44
$GPGSA,A,3,17,28,20,02,04,10,,,,,,,2.6,1.7,2.0*3B
$GPRMC,065354.000,A,3353.7438,N,09832.0236,W,0.33,67.04,030412,,,D*40
$GPGGA,065355.000,3353.7439,N,09832.0230,W,2,06,1.7,317.8,M,-23.7,M,0.8,0000*43
$GPGSA,A,3,17,28,20,02,04,10,,,,,,,2.6,1.7,2.0*3B
$GPGSV,3,1,11,04,73,194,37,17,49,042,34,28,43,115,38,27,43,270,*7D
$GPGSV,3,2,11,02,39,214,24,09,36,291,17,10,17,151,23,20,15,056,24*71
$GPGSV,3,3,11,12,14,313,,32,00,035,,51,49,195,36*48
$GPRMC,065355.000,A,3353.7439,N,09832.0230,W,0.18,131.59,030412,,,D*75
$GPGGA,065356.000,3353.7440,N,09832.0223,W,2,06,1.7,319.4,M,-23.7,M,0.8,0000*4E
$GPGSA,A,3,17,28,20,02,04,10,,,,,,,2.6,1.7,2.0*3B
$GPRMC,065356.000,A,3353.7440,N,09832.0223,W,0.23,33.96,030412,,,D*42
$GPGGA,065357.000,3353.7441,N,09832.0220,W,2,06,1.7,320.3,M,-23.7,M,1.8,0000*41
$GPGSA,A,3,17,28,20,02,04,10,,,,,,,2.6,1.7,2.0*3B
$GPRMC,065357.000,A,3353.7441,N,09832.0220,W,0.40,54.54,030412,,,D*4B
$GPGGA,065358.000,3353.7443,N,09832.0213,W,2,06,1.7,322.1,M,-23.7,M,2.8,0000*4F
$GPGSA,A,3,17,28,20,02,04,10,,,,,,,2.6,1.7,2.0*3B
$GPRMC,065358.000,A,3353.7443,N,09832.0213,W,0.51,50.65,030412,,,D*40
$GPGGA,065359.000,3353.7444,N,09832.0205,W,2,06,1.7,324.0,M,-23.7,M,3.8,0000*48
$GPGSA,A,3,17,28,20,02,04,10,,,,,,,2.6,1.7,2.0*3B
$GPRMC,065359.000,A,3353.7444,N,09832.0205,W,0.47,97.16,030412,,,D*49
$GPGGA,065400.000,3353.7444,N,09832.0198,W,2,06,1.7,325.6,M,-23.7,M,0.8,0000*40
$GPGSA,A,3,17,28,20,02,04,10,,,,,,,2.6,1.7,2.0*3B
$GPGSV,3,1,11,04,73,194,37,17,49,042,35,28,43,115,38,27,43,270,*7C
$GPGSV,3,2,11,02,39,214,25,09,36,291,16,10,17,151,23,20,15,056,24*71
$GPGSV,3,3,11,12,14,313,,32,00,035,,51,49,195,36*48
$GPRMC,065400.000,A,3353.7444,N,09832.0198,W,0.62,106.11,030412,,,D*7C
$GPGGA,065401.000,3353.7444,N,09832.0191,W,2,06,1.7,327.3,M,-23.7,M,0.8,0000*4F
$GPGSA,A,3,17,28,20,02,04,10,,,,,,,2.6,1.7,2.0*3B
$GPRMC,065401.000,A,3353.7444,N,09832.0191,W,0.62,95.40,030412,,,D*4B
$GPGGA,065402.000,3353.7444,N,09832.0185,W,2,06,1.7,328.8,M,-23.7,M,0.8,0000*4D
$GPGSA,A,3,17,28,20,02,04,10,,,,,,,2.6,1.7,2.0*3B
$GPRMC,065402.000,A,3353.7444,N,09832.0185,W,0.63,95.75,030412,,,D*4A
$GPGGA,065403.000,3353.7445,N,09832.0180,W,2,06,1.7,330.3,M,-23.7,M,1.8,0000*4B
$GPGSA,A,3,17,28,20,02,04,10,,,,,,,2.6,1.7,2.0*3B
$GPRMC,065403.000,A,3353.7445,N,09832.0180,W,0.41,68.60,030412,,,D*49
$GPGGA,065404.000,3353.7444,N,09832.0180,W,2,06,1.7,330.7,M,-23.7,M,2.8,0000*4A
$GPGSA,A,3,17,28,20,02,04,10,,,,,,,2.6,1.7,2.0*3B
$GPRMC,065404.000,A,3353.7444,N,09832.0180,W,0.48,107.02,030412,,,D*7A
$GPGGA,065405.000,3353.7443,N,09832.0182,W,2,06,1.7,330.3,M,-23.7,M,3.8,0000*4B
$GPGSA,A,3,17,28,20,02,04,10,,,,,,,2.6,1.7,2.0*3B
$GPGSV,3,1,11,04,73,194,37,17,49,042,35,28,43,115,37,27,43,270,*73
$GPGSV,3,2,11,02,39,214,25,09,36,291,16,10,17,151,23,20,15,056,25*70
$GPGSV,3,3,11,12,14,313,,32,00,035,,51,49,195,36*48
$GPRMC,065405.000,A,3353.7443,N,09832.0182,W,0.52,129.18,030412,,,D*72
$GPGGA,065406.000,3353.7442,N,09832.0183,W,2,06,1.7,330.3,M,-23.7,M,0.8,0000*4B
$GPGSA,A,3,17,28,20,02,04,10,,,,,,,2.6,1.7,2.0*3B
$GPRMC,065406.000,A,3353.7442,N,09832.0183,W,0.55,90.36,030412,,,D*49
$GPGGA,065407.000,3353.7442,N,09832.0185,W,2,06,1.7,330.0,M,-23.7,M,0.8,0000*4F
$GPGSA,A,3,17,28,20,02,04,10,,,,,,,2.6,1.7,2.0*3B
$GPRMC,065407.000,A,3353.7442,N,09832.0185,W,0.46,95.79,030412,,,D*42
$GPGGA,065408.000,3353.7442,N,09832.0184,W,2,06,1.7,330.4,M,-23.7,M,0.8,0000*45
$GPGSA,A,3,17,28,20,02,04,10,,,,,,,2.6,1.7,2.0*3B
$GPRMC,065408.000,A,3353.7442,N,09832.0184,W,0.56,70.33,030412,,,D*48
$GPGGA,065409.000,3353.7442,N,09832.0187,W,2,06,1.7,329.8,M,-23.7,M,1.8,0000*42
$GPGSA,A,3,17,28,20,02,04,10,,,,,,,2.6,1.7,2.0*3B
$GPRMC,065409.000,A,3353.7442,N,09832.0187,W,0.28,109.85,030412,,,D*71
$GPGGA,065410.000,3353.7440,N,09832.0186,W,2,06,1.7,329.7,M,-23.7,M,0.8,0000*47
$GPGSA,A,3,17,28,20,02,04,10,,,,,,,2.6,1.7,2.1*3A
$GPGSV,3,1,11,04,73,194,37,17,49,042,34,28,43,115,37,27,43,270,*72
$GPGSV,3,2,11,02,39,214,22,09,36,291,16,10,17,151,23,20,15,056,25*77
$GPGSV,3,3,11,12,14,313,,32,00,035,,51,49,195,36*48
$GPRMC,065410.000,A,3353.7440,N,09832.0186,W,0.53,106.75,030412,,,D*76
$GPGGA,065411.000,3353.7439,N,09832.0184,W,2,05,2.8,329.7,M,-23.7,M,1.8,0000*44
$GPGSA,A,3,17,28,20,04,10,,,,,,,,3.9,2.8,2.7*3C
$GPRMC,065411.000,A,3353.7439,N,09832.0184,W,0.54,89.68,030412,,,D*46
$GPGGA,065412.000,3353.7438,N,09832.0190,W,2,06,1.7,329.0,M,-23.7,M,0.8,0000*4A
$GPGSA,A,3,17,28,20,02,04,10,,,,,,,2.6,1.7,2.1*3A
$GPRMC,065412.000,A,3353.7438,N,09832.0190,W,0.31,67.20,030412,,,D*4E
$GPGGA,065413.000,3353.7439,N,09832.0197,W,2,06,1.7,328.8,M,-23.7,M,0.8,0000*44
$GPGSA,A,3,17,28,20,02,04,10,,,,,,,2.6,1.7,2.1*3A
$GPRMC,065413.000,A,3353.7439,N,09832.0197,W,0.31,315.92,030412,,,D*76
$GPGGA,065414.000,3353.7439,N,09832.0198,W,2,05,2.8,328.4,M,-23.7,M,0.8,0000*4F
$GPGSA,A,3,17,28,20,04,10,,,,,,,,3.9,2.8,2.7*3C
$GPRMC,065414.000,A,3353.7439,N,09832.0198,W,0.23,275.39,030412,,,D*7B
$GPGGA,065415.000,3353.7437,N,09832.0199,W,2,05,2.8,327.9,M,-23.7,M,1.8,0000*42
$GPGSA,A,3,17,28,20,04,10,,,,,,,,3.9,2.8,2.7*3C
$GPGSV,3,1,11,04,73,194,38,17,49,042,34,28,43,115,37,27,43,270,*7D
$GPGSV,3,2,11,02,39,214,18,09,36,291,15,10,17,151,24,20,15,056,26*79
$GPGSV,3,3,11,12,14,313,,32,00,035,,51,49,195,36*48
$GPRMC,065415.000,A,3353.7437,N,09832.0199,W,0.29,248.05,030412,,,D*7E
$GPGGA,065416.000,3353.7436,N,09832.0201,W,2,05,2.8,327.9,M,-23.7,M,2.8,0000*41
$GPGSA,A,3,17,28,20,04,10,,,,,,,,3.9,2.8,2.7*3C
$GPRMC,065416.000,A,3353.7436,N,09832.0201,W,0.28,264.72,030412,,,D*71
$GPGGA,065417.000,3353.7436,N,09832.0202,W,2,05,2.8,327.9,M,-23.7,M,0.8,0000*41
$GPGSA,A,3,17,28,20,04,10,,,,,,,,3.9,2.8,2.7*3C
$GPRMC,065417.000,A,3353.7436,N,09832.0202,W,0.22,242.54,030412,,,D*79
$GPGGA,065418.000,3353.7437,N,09832.0203,W,2,05,2.8,328.2,M,-23.7,M,0.8,0000*4A
$GPGSA,A,3,17,28,20,04,10,,,,,,,,3.9,2.8,2.7*3C
$GPRMC,065418.000,A,3353.7437,N,09832.0203,W,0.13,274.55,030412,,,D*70
$GPGGA,065419.000,3353.7438,N,09832.0203,W,2,05,2.8,327.7,M,-23.7,M,0.8,0000*4E
$GPGSA,A,3,17,28,20,04,10,,,,,,,,3.9,2.8,2.7*3C
$GPRMC,065419.000,A,3353.7438,N,09832.0203,W,0.25,87.05,030412,,,D*40
$GPGGA,065420.000,3353.7439,N,09832.0204,W,2,05,2.8,327.1,M,-23.7,M,0.8,0000*44
$GPGSA,A,3,17,28,20,04,10,,,,,,,,3.9,2.8,2.7*3C
$GPGSV,3,1,11,04,73,194,38,17,49,042,34,28,43,115,37,27,43,270,18*74
$GPGSV,3,2,11,02,39,214,17,09,36,291,13,10,17,151,25,20,15,056,25*72
$GPGSV,3,3,11,12,14,313,,32,00,035,,51,49,195,36*48
$GPRMC,065420.000,A,3353.7439,N,09832.0204,W,0.03,76.41,030412,,,D*46
$GPGGA,065421.000,3353.7440,N,09832.0207,W,2,05,2.8,326.6,M,-23.7,M,0.8,0000*4E
$GPGSA,A,3,17,28,20,04,10,,,,,,,,3.9,2.8,2.7*3C
$GPRMC,065421.000,A,3353.7440,N,09832.0207,W,0.39,310.45,030412,,,D*74
$GPGGA,065422.000,3353.7442,N,09832.0208,W,2,05,2.8,326.1,M,-23.7,M,1.8,0000*46
$GPGSA,A,3,17,28,20,04,10,,,,,,,,3.9,2.8,2.7*3C
$GPRMC,065422.000,A,3353.7442,N,09832.0208,W,0.19,314.02,030412,,,D*7F
$GPGGA,065423.000,3353.7443,N,09832.0210,W,2,05,2.8,325.6,M,-23.7,M,2.8,0000*48
$GPGSA,A,3,17,28,20,04,10,,,,,,,,3.9,2.8,2.7*3C
$GPRMC,065423.000,A,3353.7443,N,09832.0210,W,0.28,305.40,030412,,,D*72
$GPGGA,065424.000,3353.7444,N,09832.0212,W,2,05,2.8,325.0,M,-23.7,M,0.8,0000*4E
$GPGSA,A,3,17,28,20,04,10,,,,,,,,3.9,2.8,2.7*3C
$GPRMC,065424.000,A,3353.7444,N,09832.0212,W,0.10,278.37,030412,,,D*70
$GPGGA,065425.000,3353.7444,N,09832.0213,W,2,07,1.2,324.5,M,-23.7,M,0.8,0000*41
$GPGSA,A,3,17,27,28,20,02,04,10,,,,,,2.2,1.2,1.9*35
$GPGSV,3,1,11,04,73,194,38,17,49,042,34,28,43,115,37,27,43,270,18*74
$GPGSV,3,2,11,02,39,214,18,09,36,291,13,10,17,151,26,20,15,056,25*7E
$GPGSV,3,3,11,12,14,313,,32,00,035,,51,49,195,36*48
$GPRMC,065425.000,A,3353.7444,N,09832.0213,W,0.28,248.53,030412,,,D*7A
$GPGGA,065426.000,3353.7445,N,09832.0211,W,2,07,1.2,324.4,M,-23.7,M,0.8,0000*40
$GPGSA,A,3,17,27,28,20,02,04,10,,,,,,2.2,1.2,1.9*35
$GPRMC,065426.000,A,3353.7445,N,09832.0211,W,0.13,62.26,030412,,,D*4A
$GPGGA,065427.000,3353.7443,N,09832.0210,W,2,07,1.2,324.3,M,-23.7,M,0.8,0000*41
$GPGSA,A,3,17,27,28,20,02,04,10,,,,,,2.2,1.2,1.9*35
$GPRMC,065427.000,A,3353.7443,N,09832.0210,W,0.20,98.16,030412,,,D*4A
$GPGGA,065428.000,3353.7441,N,09832.0210,W,2,07,1.2,324.1,M,-23.7,M,1.8,0000*4F
$GPGSA,A,3,17,27,28,20,02,04,10,,,,,,2.2,1.2,1.9*35
$GPRMC,065428.000,A,3353.7441,N,09832.0210,W,0.40,124.83,030412,,,D*7B
$GPGGA,065429.000,3353.7439,N,09832.0212,W,2,07,1.2,323.4,M,-23.7,M,2.8,0000*42
$GPGSA,A,3,17,27,28,20,02,04,10,,,,,,2.2,1.2,1.9*35
$GPRMC,065429.000,A,3353.7439,N,09832.0212,W,0.39,134.81,030412,,,D*7A
$GPGGA,065430.000,3353.7439,N,09832.0213,W,2,07,1.2,323.0,M,-23.7,M,0.8,0000*4D
$GPGSA,A,3,17,27,28,20,02,04,10,,,,,,2.2,1.2,1.9*35
$GPGSV,3,1,11,04,73,194,38,17,49,042,34,28,43,115,36,27,43,270,17*7A
$GPGSV,3,2,11,02,39,214,24,09,36,291,,10,17,151,26,20,15,056,25*73
$GPGSV,3,3,11,12,14,313,,32,00,035,,51,49,195,36*48
$GPRMC,065430.000,A,3353.7439,N,09832.0213,W,0.11,342.59,030412,,,D*7F
$GPGGA,065431.000,3353.7439,N,09832.0214,W,2,07,1.2,322.4,M,-23.7,M,0.8,0000*4E
$GPGSA,A,3,17,27,28,20,02,04,10,,,,,,2.2,1.2,1.9*35
$GPRMC,065431.000,A,3353.7439,N,09832.0214,W,0.22,307.17,030412,,,D*72
$GPGGA,065432.000,3353.7438,N,09832.0216,W,2,07,1.2,322.1,M,-23.7,M,0.8,0000*4B
$GPGSA,A,3,17,27,28,20,02,04,10,,,,,,2.2,1.2,1.9*35
$GPRMC,065432.000,A,3353.7438,N,09832.0216,W,0.38,303.12,030412,,,D*78
$GPGGA,065433.000,3353.7438,N,09832.0217,W,2,07,1.2,321.8,M,-23.7,M,1.8,0000*40
$GPGSA,A,3,17,27,28,20,02,04,10,,,,,,2.2,1.2,1.9*35
$GPRMC,065433.000,A,3353.7438,N,09832.0217,W,0.32,302.60,030412,,,D*76
$GPGGA,065434.000,3353.7438,N,09832.0218,W,2,07,1.2,321.7,M,-23.7,M,2.8,0000*44
$GPGSA,A,3,17,27,28,20,02,04,10,,,,,,2.2,1.2,1.9*35
$GPRMC,065434.000,A,3353.7438,N,09832.0218,W,0.37,306.51,030412,,,D*7D
$GPGGA,065435.000,3353.7438,N,09832.0218,W,2,07,1.2,321.7,M,-23.7,M,3.8,0000*44
$GPGSA,A,3,17,27,28,20,02,04,10,,,,,,2.2,1.2,1.9*35
$GPGSV,3,1,11,04,73,194,39,17,49,042,34,28,43,115,36,27,43,270,16*7A
$GPGSV,3,2,11,02,39,214,25,09,36,291,,10,17,151,26,20,15,056,25*72
$GPGSV,3,3,11,12,14,313,,32,00,035,,51,49,195,36*48
$GPRMC,065435.000,A,3353.7438,N,09832.0218,W,0.40,304.00,030412,,,D*7A
$GPGGA,065436.000,3353.7439,N,09832.0219,W,2,07,1.2,321.6,M,-23.7,M,0.8,0000*45
$GPGSA,A,3,17,27,28,20,02,04,10,,,,,,2.2,1.2,1.9*35
$GPRMC,065436.000,A,3353.7439,N,09832.0219,W,0.48,298.16,030412,,,D*72
$GPGGA,065437.000,3353.7438,N,09832.0219,W,2,07,1.2,321.7,M,-23.7,M,0.8,0000*44
$GPGSA,A,3,17,27,28,20,02,04,10,,,,,,2.2,1.2,1.9*35
$GPRMC,065437.000,A,3353.7438,N,09832.0219,W,0.03,315.15,030412,,,D*7A
$GPGGA,065438.000,3353.7437,N,09832.0217,W,2,07,1.2,321.8,M,-23.7,M,0.8,0000*45
$GPGSA,A,3,17,27,28,20,02,04,10,,,,,,2.2,1.2,1.9*35
$GPRMC,065438.000,A,3353.7437,N,09832.0217,W,0.24,110.01,030412,,,D*73
$GPGGA,065439.000,3353.7437,N,09832.0216,W,2,07,1.2,322.0,M,-23.7,M,1.8,0000*4F
$GPGSA,A,3,17,27,28,20,02,04,10,,,,,,2.2,1.2,1.9*35
$GPRMC,065439.000,A,3353.7437,N,09832.0216,W,0.35,110.10,030412,,,D*73
$GPGGA,065440.000,3353.7436,N,09832.0214,W,2,07,1.2,322.2,M,-23.7,M,2.8,0000*43
$GPGSA,A,3,17,27,28,20,02,04,10,,,,,,2.2,1.2,1.9*35
$GPGSV,3,1,11,04,73,194,39,17,49,042,34,28,43,115,36,27,43,270,16*7A
$GPGSV,3,2,11,02,39,214,25,09,36,291,,10,17,151,27,20,15,056,25*73
$GPGSV,3,3,11,12,14,313,,32,00,035,,51,49,195,36*48
$GPRMC,065440.000,A,3353.7436,N,09832.0214,W,0.30,112.00,030412,,,D*78
$GPGGA,065441.000,3353.7435,N,09832.0213,W,2,07,1.2,322.3,M,-23.7,M,0.8,0000*45
$GPGSA,A,3,17,27,28,20,02,04,10,,,,,,2.2,1.2,1.9*35
$GPRMC,065441.000,A,3353.7435,N,09832.0213,W,0.23,110.21,030412,,,D*7E
$GPGGA,065442.000,3353.7435,N,09832.0214,W,2,07,1.2,322.2,M,-23.7,M,0.8,0000*40
$GPGSA,A,3,17,27,28,20,02,04,10,,,,,,2.2,1.2,1.9*35
$GPRMC,065442.000,A,3353.7435,N,09832.0214,W,0.09,34.62,030412,,,D*42
$GPGGA,065443.000,3353.7435,N,09832.0218,W,2,07,1.2,321.4,M,-23.7,M,0.8,0000*48
$GPGSA,A,3,17,27,28,20,02,04,10,,,,,,2.2,1.2,1.9*35
$GPRMC,065443.000,A,3353.7435,N,09832.0218,W,0.11,58.89,030412,,,D*49
$GPGGA,065444.000,3353.7435,N,09832.0223,W,2,07,1.2,320.5,M,-23.7,M,0.8,0000*47
$GPGSA,A,3,17,27,28,20,02,04,10,,,,,,2.2,1.2,1.9*35
$GPRMC,065444.000,A,3353.7435,N,09832.0223,W,0.07,63.42,030412,,,D*4E
$GPGGA,065445.000,3353.7435,N,09832.0228,W,2,07,1.2,319.7,M,-23.7,M,1.8,0000*44
$GPGSA,A,3,17,27,28,20,02,04,10,,,,,,2.2,1.2,1.9*35
$GPGSV,3,1,11,04,73,194,40,17,49,042,34,28,43,115,35,27,43,270,15*74
$GPGSV,3,2,11,02,39,214,25,09,36,291,,10,17,151,28,20,15,056,25*7C
$GPGSV,3,3,11,12,14,313,,32,00,035,,51,49,195,35*4B
$GPRMC,065445.000,A,3353.7435,N,09832.0228,W,0.24,300.31,030412,,,D*77
$GPGGA,065446.000,3353.7435,N,09832.0231,W,2,07,1.2,319.2,M,-23.7,M,2.8,0000*49
$GPGSA,A,3,17,27,28,20,02,04,10,,,,,,2.2,1.2,1.9*35
$GPRMC,065446.000,A,3353.7435,N,09832.0231,W,0.21,9.87,030412,,,D*7E
$GPGGA,065447.000,3353.7436,N,09832.0232,W,2,07,1.2,318.9,M,-23.7,M,3.8,0000*43
$GPGSA,A,3,17,27,28,20,02,04,10,,,,,,2.2,1.2,1.9*35
$GPRMC,065447.000,A,3353.7436,N,09832.0232,W,0.16,29.59,030412,,,D*4A
$GPGGA,065448.000,3353.7436,N,09832.0233,W,2,07,1.2,318.7,M,-23.7,M,0.8,0000*40
$GPGSA,A,3,17,27,28,20,02,04,10,,,,,,2.2,1.2,1.9*35
$GPRMC,065448.000,A,3353.7436,N,09832.0233,W,0.15,57.35,030412,,,D*44
$GPGGA,065449.000,3353.7436,N,09832.0233,W,2,07,1.2,318.8,M,-23.7,M,0.8,0000*4E
$GPGSA,A,3,17,27,28,20,02,04,10,,,,,,2.2,1.2,1.9*35
$GPRMC,065449.000,A,3353.7436,N,09832.0233,W,0.11,184.01,030412,,,D*79
$GPGGA,065450.000,3353.7436,N,09832.0233,W,2,07,1.2,318.8,M,-23.7,M,0.8,0000*46
$GPGSA,A,3,17,27,28,20,02,04,10,,,,,,2.2,1.2,1.9*35
$GPGSV,3,1,10,04,74,193,40,17,48,044,34,27,43,268,15,28,42,117,35*78
$GPGSV,3,2,10,02,40,215,25,09,37,290,,10,18,150,28,12,15,314,*7F
$GPGSV,3,3,10,20,15,055,24,51,49,195,35*7A
$GPRMC,065450.000,A,3353.7436,N,09832.0233,W,0.25,256.36,030412,,,D*7E
$GPGGA,065451.000,3353.7436,N,09832.0234,W,2,07,1.2,318.7,M,-23.7,M,0.8,0000*4F
$GPGSA,A,3,17,27,28,20,02,04,10,,,,,,2.2,1.2,1.9*35
$GPRMC,065451.000,A,3353.7436,N,09832.0234,W,0.14,267.69,030412,,,D*72
$GPGGA,065452.000,3353.7436,N,09832.0235,W,2,07,1.2,318.7,M,-23.7,M,0.8,0000*4D
$GPGSA,A,3,17,27,28,20,02,04,10,,,,,,2.2,1.2,1.9*35
$GPRMC,065452.000,A,3353.7436,N,09832.0235,W,0.41,265.01,030412,,,D*7C
$GPGGA,065453.000,3353.7436,N,09832.0237,W,2,07,1.2,318.6,M,-23.7,M,1.8,0000*4E
$GPGSA,A,3,17,27,28,20,02,04,10,,,,,,2.2,1.2,1.9*35
$GPRMC,065453.000,A,3353.7436,N,09832.0237,W,0.41,279.96,030412,,,D*7C
$GPGGA,065454.000,3353.7437,N,09832.0238,W,2,07,1.2,318.3,M,-23.7,M,0.8,0000*43
$GPGSA,A,3,17,27,28,20,02,04,10,,,,,,2.2,1.2,1.9*35
$GPRMC,065454.000,A,3353.7437,N,09832.0238,W,0.43,327.08,030412,,,D*7A
$GPGGA,065455.000,3353.7438,N,09832.0238,W,2,07,1.2,318.3,M,-23.7,M,0.8,0000*4D
$GPGSA,A,3,17,27,28,20,02,04,10,,,,,,2.2,1.2,1.9*35
$GPGSV,3,1,10,04,74,193,40,17,48,044,33,27,43,268,14,28,42,117,34*7F
$GPGSV,3,2,10,02,40,215,26,09,37,290,,10,18,150,29,12,15,314,*7D
$GPGSV,3,3,10,20,15,055,23,51,49,195,36*7E
$GPRMC,065455.000,A,3353.7438,N,09832.0238,W,0.25,291.41,030412,,,D*75
$GPGGA,065456.000,3353.7438,N,09832.0238,W,2,07,1.2,318.4,M,-23.7,M,0.8,0000*49
$GPGSA,A,3,17,27,28,20,02,04,10,,,,,,2.2,1.2,1.9*35
$GPRMC,065456.000,A,3353.7438,N,09832.0238,W,0.02,122.68,030412,,,D*73
$GPGGA,065457.000,3353.7437,N,09832.0237,W,2,07,1.2,318.7,M,-23.7,M,1.8,0000*4A
$GPGSA,A,3,17,27,28,20,02,04,10,,,,,,2.2,1.2,1.9*35
$GPRMC,065457.000,A,3353.7437,N,09832.0237,W,0.21,160.79,030412,,,D*75
$GPGGA,065458.000,3353.7437,N,09832.0235,W,2,07,1.2,319.0,M,-23.7,M,2.8,0000*42
$GPGSA,A,3,17,27,28,20,02,04,10,,,,,,2.2,1.2,1.9*35
$GPRMC,065458.000,A,3353.7437,N,09832.0235,W,0.30,151.90,030412,,,D*7D
$GPGGA,065459.000,3353.7436,N,09832.0234,W,2,07,1.2,319.2,M,-23.7,M,3.8,0000*40
$GPGSA,A,3,17,27,28,20,02,04,10,,,,,,2.2,1.2,1.9*35
$GPRMC,065459.000,A,3353.7436,N,09832.0234,W,0.30,137.38,030412,,,D*7E
$GPGGA,065500.000,3353.7436,N,09832.0234,W,2,07,1.2,319.4,M,-23.7,M,0.8,0000*48
$GPGSA,A,3,17,27,28,20,02,04,10,,,,,,2.2,1.2,1.9*35
$GPGSV,3,1,10,04,74,193,40,17,48,044,33,27,43,268,16,28,42,117,34*7D
$GPGSV,3,2,10,02,40,215,26,09,37,290,,10,18,150,29,12,15,314,*7D
$GPGSV,3,3,10,20,15,055,22,51,49,195,36*7F
$GPRMC,065500.000,A,3353.7436,N,09832.0234,W,0.27,147.65,030412,,,D*7A
$GPGGA,065501.000,3353.7436,N,09832.0233,W,2,07,1.2,319.4,M,-23.7,M,0.8,0000*4E
$GPGSA,A,3,17,27,28,20,02,04,10,,,,,,2.2,1.2,1.9*35
$GPRMC,065501.000,A,3353.7436,N,09832.0233,W,0.33,94.69,030412,,,D*4A
$GPGGA,065502.000,3353.7436,N,09832.0232,W,2,07,1.2,319.7,M,-23.7,M,0.8,0000*4F
$GPGSA,A,3,17,27,28,20,02,04,10,,,,,,2.2,1.2,1.9*35
$GPRMC,065502.000,A,3353.7436,N,09832.0232,W,0.36,141.02,030412,,,D*79
$GPGGA,065503.000,3353.7435,N,09832.0236,W,2,07,1.2,319.0,M,-23.7,M,1.8,0000*4F
$GPGSA,A,3,17,27,28,20,02,04,10,,,,,,2.2,1.2,1.9*35
$GPRMC,065503.000,A,3353.7435,N,09832.0236,W,0.30,104.71,030412,,,D*7C
$GPGGA,065504.000,3353.7435,N,09832.0237,W,2,07,1.2,318.9,M,-23.7,M,2.8,0000*42
$GPGSA,A,3,17,27,28,20,02,04,10,,,,,,2.2,1.2,1.9*35
$GPRMC,065504.000,A,3353.7435,N,09832.0237,W,0.15,121.86,030412,,,D*72
$GPGGA,065505.000,3353.7435,N,09832.0242,W,2,07,1.2,318.1,M,-23.7,M,3.8,0000*48
$GPGSA,A,3,17,27,28,20,02,04,10,,,,,,2.2,1.2,1.9*35
$GPGSV,3,1,10,04,74,193,40,17,48,044,33,27,43,268,16,28,42,117,34*7D
$GPGSV,3,2,10,02,40,215,26,09,37,290,19,10,18,150,29,12,15,314,*75
$GPGSV,3,3,10,20,15,055,22,51,49,195,36*7F
$GPRMC,065505.000,A,3353.7435,N,09832.0242,W,0.16,199.41,030412,,,D*7A
$GPGGA,065506.000,3353.7436,N,09832.0248,W,2,07,1.2,317.0,M,-23.7,M,0.8,0000*4F
$GPGSA,A,3,17,27,28,20,02,04,10,,,,,,2.2,1.2,1.9*35
$GPRMC,065506.000,A,3353.7436,N,09832.0248,W,0.06,288.87,030412,,,D*78
$GPGGA,065507.000,3353.7437,N,09832.0255,W,2,07,1.2,315.8,M,-23.7,M,0.8,0000*49
$GPGSA,A,3,17,27,28,20,02,04,10,,,,,,2.2,1.2,1.9*35
$GPRMC,065507.000,A,3353.7437,N,09832.0255,W,0.24,347.18,030412,,,D*70
$GPGGA,065508.000,3353.7438,N,09832.0262,W,2,07,1.2,314.3,M,-23.7,M,0.8,0000*47
$GPGSA,A,3,17,27,28,20,02,04,10,,,,,,2.2,1.2,1.9*35
$GPRMC,065508.000,A,3353.7438,N,09832.0262,W,0.42,343.00,030412,,,D*79
$GPGGA,065509.000,3353.7439,N,09832.0269,W,2,07,1.2,313.0,M,-23.7,M,1.8,0000*49
$GPGSA,A,3,17,27,28,20,02,04,10,,,,,,2.2,1.2,1.9*35
$GPRMC,065509.000,A,3353.7439,N,09832.0269,W,0.42,290.41,030412,,,D*78
$GPGGA,065510.000,3353.7441,N,09832.0274,W,2,06,1.5,312.1,M,-23.7,M,0.8,0000*45
$GPGSA,A,3,17,27,28,02,04,10,,,,,,,3.1,1.5,2.7*3F
$GPGSV,3,1,10,04,74,193,40,17,48,044,33,27,43,268,14,28,42,117,34*7F
$GPGSV,3,2,10,02,40,215,26,09,37,290,18,10,18,150,30,12,15,314,*7C
$GPGSV,3,3,10,20,15,055,22,51,49,195,42*7C
$GPRMC,065510.000,A,3353.7441,N,09832.0274,W,0.43,307.55,030412,,,D*78
$GPGGA,065511.000,3353.7442,N,09832.0278,W,2,05,2.1,311.0,M,-23.7,M,1.8,0000*4C
$GPGSA,A,3,17,28,02,04,10,,,,,,,,3.9,2.1,3.2*31
$GPRMC,065511.000,A,3353.7442,N,09832.0278,W,0.48,308.73,030412,,,D*76
$GPGGA,065512.000,3353.7443,N,09832.0285,W,2,05,2.1,309.8,M,-23.7,M,0.8,0000*4C
$GPGSA,A,3,17,28,02,04,10,,,,,,,,3.9,2.1,3.2*31
$GPRMC,065512.000,A,3353.7443,N,09832.0285,W,0.53,299.56,030412,,,D*72
$GPGGA,065513.000,3353.7444,N,09832.0289,W,2,05,2.1,309.0,M,-23.7,M,0.8,0000*4E
$GPGSA,A,3,17,28,02,04,10,,,,,,,,3.9,2.1,3.2*31
$GPRMC,065513.000,A,3353.7444,N,09832.0289,W,0.56,300.77,030412,,,D*7F
$GPGGA,065514.000,3353.7444,N,09832.0292,W,2,05,2.1,308.4,M,-23.7,M,0.8,0000*46
$GPGSA,A,3,17,28,02,04,10,,,,,,,,3.9,2.1,3.2*31
$GPRMC,065514.000,A,3353.7444,N,09832.0292,W,0.51,301.68,030412,,,D*7A
$GPGGA,065515.000,3353.7445,N,09832.0294,W,2,06,1.7,307.9,M,-23.7,M,0.8,0000*44
