$GPGGA,090912.000,3353.7499,N,09832.0190,W,2,06,2.1,325.7,M,-23.7,M,0.8,0000*48
$GPGSA,A,3,04,05,12,17,10,02,,,,,,,4.1,2.1,3.5*35
$GPRMC,090912.000,A,3353.7499,N,09832.0190,W,0.21,88.37,010412,,,D*46
$GPGGA,090913.000,3353.7498,N,09832.0188,W,2,06,2.1,326.1,M,-23.7,M,0.8,0000*44
$GPGSA,A,3,04,05,12,17,10,02,,,,,,,4.1,2.1,3.5*35
$GPGSV,3,1,11,02,74,342,33,12,65,290,29,10,51,084,33,04,44,042,39*7E
$GPGSV,3,2,11,05,40,173,32,25,25,316,,17,13,097,30,09,13,228,*73
$GPGSV,3,3,11,27,08,215,,29,03,292,,51,49,195,45*46
$GPRMC,090913.000,A,3353.7498,N,09832.0188,W,0.17,94.59,010412,,,D*4F
$GPGGA,090914.000,3353.7497,N,09832.0186,W,2,06,2.1,326.6,M,-23.7,M,1.8,0000*44
$GPGSA,A,3,04,05,12,17,10,02,,,,,,,4.1,2.1,3.5*35
$GPRMC,090914.000,A,3353.7497,N,09832.0186,W,0.19,94.57,010412,,,D*49
$GPGGA,090915.000,3353.7497,N,09832.0185,W,2,06,2.1,326.9,M,-23.7,M,0.8,0000*48
$GPGSA,A,3,04,05,12,17,10,02,,,,,,,4.1,2.1,3.5*35
$GPRMC,090915.000,A,3353.7497,N,09832.0185,W,0.21,94.25,010412,,,D*45
$GPGGA,090916.000,3353.7497,N,09832.0184,W,2,06,2.1,327.0,M,-23.7,M,0.8,0000*42
$GPGSA,A,3,04,05,12,17,10,02,,,,,,,4.1,2.1,3.5*35
$GPRMC,090916.000,A,3353.7497,N,09832.0184,W,0.25,94.97,010412,,,D*4A
$GPGGA,090917.000,3353.7496,N,09832.0183,W,2,06,2.1,327.2,M,-23.7,M,0.8,0000*47
$GPGSA,A,3,04,05,12,17,10,02,,,,,,,4.1,2.1,3.5*35
$GPRMC,090917.000,A,3353.7496,N,09832.0183,W,0.18,94.81,010412,,,D*44
$GPGGA,090918.000,3353.7496,N,09832.0180,W,2,07,1.4,327.6,M,-23.7,M,1.8,0000*49
$GPGSA,A,3,04,05,12,17,10,09,02,,,,,,2.3,1.4,1.8*31
$GPGSV,3,1,11,02,74,342,33,12,65,290,29,10,51,084,33,04,44,042,39*7E
$GPGSV,3,2,11,05,40,173,32,25,25,316,18,17,13,097,30,09,13,228,17*7C
$GPGSV,3,3,11,27,08,215,19,29,03,292,,51,49,195,39*45
$GPRMC,090918.000,A,3353.7496,N,09832.0180,W,0.38,81.88,010412,,,D*47
$GPGGA,090919.000,3353.7496,N,09832.0177,W,2,07,1.4,328.1,M,-23.7,M,2.8,0000*4B
$GPGSA,A,3,04,05,12,17,10,09,02,,,,,,2.3,1.4,1.8*31
$GPRMC,090919.000,A,3353.7496,N,09832.0177,W,0.47,81.10,010412,,,D*47
$GPGGA,090920.000,3353.7496,N,09832.0175,W,2,07,1.4,328.5,M,-23.7,M,3.8,0000*46
$GPGSA,A,3,04,05,12,17,10,09,02,,,,,,2.3,1.4,1.8*31
$GPRMC,090920.000,A,3353.7496,N,09832.0175,W,0.48,85.76,010412,,,D*44
$GPGGA,090921.000,3353.7496,N,09832.0174,W,2,07,1.4,328.5,M,-23.7,M,0.8,0000*45
$GPGSA,A,3,04,05,12,17,10,09,02,,,,,,2.3,1.4,1.8*31
$GPRMC,090921.000,A,3353.7496,N,09832.0174,W,0.22,106.68,010412,,,D*7D
$GPGGA,090922.000,3353.7496,N,09832.0174,W,2,07,1.4,328.6,M,-23.7,M,0.8,0000*45
$GPGSA,A,3,04,05,12,17,10,09,02,,,,,,2.3,1.4,1.8*31
$GPRMC,090922.000,A,3353.7496,N,09832.0174,W,0.22,99.51,010412,,,D*43
$GPGGA,090923.000,3353.7496,N,09832.0174,W,2,07,1.4,328.6,M,-23.7,M,0.8,0000*44
$GPGSA,A,3,04,05,12,17,10,09,02,,,,,,2.3,1.4,1.8*31
$GPGSV,3,1,11,02,74,342,33,12,65,290,29,10,51,084,32,04,44,042,39*7F
$GPGSV,3,2,11,05,40,173,32,25,25,316,11,17,13,097,30,09,13,228,15*77
$GPGSV,3,3,11,27,08,215,19,29,03,292,,51,49,195,39*45
$GPRMC,090923.000,A,3353.7496,N,09832.0174,W,0.18,110.46,010412,,,D*7D
$GPGGA,090924.000,3353.7496,N,09832.0174,W,2,07,1.4,328.5,M,-23.7,M,1.8,0000*41
$GPGSA,A,3,04,05,12,17,10,09,02,,,,,,2.3,1.4,1.8*31
$GPRMC,090924.000,A,3353.7496,N,09832.0174,W,0.10,165.73,010412,,,D*76
$GPGGA,090925.000,3353.7497,N,09832.0174,W,2,07,1.4,328.2,M,-23.7,M,2.8,0000*45
$GPGSA,A,3,04,05,12,17,10,09,02,,,,,,2.3,1.4,1.8*31
$GPRMC,090925.000,A,3353.7497,N,09832.0174,W,0.05,157.87,010412,,,D*78
$GPGGA,090926.000,3353.7497,N,09832.0175,W,2,07,1.4,328.0,M,-23.7,M,3.8,0000*44
$GPGSA,A,3,04,05,12,17,10,09,02,,,,,,2.3,1.4,1.8*31
$GPRMC,090926.000,A,3353.7497,N,09832.0175,W,0.04,253.02,010412,,,D*71
$GPGGA,090927.000,3353.7498,N,09832.0175,W,2,07,1.4,327.7,M,-23.7,M,0.8,0000*41
$GPGSA,A,3,04,05,12,17,10,09,02,,,,,,2.3,1.4,1.8*31
$GPRMC,090927.000,A,3353.7498,N,09832.0175,W,0.04,126.02,010412,,,D*7E
$GPGGA,090928.000,3353.7498,N,09832.0176,W,2,07,1.4,327.3,M,-23.7,M,0.8,0000*49
$GPGSA,A,3,04,05,12,17,10,09,02,,,,,,2.3,1.4,1.8*31
$GPGSV,3,1,11,02,74,342,32,12,65,290,28,10,51,084,32,04,44,042,38*7E
$GPGSV,3,2,11,05,40,173,32,25,25,316,,17,13,097,30,09,13,228,13*71
$GPGSV,3,3,11,27,08,215,20,29,03,292,,51,49,195,39*4F
$GPRMC,090928.000,A,3353.7498,N,09832.0176,W,0.04,348.85,010412,,,D*77
$GPGGA,090929.000,3353.7499,N,09832.0177,W,2,07,1.4,326.9,M,-23.7,M,0.8,0000*43
$GPGSA,A,3,04,05,12,17,10,09,02,,,,,,2.3,1.4,1.8*31
$GPRMC,090929.000,A,3353.7499,N,09832.0177,W,0.04,317.70,010412,,,D*76
$GPGGA,090930.000,3353.7500,N,09832.0178,W,2,07,1.4,326.4,M,-23.7,M,1.8,0000*49
$GPGSA,A,3,04,05,12,17,10,09,02,,,,,,2.3,1.4,1.8*31
$GPRMC,090930.000,A,3353.7500,N,09832.0178,W,0.09,302.49,010412,,,D*73
$GPGGA,090931.000,3353.7501,N,09832.0180,W,2,07,1.4,325.8,M,-23.7,M,2.8,0000*42
$GPGSA,A,3,04,05,12,17,10,09,02,,,,,,2.3,1.4,1.8*31
$GPRMC,090931.000,A,3353.7501,N,09832.0180,W,0.11,302.73,010412,,,D*74
$GPGGA,090932.000,3353.7502,N,09832.0181,W,2,07,1.4,325.3,M,-23.7,M,3.8,0000*49
$GPGSA,A,3,04,05,12,17,10,09,02,,,,,,2.3,1.4,1.8*31
$GPRMC,090932.000,A,3353.7502,N,09832.0181,W,0.20,294.15,010412,,,D*79
$GPGGA,090933.000,3353.7503,N,09832.0183,W,2,07,1.4,324.7,M,-23.7,M,0.8,0000*4D
$GPGSA,A,3,04,05,12,17,10,09,02,,,,,,2.3,1.4,1.8*31
$GPGSV,3,1,11,02,74,342,32,12,65,290,27,10,51,084,32,04,44,042,37*7E
$GPGSV,3,2,11,05,40,173,32,25,25,316,,17,13,097,29,09,13,228,13*79
$GPGSV,3,3,11,27,08,215,21,29,03,292,,51,49,195,39*4E
$GPRMC,090933.000,A,3353.7503,N,09832.0183,W,0.27,289.13,010412,,,D*76
$GPGGA,090934.000,3353.7504,N,09832.0185,W,2,07,1.4,324.0,M,-23.7,M,0.8,0000*4C
$GPGSA,A,3,04,05,12,17,10,09,02,,,,,,2.3,1.4,1.8*31
$GPRMC,090934.000,A,3353.7504,N,09832.0185,W,0.30,290.62,010412,,,D*78
$GPGGA,090935.000,3353.7505,N,09832.0186,W,2,07,1.4,323.5,M,-23.7,M,0.8,0000*4D
$GPGSA,A,3,04,05,12,17,10,09,02,,,,,,2.3,1.4,1.8*31
$GPRMC,090935.000,A,3353.7505,N,09832.0186,W,0.36,289.43,010412,,,D*76
$GPGGA,090936.000,3353.7506,N,09832.0188,W,2,07,1.4,322.9,M,-23.7,M,1.8,0000*4F
$GPGSA,A,3,04,05,12,17,10,09,02,,,,,,2.3,1.4,1.8*31
$GPRMC,090936.000,A,3353.7506,N,09832.0188,W,0.39,287.54,010412,,,D*7F
$GPGGA,090937.000,3353.7509,N,09832.0198,W,2,07,1.4,321.2,M,-23.7,M,2.8,0000*4B
$GPGSA,A,3,04,05,12,17,10,09,02,,,,,,2.3,1.4,1.8*31
$GPRMC,090937.000,A,3353.7509,N,09832.0198,W,0.66,283.03,010412,,,D*7C
$GPGGA,090938.000,3353.7511,N,09832.0202,W,2,07,1.4,320.3,M,-23.7,M,3.8,0000*4C
$GPGSA,A,3,04,05,12,17,10,09,02,,,,,,2.3,1.4,1.8*31
$GPGSV,3,1,11,02,74,342,31,12,65,290,27,10,51,084,31,04,44,042,38*71
$GPGSV,3,2,11,05,40,173,32,25,25,316,,17,13,097,28,09,13,228,14*7F
$GPGSV,3,3,11,27,08,215,21,29,03,292,,51,49,195,39*4E
$GPRMC,090938.000,A,3353.7511,N,09832.0202,W,0.51,296.59,010412,,,D*75
$GPGGA,090939.000,3353.7511,N,09832.0204,W,2,07,1.4,320.0,M,-23.7,M,0.8,0000*4B
$GPGSA,A,3,04,05,12,17,10,09,02,,,,,,2.3,1.4,1.8*31
$GPRMC,090939.000,A,3353.7511,N,09832.0204,W,0.34,337.43,010412,,,D*70
$GPGGA,090940.000,3353.7512,N,09832.0205,W,2,07,1.4,319.7,M,-23.7,M,0.8,0000*4A
$GPGSA,A,3,04,05,12,17,10,09,02,,,,,,2.3,1.4,1.8*31
$GPRMC,090940.000,A,3353.7512,N,09832.0205,W,0.32,348.31,010412,,,D*77
$GPGGA,090941.000,3353.7515,N,09832.0209,W,2,07,1.4,318.9,M,-23.7,M,0.8,0000*4F
$GPGSA,A,3,04,05,12,17,10,09,02,,,,,,2.3,1.4,1.8*31
$GPRMC,090941.000,A,3353.7515,N,09832.0209,W,0.39,317.64,010412,,,D*7C
$GPGGA,090942.000,3353.7516,N,09832.0214,W,2,07,1.4,318.0,M,-23.7,M,1.8,0000*4B
$GPGSA,A,3,04,05,12,17,10,09,02,,,,,,2.3,1.4,1.8*31
$GPRMC,090942.000,A,3353.7516,N,09832.0214,W,0.37,309.57,010412,,,D*71
$GPGGA,090943.000,3353.7517,N,09832.0216,W,2,07,1.4,317.6,M,-23.7,M,2.8,0000*43
$GPGSA,A,3,04,05,12,17,10,09,02,,,,,,2.3,1.4,1.8*31
$GPGSV,3,1,11,02,74,342,30,12,65,290,26,10,51,084,30,04,44,042,38*70
$GPGSV,3,2,11,05,40,173,32,25,25,316,,17,13,097,28,09,13,228,19*72
$GPGSV,3,3,11,27,08,215,18,29,03,292,,51,49,195,39*44
$GPRMC,090943.000,A,3353.7517,N,09832.0216,W,0.32,319.32,010412,,,D*74
$GPGGA,090944.000,3353.7519,N,09832.0221,W,2,07,1.4,317.0,M,-23.7,M,3.8,0000*49
$GPGSA,A,3,04,05,12,17,10,09,02,,,,,,2.3,1.4,1.8*31
$GPRMC,090944.000,A,3353.7519,N,09832.0221,W,0.28,353.59,010412,,,D*71
$GPGGA,090945.000,3353.7520,N,09832.0223,W,2,07,1.4,316.8,M,-23.7,M,0.8,0000*4A
$GPGSA,A,3,04,05,12,17,10,09,02,,,,,,2.3,1.4,1.8*31
$GPRMC,090945.000,A,3353.7520,N,09832.0223,W,0.35,349.16,010412,,,D*74
$GPGGA,090946.000,3353.7521,N,09832.0224,W,2,07,1.4,316.4,M,-23.7,M,0.8,0000*43
$GPGSA,A,3,04,05,12,17,10,09,02,,,,,,2.3,1.4,1.8*31
$GPRMC,090946.000,A,3353.7521,N,09832.0224,W,0.37,288.60,010412,,,D*7E
$GPGGA,090947.000,3353.7522,N,09832.0228,W,2,07,1.4,315.9,M,-23.7,M,0.8,0000*43
$GPGSA,A,3,04,05,12,17,10,09,02,,,,,,2.3,1.4,1.8*31
$GPRMC,090947.000,A,3353.7522,N,09832.0228,W,0.49,282.84,010412,,,D*79
$GPGGA,090948.000,3353.7523,N,09832.0233,W,2,07,1.4,315.1,M,-23.7,M,0.8,0000*4F
$GPGSA,A,3,04,05,12,17,10,09,02,,,,,,2.3,1.4,1.8*31
$GPGSV,3,1,11,02,74,342,30,12,65,290,25,10,51,084,29,04,44,042,38*7B
$GPGSV,3,2,11,05,40,173,32,25,25,316,,17,13,097,29,09,13,228,19*73
$GPGSV,3,3,11,27,08,215,,29,03,292,,51,49,195,39*4D
$GPRMC,090948.000,A,3353.7523,N,09832.0233,W,0.60,280.52,010412,,,D*7F
$GPGGA,090949.000,3353.7524,N,09832.0237,W,2,07,1.4,314.5,M,-23.7,M,1.8,0000*49
$GPGSA,A,3,04,05,12,17,10,09,02,,,,,,2.3,1.4,1.8*31
$GPRMC,090949.000,A,3353.7524,N,09832.0237,W,0.30,317.42,010412,,,D*76
$GPGGA,090950.000,3353.7525,N,09832.0239,W,2,06,2.1,314.2,M,-23.7,M,0.8,0000*4F
$GPGSA,A,3,04,05,12,17,10,02,,,,,,,4.1,2.1,3.5*35
$GPRMC,090950.000,A,3353.7525,N,09832.0239,W,0.70,286.91,010412,,,D*72
$GPGGA,090951.000,3353.7527,N,09832.0246,W,2,07,1.4,313.3,M,-23.7,M,0.8,0000*45
$GPGSA,A,3,04,05,12,17,10,09,02,,,,,,2.3,1.4,1.8*31
$GPRMC,090951.000,A,3353.7527,N,09832.0246,W,0.80,287.72,010412,,,D*7A
$GPGGA,090952.000,3353.7529,N,09832.0253,W,2,07,1.4,312.3,M,-23.7,M,0.8,0000*4D
$GPGSA,A,3,04,05,12,17,10,09,02,,,,,,2.3,1.4,1.8*31
$GPRMC,090952.000,A,3353.7529,N,09832.0253,W,0.95,285.76,010412,,,D*71
$GPGGA,090953.000,3353.7529,N,09832.0254,W,2,07,1.4,312.2,M,-23.7,M,0.8,0000*4A
$GPGSA,A,3,04,05,12,17,10,09,02,,,,,,2.3,1.4,1.8*31
$GPGSV,3,1,11,02,74,342,30,12,65,290,20,10,51,084,28,04,44,042,38*7F
$GPGSV,3,2,11,05,40,173,32,25,25,316,,17,13,097,29,09,13,228,18*72
$GPGSV,3,3,11,27,08,215,,29,03,292,,51,49,195,39*4D
$GPRMC,090953.000,A,3353.7529,N,09832.0254,W,0.29,332.66,010412,,,D*7C
$GPGGA,090954.000,3353.7529,N,09832.0253,W,2,07,1.4,312.2,M,-23.7,M,1.8,0000*4B
$GPGSA,A,3,04,05,12,17,10,09,02,,,,,,2.3,1.4,1.8*31
$GPRMC,090954.000,A,3353.7529,N,09832.0253,W,0.22,24.53,010412,,,D*45
$GPGGA,090955.000,3353.7529,N,09832.0252,W,2,06,2.1,312.2,M,-23.7,M,2.8,0000*4F
$GPGSA,A,3,04,05,12,17,10,02,,,,,,,4.1,2.1,3.5*35
$GPRMC,090955.000,A,3353.7529,N,09832.0252,W,0.21,340.00,010412,,,D*71
$GPGGA,090956.000,3353.7528,N,09832.0250,W,2,07,1.4,312.4,M,-23.7,M,0.8,0000*4C
$GPGSA,A,3,04,05,12,17,10,09,02,,,,,,2.3,1.4,1.8*31
$GPRMC,090956.000,A,3353.7528,N,09832.0250,W,0.18,20.92,010412,,,D*45
$GPGGA,090957.000,3353.7528,N,09832.0249,W,2,06,2.1,312.6,M,-23.7,M,0.8,0000*40
$GPGSA,A,3,04,05,12,17,10,02,,,,,,,4.1,2.1,3.5*35
$GPRMC,090957.000,A,3353.7528,N,09832.0249,W,0.34,60.56,010412,,,D*4E
$GPGGA,090958.000,3353.7528,N,09832.0246,W,2,06,2.1,313.1,M,-23.7,M,0.8,0000*46
$GPGSA,A,3,04,05,12,17,10,02,,,,,,,4.1,2.1,3.5*35
$GPGSV,3,1,11,02,74,342,30,12,65,290,21,10,51,084,28,04,44,042,37*71
$GPGSV,3,2,11,05,40,173,33,25,25,316,,17,13,097,30,09,13,228,17*74
$GPGSV,3,3,11,27,08,215,,29,03,292,,51,49,195,39*4D
$GPRMC,090958.000,A,3353.7528,N,09832.0246,W,0.31,61.55,010412,,,D*49
$GPGGA,090959.000,3353.7527,N,09832.0244,W,2,06,2.1,313.5,M,-23.7,M,0.8,0000*4E
$GPGSA,A,3,04,05,12,17,10,02,,,,,,,4.1,2.1,3.5*35
$GPRMC,090959.000,A,3353.7527,N,09832.0244,W,0.19,24.45,010412,,,D*4F
$GPGGA,091000.000,3353.7527,N,09832.0242,W,2,06,2.1,314.2,M,-23.7,M,1.8,0000*4D
$GPGSA,A,3,04,05,12,17,10,02,,,,,,,4.1,2.1,3.5*35
$GPRMC,091000.000,A,3353.7527,N,09832.0242,W,0.16,354.31,010412,,,D*75
$GPGGA,091001.000,3353.7526,N,09832.0240,W,2,06,2.1,314.8,M,-23.7,M,0.8,0000*44
$GPGSA,A,3,04,05,12,17,10,02,,,,,,,4.1,2.1,3.5*35
$GPRMC,091001.000,A,3353.7526,N,09832.0240,W,0.21,44.30,010412,,,D*40
$GPGGA,091002.000,3353.7525,N,09832.0235,W,2,06,2.1,315.7,M,-23.7,M,1.8,0000*49
$GPGSA,A,3,04,05,12,17,10,02,,,,,,,4.1,2.1,3.5*35
$GPRMC,091002.000,A,3353.7525,N,09832.0235,W,0.48,95.27,010412,,,D*47
$GPGGA,091003.000,3353.7524,N,09832.0231,W,2,06,2.1,316.2,M,-23.7,M,0.8,0000*4A
$GPGSA,A,3,04,05,12,17,10,02,,,,,,,4.1,2.1,3.5*35
$GPGSV,3,1,11,02,74,342,30,12,65,290,22,10,51,084,28,04,44,042,37*72
$GPGSV,3,2,11,05,40,173,33,25,25,316,,17,13,097,30,09,13,228,16*75
$GPGSV,3,3,11,27,08,215,,29,03,292,,51,49,195,39*4D
$GPRMC,091003.000,A,3353.7524,N,09832.0231,W,0.27,113.28,010412,,,D*7A
$GPGGA,091004.000,3353.7523,N,09832.0229,W,2,06,2.1,316.7,M,-23.7,M,0.8,0000*46
$GPGSA,A,3,04,05,12,17,10,02,,,,,,,4.1,2.1,3.5*35
$GPRMC,091004.000,A,3353.7523,N,09832.0229,W,0.12,161.65,010412,,,D*79
$GPGGA,091005.000,3353.7522,N,09832.0226,W,2,07,1.4,317.2,M,-23.7,M,0.8,0000*4A
$GPGSA,A,3,04,05,12,17,10,09,02,,,,,,2.3,1.4,1.8*31
$GPRMC,091005.000,A,3353.7522,N,09832.0226,W,0.40,104.01,010412,,,D*70
$GPGGA,091006.000,3353.7521,N,09832.0224,W,2,07,1.4,317.6,M,-23.7,M,1.8,0000*4D
$GPGSA,A,3,04,05,12,17,10,09,02,,,,,,2.3,1.4,1.8*31
$GPRMC,091006.000,A,3353.7521,N,09832.0224,W,0.20,109.77,010412,,,D*78
$GPGGA,091007.000,3353.7522,N,09832.0227,W,2,07,1.4,317.3,M,-23.7,M,0.8,0000*48
$GPGSA,A,3,04,05,12,17,10,09,02,,,,,,2.3,1.4,1.8*31
$GPRMC,091007.000,A,3353.7522,N,09832.0227,W,0.27,103.00,010412,,,D*74
$GPGGA,091008.000,3353.7523,N,09832.0232,W,2,07,1.4,316.7,M,-23.7,M,1.8,0000*46
$GPGSA,A,3,04,05,12,17,10,09,02,,,,,,2.3,1.4,1.8*31
$GPGSV,3,1,11,02,74,342,30,12,65,290,21,10,51,084,29,04,44,042,37*70
$GPGSV,3,2,11,05,40,173,34,25,25,316,,17,13,097,30,09,13,228,14*70
$GPGSV,3,3,11,27,08,215,,29,03,292,,51,49,195,39*4D
$GPRMC,091008.000,A,3353.7523,N,09832.0232,W,0.06,125.86,010412,,,D*77
$GPGGA,091009.000,3353.7524,N,09832.0234,W,2,07,1.4,316.5,M,-23.7,M,0.8,0000*45
$GPGSA,A,3,04,05,12,17,10,09,02,,,,,,2.3,1.4,1.8*31
$GPRMC,091009.000,A,3353.7524,N,09832.0234,W,0.20,88.97,010412,,,D*45
$GPGGA,091010.000,3353.7523,N,09832.0231,W,2,07,1.4,317.0,M,-23.7,M,0.8,0000*4B
$GPGSA,A,3,04,05,12,17,10,09,02,,,,,,2.3,1.4,1.8*31
$GPRMC,091010.000,A,3353.7523,N,09832.0231,W,0.42,98.72,010412,,,D*41
$GPGGA,091011.000,3353.7524,N,09832.0234,W,2,07,1.4,316.6,M,-23.7,M,0.8,0000*4F
$GPGSA,A,3,04,05,12,17,10,09,02,,,,,,2.3,1.4,1.8*31
$GPRMC,091011.000,A,3353.7524,N,09832.0234,W,0.13,86.39,010412,,,D*46
$GPGGA,091012.000,3353.7525,N,09832.0236,W,2,06,2.1,316.6,M,-23.7,M,1.8,0000*49
$GPGSA,A,3,04,05,12,17,10,02,,,,,,,4.1,2.1,3.5*35
$GPRMC,091012.000,A,3353.7525,N,09832.0236,W,0.07,351.67,010412,,,D*71
$GPGGA,091013.000,3353.7525,N,09832.0238,W,2,06,2.1,316.5,M,-23.7,M,2.8,0000*46
$GPGSA,A,3,04,05,12,17,10,02,,,,,,,4.1,2.1,3.5*35
$GPGSV,3,1,11,02,74,342,30,12,65,290,21,10,51,084,29,04,44,042,36*71
$GPGSV,3,2,11,05,40,173,35,25,25,316,,17,13,097,30,09,13,228,*74
$GPGSV,3,3,11,27,08,215,18,29,03,292,,51,49,195,39*44
$GPRMC,091013.000,A,3353.7525,N,09832.0238,W,0.31,295.62,010412,,,D*77
$GPGGA,091014.000,3353.7526,N,09832.0241,W,2,06,2.1,316.4,M,-23.7,M,3.8,0000*4C
$GPGSA,A,3,04,05,12,17,10,02,,,,,,,4.1,2.1,3.5*35
$GPRMC,091014.000,A,3353.7526,N,09832.0241,W,0.06,28.11,010412,,,D*49
$GPGGA,091015.000,3353.7527,N,09832.0242,W,2,06,2.1,316.3,M,-23.7,M,0.8,0000*4B
$GPGSA,A,3,04,05,12,17,10,02,,,,,,,4.1,2.1,3.5*35
$GPRMC,091015.000,A,3353.7527,N,09832.0242,W,0.25,84.88,010412,,,D*4D
$GPGGA,091016.000,3353.7527,N,09832.0241,W,2,06,2.1,316.4,M,-23.7,M,0.8,0000*4C
$GPGSA,A,3,04,05,12,17,10,02,,,,,,,4.1,2.1,3.5*35
$GPRMC,091016.000,A,3353.7527,N,09832.0241,W,0.14,75.26,010412,,,D*45
$GPGGA,091017.000,3353.7526,N,09832.0238,W,2,06,2.1,316.9,M,-23.7,M,0.8,0000*4F
$GPGSA,A,3,04,05,12,17,10,02,,,,,,,4.1,2.1,3.5*35
$GPRMC,091017.000,A,3353.7526,N,09832.0238,W,0.08,344.78,010412,,,D*7C
$GPGGA,091018.000,3353.7526,N,09832.0236,W,2,06,2.1,317.3,M,-23.7,M,0.8,0000*45
$GPGSA,A,3,04,05,12,17,10,02,,,,,,,4.1,2.1,3.5*35
$GPGSV,3,1,11,02,74,342,30,12,65,290,22,10,51,084,29,04,44,042,35*71
$GPGSV,3,2,11,05,40,173,35,25,25,316,,17,13,097,31,09,13,228,*75
$GPGSV,3,3,11,27,08,215,18,29,03,292,,51,49,195,39*44
$GPRMC,091018.000,A,3353.7526,N,09832.0236,W,0.27,88.84,010412,,,D*40
$GPGGA,091019.000,3353.7525,N,09832.0232,W,2,06,2.1,317.9,M,-23.7,M,1.8,0000*48
$GPGSA,A,3,04,05,12,17,10,02,,,,,,,4.1,2.1,3.5*35
$GPRMC,091019.000,A,3353.7525,N,09832.0232,W,0.25,91.21,010412,,,D*43
$GPGGA,091020.000,3353.7525,N,09832.0229,W,2,06,2.1,318.3,M,-23.7,M,2.8,0000*4E
$GPGSA,A,3,04,05,12,17,10,02,,,,,,,4.1,2.1,3.5*35
$GPRMC,091020.000,A,3353.7525,N,09832.0229,W,0.35,93.77,010412,,,D*43
$GPGGA,091021.000,3353.7525,N,09832.0230,W,2,06,2.1,318.2,M,-23.7,M,0.8,0000*44
$GPGSA,A,3,04,05,12,17,10,02,,,,,,,4.1,2.1,3.5*35
$GPRMC,091021.000,A,3353.7525,N,09832.0230,W,0.09,57.33,010412,,,D*4D
$GPGGA,091022.000,3353.7526,N,09832.0232,W,2,06,2.1,318.1,M,-23.7,M,0.8,0000*45
$GPGSA,A,3,04,05,12,17,10,02,,,,,,,4.1,2.1,3.5*35
$GPRMC,091022.000,A,3353.7526,N,09832.0232,W,0.27,91.01,010412,,,D*48
$GPGGA,091023.000,3353.7525,N,09832.0227,W,2,06,2.1,319.0,M,-23.7,M,0.8,0000*43
$GPGSA,A,3,04,05,12,17,10,02,,,,,,,4.1,2.1,3.5*35
$GPGSV,3,1,11,02,74,342,30,12,65,290,22,10,51,084,30,04,44,042,34*78
$GPGSV,3,2,11,05,40,173,35,25,25,316,,17,13,097,30,09,13,228,*74
$GPGSV,3,3,11,27,08,215,17,29,03,292,,51,49,195,39*4B
$GPRMC,091023.000,A,3353.7525,N,09832.0227,W,0.41,99.62,010412,,,D*43
$GPGGA,091024.000,3353.7524,N,09832.0224,W,2,06,2.1,319.5,M,-23.7,M,1.8,0000*42
$GPGSA,A,3,04,05,12,17,10,02,,,,,,,4.1,2.1,3.5*35
$GPRMC,091024.000,A,3353.7524,N,09832.0224,W,0.19,89.56,010412,,,D*4D
$GPGGA,091025.000,3353.7524,N,09832.0221,W,2,06,2.1,320.1,M,-23.7,M,2.8,0000*4B
$GPGSA,A,3,04,05,12,17,10,02,,,,,,,4.1,2.1,3.5*35
$GPRMC,091025.000,A,3353.7524,N,09832.0221,W,0.32,98.09,010412,,,D*4A
$GPGGA,091026.000,3353.7526,N,09832.0227,W,2,06,2.1,319.4,M,-23.7,M,3.8,0000*42
$GPGSA,A,3,04,05,12,17,10,02,,,,,,,4.1,2.1,3.5*35
$GPRMC,091026.000,A,3353.7526,N,09832.0227,W,0.25,95.05,010412,,,D*4A
$GPGGA,091027.000,3353.7528,N,09832.0235,W,2,06,2.1,318.2,M,-23.7,M,0.8,0000*4A
$GPGSA,A,3,04,05,12,17,10,02,,,,,,,4.1,2.1,3.5*35
$GPRMC,091027.000,A,3353.7528,N,09832.0235,W,0.23,306.89,010412,,,D*7D
$GPGGA,091028.000,3353.7531,N,09832.0243,W,2,06,2.1,317.0,M,-23.7,M,0.8,0000*41
$GPGSA,A,3,04,05,12,17,10,02,,,,,,,4.1,2.1,3.5*35
$GPGSV,3,1,11,02,74,342,31,12,65,290,22,10,51,084,31,04,44,042,35*79
$GPGSV,3,2,11,05,40,173,36,25,25,316,,17,13,097,30,09,13,228,*77
$GPGSV,3,3,11,27,08,215,17,29,03,292,,51,49,195,39*4B
$GPRMC,091028.000,A,3353.7531,N,09832.0243,W,0.19,317.71,010412,,,D*75
$GPGGA,091029.000,3353.7532,N,09832.0247,W,2,06,2.1,316.4,M,-23.7,M,0.8,0000*42
$GPGSA,A,3,04,05,12,17,10,02,,,,,,,4.1,2.1,3.5*35
$GPRMC,091029.000,A,3353.7532,N,09832.0247,W,0.11,42.62,010412,,,D*4A
$GPGGA,091030.000,3353.7534,N,09832.0252,W,2,06,2.1,315.5,M,-23.7,M,1.8,0000*4B
$GPGSA,A,3,04,05,12,17,10,02,,,,,,,4.1,2.1,3.5*35
$GPRMC,091030.000,A,3353.7534,N,09832.0252,W,0.13,47.15,010412,,,D*47
$GPGGA,091031.000,3353.7534,N,09832.0251,W,2,06,2.1,315.6,M,-23.7,M,2.8,0000*49
$GPGSA,A,3,04,05,12,17,10,02,,,,,,,4.1,2.1,3.5*35
$GPRMC,091031.000,A,3353.7534,N,09832.0251,W,0.20,316.88,010412,,,D*76
$GPGGA,091032.000,3353.7534,N,09832.0251,W,2,07,1.4,315.5,M,-23.7,M,3.8,0000*4F
$GPGSA,A,3,04,05,12,09,17,10,02,,,,,,2.3,1.4,1.8*31
$GPRMC,091032.000,A,3353.7534,N,09832.0251,W,0.45,288.11,010412,,,D*70
$GPGGA,091033.000,3353.7534,N,09832.0250,W,2,07,1.4,315.7,M,-23.7,M,0.8,0000*4E
$GPGSA,A,3,04,05,12,09,17,10,02,,,,,,2.3,1.4,1.8*31
$GPGSV,3,1,11,02,74,342,31,12,65,290,23,10,51,084,32,04,44,042,36*78
$GPGSV,3,2,11,05,40,173,36,25,25,316,,17,13,097,29,09,13,228,20*7D
$GPGSV,3,3,11,27,08,215,16,29,03,292,,51,49,195,39*4A
$GPRMC,091033.000,A,3353.7534,N,09832.0250,W,0.12,31.86,010412,,,D*4C
$GPGGA,091034.000,3353.7534,N,09832.0247,W,2,07,1.4,316.4,M,-23.7,M,0.8,0000*4F
$GPGSA,A,3,04,05,12,09,17,10,02,,,,,,2.3,1.4,1.8*31
$GPRMC,091034.000,A,3353.7534,N,09832.0247,W,0.46,82.41,010412,,,D*4F
$GPGGA,091035.000,3353.7533,N,09832.0242,W,2,07,1.4,317.9,M,-23.7,M,0.8,0000*40
$GPGSA,A,3,04,05,12,09,17,10,02,,,,,,2.3,1.4,1.8*31
$GPRMC,091035.000,A,3353.7533,N,09832.0242,W,0.23,79.32,010412,,,D*4F
$GPGGA,091036.000,3353.7531,N,09832.0236,W,2,07,1.4,318.7,M,-23.7,M,0.8,0000*43
$GPGSA,A,3,04,05,12,09,17,10,02,,,,,,2.3,1.4,1.8*31
$GPRMC,091036.000,A,3353.7531,N,09832.0236,W,0.08,273.67,010412,,,D*7C
$GPGGA,091037.000,3353.7530,N,09832.0233,W,2,07,1.4,319.0,M,-23.7,M,1.8,0000*41
$GPGSA,A,3,04,05,12,09,17,10,02,,,,,,2.3,1.4,1.8*31
$GPRMC,091037.000,A,3353.7530,N,09832.0233,W,0.07,233.27,010412,,,D*76
$GPGGA,091038.000,3353.7530,N,09832.0234,W,2,07,1.4,318.7,M,-23.7,M,2.8,0000*4C
$GPGSA,A,3,04,05,12,09,17,10,02,,,,,,2.3,1.4,1.8*31
$GPGSV,3,1,11,02,74,342,31,12,65,290,23,10,51,084,32,04,44,042,35*7B
$GPGSV,3,2,11,05,40,173,36,25,25,316,,17,13,097,29,09,13,228,20*7D
$GPGSV,3,3,11,27,08,215,14,29,03,292,,51,49,195,39*48
$GPRMC,091038.000,A,3353.7530,N,09832.0234,W,0.23,264.91,010412,,,D*77
$GPGGA,091039.000,3353.7530,N,09832.0231,W,2,07,1.4,318.9,M,-23.7,M,0.8,0000*44
$GPGSA,A,3,04,05,12,09,17,10,02,,,,,,2.3,1.4,1.8*31
$GPRMC,091039.000,A,3353.7530,N,09832.0231,W,0.06,204.71,010412,,,D*7C
$GPGGA,091040.000,3353.7529,N,09832.0230,W,2,07,1.4,319.0,M,-23.7,M,0.8,0000*4B
$GPGSA,A,3,04,05,12,09,17,10,02,,,,,,2.3,1.4,1.8*31
$GPRMC,091040.000,A,3353.7529,N,09832.0230,W,0.12,27.57,010412,,,D*49
$GPGGA,091041.000,3353.7530,N,09832.0230,W,2,07,1.4,319.1,M,-23.7,M,0.8,0000*43
$GPGSA,A,3,04,05,12,09,17,10,02,,,,,,2.3,1.4,1.8*31
$GPRMC,091041.000,A,3353.7530,N,09832.0230,W,0.48,88.15,010412,,,D*4C
$GPGGA,091042.000,3353.7530,N,09832.0230,W,2,07,1.4,318.8,M,-23.7,M,0.8,0000*48
$GPGSA,A,3,04,05,12,09,17,10,02,,,,,,2.3,1.4,1.8*31
$GPRMC,091042.000,A,3353.7530,N,09832.0230,W,0.04,325.86,010412,,,D*79
$GPGGA,091043.000,3353.7531,N,09832.0233,W,2,07,1.4,318.3,M,-23.7,M,1.8,0000*41
$GPGSA,A,3,04,05,12,09,17,10,02,,,,,,2.3,1.4,1.8*31
$GPGSV,3,1,11,02,73,346,32,12,65,287,23,10,51,081,33,04,43,043,29*72
$GPGSV,3,2,11,05,41,173,37,25,26,315,,17,13,098,28,09,12,227,19*77
$GPGSV,3,3,11,27,07,214,14,29,03,293,,51,49,195,39*47
$GPRMC,091043.000,A,3353.7531,N,09832.0233,W,0.28,285.10,010412,,,D*70
$GPGGA,091044.000,3353.7533,N,09832.0238,W,2,07,1.4,317.6,M,-23.7,M,0.8,0000*44
$GPGSA,A,3,04,05,12,09,17,10,02,,,,,,2.3,1.4,1.8*31
$GPRMC,091044.000,A,3353.7533,N,09832.0238,W,0.56,290.74,010412,,,D*71
$GPGGA,091045.000,3353.7535,N,09832.0241,W,2,07,1.4,317.2,M,-23.7,M,0.8,0000*49
$GPGSA,A,3,04,05,12,09,17,10,02,,,,,,2.3,1.4,1.8*31
$GPRMC,091045.000,A,3353.7535,N,09832.0241,W,0.35,323.20,010412,,,D*75
$GPGGA,091046.000,3353.7537,N,09832.0247,W,2,07,1.4,316.3,M,-23.7,M,0.8,0000*4E
$GPGSA,A,3,04,05,12,09,17,10,02,,,,,,2.3,1.4,1.8*31
$GPRMC,091046.000,A,3353.7537,N,09832.0247,W,0.40,293.28,010412,,,D*72
$GPGGA,091047.000,3353.7537,N,09832.0244,W,2,07,1.4,317.6,M,-23.7,M,0.8,0000*48
$GPGSA,A,3,04,05,12,09,17,10,02,,,,,,2.3,1.4,1.8*31
$GPRMC,091047.000,A,3353.7537,N,09832.0244,W,0.18,55.02,010412,,,D*4D
$GPGGA,091048.000,3353.7538,N,09832.0248,W,2,07,1.4,317.0,M,-23.7,M,1.8,0000*43
$GPGSA,A,3,04,05,12,09,17,10,02,,,,,,2.3,1.4,1.8*31
$GPGSV,3,1,11,02,73,346,32,12,65,287,22,10,51,081,33,04,43,043,29*73
$GPGSV,3,2,11,05,41,173,37,25,26,315,,17,13,098,27,09,12,227,19*78
$GPGSV,3,3,11,27,07,214,15,29,04,293,,51,49,195,39*41
$GPRMC,091048.000,A,3353.7538,N,09832.0248,W,0.39,301.62,010412,,,D*76
$GPGGA,091049.000,3353.7540,N,09832.0251,W,2,07,1.4,316.6,M,-23.7,M,2.8,0000*41
$GPGSA,A,3,04,05,12,09,17,10,02,,,,,,2.3,1.4,1.8*31
$GPRMC,091049.000,A,3353.7540,N,09832.0251,W,0.52,299.83,010412,,,D*72
$GPGGA,091050.000,3353.7540,N,09832.0251,W,2,07,1.4,316.4,M,-23.7,M,3.8,0000*4A
$GPGSA,A,3,04,05,12,09,17,10,02,,,,,,2.3,1.4,1.8*31
$GPRMC,091050.000,A,3353.7540,N,09832.0251,W,0.50,298.35,010412,,,D*74
$GPGGA,091051.000,3353.7542,N,09832.0255,W,2,07,1.4,315.9,M,-23.7,M,0.8,0000*40
$GPGSA,A,3,04,05,12,09,17,10,02,,,,,,2.3,1.4,1.8*31
$GPRMC,091051.000,A,3353.7542,N,09832.0255,W,0.28,333.78,010412,,,D*75
$GPGGA,091052.000,3353.7543,N,09832.0256,W,2,07,1.4,315.4,M,-23.7,M,0.8,0000*4C
$GPGSA,A,3,04,05,12,09,17,10,02,,,,,,2.3,1.4,1.8*31
$GPRMC,091052.000,A,3353.7543,N,09832.0256,W,0.12,299.49,010412,,,D*7E
$GPGGA,091053.000,3353.7544,N,09832.0260,W,2,07,1.4,314.7,M,-23.7,M,0.8,0000*4D
$GPGSA,A,3,04,05,12,09,17,10,02,,,,,,2.3,1.4,1.8*31
$GPGSV,3,1,11,02,73,346,32,12,65,287,21,10,51,081,33,04,43,043,30*78
$GPGSV,3,2,11,05,41,173,36,25,26,315,,17,13,098,27,09,12,227,19*79
$GPGSV,3,3,11,27,07,214,16,29,04,293,,51,49,195,39*42
$GPRMC,091053.000,A,3353.7544,N,09832.0260,W,0.16,276.94,010412,,,D*78
$GPGGA,091054.000,3353.7546,N,09832.0265,W,2,07,1.4,313.8,M,-23.7,M,1.8,0000*44
$GPGSA,A,3,04,05,12,09,17,10,02,,,,,,2.3,1.4,1.8*31
$GPRMC,091054.000,A,3353.7546,N,09832.0265,W,0.29,279.98,010412,,,D*77
$GPGGA,091055.000,3353.7547,N,09832.0266,W,2,07,1.4,313.6,M,-23.7,M,2.8,0000*4A
$GPGSA,A,3,04,05,12,09,17,10,02,,,,,,2.3,1.4,1.8*31
$GPRMC,091055.000,A,3353.7547,N,09832.0266,W,0.33,331.43,010412,,,D*74
$GPGGA,091056.000,3353.7547,N,09832.0265,W,2,07,1.4,313.0,M,-23.7,M,3.8,0000*4D
$GPGSA,A,3,04,05,12,09,17,10,02,,,,,,2.3,1.4,1.8*31
$GPRMC,091056.000,A,3353.7547,N,09832.0265,W,0.11,295.66,010412,,,D*7C
$GPGGA,091057.000,3353.7547,N,09832.0265,W,2,07,1.4,312.6,M,-23.7,M,0.8,0000*48
$GPGSA,A,3,04,05,12,09,17,10,02,,,,,,2.3,1.4,1.8*31
$GPRMC,091057.000,A,3353.7547,N,09832.0265,W,0.06,281.66,010412,,,D*7E
$GPGGA,091058.000,3353.7547,N,09832.0264,W,2,07,1.4,311.8,M,-23.7,M,0.8,0000*4B
$GPGSA,A,3,04,05,12,09,17,10,02,,,,,,2.3,1.4,1.8*31
$GPGSV,3,1,11,02,73,346,32,12,65,287,20,10,51,081,33,04,43,043,31*78
$GPGSV,3,2,11,05,41,173,36,25,26,315,,17,13,098,26,09,12,227,18*79
$GPGSV,3,3,11,27,07,214,16,29,04,293,,51,49,195,39*42
$GPRMC,091058.000,A,3353.7547,N,09832.0264,W,0.19,298.30,010412,,,D*75
$GPGGA,091059.000,3353.7547,N,09832.0261,W,2,06,2.2,311.4,M,-23.7,M,0.8,0000*47
$GPGSA,A,3,04,05,12,17,10,02,,,,,,,4.1,2.2,3.5*36
$GPRMC,091059.000,A,3353.7547,N,09832.0261,W,0.12,40.67,010412,,,D*4F
$GPGGA,091100.000,3353.7547,N,09832.0260,W,2,06,2.2,310.8,M,-23.7,M,1.8,0000*47
$GPGSA,A,3,04,05,12,17,10,02,,,,,,,4.1,2.2,3.5*36
$GPRMC,091100.000,A,3353.7547,N,09832.0260,W,0.17,64.08,010412,,,D*49
$GPGGA,091101.000,3353.7547,N,09832.0257,W,2,06,2.2,310.8,M,-23.7,M,2.8,0000*41
$GPGSA,A,3,04,05,12,17,10,02,,,,,,,4.1,2.2,3.5*36
$GPRMC,091101.000,A,3353.7547,N,09832.0257,W,0.21,75.31,010412,,,D*43
$GPGGA,091102.000,3353.7546,N,09832.0252,W,2,06,2.2,310.4,M,-23.7,M,3.8,0000*4B
$GPGSA,A,3,04,05,12,17,10,02,,,,,,,4.1,2.2,3.5*36
$GPRMC,091102.000,A,3353.7546,N,09832.0252,W,0.26,70.42,010412,,,D*42
$GPGGA,091103.000,3353.7547,N,09832.0253,W,2,06,2.2,310.0,M,-23.7,M,0.8,0000*4D
$GPGSA,A,3,04,05,12,17,10,02,,,,,,,4.1,2.2,3.5*36
$GPGSV,3,1,11,02,73,346,33,12,65,287,20,10,51,081,33,04,43,043,31*79
$GPGSV,3,2,11,05,41,173,36,25,26,315,15,17,13,098,25,09,12,227,*77
$GPGSV,3,3,11,27,07,214,15,29,04,293,,51,49,195,39*41
$GPRMC,091103.000,A,3353.7547,N,09832.0253,W,0.47,302.50,010412,,,D*71
$GPGGA,091104.000,3353.7548,N,09832.0255,W,2,06,2.2,309.4,M,-23.7,M,0.8,0000*4F
$GPGSA,A,3,04,05,12,17,10,02,,,,,,,4.1,2.2,3.5*36
$GPRMC,091104.000,A,3353.7548,N,09832.0255,W,0.19,61.63,010412,,,D*42
$GPGGA,091105.000,3353.7550,N,09832.0261,W,2,06,2.2,308.5,M,-23.7,M,0.8,0000*40
$GPGSA,A,3,04,05,12,17,10,02,,,,,,,4.1,2.2,3.5*36
$GPRMC,091105.000,A,3353.7550,N,09832.0261,W,0.13,17.64,010412,,,D*41
$GPGGA,091106.000,3353.7552,N,09832.0268,W,2,06,2.2,306.8,M,-23.7,M,1.8,0000*4A
$GPGSA,A,3,04,05,12,17,10,02,,,,,,,4.1,2.2,3.5*36
$GPRMC,091106.000,A,3353.7552,N,09832.0268,W,0.15,352.43,010412,,,D*78
$GPGGA,091107.000,3353.7555,N,09832.0274,W,2,06,2.2,305.1,M,-23.7,M,2.8,0000*48
$GPGSA,A,3,04,05,12,17,10,02,,,,,,,4.1,2.2,3.5*36
$GPRMC,091107.000,A,3353.7555,N,09832.0274,W,0.20,342.23,010412,,,D*72
$GPGGA,091108.000,3353.7556,N,09832.0277,W,2,06,2.2,304.0,M,-23.7,M,3.8,0000*46
$GPGSA,A,3,04,05,12,17,10,02,,,,,,,4.1,2.2,3.5*36
$GPGSV,3,1,11,02,73,346,33,12,65,287,19,10,51,081,34,04,43,043,30*75
$GPGSV,3,2,11,05,41,173,36,25,26,315,15,17,13,098,24,09,12,227,*76
$GPGSV,3,3,11,27,07,214,14,29,04,293,,51,49,195,39*40
$GPRMC,091108.000,A,3353.7556,N,09832.0277,W,0.19,347.84,010412,,,D*7F
$GPGGA,091109.000,3353.7557,N,09832.0278,W,2,06,2.2,303.5,M,-23.7,M,0.8,0000*48
$GPGSA,A,3,04,05,12,17,10,02,,,,,,,4.1,2.2,3.5*36
$GPRMC,091109.000,A,3353.7557,N,09832.0278,W,0.16,341.71,010412,,,D*73
$GPGGA,091110.000,3353.7558,N,09832.0283,W,2,06,2.2,302.9,M,-23.7,M,0.8,0000*46
$GPGSA,A,3,04,05,12,17,10,02,,,,,,,4.1,2.2,3.5*36
$GPRMC,091110.000,A,3353.7558,N,09832.0283,W,0.37,310.46,010412,,,D*73
$GPGGA,091111.000,3353.7558,N,09832.0282,W,2,05,2.9,303.1,M,-23.7,M,0.8,0000*47
$GPGSA,A,3,04,05,17,10,02,,,,,,,,5.1,2.9,4.2*3F
$GPRMC,091111.000,A,3353.7558,N,09832.0282,W,0.20,328.53,010412,,,D*7A
$GPGGA,091112.000,3353.7559,N,09832.0283,W,2,05,2.9,303.1,M,-23.7,M,1.8,0000*45
$GPGSA,A,3,04,05,17,10,02,,,,,,,,5.1,2.9,4.2*3F
$GPRMC,091112.000,A,3353.7559,N,09832.0283,W,0.59,299.28,010412,,,D*70
$GPGGA,091113.000,3353.7559,N,09832.0285,W,2,05,2.9,303.0,M,-23.7,M,2.8,0000*40
$GPGSA,A,3,04,05,17,10,02,,,,,,,,5.1,2.9,4.2*3F
$GPGSV,3,1,11,02,73,346,33,12,65,287,16,10,51,081,34,04,43,043,30*7A
$GPGSV,3,2,11,05,41,173,36,25,26,315,15,17,13,098,25,09,12,227,*77
$GPGSV,3,3,11,27,07,214,,29,04,293,,51,49,195,39*45
$GPRMC,091113.000,A,3353.7559,N,09832.0285,W,0.46,302.73,010412,,,D*74
$GPGGA,091114.000,3353.7560,N,09832.0286,W,2,05,2.9,303.2,M,-23.7,M,0.8,0000*4E
$GPGSA,A,3,04,05,17,10,02,,,,,,,,5.1,2.9,4.2*3F
$GPRMC,091114.000,A,3353.7560,N,09832.0286,W,0.31,311.33,010412,,,D*7C
$GPGGA,091115.000,3353.7560,N,09832.0286,W,2,05,2.9,303.4,M,-23.7,M,0.8,0000*49
$GPGSA,A,3,04,05,17,10,02,,,,,,,,5.1,2.9,4.2*3F
$GPRMC,091115.000,A,3353.7560,N,09832.0286,W,0.31,312.35,010412,,,D*78
$GPGGA,091116.000,3353.7560,N,09832.0287,W,2,05,2.9,302.8,M,-23.7,M,0.8,0000*46
$GPGSA,A,3,04,05,17,10,02,,,,,,,,5.1,2.9,4.2*3F
$GPRMC,091116.000,A,3353.7560,N,09832.0287,W,0.17,329.76,010412,,,D*71
$GPGGA,091117.000,3353.7561,N,09832.0287,W,2,05,2.9,302.2,M,-23.7,M,0.8,0000*4C
$GPGSA,A,3,04,05,17,10,02,,,,,,,,5.1,2.9,4.2*3F
$GPRMC,091117.000,A,3353.7561,N,09832.0287,W,0.22,322.56,010412,,,D*7E
$GPGGA,091118.000,3353.7561,N,09832.0288,W,2,05,2.9,301.7,M,-23.7,M,1.8,0000*4B
$GPGSA,A,3,04,05,17,10,02,,,,,,,,5.1,2.9,4.2*3F
$GPGSV,3,1,11,02,73,346,32,12,65,287,,10,51,081,34,04,43,043,30*7C
$GPGSV,3,2,11,05,41,173,36,25,26,315,14,17,13,098,24,09,12,227,*77
$GPGSV,3,3,11,27,07,214,,29,04,293,,51,49,195,39*45
$GPRMC,091118.000,A,3353.7561,N,09832.0288,W,0.23,319.32,010412,,,D*75
$GPGGA,091119.000,3353.7562,N,09832.0288,W,2,05,3.0,301.4,M,-23.7,M,2.8,0000*41
$GPGSA,A,3,04,05,17,10,02,,,,,,,,5.1,3.0,4.2*37
$GPRMC,091119.000,A,3353.7562,N,09832.0288,W,0.21,323.38,010412,,,D*76
$GPGGA,091120.000,3353.7561,N,09832.0288,W,2,05,3.0,301.9,M,-23.7,M,3.8,0000*44
$GPGSA,A,3,04,05,17,10,02,,,,,,,,5.1,3.0,4.2*37
$GPRMC,091120.000,A,3353.7561,N,09832.0288,W,0.26,310.85,010412,,,D*7E
$GPGGA,091121.000,3353.7561,N,09832.0289,W,2,05,3.0,302.1,M,-23.7,M,0.8,0000*4C
$GPGSA,A,3,04,05,17,10,02,,,,,,,,5.1,3.0,4.2*37
$GPRMC,091121.000,A,3353.7561,N,09832.0289,W,0.22,319.41,010412,,,D*7B
$GPGGA,091122.000,3353.7561,N,09832.0289,W,2,05,3.0,302.2,M,-23.7,M,0.8,0000*4C
$GPGSA,A,3,04,05,17,10,02,,,,,,,,5.1,3.0,4.2*37
$GPRMC,091122.000,A,3353.7561,N,09832.0289,W,0.21,317.66,010412,,,D*70
$GPGGA,091123.000,3353.7561,N,09832.0289,W,2,05,3.0,302.3,M,-23.7,M,0.8,0000*4C
$GPGSA,A,3,04,05,17,10,02,,,,,,,,5.1,3.0,4.2*37
$GPGSV,3,1,11,02,73,346,33,12,65,287,,10,51,081,33,04,43,043,32*78
$GPGSV,3,2,11,05,41,173,36,25,26,315,12,17,13,098,25,09,12,227,*70
$GPGSV,3,3,11,27,07,214,,29,04,293,,51,49,195,39*45
$GPRMC,091123.000,A,3353.7561,N,09832.0289,W,0.21,311.49,010412,,,D*7A
$GPGGA,091124.000,3353.7561,N,09832.0289,W,2,05,3.0,302.5,M,-23.7,M,0.8,0000*4D
$GPGSA,A,3,04,05,17,10,02,,,,,,,,5.1,3.0,4.2*37
$GPRMC,091124.000,A,3353.7561,N,09832.0289,W,0.19,314.51,010412,,,D*7A
$GPGGA,091125.000,3353.7561,N,09832.0289,W,2,05,3.0,302.6,M,-23.7,M,0.8,0000*4F
$GPGSA,A,3,04,05,17,10,02,,,,,,,,5.1,3.0,4.2*37
$GPRMC,091125.000,A,3353.7561,N,09832.0289,W,0.18,319.18,010412,,,D*7A
$GPGGA,091126.000,3353.7561,N,09832.0289,W,2,05,3.0,302.7,M,-23.7,M,1.8,0000*4C
$GPGSA,A,3,04,05,17,10,02,,,,,,,,5.1,3.0,4.2*37
$GPRMC,091126.000,A,3353.7561,N,09832.0289,W,0.14,325.72,010412,,,D*76
$GPGGA,091127.000,3353.7561,N,09832.0288,W,2,05,3.0,302.6,M,-23.7,M,0.8,0000*4C
$GPGSA,A,3,04,05,17,10,02,,,,,,,,5.1,3.0,4.2*37
$GPRMC,091127.000,A,3353.7561,N,09832.0288,W,0.11,331.32,010412,,,D*72
$GPGGA,091128.000,3353.7561,N,09832.0288,W,2,05,3.0,302.6,M,-23.7,M,0.8,0000*43
$GPGSA,A,3,04,05,17,10,02,,,,,,,,5.1,3.0,4.2*37
$GPGSV,3,1,11,02,73,346,33,12,65,287,,10,51,081,33,04,43,043,32*78
$GPGSV,3,2,11,05,41,173,36,25,26,315,,17,13,098,25,09,12,227,*73
$GPGSV,3,3,11,27,07,214,,29,04,293,,51,49,195,39*45
$GPRMC,091128.000,A,3353.7561,N,09832.0288,W,0.13,337.66,010412,,,D*78
$GPGGA,091129.000,3353.7561,N,09832.0287,W,2,05,3.0,302.5,M,-23.7,M,0.8,0000*4E
$GPGSA,A,3,04,05,17,10,02,,,,,,,,5.1,3.0,4.2*37
$GPRMC,091129.000,A,3353.7561,N,09832.0287,W,0.09,28.04,010412,,,D*44
$GPGGA,091130.000,3353.7560,N,09832.0287,W,2,05,3.0,302.5,M,-23.7,M,0.8,0000*47
$GPGSA,A,3,04,05,17,10,02,,,,,,,,5.1,3.0,4.2*37
$GPRMC,091130.000,A,3353.7560,N,09832.0287,W,0.09,29.46,010412,,,D*4A
$GPGGA,091131.000,3353.7560,N,09832.0286,W,2,05,3.0,302.4,M,-23.7,M,1.8,0000*47
$GPGSA,A,3,04,05,17,10,02,,,,,,,,5.1,3.0,4.2*37
$GPRMC,091131.000,A,3353.7560,N,09832.0286,W,0.09,43.49,010412,,,D*49
$GPGGA,091132.000,3353.7560,N,09832.0286,W,2,05,3.0,302.4,M,-23.7,M,0.8,0000*45
$GPGSA,A,3,04,05,17,10,02,,,,,,,,5.1,3.0,4.2*37
$GPRMC,091132.000,A,3353.7560,N,09832.0286,W,0.11,31.92,010412,,,D*40
$GPGGA,091133.000,3353.7560,N,09832.0285,W,2,05,3.0,302.5,M,-23.7,M,0.8,0000*46
$GPGSA,A,3,04,05,17,10,02,,,,,,,,5.1,3.0,4.2*37
$GPGSV,3,1,11,02,73,346,33,12,65,287,,10,51,081,33,04,43,043,25*7E
$GPGSV,3,2,11,05,41,173,35,25,26,315,,17,13,098,25,09,12,227,*70
$GPGSV,3,3,11,27,07,214,16,29,04,293,,51,49,195,39*42
$GPRMC,091133.000,A,3353.7560,N,09832.0285,W,0.08,34.50,010412,,,D*41
$GPGGA,091134.000,3353.7560,N,09832.0285,W,2,05,3.0,302.5,M,-23.7,M,0.8,0000*41
$GPGSA,A,3,04,05,17,10,02,,,,,,,,5.1,3.0,4.2*37
$GPRMC,091134.000,A,3353.7560,N,09832.0285,W,0.09,22.52,010412,,,D*42
$GPGGA,091135.000,3353.7559,N,09832.0284,W,2,05,3.0,302.6,M,-23.7,M,0.8,0000*48
$GPGSA,A,3,04,05,17,10,02,,,,,,,,5.1,3.0,4.2*37
$GPRMC,091135.000,A,3353.7559,N,09832.0284,W,0.08,13.42,010412,,,D*4A
$GPGGA,091136.000,3353.7563,N,09832.0294,W,2,06,1.5,299.7,M,-23.7,M,1.8,0000*44
$GPGSA,A,3,04,05,09,17,10,02,,,,,,,2.4,1.5,1.8*34
$GPRMC,091136.000,A,3353.7563,N,09832.0294,W,0.42,275.96,010412,,,D*74
$GPGGA,091137.000,3353.7563,N,09832.0296,W,2,05,3.0,299.3,M,-23.7,M,2.8,0000*44
$GPGSA,A,3,04,05,17,10,02,,,,,,,,5.1,3.0,4.2*37
$GPRMC,091137.000,A,3353.7563,N,09832.0296,W,0.41,276.99,010412,,,D*78
$GPGGA,091138.000,3353.7564,N,09832.0298,W,2,06,1.5,298.9,M,-23.7,M,3.8,0000*4C
$GPGSA,A,3,04,05,09,17,10,02,,,,,,,2.3,1.5,1.8*33
$GPGSV,3,1,11,02,73,346,34,12,65,287,,10,51,081,33,04,43,043,20*7C
$GPGSV,3,2,11,05,41,173,35,25,26,315,,17,13,098,25,09,12,227,15*74
$GPGSV,3,3,11,27,07,214,17,29,04,293,,51,49,195,39*43
$GPRMC,091138.000,A,3353.7564,N,09832.0298,W,0.37,352.36,010412,,,D*7D
$GPGGA,091139.000,3353.7562,N,09832.0293,W,2,06,1.5,300.3,M,-23.7,M,0.8,0000*49
$GPGSA,A,3,04,05,09,17,10,02,,,,,,,2.3,1.5,1.8*33
$GPRMC,091139.000,A,3353.7562,N,09832.0293,W,0.35,31.14,010412,,,D*45
$GPGGA,091140.000,3353.7561,N,09832.0288,W,2,06,1.5,301.5,M,-23.7,M,0.8,0000*49
$GPGSA,A,3,04,05,09,17,10,02,,,,,,,2.3,1.5,1.8*33
$GPRMC,091140.000,A,3353.7561,N,09832.0288,W,0.36,329.98,010412,,,D*7F
$GPGGA,091141.000,3353.7561,N,09832.0285,W,2,07,1.4,301.3,M,-23.7,M,0.8,0000*43
$GPGSA,A,3,04,05,09,17,10,12,02,,,,,,2.3,1.4,1.8*31
$GPRMC,091141.000,A,3353.7561,N,09832.0285,W,0.24,38.36,010412,,,D*47
$GPGGA,091142.000,3353.7559,N,09832.0279,W,2,07,1.4,302.8,M,-23.7,M,1.8,0000*41
$GPGSA,A,3,04,05,09,17,10,12,02,,,,,,2.3,1.4,1.8*31
$GPRMC,091142.000,A,3353.7559,N,09832.0279,W,0.22,169.76,010412,,,D*7B
$GPGGA,091143.000,3353.7558,N,09832.0276,W,2,07,1.4,302.8,M,-23.7,M,2.8,0000*4D
$GPGSA,A,3,04,05,09,17,10,12,02,,,,,,2.3,1.4,1.8*31
$GPGSV,3,1,11,02,73,347,34,12,66,286,23,10,51,081,32,04,43,043,21*7E
$GPGSV,3,2,11,05,41,172,35,25,27,315,,17,12,098,25,09,12,227,18*78
$GPGSV,3,3,11,27,07,214,18,29,04,294,,51,49,195,39*4B
$GPRMC,091143.000,A,3353.7558,N,09832.0276,W,0.28,183.87,010412,,,D*74
$GPGGA,091144.000,3353.7559,N,09832.0273,W,2,06,2.2,302.6,M,-23.7,M,3.8,0000*45
$GPGSA,A,3,04,05,17,10,12,02,,,,,,,4.1,2.2,3.5*36
$GPRMC,091144.000,A,3353.7559,N,09832.0273,W,0.27,22.52,010412,,,D*4A
$GPGGA,091145.000,3353.7560,N,09832.0268,W,2,07,1.4,303.5,M,-23.7,M,0.8,0000*41
$GPGSA,A,3,04,05,09,17,10,12,02,,,,,,2.3,1.4,1.8*31
$GPRMC,091145.000,A,3353.7560,N,09832.0268,W,0.03,356.53,010412,,,D*7C
$GPGGA,091146.000,3353.7559,N,09832.0262,W,2,07,1.4,303.3,M,-23.7,M,0.8,0000*44
$GPGSA,A,3,04,05,09,17,10,12,02,,,,,,2.3,1.4,1.8*31
$GPRMC,091146.000,A,3353.7559,N,09832.0262,W,0.07,236.30,010412,,,D*79
$GPGGA,091147.000,3353.7559,N,09832.0257,W,2,07,1.4,303.5,M,-23.7,M,0.8,0000*45
$GPGSA,A,3,04,05,09,17,10,12,02,,,,,,2.3,1.4,1.8*31
$GPRMC,091147.000,A,3353.7559,N,09832.0257,W,0.27,31.99,010412,,,D*4A
$GPGGA,091148.000,3353.7558,N,09832.0251,W,2,07,1.4,303.6,M,-23.7,M,0.8,0000*4E
$GPGSA,A,3,04,05,09,17,10,12,02,,,,,,2.3,1.4,1.8*31
$GPGSV,3,1,11,02,73,348,34,12,66,286,24,10,51,081,32,04,43,043,28*7F
$GPGSV,3,2,11,05,42,172,35,25,27,315,,17,12,098,25,09,12,227,19*7A
$GPGSV,3,3,11,27,07,214,17,29,04,294,,51,49,195,39*44
$GPRMC,091148.000,A,3353.7558,N,09832.0251,W,0.18,286.63,010412,,,D*75
$GPGGA,091149.000,3353.7556,N,09832.0246,W,2,07,1.4,304.0,M,-23.7,M,1.8,0000*47
$GPGSA,A,3,04,05,09,17,10,12,02,,,,,,2.3,1.4,1.8*31
$GPRMC,091149.000,A,3353.7556,N,09832.0246,W,0.23,55.82,010412,,,D*47
$GPGGA,091150.000,3353.7554,N,09832.0238,W,2,07,1.4,304.5,M,-23.7,M,2.8,0000*42
$GPGSA,A,3,04,05,09,17,10,12,02,,,,,,2.3,1.4,1.8*31
$GPRMC,091150.000,A,3353.7554,N,09832.0238,W,0.19,98.26,010412,,,D*42
$GPGGA,091151.000,3353.7553,N,09832.0232,W,2,07,1.4,305.2,M,-23.7,M,0.8,0000*4A
$GPGSA,A,3,04,05,09,17,10,12,02,,,,,,2.3,1.4,1.8*31
$GPRMC,091151.000,A,3353.7553,N,09832.0232,W,0.38,63.68,010412,,,D*43
$GPGGA,091152.000,3353.7551,N,09832.0225,W,2,07,1.4,306.1,M,-23.7,M,0.8,0000*4D
$GPGSA,A,3,04,05,09,17,10,12,02,,,,,,2.3,1.4,1.8*31
$GPRMC,091152.000,A,3353.7551,N,09832.0225,W,0.48,69.66,010412,,,D*47
$GPGGA,091153.000,3353.7549,N,09832.0220,W,2,07,1.4,306.8,M,-23.7,M,0.8,0000*49
$GPGSA,A,3,04,05,09,17,10,12,02,,,,,,2.3,1.4,1.8*31
$GPGSV,3,1,11,02,73,348,34,12,66,286,26,10,51,081,31,04,43,043,29*7F
$GPGSV,3,2,11,05,42,172,34,25,27,315,,17,12,098,26,09,12,227,20*72
$GPGSV,3,3,11,27,07,214,15,29,04,294,,51,49,195,39*46
$GPRMC,091153.000,A,3353.7549,N,09832.0220,W,0.23,87.71,010412,,,D*41
$GPGGA,091154.000,3353.7548,N,09832.0217,W,2,07,1.4,307.4,M,-23.7,M,0.8,0000*46
$GPGSA,A,3,04,05,09,17,10,12,02,,,,,,2.3,1.4,1.8*31
$GPRMC,091154.000,A,3353.7548,N,09832.0217,W,0.11,182.95,010412,,,D*7C
$GPGGA,091155.000,3353.7546,N,09832.0213,W,2,07,1.4,308.3,M,-23.7,M,1.8,0000*44
$GPGSA,A,3,04,05,09,17,10,12,02,,,,,,2.3,1.4,1.8*31
$GPRMC,091155.000,A,3353.7546,N,09832.0213,W,0.35,79.87,010412,,,D*47
$GPGGA,091156.000,3353.7545,N,09832.0210,W,2,07,1.4,309.0,M,-23.7,M,2.8,0000*46
$GPGSA,A,3,04,05,09,17,10,12,02,,,,,,2.3,1.4,1.8*31
$GPRMC,091156.000,A,3353.7545,N,09832.0210,W,0.12,125.78,010412,,,D*79
$GPGGA,091157.000,3353.7544,N,09832.0207,W,2,07,1.4,309.9,M,-23.7,M,0.8,0000*4B
$GPGSA,A,3,04,05,09,17,10,12,02,,,,,,2.3,1.4,1.8*31
$GPRMC,091157.000,A,3353.7544,N,09832.0207,W,0.40,84.48,010412,,,D*41
$GPGGA,091158.000,3353.7542,N,09832.0205,W,2,07,1.4,310.7,M,-23.7,M,0.8,0000*46
$GPGSA,A,3,04,05,09,17,10,12,02,,,,,,2.3,1.4,1.8*31
$GPGSV,3,1,11,02,73,348,34,12,66,286,27,10,51,081,31,04,43,043,30*76
$GPGSV,3,2,11,05,42,172,34,25,27,315,,17,12,098,27,09,12,227,20*73
$GPGSV,3,3,11,27,07,214,,29,04,294,,51,49,195,39*42
$GPRMC,091158.000,A,3353.7542,N,09832.0205,W,0.31,98.31,010412,,,D*4F
$GPGGA,091159.000,3353.7541,N,09832.0203,W,2,07,1.4,310.8,M,-23.7,M,0.8,0000*4D
$GPGSA,A,3,04,05,09,17,10,12,02,,,,,,2.3,1.4,1.8*31
$GPRMC,091159.000,A,3353.7541,N,09832.0203,W,0.25,126.55,010412,,,D*78
$GPGGA,091200.000,3353.7540,N,09832.0200,W,2,07,1.4,311.1,M,-23.7,M,1.8,0000*49
$GPGSA,A,3,04,05,09,17,10,12,02,,,,,,2.3,1.4,1.8*31
$GPRMC,091200.000,A,3353.7540,N,09832.0200,W,0.45,86.98,010412,,,D*49
$GPGGA,091201.000,3353.7539,N,09832.0198,W,2,07,1.4,311.6,M,-23.7,M,2.8,0000*40
$GPGSA,A,3,04,05,09,17,10,12,02,,,,,,2.3,1.4,1.8*31
$GPRMC,091201.000,A,3353.7539,N,09832.0198,W,0.57,85.73,010412,,,D*41
$GPGGA,091202.000,3353.7539,N,09832.0197,W,2,07,1.4,311.6,M,-23.7,M,3.8,0000*4D
$GPGSA,A,3,04,05,09,17,10,12,02,,,,,,2.3,1.4,1.8*31
$GPRMC,091202.000,A,3353.7539,N,09832.0197,W,0.26,123.94,010412,,,D*7F
$GPGGA,091203.000,3353.7538,N,09832.0196,W,2,07,1.4,311.5,M,-23.7,M,0.8,0000*4C
$GPGSA,A,3,04,05,09,17,10,12,02,,,,,,2.3,1.4,1.8*31
$GPGSV,3,1,11,02,73,348,35,12,66,286,27,10,51,081,31,04,43,043,30*77
$GPGSV,3,2,11,05,42,172,34,25,27,315,,17,12,098,27,09,12,227,19*79
$GPGSV,3,3,11,27,07,214,,29,04,294,,51,49,195,39*42
$GPRMC,091203.000,A,3353.7538,N,09832.0196,W,0.18,168.94,010412,,,D*7C
$GPGGA,091204.000,3353.7538,N,09832.0197,W,2,07,1.4,311.9,M,-23.7,M,0.8,0000*46
$GPGSA,A,3,04,05,09,17,10,12,02,,,,,,2.3,1.4,1.8*31
$GPRMC,091204.000,A,3353.7538,N,09832.0197,W,0.23,207.25,010412,,,D*72
$GPGGA,091205.000,3353.7537,N,09832.0198,W,2,07,1.4,312.3,M,-23.7,M,0.8,0000*4E
$GPGSA,A,3,04,05,09,17,10,12,02,,,,,,2.3,1.4,1.8*31
$GPRMC,091205.000,A,3353.7537,N,09832.0198,W,0.22,225.84,010412,,,D*79
$GPGGA,091206.000,3353.7537,N,09832.0198,W,2,07,1.4,313.0,M,-23.7,M,1.8,0000*4E
$GPGSA,A,3,04,05,09,17,10,12,02,,,,,,2.3,1.4,1.8*31
$GPRMC,091206.000,A,3353.7537,N,09832.0198,W,0.25,65.68,010412,,,D*49
$GPGGA,091207.000,3353.7536,N,09832.0197,W,2,07,1.4,313.7,M,-23.7,M,2.8,0000*45
$GPGSA,A,3,04,05,09,17,10,12,02,,,,,,2.3,1.4,1.8*31
$GPRMC,091207.000,A,3353.7536,N,09832.0197,W,0.33,75.91,010412,,,D*46
$GPGGA,091208.000,3353.7536,N,09832.0197,W,2,07,1.4,314.1,M,-23.7,M,3.8,0000*4A
$GPGSA,A,3,04,05,09,17,10,12,02,,,,,,2.3,1.4,1.8*31
$GPGSV,3,1,11,02,73,348,35,12,66,286,28,10,51,081,31,04,43,043,29*70
$GPGSV,3,2,11,05,42,172,34,25,27,315,,17,12,098,28,09,12,227,19*76
$GPGSV,3,3,11,27,07,214,,29,04,294,,51,49,195,39*42
$GPRMC,091208.000,A,3353.7536,N,09832.0197,W,0.09,154.14,010412,,,D*7F
$GPGGA,091209.000,3353.7536,N,09832.0198,W,2,07,1.4,314.4,M,-23.7,M,0.8,0000*42
$GPGSA,A,3,04,05,09,17,10,12,02,,,,,,2.3,1.4,1.8*31
$GPRMC,091209.000,A,3353.7536,N,09832.0198,W,0.16,172.80,010412,,,D*76
$GPGGA,091210.000,3353.7536,N,09832.0198,W,2,07,1.4,314.5,M,-23.7,M,0.8,0000*4B
$GPGSA,A,3,04,05,09,17,10,12,02,,,,,,2.3,1.4,1.8*31
$GPRMC,091210.000,A,3353.7536,N,09832.0198,W,0.15,199.91,010412,,,D*78
$GPGGA,091211.000,3353.7536,N,09832.0199,W,2,07,1.4,314.7,M,-23.7,M,0.8,0000*49
$GPGSA,A,3,04,05,09,17,10,12,02,,,,,,2.3,1.4,1.8*31
$GPRMC,091211.000,A,3353.7536,N,09832.0199,W,0.13,204.21,010412,,,D*72
$GPGGA,091212.000,3353.7535,N,09832.0200,W,2,07,1.4,314.8,M,-23.7,M,0.8,0000*45
$GPGSA,A,3,04,05,09,17,10,12,02,,,,,,2.3,1.4,1.8*31
$GPRMC,091212.000,A,3353.7535,N,09832.0200,W,0.16,219.39,010412,,,D*71
$GPGGA,091213.000,3353.7535,N,09832.0200,W,2,07,1.4,315.4,M,-23.7,M,0.8,0000*49
$GPGSA,A,3,04,05,09,17,10,12,02,,,,,,2.3,1.4,1.8*31
$GPGSV,3,1,11,02,73,348,35,12,66,285,29,10,51,080,31,04,43,043,29*73
$GPGSV,3,2,11,05,42,172,34,25,27,315,,17,12,098,29,09,12,227,18*76
$GPGSV,3,3,11,27,06,214,,29,04,294,,51,49,195,39*43
$GPRMC,091213.000,A,3353.7535,N,09832.0200,W,0.24,65.13,010412,,,D*40
$GPGGA,091214.000,3353.7535,N,09832.0198,W,2,07,1.4,316.0,M,-23.7,M,1.8,0000*4A
$GPGSA,A,3,04,05,09,17,10,12,02,,,,,,2.3,1.4,1.8*31
$GPRMC,091214.000,A,3353.7535,N,09832.0198,W,0.33,66.92,010412,,,D*49
$GPGGA,091215.000,3353.7535,N,09832.0197,W,2,07,1.4,316.6,M,-23.7,M,0.8,0000*43
$GPGSA,A,3,04,05,09,17,10,12,02,,,,,,2.3,1.4,1.8*31
$GPRMC,091215.000,A,3353.7535,N,09832.0197,W,0.35,69.13,010412,,,D*47
$GPGGA,091216.000,3353.7534,N,09832.0197,W,2,06,2.2,317.1,M,-23.7,M,0.8,0000*43
$GPGSA,A,3,04,05,17,10,12,02,,,,,,,4.1,2.2,3.5*36
$GPRMC,091216.000,A,3353.7534,N,09832.0197,W,0.18,94.19,010412,,,D*42
$GPGGA,091217.000,3353.7534,N,09832.0197,W,2,06,2.2,317.4,M,-23.7,M,0.8,0000*47
$GPGSA,A,3,04,05,17,10,12,02,,,,,,,4.1,2.2,3.5*36
$GPRMC,091217.000,A,3353.7534,N,09832.0197,W,0.15,79.85,010412,,,D*48
$GPGGA,091218.000,3353.7534,N,09832.0197,W,2,06,2.2,317.3,M,-23.7,M,1.8,0000*4E
$GPGSA,A,3,04,05,17,10,12,02,,,,,,,4.1,2.2,3.5*36
$GPGSV,3,1,11,02,73,348,35,12,66,285,29,10,51,080,31,04,43,043,30*7B
$GPGSV,3,2,11,05,42,172,34,25,27,315,,17,12,098,29,09,12,227,10*7E
$GPGSV,3,3,11,27,06,214,,29,04,294,,51,49,195,39*43
$GPRMC,091218.000,A,3353.7534,N,09832.0197,W,0.13,84.51,010412,,,D*4A
$GPGGA,091219.000,3353.7535,N,09832.0198,W,2,06,2.2,317.2,M,-23.7,M,2.8,0000*43
$GPGSA,A,3,04,05,17,10,12,02,,,,,,,4.1,2.2,3.5*36
$GPRMC,091219.000,A,3353.7535,N,09832.0198,W,0.11,79.88,010412,,,D*41
$GPGGA,091220.000,3353.7535,N,09832.0198,W,2,06,2.2,317.1,M,-23.7,M,3.8,0000*4B
$GPGSA,A,3,04,05,17,10,12,02,,,,,,,4.1,2.2,3.5*36
$GPRMC,091220.000,A,3353.7535,N,09832.0198,W,0.11,66.95,010412,,,D*49
$GPGGA,091221.000,3353.7535,N,09832.0199,W,2,06,2.2,316.9,M,-23.7,M,0.8,0000*41
$GPGSA,A,3,04,05,17,10,12,02,,,,,,,4.1,2.2,3.5*36
$GPRMC,091221.000,A,3353.7535,N,09832.0199,W,0.07,56.30,010412,,,D*42
$GPGGA,091222.000,3353.7535,N,09832.0200,W,2,06,2.2,317.2,M,-23.7,M,0.8,0000*4B
$GPGSA,A,3,04,05,17,10,12,02,,,,,,,4.1,2.2,3.5*36
$GPRMC,091222.000,A,3353.7535,N,09832.0200,W,0.12,73.12,010412,,,D*41
$GPGGA,091223.000,3353.7534,N,09832.0200,W,2,06,2.2,317.5,M,-23.7,M,0.8,0000*4C
$GPGSA,A,3,04,05,17,10,12,02,,,,,,,4.1,2.2,3.5*36
$GPGSV,3,1,11,02,73,348,35,12,66,285,29,10,51,080,31,04,43,043,29*73
$GPGSV,3,2,11,05,42,172,34,25,27,315,,17,12,098,29,09,12,227,*7F
$GPGSV,3,3,11,27,06,214,,29,04,294,,51,49,195,39*43
$GPRMC,091223.000,A,3353.7534,N,09832.0200,W,0.14,109.69,010412,,,D*77
$GPGGA,091224.000,3353.7534,N,09832.0200,W,2,06,2.2,317.8,M,-23.7,M,1.8,0000*47
$GPGSA,A,3,04,05,17,10,12,02,,,,,,,4.1,2.2,3.5*36
$GPRMC,091224.000,A,3353.7534,N,09832.0200,W,0.15,95.48,010412,,,D*46
$GPGGA,091225.000,3353.7537,N,09832.0200,W,2,06,2.2,317.2,M,-23.7,M,2.8,0000*4C
$GPGSA,A,3,04,05,17,10,12,02,,,,,,,4.1,2.2,3.5*36
$GPRMC,091225.000,A,3353.7537,N,09832.0200,W,0.40,42.96,010412,,,D*4D
$GPGGA,091226.000,3353.7541,N,09832.0200,W,2,06,2.2,316.6,M,-23.7,M,3.8,0000*4A
$GPGSA,A,3,04,05,17,10,12,02,,,,,,,4.1,2.2,3.5*36
$GPRMC,091226.000,A,3353.7541,N,09832.0200,W,0.35,36.05,010412,,,D*44
$GPGGA,091227.000,3353.7545,N,09832.0200,W,2,06,2.2,315.8,M,-23.7,M,0.8,0000*41
$GPGSA,A,3,04,05,17,10,12,02,,,,,,,4.1,2.2,3.5*36
$GPRMC,091227.000,A,3353.7545,N,09832.0200,W,0.32,24.55,010412,,,D*40
$GPGGA,091228.000,3353.7549,N,09832.0201,W,2,06,2.2,314.7,M,-23.7,M,0.8,0000*4D
$GPGSA,A,3,04,05,17,10,12,02,,,,,,,4.1,2.2,3.5*36
$GPGSV,3,1,11,02,73,348,35,12,66,285,30,10,51,080,31,04,43,043,23*71
$GPGSV,3,2,11,05,42,172,34,25,27,315,,17,12,098,29,09,12,227,*7F
$GPGSV,3,3,11,27,06,214,19,29,04,294,,51,49,195,39*4B
$GPRMC,091228.000,A,3353.7549,N,09832.0201,W,0.12,2.82,010412,,,D*7E
$GPGGA,091229.000,3353.7553,N,09832.0202,W,2,06,2.2,313.7,M,-23.7,M,0.8,0000*43
$GPGSA,A,3,04,05,17,10,12,02,,,,,,,4.1,2.2,3.5*36
$GPRMC,091229.000,A,3353.7553,N,09832.0202,W,0.20,306.94,010412,,,D*76
$GPGGA,091230.000,3353.7555,N,09832.0204,W,2,06,2.2,313.1,M,-23.7,M,1.8,0000*4C
$GPGSA,A,3,04,05,17,10,12,02,,,,,,,4.1,2.2,3.5*36
$GPRMC,091230.000,A,3353.7555,N,09832.0204,W,0.28,338.05,010412,,,D*73
$GPGGA,091231.000,3353.7554,N,09832.0206,W,2,06,2.2,313.2,M,-23.7,M,2.8,0000*4E
$GPGSA,A,3,04,05,17,10,12,02,,,,,,,4.1,2.2,3.5*36
$GPRMC,091231.000,A,3353.7554,N,09832.0206,W,0.23,292.98,010412,,,D*7F
$GPGGA,091232.000,3353.7551,N,09832.0207,W,2,07,1.4,313.7,M,-23.7,M,3.8,0000*49
$GPGSA,A,3,04,05,09,17,10,12,02,,,,,,2.3,1.4,1.7*3E
$GPRMC,091232.000,A,3353.7551,N,09832.0207,W,0.21,285.08,010412,,,D*75
$GPGGA,091233.000,3353.7548,N,09832.0208,W,2,07,1.4,314.4,M,-23.7,M,0.8,0000*48
$GPGSA,A,3,04,05,09,17,10,12,02,,,,,,2.3,1.4,1.7*3E
$GPGSV,3,1,11,02,73,348,35,12,66,285,31,10,51,080,31,04,43,043,24*77
$GPGSV,3,2,11,05,42,172,34,25,27,315,22,17,12,098,29,09,12,227,16*78
$GPGSV,3,3,11,27,06,214,19,29,04,294,,51,49,195,39*4B
$GPRMC,091233.000,A,3353.7548,N,09832.0208,W,0.21,241.87,010412,,,D*7C
$GPGGA,091234.000,3353.7547,N,09832.0210,W,2,07,1.4,314.4,M,-23.7,M,0.8,0000*49
$GPGSA,A,3,04,05,09,17,10,12,02,,,,,,2.3,1.4,1.7*3E
$GPRMC,091234.000,A,3353.7547,N,09832.0210,W,0.10,282.36,010412,,,D*7A
$GPGGA,091235.000,3353.7544,N,09832.0210,W,2,07,1.4,315.1,M,-23.7,M,0.8,0000*4F
$GPGSA,A,3,04,05,09,17,10,12,02,,,,,,2.3,1.4,1.7*3E
$GPRMC,091235.000,A,3353.7544,N,09832.0210,W,0.07,118.22,010412,,,D*7B
$GPGGA,091236.000,3353.7542,N,09832.0209,W,2,07,1.4,315.9,M,-23.7,M,0.8,0000*4A
$GPGSA,A,3,04,05,09,17,10,12,02,,,,,,2.3,1.4,1.7*3E
$GPRMC,091236.000,A,3353.7542,N,09832.0209,W,0.25,74.71,010412,,,D*4B
$GPGGA,091237.000,3353.7541,N,09832.0207,W,2,07,1.4,316.8,M,-23.7,M,0.8,0000*44
$GPGSA,A,3,04,05,09,17,10,12,02,,,,,,2.3,1.4,1.7*3E
$GPRMC,091237.000,A,3353.7541,N,09832.0207,W,0.34,77.44,010412,,,D*42
$GPGGA,091238.000,3353.7539,N,09832.0207,W,2,07,1.4,317.4,M,-23.7,M,1.8,0000*48
$GPGSA,A,3,04,05,09,17,10,12,02,,,,,,2.3,1.4,1.7*3E
$GPGSV,3,1,11,02,73,348,35,12,66,285,32,10,51,080,32,04,43,043,29*7A
$GPGSV,3,2,11,05,42,172,34,25,27,315,22,17,12,098,30,09,12,227,17*71
$GPGSV,3,3,11,27,06,214,21,29,04,294,,51,49,195,39*40
$GPRMC,091238.000,A,3353.7539,N,09832.0207,W,0.19,116.68,010412,,,D*75
$GPGGA,091239.000,3353.7537,N,09832.0206,W,2,07,1.4,318.2,M,-23.7,M,0.8,0000*4E
$GPGSA,A,3,04,05,09,17,10,12,02,,,,,,2.3,1.4,1.7*3E
$GPRMC,091239.000,A,3353.7537,N,09832.0206,W,0.31,90.53,010412,,,D*46
$GPGGA,091240.000,3353.7535,N,09832.0204,W,2,07,1.4,319.2,M,-23.7,M,0.8,0000*41
$GPGSA,A,3,04,05,09,17,10,12,02,,,,,,2.3,1.4,1.7*3E
$GPRMC,091240.000,A,3353.7535,N,09832.0204,W,0.45,85.08,010412,,,D*41
$GPGGA,091241.000,3353.7534,N,09832.0203,W,2,07,1.4,320.3,M,-23.7,M,0.8,0000*4D
$GPGSA,A,3,04,05,09,17,10,12,02,,,,,,2.3,1.4,1.7*3E
$GPRMC,091241.000,A,3353.7534,N,09832.0203,W,0.45,77.51,010412,,,D*47
$GPGGA,091242.000,3353.7532,N,09832.0203,W,2,07,1.4,321.1,M,-23.7,M,1.8,0000*4A
$GPGSA,A,3,04,05,09,17,10,12,02,,,,,,2.3,1.4,1.7*3E
$GPRMC,091242.000,A,3353.7532,N,09832.0203,W,0.35,97.78,010412,,,D*40
$GPGGA,091243.000,3353.7531,N,09832.0202,W,2,07,1.4,321.9,M,-23.7,M,2.8,0000*42
$GPGSA,A,3,04,05,09,17,10,12,02,,,,,,2.3,1.4,1.7*3E
$GPGSV,3,1,11,02,73,348,35,12,66,285,32,10,51,080,32,04,43,043,30*72
$GPGSV,3,2,11,05,42,172,33,25,27,315,23,17,12,098,30,09,12,227,18*78
$GPGSV,3,3,11,27,06,214,21,29,04,294,,51,49,195,39*40
$GPRMC,091243.000,A,3353.7531,N,09832.0202,W,0.34,106.08,010412,,,D*7C
$GPGGA,091244.000,3353.7529,N,09832.0203,W,2,07,1.4,322.4,M,-23.7,M,0.8,0000*41
$GPGSA,A,3,04,05,09,17,10,12,02,,,,,,2.3,1.4,1.7*3E
$GPRMC,091244.000,A,3353.7529,N,09832.0203,W,0.27,145.52,010412,,,D*79
$GPGGA,091245.000,3353.7528,N,09832.0203,W,2,07,1.4,322.7,M,-23.7,M,0.8,0000*42
$GPGSA,A,3,04,05,09,17,10,12,02,,,,,,2.3,1.4,1.7*3E
$GPRMC,091245.000,A,3353.7528,N,09832.0203,W,0.25,148.50,010412,,,D*74
$GPGGA,091246.000,3353.7527,N,09832.0204,W,2,07,1.4,323.1,M,-23.7,M,0.8,0000*4E
$GPGSA,A,3,04,05,09,17,10,12,02,,,,,,2.3,1.4,1.7*3E
$GPRMC,091246.000,A,3353.7527,N,09832.0204,W,0.24,160.11,010412,,,D*71
$GPGGA,091247.000,3353.7525,N,09832.0205,W,2,07,1.4,323.4,M,-23.7,M,0.8,0000*49
$GPGSA,A,3,04,05,09,17,10,12,02,,,,,,2.3,1.4,1.7*3E
$GPRMC,091247.000,A,3353.7525,N,09832.0205,W,0.28,156.08,010412,,,D*72
$GPGGA,091248.000,3353.7524,N,09832.0205,W,2,07,1.4,323.9,M,-23.7,M,1.8,0000*4B
$GPGSA,A,3,04,05,09,17,10,12,02,,,,,,2.3,1.4,1.7*3E
$GPGSV,3,1,11,02,73,348,35,12,66,285,32,10,51,080,32,04,43,043,30*72
$GPGSV,3,2,11,05,42,172,33,25,27,315,23,17,12,098,30,09,12,227,19*79
$GPGSV,3,3,11,27,06,214,21,29,04,294,,51,49,195,39*40
$GPRMC,091248.000,A,3353.7524,N,09832.0205,W,0.24,138.55,010412,,,D*70
$GPGGA,091249.000,3353.7522,N,09832.0204,W,2,07,1.4,324.6,M,-23.7,M,2.8,0000*46
$GPGSA,A,3,04,05,09,17,10,12,02,,,,,,2.3,1.4,1.7*3E
$GPRMC,091249.000,A,3353.7522,N,09832.0204,W,0.42,90.82,010412,,,D*4F
$GPGGA,091250.000,3353.7521,N,09832.0204,W,2,07,1.4,325.0,M,-23.7,M,3.8,0000*4B
$GPGSA,A,3,04,05,09,17,10,12,02,,,,,,2.3,1.4,1.7*3E
$GPRMC,091250.000,A,3353.7521,N,09832.0204,W,0.26,133.66,010412,,,D*74
$GPGGA,091251.000,3353.7520,N,09832.0204,W,2,07,1.4,325.3,M,-23.7,M,0.8,0000*4B
$GPGSA,A,3,04,05,09,17,10,12,02,,,,,,2.3,1.4,1.7*3E
$GPRMC,091251.000,A,3353.7520,N,09832.0204,W,0.24,168.33,010412,,,D*78
$GPGGA,091252.000,3353.7519,N,09832.0204,W,2,07,1.4,325.9,M,-23.7,M,0.8,0000*48
$GPGSA,A,3,04,05,09,17,10,12,02,,,,,,2.3,1.4,1.7*3E
$GPRMC,091252.000,A,3353.7519,N,09832.0204,W,0.23,118.46,010412,,,D*73
$GPGGA,091253.000,3353.7518,N,09832.0205,W,2,07,1.4,326.3,M,-23.7,M,0.8,0000*40
$GPGSA,A,3,04,05,09,17,10,12,02,,,,,,2.3,1.4,1.7*3E
$GPGSV,3,1,11,02,73,348,35,12,66,285,32,10,51,080,32,04,43,043,30*72
$GPGSV,3,2,11,05,42,172,32,25,27,315,23,17,12,098,31,09,12,227,18*78
$GPGSV,3,3,11,27,06,214,21,29,04,294,,51,49,195,39*40
$GPRMC,091253.000,A,3353.7518,N,09832.0205,W,0.15,172.48,010412,,,D*75
$GPGGA,091254.000,3353.7517,N,09832.0206,W,2,07,1.4,326.7,M,-23.7,M,1.8,0000*4E
$GPGSA,A,3,04,05,09,17,10,12,02,,,,,,2.3,1.4,1.7*3E
$GPRMC,091254.000,A,3353.7517,N,09832.0206,W,0.17,181.48,010412,,,D*70
$GPGGA,091255.000,3353.7515,N,09832.0206,W,2,07,1.4,327.1,M,-23.7,M,2.8,0000*49
$GPGSA,A,3,04,05,09,17,10,12,02,,,,,,2.3,1.4,1.7*3E
$GPRMC,091255.000,A,3353.7515,N,09832.0206,W,0.15,171.62,010412,,,D*76
$GPGGA,091256.000,3353.7511,N,09832.0206,W,2,07,1.4,328.5,M,-23.7,M,3.8,0000*44
$GPGSA,A,3,04,05,09,17,10,12,02,,,,,,2.3,1.4,1.7*3E
$GPRMC,091256.000,A,3353.7511,N,09832.0206,W,0.26,119.46,010412,,,D*79
$GPGGA,091257.000,3353.7507,N,09832.0204,W,2,07,1.4,329.9,M,-23.7,M,0.8,0000*4E
$GPGSA,A,3,04,05,09,17,10,12,02,,,,,,2.3,1.4,1.7*3E
$GPRMC,091257.000,A,3353.7507,N,09832.0204,W,0.39,106.04,010412,,,D*7B
$GPGGA,091258.000,3353.7505,N,09832.0203,W,2,07,1.4,331.0,M,-23.7,M,0.8,0000*44
$GPGSA,A,3,04,05,09,17,10,12,02,,,,,,2.3,1.4,1.7*3E
$GPGSV,3,1,11,02,73,348,35,12,66,285,32,10,51,080,31,04,43,043,24*74
$GPGSV,3,2,11,05,42,172,32,25,27,315,23,17,12,098,31,09,12,227,17*77
$GPGSV,3,3,11,27,06,214,20,29,04,294,,51,49,195,39*41
$GPRMC,091258.000,A,3353.7505,N,09832.0203,W,0.56,82.02,010412,,,D*43
$GPGGA,091259.000,3353.7505,N,09832.0200,W,2,06,1.7,332.1,M,-23.7,M,0.8,0000*46
$GPGSA,A,3,05,09,17,10,12,02,,,,,,,2.5,1.7,1.8*30
$GPRMC,091259.000,A,3353.7505,N,09832.0200,W,0.69,82.77,010412,,,D*4F
$GPGGA,091300.000,3353.7504,N,09832.0196,W,2,06,1.7,333.6,M,-23.7,M,0.8,0000*40
$GPGSA,A,3,05,09,17,10,12,02,,,,,,,2.5,1.7,1.8*30
$GPRMC,091300.000,A,3353.7504,N,09832.0196,W,0.46,125.22,010412,,,D*7E
$GPGGA,091301.000,3353.7503,N,09832.0195,W,2,06,1.7,334.6,M,-23.7,M,0.8,0000*42
$GPGSA,A,3,05,09,17,10,12,02,,,,,,,2.5,1.7,1.8*30
$GPRMC,091301.000,A,3353.7503,N,09832.0195,W,0.49,147.06,010412,,,D*76
$GPGGA,091302.000,3353.7502,N,09832.0194,W,2,06,1.7,335.0,M,-23.7,M,1.8,0000*47
$GPGSA,A,3,05,09,17,10,12,02,,,,,,,2.5,1.7,1.8*30
$GPRMC,091302.000,A,3353.7502,N,09832.0194,W,0.44,157.37,010412,,,D*7B
$GPGGA,091303.000,3353.7500,N,09832.0193,W,2,06,1.7,336.1,M,-23.7,M,0.8,0000*40
$GPGSA,A,3,05,09,17,10,12,02,,,,,,,2.5,1.7,1.8*30
$GPGSV,3,1,11,02,73,348,36,12,66,285,32,10,51,080,30,04,43,043,*70
$GPGSV,3,2,11,05,42,172,32,25,27,315,23,17,12,098,32,09,12,227,16*75
$GPGSV,3,3,11,27,06,214,19,29,04,294,,51,49,195,39*4B
$GPRMC,091303.000,A,3353.7500,N,09832.0193,W,0.39,150.45,010412,,,D*77
$GPGGA,091304.000,3353.7500,N,09832.0194,W,2,06,1.7,336.0,M,-23.7,M,0.8,0000*41
$GPGSA,A,3,05,09,17,10,12,02,,,,,,,2.5,1.7,1.8*30
$GPRMC,091304.000,A,3353.7500,N,09832.0194,W,0.40,175.72,010412,,,D*7A
$GPGGA,091305.000,3353.7499,N,09832.0194,W,2,06,1.7,336.5,M,-23.7,M,0.8,0000*44
$GPGSA,A,3,05,09,17,10,12,02,,,,,,,2.5,1.7,1.8*30
$GPRMC,091305.000,A,3353.7499,N,09832.0194,W,0.25,154.60,010412,,,D*79
$GPGGA,091306.000,3353.7499,N,09832.0195,W,2,06,1.7,336.3,M,-23.7,M,1.8,0000*41
$GPGSA,A,3,05,09,17,10,12,02,,,,,,,2.5,1.7,1.8*30
$GPRMC,091306.000,A,3353.7499,N,09832.0195,W,0.22,170.06,010412,,,D*7A
$GPGGA,091307.000,3353.7500,N,09832.0196,W,2,07,1.4,336.0,M,-23.7,M,2.8,0000*40
$GPGSA,A,3,04,05,09,17,10,12,02,,,,,,2.3,1.4,1.7*3E
$GPRMC,091307.000,A,3353.7500,N,09832.0196,W,0.26,193.30,010412,,,D*75
$GPGGA,091308.000,3353.7501,N,09832.0198,W,2,07,1.4,335.4,M,-23.7,M,3.8,0000*46
$GPGSA,A,3,04,05,09,17,10,12,02,,,,,,2.3,1.4,1.7*3E
$GPGSV,3,1,11,02,73,348,36,12,66,285,32,10,51,080,30,04,43,043,22*70
$GPGSV,3,2,11,05,42,172,31,25,27,315,22,17,12,098,32,09,12,227,15*74
$GPGSV,3,3,11,27,06,214,18,29,04,294,,51,49,195,39*4A
$GPRMC,091308.000,A,3353.7501,N,09832.0198,W,0.08,215.67,010412,,,D*76
$GPGGA,091309.000,3353.7504,N,09832.0199,W,2,07,1.4,334.7,M,-23.7,M,0.8,0000*42
$GPGSA,A,3,04,05,09,17,10,12,02,,,,,,2.3,1.4,1.7*3E
$GPRMC,091309.000,A,3353.7504,N,09832.0199,W,0.09,0.11,010412,,,D*75
$GPGGA,091310.000,3353.7506,N,09832.0200,W,2,07,1.4,334.1,M,-23.7,M,0.8,0000*4D
$GPGSA,A,3,04,05,09,17,10,12,02,,,,,,2.3,1.4,1.7*3E
$GPRMC,091310.000,A,3353.7506,N,09832.0200,W,0.19,359.64,010412,,,D*70
$GPGGA,091311.000,3353.7505,N,09832.0201,W,2,07,1.4,334.1,M,-23.7,M,0.8,0000*4E
$GPGSA,A,3,04,05,09,17,10,12,02,,,,,,2.3,1.4,1.7*3E
$GPRMC,091311.000,A,3353.7505,N,09832.0201,W,0.09,308.51,010412,,,D*70
$GPGGA,091312.000,3353.7505,N,09832.0202,W,2,07,1.4,334.0,M,-23.7,M,1.8,0000*4E
$GPGSA,A,3,04,05,09,17,10,12,02,,,,,,2.3,1.4,1.7*3E
$GPRMC,091312.000,A,3353.7505,N,09832.0202,W,0.12,304.76,010412,,,D*73
$GPGGA,091313.000,3353.7502,N,09832.0202,W,2,07,1.4,334.4,M,-23.7,M,0.8,0000*4D
$GPGSA,A,3,04,05,09,17,10,12,02,,,,,,2.3,1.4,1.7*3E
$GPGSV,3,1,11,02,72,349,36,12,66,284,33,10,51,080,29,04,42,044,24*78
$GPGSV,3,2,11,05,42,172,31,25,27,315,14,17,12,098,32,09,11,226,13*75
$GPGSV,3,3,11,27,06,214,17,29,04,294,,51,49,195,39*45
$GPRMC,091313.000,A,3353.7502,N,09832.0202,W,0.20,227.25,010412,,,D*72
$GPGGA,091314.000,3353.7503,N,09832.0203,W,2,07,1.4,334.0,M,-23.7,M,1.8,0000*4F
$GPGSA,A,3,04,05,09,17,10,12,02,,,,,,2.3,1.4,1.7*3E
$GPRMC,091314.000,A,3353.7503,N,09832.0203,W,0.13,328.59,010412,,,D*70
$GPGGA,091315.000,3353.7503,N,09832.0204,W,2,06,2.2,333.9,M,-23.7,M,0.8,0000*42
$GPGSA,A,3,04,05,17,10,12,02,,,,,,,4.2,2.2,3.5*35
$GPRMC,091315.000,A,3353.7503,N,09832.0204,W,0.14,319.38,010412,,,D*74
$GPGGA,091316.000,3353.7503,N,09832.0204,W,2,06,2.2,333.8,M,-23.7,M,0.8,0000*40
$GPGSA,A,3,04,05,17,10,12,02,,,,,,,4.2,2.2,3.5*35
$GPRMC,091316.000,A,3353.7503,N,09832.0204,W,0.13,338.71,010412,,,D*7E
$GPGGA,091317.000,3353.7503,N,09832.0204,W,2,06,2.2,333.7,M,-23.7,M,0.8,0000*4E
$GPGSA,A,3,04,05,17,10,12,02,,,,,,,4.2,2.2,3.5*35
$GPRMC,091317.000,A,3353.7503,N,09832.0204,W,0.13,331.96,010412,,,D*7F
$GPGGA,091318.000,3353.7504,N,09832.0204,W,2,06,2.2,333.5,M,-23.7,M,1.8,0000*45
$GPGSA,A,3,04,05,17,10,12,02,,,,,,,4.2,2.2,3.5*35
$GPGSV,3,1,11,02,72,350,37,12,66,284,34,10,51,079,29,04,42,044,25*71
