$GPGGA,033324.000,3353.7557,N,09832.0278,W,2,07,1.4,300.1,M,-23.7,M,17.8,0000*78
$GPGSA,A,3,17,13,11,08,07,19,01,,,,,,2.2,1.4,1.7*33
$GPRMC,033324.000,A,3353.7557,N,09832.0278,W,0.20,330.00,310312,,,D*77
$GPGGA,033325.000,3353.7556,N,09832.0275,W,1,07,1.4,299.9,M,-23.7,M,18.8,0000*70
$GPGSA,A,3,17,13,11,08,07,19,01,,,,,,2.2,1.4,1.7*33
$GPGSV,3,1,10,08,75,354,39,07,58,124,38,28,48,303,,11,42,086,39*7A
$GPGSV,3,2,10,17,37,219,21,01,35,111,31,26,28,303,,19,23,043,29*7D
$GPGSV,3,3,10,13,11,178,38,48,36,230,27*72
$GPRMC,033325.000,A,3353.7556,N,09832.0275,W,0.18,21.10,310312,,,A*46
$GPGGA,033326.000,3353.7557,N,09832.0275,W,1,07,1.4,299.7,M,-23.7,M,18.8,0000*7C
$GPGSA,A,3,17,13,11,08,07,19,01,,,,,,2.2,1.4,1.7*33
$GPRMC,033326.000,A,3353.7557,N,09832.0275,W,0.10,336.68,310312,,,A*76
$GPGGA,033327.000,3353.7557,N,09832.0275,W,1,07,1.4,299.6,M,-23.7,M,18.8,0000*7C
$GPGSA,A,3,17,13,11,08,07,19,01,,,,,,2.2,1.4,1.7*33
$GPRMC,033327.000,A,3353.7557,N,09832.0275,W,0.14,41.86,310312,,,A*40
$GPGGA,033328.000,3353.7556,N,09832.0275,W,1,07,1.4,299.5,M,-23.7,M,18.8,0000*71
$GPGSA,A,3,17,13,11,08,07,19,01,,,,,,2.2,1.4,1.7*33
$GPRMC,033328.000,A,3353.7556,N,09832.0275,W,0.05,331.28,310312,,,A*7E
$GPGGA,033329.000,3353.7556,N,09832.0275,W,1,07,1.4,299.5,M,-23.7,M,18.8,0000*70
$GPGSA,A,3,17,13,11,08,07,19,01,,,,,,2.2,1.4,1.7*33
$GPRMC,033329.000,A,3353.7556,N,09832.0275,W,0.10,274.48,310312,,,A*7D
$GPGGA,033330.000,3353.7556,N,09832.0275,W,1,07,1.4,299.4,M,-23.7,M,18.8,0000*79
$GPGSA,A,3,17,13,11,08,07,19,01,,,,,,2.2,1.4,1.7*33
$GPGSV,3,1,10,08,75,354,39,07,58,124,37,28,48,303,,11,42,086,40*7B
$GPGSV,3,2,10,17,37,219,21,01,35,111,31,26,28,303,,19,23,043,29*7D
$GPGSV,3,3,10,13,11,178,38,48,36,230,27*72
$GPRMC,033330.000,A,3353.7556,N,09832.0275,W,0.11,265.46,310312,,,A*7A
$GPGGA,033331.000,3353.7555,N,09832.0274,W,1,07,1.4,299.5,M,-23.7,M,18.8,0000*7B
$GPGSA,A,3,17,13,11,08,07,19,01,,,,,,2.2,1.4,1.7*33
$GPRMC,033331.000,A,3353.7555,N,09832.0274,W,0.12,71.11,310312,,,A*4F
$GPGGA,033332.000,3353.7555,N,09832.0274,W,1,07,1.4,299.5,M,-23.7,M,18.8,0000*78
$GPGSA,A,3,17,13,11,08,07,19,01,,,,,,2.2,1.4,1.7*33
$GPRMC,033332.000,A,3353.7555,N,09832.0274,W,0.03,218.25,310312,,,A*76
$GPGGA,033333.000,3353.7555,N,09832.0273,W,1,07,1.4,299.6,M,-23.7,M,18.8,0000*7D
$GPGSA,A,3,17,13,11,08,07,19,01,,,,,,2.2,1.4,1.7*33
$GPRMC,033333.000,A,3353.7555,N,09832.0273,W,0.14,81.79,310312,,,A*4D
$GPGGA,033334.000,3353.7554,N,09832.0273,W,1,07,1.4,299.7,M,-23.7,M,18.8,0000*7A
$GPGSA,A,3,17,13,11,08,07,19,01,,,,,,2.2,1.4,1.7*33
$GPRMC,033334.000,A,3353.7554,N,09832.0273,W,0.06,96.91,310312,,,A*48
$GPGGA,033335.000,3353.7553,N,09832.0272,W,1,06,1.7,299.8,M,-23.7,M,18.8,0000*70
$GPGSA,A,3,13,11,08,07,19,01,,,,,,,2.4,1.7,1.7*30
$GPGSV,3,1,10,08,75,354,39,07,58,124,37,28,48,303,,11,42,086,40*7B
$GPGSV,3,2,10,17,37,219,14,01,35,111,31,26,28,303,21,19,23,043,29*78
$GPGSV,3,3,10,13,11,178,38,48,36,230,27*72
$GPRMC,033335.000,A,3353.7553,N,09832.0272,W,0.09,109.74,310312,,,A*7C
$GPGGA,033336.000,3353.7553,N,09832.0272,W,1,06,1.7,299.9,M,-23.7,M,18.8,0000*72
$GPGSA,A,3,13,11,08,07,19,01,,,,,,,2.4,1.7,1.7*30
$GPRMC,033336.000,A,3353.7553,N,09832.0272,W,0.08,105.75,310312,,,A*73
$GPGGA,033337.000,3353.7552,N,09832.0272,W,1,06,1.7,300.1,M,-23.7,M,18.8,0000*7B
$GPGSA,A,3,13,11,08,07,19,01,,,,,,,2.4,1.7,1.7*30
$GPRMC,033337.000,A,3353.7552,N,09832.0272,W,0.09,109.13,310312,,,A*7E
$GPGGA,033338.000,3353.7552,N,09832.0271,W,1,07,1.2,300.2,M,-23.7,M,31.8,0000*7B
$GPGSA,A,3,13,11,08,07,19,01,28,,,,,,2.1,1.2,1.7*3A
$GPRMC,033338.000,A,3353.7552,N,09832.0271,W,0.06,101.89,310312,,,A*76
$GPGGA,033339.000,3353.7551,N,09832.0271,W,1,07,1.2,300.3,M,-23.7,M,31.8,0000*78
$GPGSA,A,3,13,11,08,07,19,01,28,,,,,,2.1,1.2,1.7*3A
$GPRMC,033339.000,A,3353.7551,N,09832.0271,W,0.06,285.35,310312,,,A*7C
$GPGGA,033340.000,3353.7551,N,09832.0271,W,1,07,1.2,300.5,M,-23.7,M,31.8,0000*70
$GPGSA,A,3,13,11,08,07,19,01,28,,,,,,2.1,1.2,1.7*3A
$GPGSV,3,1,10,08,75,355,39,07,57,125,37,28,48,304,18,11,42,085,40*79
$GPGSV,3,2,10,17,37,220,,01,35,110,31,26,28,302,21,19,22,043,29*76
$GPGSV,3,3,10,13,11,178,38,48,36,230,27*72
$GPRMC,033340.000,A,3353.7551,N,09832.0271,W,0.00,212.36,310312,,,A*79
$GPGGA,033341.000,3353.7550,N,09832.0271,W,1,07,1.2,300.6,M,-23.7,M,31.8,0000*73
$GPGSA,A,3,13,11,08,07,19,01,28,,,,,,2.1,1.2,1.7*3A
$GPRMC,033341.000,A,3353.7550,N,09832.0271,W,0.13,105.10,310312,,,A*7A
$GPGGA,033342.000,3353.7550,N,09832.0270,W,1,07,1.2,300.7,M,-23.7,M,31.8,0000*70
$GPGSA,A,3,13,11,08,07,19,01,28,,,,,,2.1,1.2,1.7*3A
$GPRMC,033342.000,A,3353.7550,N,09832.0270,W,0.17,114.12,310312,,,A*7E
$GPGGA,033343.000,3353.7549,N,09832.0269,W,1,08,1.1,300.9,M,-23.7,M,31.8,0000*73
$GPGSA,A,3,17,13,11,08,07,19,01,28,,,,,2.0,1.1,1.7*3E
$GPRMC,033343.000,A,3353.7549,N,09832.0269,W,0.17,136.44,310312,,,A*7C
$GPGGA,033344.000,3353.7548,N,09832.0270,W,1,08,1.1,301.0,M,-23.7,M,31.8,0000*75
$GPGSA,A,3,17,13,11,08,07,19,01,28,,,,,2.0,1.1,1.7*3E
$GPRMC,033344.000,A,3353.7548,N,09832.0270,W,0.13,256.53,310312,,,A*75
$GPGGA,033345.000,3353.7548,N,09832.0270,W,1,08,1.1,301.1,M,-23.7,M,31.8,0000*75
$GPGSA,A,3,17,13,11,08,07,19,01,28,,,,,2.0,1.1,1.7*3E
$GPGSV,3,1,10,08,75,355,39,07,57,125,37,28,48,304,20,11,42,085,40*72
$GPGSV,3,2,10,17,37,220,19,01,35,110,32,26,28,302,21,19,22,043,30*75
$GPGSV,3,3,10,13,11,178,38,48,36,230,27*72
$GPRMC,033345.000,A,3353.7548,N,09832.0270,W,0.04,4.60,310312,,,A*77
$GPGGA,033346.000,3353.7548,N,09832.0269,W,1,08,1.1,301.3,M,-23.7,M,31.8,0000*7C
$GPGSA,A,3,17,13,11,08,07,19,01,28,,,,,2.0,1.1,1.7*3E
$GPRMC,033346.000,A,3353.7548,N,09832.0269,W,0.11,61.52,310312,,,A*4A
$GPGGA,033347.000,3353.7547,N,09832.0269,W,1,08,1.1,301.4,M,-23.7,M,31.8,0000*75
$GPGSA,A,3,17,13,11,08,07,19,01,28,,,,,2.0,1.1,1.7*3E
$GPRMC,033347.000,A,3353.7547,N,09832.0269,W,0.27,92.29,310312,,,A*41
$GPGGA,033348.000,3353.7547,N,09832.0268,W,1,08,1.1,301.6,M,-23.7,M,31.8,0000*79
$GPGSA,A,3,17,13,11,08,07,19,01,28,,,,,2.0,1.1,1.7*3E
$GPRMC,033348.000,A,3353.7547,N,09832.0268,W,0.22,125.58,310312,,,A*71
$GPGGA,033349.000,3353.7546,N,09832.0268,W,1,08,1.1,301.7,M,-23.7,M,31.8,0000*78
$GPGSA,A,3,17,13,11,08,07,19,01,28,,,,,2.0,1.1,1.7*3E
$GPRMC,033349.000,A,3353.7546,N,09832.0268,W,0.10,144.81,310312,,,A*73
$GPGGA,033350.000,3353.7545,N,09832.0267,W,1,08,1.1,301.9,M,-23.7,M,31.8,0000*72
$GPGSA,A,3,17,13,11,08,07,19,01,28,,,,,2.0,1.1,1.7*3E
$GPGSV,3,1,10,08,75,355,39,07,57,125,37,28,48,304,21,11,42,085,40*73
$GPGSV,3,2,10,17,37,220,19,01,35,110,32,26,28,302,21,19,22,043,30*75
$GPGSV,3,3,10,13,11,178,37,48,36,230,27*7D
$GPRMC,033350.000,A,3353.7545,N,09832.0267,W,0.27,101.91,310312,,,A*73
$GPGGA,033351.000,3353.7545,N,09832.0267,W,1,08,1.1,302.1,M,-23.7,M,31.8,0000*78
$GPGSA,A,3,17,13,11,08,07,19,01,28,,,,,2.0,1.1,1.7*3E
$GPRMC,033351.000,A,3353.7545,N,09832.0267,W,0.14,83.36,310312,,,A*44
$GPGGA,033352.000,3353.7544,N,09832.0266,W,1,08,1.1,302.2,M,-23.7,M,31.8,0000*78
$GPGSA,A,3,17,13,11,08,07,19,01,28,,,,,2.0,1.1,1.7*3E
$GPRMC,033352.000,A,3353.7544,N,09832.0266,W,0.18,131.94,310312,,,A*7B
$GPGGA,033353.000,3353.7544,N,09832.0266,W,1,08,1.1,302.4,M,-23.7,M,31.8,0000*7F
$GPGSA,A,3,17,13,11,08,07,19,01,28,,,,,2.0,1.1,1.7*3E
$GPRMC,033353.000,A,3353.7544,N,09832.0266,W,0.16,143.22,310312,,,A*7C
$GPGGA,033354.000,3353.7543,N,09832.0266,W,1,08,1.1,302.6,M,-23.7,M,31.8,0000*7D
$GPGSA,A,3,17,13,11,08,07,19,01,28,,,,,2.0,1.1,1.7*3E
$GPRMC,033354.000,A,3353.7543,N,09832.0266,W,0.16,157.93,310312,,,A*73
$GPGGA,033355.000,3353.7542,N,09832.0266,W,1,08,1.1,302.7,M,-23.7,M,31.8,0000*7C
$GPGSA,A,3,17,13,11,08,07,19,01,28,,,,,2.0,1.1,1.7*3E
$GPGSV,3,1,10,08,75,355,39,07,57,125,37,28,48,304,22,11,42,085,40*70
$GPGSV,3,2,10,17,37,220,20,01,35,110,32,26,28,302,22,19,22,043,30*7C
$GPGSV,3,3,10,13,11,178,37,48,36,230,27*7D
$GPRMC,033355.000,A,3353.7542,N,09832.0266,W,0.07,207.50,310312,,,A*7A
$GPGGA,033356.000,3353.7542,N,09832.0266,W,1,08,1.1,302.9,M,-23.7,M,31.8,0000*71
$GPGSA,A,3,17,13,11,08,07,19,01,28,,,,,2.0,1.1,1.7*3E
$GPRMC,033356.000,A,3353.7542,N,09832.0266,W,0.08,67.54,310312,,,A*46
$GPGGA,033357.000,3353.7542,N,09832.0266,W,1,08,1.1,303.0,M,-23.7,M,31.8,0000*78
$GPGSA,A,3,17,13,11,08,07,19,01,28,,,,,2.0,1.1,1.7*3E
$GPRMC,033357.000,A,3353.7542,N,09832.0266,W,0.13,71.13,310312,,,A*49
$GPGGA,033358.000,3353.7542,N,09832.0266,W,1,08,1.1,303.1,M,-23.7,M,31.8,0000*76
$GPGSA,A,3,17,13,11,08,07,19,01,28,,,,,2.0,1.1,1.7*3E
$GPRMC,033358.000,A,3353.7542,N,09832.0266,W,0.04,278.46,310312,,,A*7B
$GPGGA,033359.000,3353.7541,N,09832.0266,W,1,08,1.1,303.2,M,-23.7,M,31.8,0000*77
$GPGSA,A,3,17,13,11,08,07,19,01,28,,,,,2.0,1.1,1.7*3E
$GPRMC,033359.000,A,3353.7541,N,09832.0266,W,0.08,166.47,310312,,,A*78
$GPGGA,033400.000,3353.7541,N,09832.0266,W,1,08,1.1,303.3,M,-23.7,M,31.8,0000*7D
$GPGSA,A,3,17,13,11,08,07,19,01,28,,,,,2.0,1.1,1.7*3E
$GPGSV,3,1,09,08,75,355,38,07,57,125,37,28,48,304,23,11,42,085,40*78
$GPGSV,3,2,09,17,37,220,21,01,35,110,32,26,28,302,21,19,22,043,31*77
$GPGSV,3,3,09,13,11,178,37*48
$GPRMC,033400.000,A,3353.7541,N,09832.0266,W,0.05,297.05,310312,,,A*75
$GPGGA,033401.000,3353.7541,N,09832.0266,W,1,08,1.1,303.4,M,-23.7,M,31.8,0000*7B
$GPGSA,A,3,17,13,11,08,07,19,01,28,,,,,2.0,1.1,1.7*3E
$GPRMC,033401.000,A,3353.7541,N,09832.0266,W,0.10,132.11,310312,,,A*79
$GPGGA,033402.000,3353.7541,N,09832.0266,W,1,08,1.1,303.5,M,-23.7,M,31.8,0000*79
$GPGSA,A,3,17,13,11,08,07,19,01,28,,,,,2.0,1.1,1.7*3E
$GPRMC,033402.000,A,3353.7541,N,09832.0266,W,0.10,101.64,310312,,,A*78
$GPGGA,033403.000,3353.7540,N,09832.0266,W,1,08,1.1,303.6,M,-23.7,M,31.8,0000*7A
$GPGSA,A,3,17,13,11,08,07,19,01,28,,,,,2.0,1.1,1.7*3E
$GPRMC,033403.000,A,3353.7540,N,09832.0266,W,0.03,132.54,310312,,,A*79
$GPGGA,033404.000,3353.7540,N,09832.0266,W,1,08,1.1,303.7,M,-23.7,M,31.8,0000*7C
$GPGSA,A,3,17,13,11,08,07,19,01,28,,,,,2.0,1.1,1.7*3E
$GPRMC,033404.000,A,3353.7540,N,09832.0266,W,0.21,101.77,310312,,,A*7F
$GPGGA,033405.000,3353.7540,N,09832.0265,W,1,08,1.1,303.9,M,-23.7,M,31.8,0000*70
$GPGSA,A,3,17,13,11,08,07,19,01,28,,,,,2.0,1.1,1.7*3E
$GPGSV,3,1,09,08,75,355,38,07,57,125,37,28,48,304,24,11,42,085,40*7F
$GPGSV,3,2,09,17,37,220,22,01,35,110,32,26,28,302,,19,22,043,31*77
$GPGSV,3,3,09,13,11,178,37*48
$GPRMC,033405.000,A,3353.7540,N,09832.0265,W,0.26,88.24,310312,,,A*4C
$GPGGA,033406.000,3353.7540,N,09832.0265,W,1,08,1.1,304.0,M,-23.7,M,31.8,0000*7D
$GPGSA,A,3,17,13,11,08,07,19,01,28,,,,,2.0,1.1,1.7*3E
$GPRMC,033406.000,A,3353.7540,N,09832.0265,W,0.01,204.64,310312,,,A*78
$GPGGA,033407.000,3353.7539,N,09832.0266,W,1,08,1.1,304.1,M,-23.7,M,31.8,0000*70
$GPGSA,A,3,17,13,11,08,07,19,01,28,,,,,2.0,1.1,1.7*3E
$GPRMC,033407.000,A,3353.7539,N,09832.0266,W,0.13,255.38,310312,,,A*7A
$GPGGA,033408.000,3353.7539,N,09832.0266,W,1,08,1.1,304.2,M,-23.7,M,31.8,0000*7C
$GPGSA,A,3,17,13,11,08,07,19,01,28,,,,,2.0,1.1,1.7*3E
$GPRMC,033408.000,A,3353.7539,N,09832.0266,W,0.13,108.95,310312,,,A*79
$GPGGA,033409.000,3353.7539,N,09832.0265,W,1,08,1.1,304.3,M,-23.7,M,31.8,0000*7F
$GPGSA,A,3,17,13,11,08,07,19,01,28,,,,,2.0,1.1,1.7*3E
$GPRMC,033409.000,A,3353.7539,N,09832.0265,W,0.18,86.67,310312,,,A*4A
$GPGGA,033410.000,3353.7539,N,09832.0265,W,1,08,1.1,304.4,M,-23.7,M,31.8,0000*70
$GPGSA,A,3,17,13,11,08,07,19,01,28,,,,,2.0,1.1,1.7*3E
$GPGSV,3,1,09,08,75,355,38,07,57,125,37,28,48,304,25,11,42,085,40*7E
$GPGSV,3,2,09,17,37,220,22,01,35,110,32,26,28,302,,19,22,043,31*77
$GPGSV,3,3,09,13,11,178,37*48
$GPRMC,033410.000,A,3353.7539,N,09832.0265,W,0.12,102.08,310312,,,A*7C
$GPGGA,033411.000,3353.7538,N,09832.0265,W,1,08,1.1,304.5,M,-23.7,M,31.8,0000*71
$GPGSA,A,3,17,13,11,08,07,19,01,28,,,,,2.0,1.1,1.7*3E
$GPRMC,033411.000,A,3353.7538,N,09832.0265,W,0.12,92.58,310312,,,A*41
$GPGGA,033412.000,3353.7538,N,09832.0265,W,1,08,1.1,304.7,M,-23.7,M,31.8,0000*70
$GPGSA,A,3,17,13,11,08,07,19,01,28,,,,,2.0,1.1,1.7*3E
$GPRMC,033412.000,A,3353.7538,N,09832.0265,W,0.19,80.78,310312,,,A*48
$GPGGA,033413.000,3353.7538,N,09832.0265,W,1,08,1.1,304.8,M,-23.7,M,31.8,0000*7E
$GPGSA,A,3,17,13,11,08,07,19,01,28,,,,,2.0,1.1,1.7*3E
$GPRMC,033413.000,A,3353.7538,N,09832.0265,W,0.07,158.00,310312,,,A*7D
$GPGGA,033414.000,3353.7538,N,09832.0265,W,1,08,1.1,304.9,M,-23.7,M,31.8,0000*78
$GPGSA,A,3,17,13,11,08,07,19,01,28,,,,,2.0,1.1,1.7*3E
$GPRMC,033414.000,A,3353.7538,N,09832.0265,W,0.14,87.51,310312,,,A*4F
$GPGGA,033415.000,3353.7537,N,09832.0265,W,1,08,1.1,305.0,M,-23.7,M,31.8,0000*7E
$GPGSA,A,3,17,13,11,08,07,19,01,28,,,,,2.0,1.1,1.7*3E
$GPGSV,3,1,09,08,75,355,38,07,57,125,37,28,48,304,26,11,42,085,40*7D
$GPGSV,3,2,09,17,37,220,21,01,35,110,32,26,28,302,,19,22,043,32*77
$GPGSV,3,3,09,13,11,178,37*48
$GPRMC,033415.000,A,3353.7537,N,09832.0265,W,0.08,159.31,310312,,,A*78
$GPGGA,033416.000,3353.7537,N,09832.0264,W,1,08,1.1,305.1,M,-23.7,M,31.8,0000*7D
$GPGSA,A,3,17,13,11,08,07,19,01,28,,,,,2.0,1.1,1.7*3E
$GPRMC,033416.000,A,3353.7537,N,09832.0264,W,0.21,96.64,310312,,,A*43
$GPGGA,033417.000,3353.7537,N,09832.0264,W,1,08,1.1,305.3,M,-23.7,M,31.8,0000*7E
$GPGSA,A,3,17,13,11,08,07,19,01,28,,,,,2.0,1.1,1.7*3E
$GPRMC,033417.000,A,3353.7537,N,09832.0264,W,0.27,91.17,310312,,,A*47
$GPGGA,033418.000,3353.7537,N,09832.0263,W,1,08,1.1,305.4,M,-23.7,M,31.8,0000*71
$GPGSA,A,3,17,13,11,08,07,19,01,28,,,,,2.0,1.1,1.7*3E
$GPRMC,033418.000,A,3353.7537,N,09832.0263,W,0.13,102.01,310312,,,A*74
$GPGGA,033419.000,3353.7536,N,09832.0264,W,1,08,1.1,305.5,M,-23.7,M,31.8,0000*77
$GPGSA,A,3,17,13,11,08,07,19,01,28,,,,,2.0,1.1,1.7*3E
$GPRMC,033419.000,A,3353.7536,N,09832.0264,W,0.07,142.23,310312,,,A*72
$GPGGA,033420.000,3353.7536,N,09832.0263,W,1,08,1.1,305.6,M,-23.7,M,31.8,0000*79
$GPGSA,A,3,17,13,11,08,07,19,01,28,,,,,2.0,1.1,1.7*3E
$GPGSV,3,1,09,08,75,355,38,07,57,125,36,28,48,304,27,11,42,085,40*7D
$GPGSV,3,2,09,17,37,220,22,01,35,110,32,26,28,302,,19,22,043,32*74
$GPGSV,3,3,09,13,11,178,37*48
$GPRMC,033420.000,A,3353.7536,N,09832.0263,W,0.09,111.41,310312,,,A*73
$GPGGA,033421.000,3353.7536,N,09832.0263,W,1,08,1.1,305.8,M,-23.7,M,31.8,0000*76
$GPGSA,A,3,17,13,11,08,07,19,01,28,,,,,2.0,1.1,1.7*3E
$GPRMC,033421.000,A,3353.7536,N,09832.0263,W,0.14,90.81,310312,,,A*4A
$GPGGA,033422.000,3353.7536,N,09832.0263,W,1,08,1.1,305.9,M,-23.7,M,31.8,0000*74
$GPGSA,A,3,17,13,11,08,07,19,01,28,,,,,2.0,1.1,1.7*3E
$GPRMC,033422.000,A,3353.7536,N,09832.0263,W,0.11,99.29,310312,,,A*47
$GPGGA,033423.000,3353.7536,N,09832.0263,W,1,08,1.1,306.0,M,-23.7,M,31.8,0000*7F
$GPGSA,A,3,17,13,11,08,07,19,01,28,,,,,2.0,1.1,1.7*3E
$GPRMC,033423.000,A,3353.7536,N,09832.0263,W,0.10,115.30,310312,,,A*7A
$GPGGA,033424.000,3353.7535,N,09832.0263,W,1,08,1.1,306.1,M,-23.7,M,31.8,0000*7A
$GPGSA,A,3,17,13,11,08,07,19,01,28,,,,,2.0,1.1,1.7*3E
$GPRMC,033424.000,A,3353.7535,N,09832.0263,W,0.16,94.38,310312,,,A*48
$GPGGA,033425.000,3353.7535,N,09832.0262,W,1,08,1.1,306.2,M,-23.7,M,31.8,0000*79
$GPGSA,A,3,17,13,11,08,07,19,01,28,,,,,2.0,1.1,1.7*3E
$GPGSV,3,1,09,08,75,355,38,07,57,125,35,28,48,304,27,11,42,085,40*7E
$GPGSV,3,2,09,17,37,220,23,01,35,110,32,26,28,302,,19,22,043,32*75
$GPGSV,3,3,09,13,11,178,37*48
$GPRMC,033425.000,A,3353.7535,N,09832.0262,W,0.17,86.46,310312,,,A*43
$GPGGA,033426.000,3353.7535,N,09832.0262,W,1,08,1.1,306.3,M,-23.7,M,31.8,0000*7B
$GPGSA,A,3,17,13,11,08,07,19,01,28,,,,,2.0,1.1,1.7*3E
$GPRMC,033426.000,A,3353.7535,N,09832.0262,W,0.09,143.26,310312,,,A*71
$GPGGA,033427.000,3353.7534,N,09832.0262,W,1,08,1.1,306.4,M,-23.7,M,31.8,0000*7C
$GPGSA,A,3,17,13,11,08,07,19,01,28,,,,,2.0,1.1,1.7*3E
$GPRMC,033427.000,A,3353.7534,N,09832.0262,W,0.14,105.81,310312,,,A*72
$GPGGA,033428.000,3353.7534,N,09832.0261,W,1,08,1.1,306.6,M,-23.7,M,31.8,0000*72
$GPGSA,A,3,17,13,11,08,07,19,01,28,,,,,2.0,1.1,1.7*3E
$GPRMC,033428.000,A,3353.7534,N,09832.0261,W,0.10,125.09,310312,,,A*78
$GPGGA,033429.000,3353.7533,N,09832.0261,W,1,08,1.1,306.7,M,-23.7,M,31.8,0000*75
$GPGSA,A,3,17,13,11,08,07,19,01,28,,,,,2.0,1.1,1.7*3E
$GPRMC,033429.000,A,3353.7533,N,09832.0261,W,0.14,104.56,310312,,,A*73
$GPGGA,033430.000,3353.7533,N,09832.0260,W,1,08,1.1,306.8,M,-23.7,M,31.8,0000*73
$GPGSA,A,3,17,13,11,08,07,19,01,28,,,,,2.0,1.1,1.7*3E
$GPGSV,3,1,09,08,75,355,38,07,57,125,34,28,48,304,28,11,42,085,41*71
$GPGSV,3,2,09,17,37,220,24,01,35,110,31,26,28,302,21,19,22,043,32*72
$GPGSV,3,3,09,13,11,178,36*49
$GPRMC,033430.000,A,3353.7533,N,09832.0260,W,0.18,87.73,310312,,,A*4B
$GPGGA,033431.000,3353.7533,N,09832.0260,W,1,08,1.1,306.9,M,-23.7,M,31.8,0000*73
$GPGSA,A,3,17,13,11,08,07,19,01,28,,,,,2.0,1.1,1.7*3E
$GPRMC,033431.000,A,3353.7533,N,09832.0260,W,0.16,95.26,310312,,,A*47
$GPGGA,033432.000,3353.7532,N,09832.0259,W,1,08,1.1,307.0,M,-23.7,M,31.8,0000*73
$GPGSA,A,3,17,13,11,08,07,19,01,28,,,,,2.0,1.1,1.7*3E
$GPRMC,033432.000,A,3353.7532,N,09832.0259,W,0.12,117.10,310312,,,A*75
$GPGGA,033433.000,3353.7532,N,09832.0259,W,1,08,1.1,307.0,M,-23.7,M,31.8,0000*72
$GPGSA,A,3,17,13,11,08,07,19,01,28,,,,,2.0,1.1,1.7*3E
$GPRMC,033433.000,A,3353.7532,N,09832.0259,W,0.12,100.61,310312,,,A*74
$GPGGA,033434.000,3353.7531,N,09832.0258,W,1,08,1.1,307.1,M,-23.7,M,31.8,0000*76
$GPGSA,A,3,17,13,11,08,07,19,01,28,,,,,2.0,1.1,1.7*3E
$GPRMC,033434.000,A,3353.7531,N,09832.0258,W,0.10,108.54,310312,,,A*7D
$GPGGA,033435.000,3353.7531,N,09832.0258,W,1,08,1.1,307.2,M,-23.7,M,31.8,0000*74
$GPGSA,A,3,17,13,11,08,07,19,01,28,,,,,2.0,1.1,1.7*3E
$GPGSV,3,1,09,08,75,355,38,07,57,125,34,28,48,304,28,11,42,085,41*71
$GPGSV,3,2,09,17,37,220,25,01,35,110,31,26,28,302,21,19,22,043,32*73
$GPGSV,3,3,09,13,11,178,36*49
$GPRMC,033435.000,A,3353.7531,N,09832.0258,W,0.11,104.25,310312,,,A*77
$GPGGA,033436.000,3353.7530,N,09832.0258,W,1,08,1.1,307.3,M,-23.7,M,31.8,0000*77
$GPGSA,A,3,17,13,11,08,07,19,01,28,,,,,2.0,1.1,1.7*3E
$GPRMC,033436.000,A,3353.7530,N,09832.0258,W,0.11,106.66,310312,,,A*70
$GPGGA,033437.000,3353.7530,N,09832.0257,W,1,08,1.1,307.4,M,-23.7,M,31.8,0000*7E
$GPGSA,A,3,17,13,11,08,07,19,01,28,,,,,2.0,1.1,1.7*3E
$GPRMC,033437.000,A,3353.7530,N,09832.0257,W,0.11,102.57,310312,,,A*78
$GPGGA,033438.000,3353.7529,N,09832.0257,W,1,08,1.1,307.4,M,-23.7,M,31.8,0000*79
$GPGSA,A,3,17,13,11,08,07,19,01,28,,,,,2.0,1.1,1.7*3E
$GPRMC,033438.000,A,3353.7529,N,09832.0257,W,0.09,105.66,310312,,,A*73
$GPGGA,033439.000,3353.7529,N,09832.0256,W,1,08,1.1,307.5,M,-23.7,M,31.8,0000*78
$GPGSA,A,3,17,13,11,08,07,19,01,28,,,,,2.0,1.1,1.7*3E
$GPRMC,033439.000,A,3353.7529,N,09832.0256,W,0.11,105.65,310312,,,A*79
$GPGGA,033440.000,3353.7528,N,09832.0256,W,1,08,1.1,307.6,M,-23.7,M,31.8,0000*74
$GPGSA,A,3,17,13,11,08,07,19,01,28,,,,,2.0,1.1,1.7*3E
$GPGSV,3,1,09,08,75,355,39,07,57,125,33,28,48,304,29,11,42,085,41*76
$GPGSV,3,2,09,17,37,220,26,01,35,110,31,26,28,302,19,19,22,043,32*7B
$GPGSV,3,3,09,13,11,178,36*49
$GPRMC,033440.000,A,3353.7528,N,09832.0256,W,0.10,109.90,310312,,,A*71
$GPGGA,033441.000,3353.7528,N,09832.0255,W,1,08,1.1,307.6,M,-23.7,M,31.8,0000*76
$GPGSA,A,3,17,13,11,08,07,19,01,28,,,,,2.0,1.1,1.7*3E
$GPRMC,033441.000,A,3353.7528,N,09832.0255,W,0.10,99.86,310312,,,A*4C
$GPGGA,033442.000,3353.7527,N,09832.0255,W,1,08,1.1,307.7,M,-23.7,M,31.8,0000*7B
$GPGSA,A,3,17,13,11,08,07,19,01,28,,,,,2.0,1.1,1.7*3E
$GPRMC,033442.000,A,3353.7527,N,09832.0255,W,0.11,108.80,310312,,,A*7E
$GPGGA,033443.000,3353.7527,N,09832.0254,W,1,08,1.1,307.8,M,-23.7,M,31.8,0000*74
$GPGSA,A,3,17,13,11,08,07,19,01,28,,,,,2.0,1.1,1.7*3E
$GPRMC,033443.000,A,3353.7527,N,09832.0254,W,0.11,112.03,310312,,,A*7E
$GPGGA,033444.000,3353.7526,N,09832.0253,W,1,08,1.1,307.9,M,-23.7,M,31.8,0000*74
$GPGSA,A,3,17,13,11,08,07,19,01,28,,,,,2.0,1.1,1.7*3E
$GPRMC,033444.000,A,3353.7526,N,09832.0253,W,0.11,100.77,310312,,,A*7F
$GPGGA,033445.000,3353.7526,N,09832.0253,W,1,08,1.1,307.9,M,-23.7,M,31.8,0000*75
$GPGSA,A,3,17,13,11,08,07,19,01,28,,,,,2.0,1.1,1.7*3E
$GPGSV,3,1,09,08,75,355,39,07,57,125,33,28,48,304,29,11,42,085,41*76
$GPGSV,3,2,09,17,37,220,28,01,35,110,31,26,28,302,,19,22,043,32*7D
$GPGSV,3,3,09,13,11,178,36*49
$GPRMC,033445.000,A,3353.7526,N,09832.0253,W,0.10,108.41,310312,,,A*72
$GPGGA,033446.000,3353.7526,N,09832.0253,W,1,08,1.1,308.0,M,-23.7,M,31.8,0000*70
$GPGSA,A,3,17,13,11,08,07,19,01,28,,,,,2.0,1.1,1.7*3E
$GPRMC,033446.000,A,3353.7526,N,09832.0253,W,0.10,103.44,310312,,,A*7F
$GPGGA,033447.000,3353.7525,N,09832.0252,W,1,08,1.1,308.1,M,-23.7,M,31.8,0000*72
$GPGSA,A,3,17,13,11,08,07,19,01,28,,,,,2.0,1.1,1.7*3E
$GPRMC,033447.000,A,3353.7525,N,09832.0252,W,0.11,112.48,310312,,,A*71
$GPGGA,033448.000,3353.7525,N,09832.0252,W,1,08,1.1,308.1,M,-23.7,M,31.8,0000*7D
$GPGSA,A,3,17,13,11,08,07,19,01,28,,,,,2.0,1.1,1.7*3E
$GPRMC,033448.000,A,3353.7525,N,09832.0252,W,0.10,105.87,310312,,,A*7A
$GPGGA,033449.000,3353.7524,N,09832.0251,W,1,08,1.1,308.2,M,-23.7,M,31.8,0000*7D
$GPGSA,A,3,17,13,11,08,07,19,01,28,,,,,2.0,1.1,1.7*3E
$GPRMC,033449.000,A,3353.7524,N,09832.0251,W,0.10,103.02,310312,,,A*72
$GPGGA,033450.000,3353.7524,N,09832.0251,W,1,08,1.1,308.3,M,-23.7,M,31.8,0000*74
$GPGSA,A,3,17,13,11,08,07,19,01,28,,,,,2.0,1.1,1.7*3E
$GPGSV,3,1,09,08,76,356,39,07,57,125,33,28,48,305,30,11,42,084,41*7E
$GPGSV,3,2,09,17,38,220,29,01,35,110,31,26,28,301,,19,22,043,32*70
$GPGSV,3,3,09,13,10,178,36*48
$GPRMC,033450.000,A,3353.7524,N,09832.0251,W,0.10,107.60,310312,,,A*7A
$GPGGA,033451.000,3353.7523,N,09832.0250,W,1,08,1.1,308.3,M,-23.7,M,31.8,0000*73
$GPGSA,A,3,17,13,11,08,07,19,01,28,,,,,2.0,1.1,1.7*3E
$GPRMC,033451.000,A,3353.7523,N,09832.0250,W,0.09,101.44,310312,,,A*75
$GPGGA,033452.000,3353.7523,N,09832.0250,W,1,08,1.1,308.4,M,-23.7,M,31.8,0000*77
$GPGSA,A,3,17,13,11,08,07,19,01,28,,,,,2.0,1.1,1.7*3E
$GPRMC,033452.000,A,3353.7523,N,09832.0250,W,0.10,104.72,310312,,,A*7E
$GPGGA,033453.000,3353.7522,N,09832.0249,W,1,08,1.1,308.5,M,-23.7,M,31.8,0000*7E
$GPGSA,A,3,17,13,11,08,07,19,01,28,,,,,2.0,1.1,1.7*3E
$GPRMC,033453.000,A,3353.7522,N,09832.0249,W,0.10,106.08,310312,,,A*79
$GPGGA,033454.000,3353.7522,N,09832.0249,W,1,08,1.1,308.5,M,-23.7,M,31.8,0000*79
$GPGSA,A,3,17,13,11,08,07,19,01,28,,,,,2.0,1.1,1.7*3E
$GPRMC,033454.000,A,3353.7522,N,09832.0249,W,0.07,99.72,310312,,,A*42
$GPGGA,033455.000,3353.7522,N,09832.0248,W,1,08,1.1,308.6,M,-23.7,M,31.8,0000*7A
$GPGSA,A,3,17,13,11,08,07,19,01,28,,,,,2.0,1.1,1.7*3E
$GPGSV,3,1,09,08,76,356,39,07,57,125,34,28,48,305,30,11,42,084,41*79
$GPGSV,3,2,09,17,38,220,29,01,35,110,31,26,28,301,20,19,22,043,32*72
$GPGSV,3,3,09,13,10,178,36*48
$GPRMC,033455.000,A,3353.7522,N,09832.0248,W,0.10,106.05,310312,,,A*73
$GPGGA,033456.000,3353.7521,N,09832.0248,W,1,08,1.1,308.6,M,-23.7,M,31.8,0000*7A
$GPGSA,A,3,17,13,11,08,07,19,01,28,,,,,2.0,1.1,1.7*3E
$GPRMC,033456.000,A,3353.7521,N,09832.0248,W,0.11,101.69,310312,,,A*7F
$GPGGA,033457.000,3353.7521,N,09832.0248,W,1,08,1.1,308.6,M,-23.7,M,31.8,0000*7B
$GPGSA,A,3,17,13,11,08,07,19,01,28,,,,,2.0,1.1,1.7*3E
$GPRMC,033457.000,A,3353.7521,N,09832.0248,W,0.09,101.13,310312,,,A*7A
$GPGGA,033458.000,3353.7521,N,09832.0247,W,1,08,1.1,308.7,M,-23.7,M,31.8,0000*7A
$GPGSA,A,3,17,13,11,08,07,19,01,28,,,,,2.0,1.1,1.7*3E
$GPRMC,033458.000,A,3353.7521,N,09832.0247,W,0.09,99.18,310312,,,A*41
$GPGGA,033459.000,3353.7520,N,09832.0247,W,1,08,1.1,308.7,M,-23.7,M,31.8,0000*7A
$GPGSA,A,3,17,13,11,08,07,19,01,28,,,,,2.0,1.1,1.7*3E
$GPRMC,033459.000,A,3353.7520,N,09832.0247,W,0.10,97.14,310312,,,A*4B
$GPGGA,033500.000,3353.7520,N,09832.0246,W,1,08,1.1,308.8,M,-23.7,M,31.8,0000*79
$GPGSA,A,3,17,13,11,08,07,19,01,28,,,,,2.0,1.1,1.7*3E
$GPGSV,3,1,10,08,76,356,39,07,57,125,35,28,48,305,31,11,42,084,41*71
$GPGSV,3,2,10,17,38,220,29,01,35,110,31,26,28,301,20,19,22,043,32*7A
$GPGSV,3,3,10,13,10,178,37,51,49,195,29*7E
$GPRMC,033500.000,A,3353.7520,N,09832.0246,W,0.09,100.66,310312,,,A*75
$GPGGA,033501.000,3353.7520,N,09832.0246,W,1,08,1.1,308.8,M,-23.7,M,31.8,0000*78
$GPGSA,A,3,17,13,11,08,07,19,01,28,,,,,2.0,1.1,1.7*3E
$GPRMC,033501.000,A,3353.7520,N,09832.0246,W,0.09,93.74,310312,,,A*4C
$GPGGA,033502.000,3353.7520,N,09832.0246,W,1,08,1.1,308.8,M,-23.7,M,31.8,0000*7B
$GPGSA,A,3,17,13,11,08,07,19,01,28,,,,,2.0,1.1,1.7*3E
$GPRMC,033502.000,A,3353.7520,N,09832.0246,W,0.10,108.62,310312,,,A*73
$GPGGA,033503.000,3353.7519,N,09832.0245,W,1,08,1.1,308.8,M,-23.7,M,31.8,0000*73
$GPGSA,A,3,17,13,11,08,07,19,01,28,,,,,2.0,1.1,1.7*3E
$GPRMC,033503.000,A,3353.7519,N,09832.0245,W,0.10,97.18,310312,,,A*41
$GPGGA,033504.000,3353.7519,N,09832.0245,W,1,08,1.1,308.8,M,-23.7,M,31.8,0000*74
$GPGSA,A,3,17,13,11,08,07,19,01,28,,,,,2.0,1.1,1.7*3E
$GPRMC,033504.000,A,3353.7519,N,09832.0245,W,0.09,100.14,310312,,,A*7D
$GPGGA,033505.000,3353.7519,N,09832.0245,W,1,08,1.1,308.8,M,-23.7,M,31.8,0000*75
$GPGSA,A,3,17,13,11,08,07,19,01,28,,,,,2.0,1.1,1.7*3E
$GPGSV,3,1,10,08,76,356,40,07,57,125,35,28,48,305,31,11,42,084,41*7F
$GPGSV,3,2,10,17,38,220,29,01,35,110,32,26,28,301,21,19,22,043,32*78
$GPGSV,3,3,10,13,10,178,37,51,49,195,28*7F
$GPRMC,033505.000,A,3353.7519,N,09832.0245,W,0.09,90.06,310312,,,A*47
$GPGGA,033506.000,3353.7519,N,09832.0244,W,1,08,1.1,308.9,M,-23.7,M,31.8,0000*76
$GPGSA,A,3,17,13,11,08,07,19,01,28,,,,,2.0,1.1,1.7*3E
$GPRMC,033506.000,A,3353.7519,N,09832.0244,W,0.10,99.11,310312,,,A*42
$GPGGA,033507.000,3353.7518,N,09832.0244,W,1,08,1.1,308.9,M,-23.7,M,31.8,0000*76
$GPGSA,A,3,17,13,11,08,07,19,01,28,,,,,2.0,1.1,1.7*3E
$GPRMC,033507.000,A,3353.7518,N,09832.0244,W,0.09,98.19,310312,,,A*43
$GPGGA,033508.000,3353.7518,N,09832.0244,W,1,08,1.1,308.9,M,-23.7,M,31.8,0000*79
$GPGSA,A,3,17,13,11,08,07,19,01,28,,,,,2.0,1.1,1.7*3E
$GPRMC,033508.000,A,3353.7518,N,09832.0244,W,0.08,100.88,310312,,,A*75
$GPGGA,033509.000,3353.7518,N,09832.0243,W,1,08,1.1,308.9,M,-23.7,M,31.8,0000*7F
$GPGSA,A,3,17,13,11,08,07,19,01,28,,,,,2.0,1.1,1.7*3E
$GPRMC,033509.000,A,3353.7518,N,09832.0243,W,0.09,95.87,310312,,,A*40
$GPGGA,033510.000,3353.7518,N,09832.0243,W,1,08,1.1,308.9,M,-23.7,M,31.8,0000*77
$GPGSA,A,3,17,13,11,08,07,19,01,28,,,,,2.0,1.1,1.7*3E
$GPGSV,3,1,10,08,76,356,40,07,57,125,36,28,48,305,31,11,42,084,41*7C
$GPGSV,3,2,10,17,38,220,30,01,35,110,32,26,28,301,21,19,22,043,32*70
$GPGSV,3,3,10,13,10,178,37,51,49,195,31*77
$GPRMC,033510.000,A,3353.7518,N,09832.0243,W,0.09,88.66,310312,,,A*4B
$GPGGA,033511.000,3353.7518,N,09832.0243,W,1,08,1.1,308.9,M,-23.7,M,31.8,0000*76
$GPGSA,A,3,17,13,11,08,07,19,01,28,,,,,2.0,1.1,1.7*3E
$GPRMC,033511.000,A,3353.7518,N,09832.0243,W,0.08,90.79,310312,,,A*4C
$GPGGA,033512.000,3353.7518,N,09832.0243,W,1,08,1.1,308.9,M,-23.7,M,31.8,0000*75
$GPGSA,A,3,17,13,11,08,07,19,01,28,,,,,2.0,1.1,1.7*3E
$GPRMC,033512.000,A,3353.7518,N,09832.0243,W,0.08,81.42,310312,,,A*47
$GPGGA,033513.000,3353.7518,N,09832.0243,W,1,08,1.1,308.9,M,-23.7,M,31.8,0000*74
$GPGSA,A,3,17,13,11,08,07,19,01,28,,,,,2.0,1.1,1.7*3E
$GPRMC,033513.000,A,3353.7518,N,09832.0243,W,0.09,100.67,310312,,,A*78
$GPGGA,033514.000,3353.7518,N,09832.0243,W,1,08,1.1,308.9,M,-23.7,M,31.8,0000*73
$GPGSA,A,3,17,13,11,08,07,19,01,28,,,,,2.0,1.1,1.7*3E
$GPRMC,033514.000,A,3353.7518,N,09832.0243,W,0.08,85.69,310312,,,A*4C
$GPGGA,033515.000,3353.7518,N,09832.0243,W,1,08,1.1,308.9,M,-23.7,M,31.8,0000*72
$GPGSA,A,3,17,13,11,08,07,19,01,28,,,,,2.0,1.1,1.7*3E
$GPGSV,3,1,10,08,76,356,40,07,57,125,36,28,48,305,31,11,42,084,41*7C
$GPGSV,3,2,10,17,38,220,30,01,35,110,33,26,28,301,,19,22,043,32*72
$GPGSV,3,3,10,13,10,178,37,51,49,195,28*7F
$GPRMC,033515.000,A,3353.7518,N,09832.0243,W,0.09,94.63,310312,,,A*46
$GPGGA,033516.000,3353.7518,N,09832.0243,W,1,08,1.1,309.0,M,-23.7,M,31.8,0000*79
$GPGSA,A,3,17,13,11,08,07,19,01,28,,,,,2.0,1.1,1.7*3E
$GPRMC,033516.000,A,3353.7518,N,09832.0243,W,0.08,84.46,310312,,,A*42
$GPGGA,033517.000,3353.7518,N,09832.0243,W,1,08,1.1,309.0,M,-23.7,M,31.8,0000*78
$GPGSA,A,3,17,13,11,08,07,19,01,28,,,,,2.0,1.1,1.7*3E
$GPRMC,033517.000,A,3353.7518,N,09832.0243,W,0.08,95.08,310312,,,A*49
$GPGGA,033518.000,3353.7518,N,09832.0243,W,1,08,1.1,309.0,M,-23.7,M,31.8,0000*77
$GPGSA,A,3,17,13,11,08,07,19,01,28,,,,,2.0,1.1,1.7*3E
$GPRMC,033518.000,A,3353.7518,N,09832.0243,W,0.09,89.29,310312,,,A*49
$GPGGA,033519.000,3353.7518,N,09832.0243,W,1,08,1.1,309.0,M,-23.7,M,31.8,0000*76
$GPGSA,A,3,17,13,11,08,07,19,01,28,,,,,2.0,1.1,1.7*3E
$GPRMC,033519.000,A,3353.7518,N,09832.0243,W,0.08,85.08,310312,,,A*46
$GPGGA,033520.000,3353.7518,N,09832.0243,W,1,08,1.1,309.0,M,-23.7,M,31.8,0000*7C
$GPGSA,A,3,17,13,11,08,07,19,01,28,,,,,2.0,1.1,1.7*3E
$GPGSV,3,1,10,08,76,357,39,07,57,126,36,28,48,305,30,11,42,084,41*71
$GPGSV,3,2,10,17,38,220,31,01,35,109,34,26,29,301,20,19,22,043,33*7E
$GPGSV,3,3,10,13,10,178,37,48,36,230,27*7C
$GPRMC,033520.000,A,3353.7518,N,09832.0243,W,0.08,93.29,310312,,,A*48
$GPGGA,033521.000,3353.7518,N,09832.0243,W,1,08,1.1,309.0,M,-23.7,M,31.8,0000*7D
$GPGSA,A,3,17,13,11,08,07,19,01,28,,,,,2.0,1.1,1.7*3E
$GPRMC,033521.000,A,3353.7518,N,09832.0243,W,0.07,88.93,310312,,,A*4D
$GPGGA,033522.000,3353.7519,N,09832.0243,W,1,08,1.1,309.1,M,-23.7,M,31.8,0000*7E
$GPGSA,A,3,17,13,11,08,07,19,01,28,,,,,2.0,1.1,1.7*3E
$GPRMC,033522.000,A,3353.7519,N,09832.0243,W,0.10,93.74,310312,,,A*4A
$GPGGA,033523.000,3353.7519,N,09832.0243,W,1,08,1.1,309.1,M,-23.7,M,31.8,0000*7F
$GPGSA,A,3,17,13,11,08,07,19,01,28,,,,,2.0,1.1,1.7*3E
$GPRMC,033523.000,A,3353.7519,N,09832.0243,W,0.08,91.33,310312,,,A*43
$GPGGA,033524.000,3353.7519,N,09832.0243,W,1,08,1.1,309.1,M,-23.7,M,31.8,0000*78
$GPGSA,A,3,17,13,11,08,07,19,01,28,,,,,2.0,1.1,1.7*3E
$GPRMC,033524.000,A,3353.7519,N,09832.0243,W,0.08,82.98,310312,,,A*47
$GPGGA,033525.000,3353.7519,N,09832.0243,W,1,08,1.1,309.1,M,-23.7,M,31.8,0000*79
$GPGSA,A,3,17,13,11,08,07,19,01,28,,,,,2.0,1.1,1.7*3E
$GPGSV,3,1,10,08,76,357,39,07,57,126,36,28,48,305,30,11,42,084,42*72
$GPGSV,3,2,10,17,38,220,32,01,35,109,35,26,29,301,20,19,22,043,33*7C
$GPGSV,3,3,10,13,10,178,37,48,36,230,27*7C
$GPRMC,033525.000,A,3353.7519,N,09832.0243,W,0.10,98.59,310312,,,A*49
$GPGGA,033526.000,3353.7519,N,09832.0243,W,1,08,1.1,309.1,M,-23.7,M,31.8,0000*7A
$GPGSA,A,3,17,13,11,08,07,19,01,28,,,,,2.0,1.1,1.7*3E
$GPRMC,033526.000,A,3353.7519,N,09832.0243,W,0.09,93.74,310312,,,A*46
$GPGGA,033527.000,3353.7519,N,09832.0243,W,1,08,1.1,309.2,M,-23.7,M,31.8,0000*78
$GPGSA,A,3,17,13,11,08,07,19,01,28,,,,,2.0,1.1,1.7*3E
$GPRMC,033527.000,A,3353.7519,N,09832.0243,W,0.09,94.62,310312,,,A*47
$GPGGA,033528.000,3353.7519,N,09832.0243,W,1,08,1.1,309.2,M,-23.7,M,31.8,0000*77
$GPGSA,A,3,17,13,11,08,07,19,01,28,,,,,2.0,1.1,1.7*3E
$GPRMC,033528.000,A,3353.7519,N,09832.0243,W,0.09,90.31,310312,,,A*4A
$GPGGA,033529.000,3353.7519,N,09832.0243,W,1,08,1.1,309.2,M,-23.7,M,31.8,0000*76
$GPGSA,A,3,17,13,11,08,07,19,01,28,,,,,2.0,1.1,1.7*3E
$GPRMC,033529.000,A,3353.7519,N,09832.0243,W,0.09,100.62,310312,,,A*75
$GPGGA,033530.000,3353.7519,N,09832.0243,W,1,08,1.1,309.3,M,-23.7,M,31.8,0000*7F
$GPGSA,A,3,17,13,11,08,07,19,01,28,,,,,2.0,1.1,1.7*3E
$GPGSV,3,1,10,08,76,357,39,07,57,126,37,28,48,305,30,11,42,084,42*73
$GPGSV,3,2,10,17,38,220,32,01,35,109,35,26,29,301,21,19,22,043,33*7D
$GPGSV,3,3,10,13,10,178,37,48,36,230,24*7F
$GPRMC,033530.000,A,3353.7519,N,09832.0243,W,0.10,98.53,310312,,,A*47
$GPGGA,033531.000,3353.7519,N,09832.0244,W,1,08,1.1,309.3,M,-23.7,M,31.8,0000*79
$GPGSA,A,3,17,13,11,08,07,19,01,28,,,,,2.0,1.1,1.7*3E
$GPRMC,033531.000,A,3353.7519,N,09832.0244,W,0.08,85.05,310312,,,A*47
$GPGGA,033532.000,3353.7519,N,09832.0244,W,1,08,1.1,309.3,M,-23.7,M,31.8,0000*7A
$GPGSA,A,3,17,13,11,08,07,19,01,28,,,,,2.0,1.1,1.7*3E
$GPRMC,033532.000,A,3353.7519,N,09832.0244,W,0.09,87.92,310312,,,A*49
$GPGGA,033533.000,3353.7519,N,09832.0244,W,1,08,1.1,309.4,M,-23.7,M,31.8,0000*7C
$GPGSA,A,3,17,13,11,08,07,19,01,28,,,,,2.0,1.1,1.7*3E
$GPRMC,033533.000,A,3353.7519,N,09832.0244,W,0.08,86.81,310312,,,A*4A
$GPGGA,033534.000,3353.7519,N,09832.0244,W,1,08,1.1,309.4,M,-23.7,M,31.8,0000*7B
$GPGSA,A,3,17,13,11,08,07,19,01,28,,,,,2.0,1.1,1.7*3E
$GPRMC,033534.000,A,3353.7519,N,09832.0244,W,0.08,95.82,310312,,,A*4C
$GPGGA,033535.000,3353.7519,N,09832.0244,W,1,08,1.1,309.4,M,-23.7,M,31.8,0000*7A
$GPGSA,A,3,17,13,11,08,07,19,01,28,,,,,2.0,1.1,1.7*3E
$GPGSV,3,1,10,08,76,357,39,07,57,126,37,28,48,305,30,11,42,084,42*73
$GPGSV,3,2,10,17,38,220,32,01,35,109,35,26,29,301,22,19,22,043,34*79
$GPGSV,3,3,10,13,10,178,37,48,36,230,27*7C
$GPRMC,033535.000,A,3353.7519,N,09832.0244,W,0.09,83.22,310312,,,A*41
$GPGGA,033536.000,3353.7519,N,09832.0244,W,1,08,1.1,309.4,M,-23.7,M,31.8,0000*79
$GPGSA,A,3,17,13,11,08,07,19,01,28,,,,,2.0,1.1,1.7*3E
$GPRMC,033536.000,A,3353.7519,N,09832.0244,W,0.08,93.74,310312,,,A*41
$GPGGA,033537.000,3353.7519,N,09832.0244,W,1,08,1.1,309.5,M,-23.7,M,31.8,0000*79
$GPGSA,A,3,17,13,11,08,07,19,01,28,,,,,2.0,1.1,1.7*3E
$GPRMC,033537.000,A,3353.7519,N,09832.0244,W,0.08,85.88,310312,,,A*44
$GPGGA,033538.000,3353.7519,N,09832.0244,W,1,08,1.1,309.5,M,-23.7,M,31.8,0000*76
$GPGSA,A,3,17,13,11,08,07,19,01,28,,,,,2.0,1.1,1.7*3E
$GPRMC,033538.000,A,3353.7519,N,09832.0244,W,0.08,99.10,310312,,,A*47
$GPGGA,033539.000,3353.7519,N,09832.0244,W,1,08,1.1,309.5,M,-23.7,M,31.8,0000*77
$GPGSA,A,3,17,13,11,08,07,19,01,28,,,,,2.0,1.1,1.7*3E
$GPRMC,033539.000,A,3353.7519,N,09832.0244,W,0.08,86.75,310312,,,A*4B
$GPGGA,033540.000,3353.7519,N,09832.0244,W,1,08,1.1,309.6,M,-23.7,M,31.8,0000*7A
$GPGSA,A,3,17,13,11,08,07,19,01,28,,,,,2.0,1.1,1.7*3E
$GPGSV,3,1,10,08,76,357,39,07,57,126,37,28,48,305,30,11,42,084,42*73
$GPGSV,3,2,10,17,38,220,32,01,35,109,35,26,29,301,23,19,22,043,34*78
$GPGSV,3,3,10,13,10,178,36,48,36,230,27*7D
$GPRMC,033540.000,A,3353.7519,N,09832.0244,W,0.10,98.75,310312,,,A*43
$GPGGA,033541.000,3353.7519,N,09832.0244,W,1,08,1.1,309.6,M,-23.7,M,31.8,0000*7B
$GPGSA,A,3,17,13,11,08,07,19,01,28,,,,,2.0,1.1,1.7*3E
$GPRMC,033541.000,A,3353.7519,N,09832.0244,W,0.09,88.15,310312,,,A*4D
$GPGGA,033542.000,3353.7519,N,09832.0245,W,1,08,1.1,309.6,M,-23.7,M,31.8,0000*79
$GPGSA,A,3,17,13,11,08,07,19,01,28,,,,,2.0,1.1,1.7*3E
$GPRMC,033542.000,A,3353.7519,N,09832.0245,W,0.08,85.67,310312,,,A*46
$GPGGA,033543.000,3353.7519,N,09832.0245,W,1,08,1.1,309.7,M,-23.7,M,31.8,0000*79
$GPGSA,A,3,17,13,11,08,07,19,01,28,,,,,2.0,1.1,1.7*3E
$GPRMC,033543.000,A,3353.7519,N,09832.0245,W,0.08,81.73,310312,,,A*46
$GPGGA,033544.000,3353.7519,N,09832.0245,W,1,08,1.1,309.7,M,-23.7,M,31.8,0000*7E
$GPGSA,A,3,17,13,11,08,07,19,01,28,,,,,2.0,1.1,1.7*3E
$GPRMC,033544.000,A,3353.7519,N,09832.0245,W,0.09,98.81,310312,,,A*45
$GPGGA,033545.000,3353.7519,N,09832.0245,W,1,08,1.1,309.7,M,-23.7,M,31.8,0000*7F
$GPGSA,A,3,17,13,11,08,07,19,01,28,,,,,2.0,1.1,1.7*3E
$GPGSV,3,1,09,08,76,357,39,07,57,126,37,28,48,305,30,11,42,084,42*7B
$GPGSV,3,2,09,17,38,220,32,01,35,109,35,26,29,301,23,19,22,043,34*70
$GPGSV,3,3,09,13,10,178,36*48
$GPRMC,033545.000,A,3353.7519,N,09832.0245,W,0.08,88.45,310312,,,A*4C
$GPGGA,033546.000,3353.7519,N,09832.0245,W,1,08,1.1,309.8,M,-23.7,M,31.8,0000*73
$GPGSA,A,3,17,13,11,08,07,19,01,28,,,,,2.0,1.1,1.7*3E
$GPRMC,033546.000,A,3353.7519,N,09832.0245,W,0.09,93.06,310312,,,A*43
$GPGGA,033547.000,3353.7519,N,09832.0245,W,1,08,1.1,309.8,M,-23.7,M,31.8,0000*72
$GPGSA,A,3,17,13,11,08,07,19,01,28,,,,,2.0,1.1,1.7*3E
$GPRMC,033547.000,A,3353.7519,N,09832.0245,W,0.09,98.76,310312,,,A*4E
$GPGGA,033548.000,3353.7519,N,09832.0245,W,1,08,1.1,309.8,M,-23.7,M,31.8,0000*7D
$GPGSA,A,3,17,13,11,08,07,19,01,28,,,,,2.0,1.1,1.7*3E
$GPRMC,033548.000,A,3353.7519,N,09832.0245,W,0.08,84.29,310312,,,A*47
$GPGGA,033549.000,3353.7519,N,09832.0245,W,1,08,1.1,309.8,M,-23.7,M,31.8,0000*7C
$GPGSA,A,3,17,13,11,08,07,19,01,28,,,,,2.0,1.1,1.7*3E
$GPRMC,033549.000,A,3353.7519,N,09832.0245,W,0.06,84.41,310312,,,A*46
$GPGGA,033550.000,3353.7519,N,09832.0245,W,1,08,1.1,309.9,M,-23.7,M,31.8,0000*75
$GPGSA,A,3,17,13,11,08,07,19,01,28,,,,,2.0,1.1,1.7*3E
$GPGSV,3,1,09,08,76,357,39,07,57,126,37,28,48,305,30,11,42,084,41*78
$GPGSV,3,2,09,17,38,220,32,01,35,109,35,26,29,301,24,19,22,043,34*77
$GPGSV,3,3,09,13,10,178,36*48
$GPRMC,033550.000,A,3353.7519,N,09832.0245,W,0.10,92.32,310312,,,A*4A
$GPGGA,033551.000,3353.7519,N,09832.0245,W,1,08,1.1,309.9,M,-23.7,M,31.8,0000*74
$GPGSA,A,3,17,13,11,08,07,19,01,28,,,,,2.0,1.1,1.7*3E
$GPRMC,033551.000,A,3353.7519,N,09832.0245,W,0.09,94.16,310312,,,A*43
$GPGGA,033552.000,3353.7519,N,09832.0245,W,1,08,1.1,309.9,M,-23.7,M,31.8,0000*77
$GPGSA,A,3,17,13,11,08,07,19,01,28,,,,,2.0,1.1,1.7*3E
$GPRMC,033552.000,A,3353.7519,N,09832.0245,W,0.08,93.26,310312,,,A*45
$GPGGA,033553.000,3353.7519,N,09832.0245,W,1,08,1.1,310.0,M,-23.7,M,31.8,0000*77
$GPGSA,A,3,17,13,11,08,07,19,01,28,,,,,2.0,1.1,1.7*3E
$GPRMC,033553.000,A,3353.7519,N,09832.0245,W,0.09,90.71,310312,,,A*44
$GPGGA,033554.000,3353.7519,N,09832.0245,W,1,08,1.1,310.0,M,-23.7,M,31.8,0000*70
$GPGSA,A,3,17,13,11,08,07,19,01,28,,,,,2.0,1.1,1.7*3E
$GPRMC,033554.000,A,3353.7519,N,09832.0245,W,0.09,99.51,310312,,,A*48
$GPGGA,033555.000,3353.7519,N,09832.0245,W,1,08,1.1,310.1,M,-23.7,M,31.8,0000*70
$GPGSA,A,3,17,13,11,08,07,19,01,28,,,,,2.0,1.1,1.7*3E
$GPGSV,3,1,09,08,76,357,39,07,57,126,37,28,48,305,30,11,42,084,41*78
$GPGSV,3,2,09,17,38,220,31,01,35,109,36,26,29,301,24,19,22,043,34*77
$GPGSV,3,3,09,13,10,178,36*48
$GPRMC,033555.000,A,3353.7519,N,09832.0245,W,0.08,89.96,310312,,,A*42
$GPGGA,033556.000,3353.7518,N,09832.0245,W,1,08,1.1,310.1,M,-23.7,M,31.8,0000*72
$GPGSA,A,3,17,13,11,08,07,19,01,28,,,,,2.0,1.1,1.7*3E
$GPRMC,033556.000,A,3353.7518,N,09832.0245,W,0.09,95.48,310312,,,A*4F
$GPGGA,033557.000,3353.7518,N,09832.0245,W,1,08,1.1,310.2,M,-23.7,M,31.8,0000*70
$GPGSA,A,3,17,13,11,08,07,19,01,28,,,,,2.0,1.1,1.7*3E
$GPRMC,033557.000,A,3353.7518,N,09832.0245,W,0.09,98.22,310312,,,A*4F
$GPGGA,033558.000,3353.7518,N,09832.0245,W,1,08,1.1,310.2,M,-23.7,M,31.8,0000*7F
$GPGSA,A,3,17,13,11,08,07,19,01,28,,,,,2.0,1.1,1.7*3E
$GPRMC,033558.000,A,3353.7518,N,09832.0245,W,0.09,111.98,310312,,,A*71
$GPGGA,033559.000,3353.7518,N,09832.0245,W,1,08,1.1,310.3,M,-23.7,M,31.8,0000*7F
$GPGSA,A,3,17,13,11,08,07,19,01,28,,,,,2.0,1.1,1.7*3E
$GPRMC,033559.000,A,3353.7518,N,09832.0245,W,0.09,96.49,310312,,,A*42
$GPGGA,033600.000,3353.7518,N,09832.0245,W,1,08,1.1,310.3,M,-23.7,M,31.8,0000*70
$GPGSA,A,3,17,13,11,08,07,19,01,28,,,,,2.0,1.1,1.7*3E
$GPGSV,3,1,09,08,76,357,38,07,57,126,37,28,48,305,30,11,42,084,41*79
$GPGSV,3,2,09,17,38,220,31,01,35,109,35,26,29,301,25,19,22,043,34*75
$GPGSV,3,3,09,13,10,178,36*48
$GPRMC,033600.000,A,3353.7518,N,09832.0245,W,0.08,91.19,310312,,,A*4E
$GPGGA,033601.000,3353.7518,N,09832.0245,W,1,08,1.1,310.4,M,-23.7,M,31.8,0000*76
$GPGSA,A,3,17,13,11,08,07,19,01,28,,,,,2.0,1.1,1.7*3E
$GPRMC,033601.000,A,3353.7518,N,09832.0245,W,0.10,92.40,310312,,,A*49
$GPGGA,033602.000,3353.7518,N,09832.0245,W,1,08,1.1,310.4,M,-23.7,M,31.8,0000*75
$GPGSA,A,3,17,13,11,08,07,19,01,28,,,,,2.0,1.1,1.7*3E
$GPRMC,033602.000,A,3353.7518,N,09832.0245,W,0.10,104.49,310312,,,A*7D
$GPGGA,033603.000,3353.7517,N,09832.0245,W,1,08,1.1,310.5,M,-23.7,M,31.8,0000*7A
$GPGSA,A,3,17,13,11,08,07,19,01,28,,,,,2.0,1.1,1.7*3E
$GPRMC,033603.000,A,3353.7517,N,09832.0245,W,0.09,103.38,310312,,,A*7A
$GPGGA,033604.000,3353.7517,N,09832.0245,W,1,08,1.1,310.6,M,-23.7,M,31.8,0000*7E
$GPGSA,A,3,17,13,11,08,07,19,01,28,,,,,2.0,1.1,1.7*3E
$GPRMC,033604.000,A,3353.7517,N,09832.0245,W,0.09,98.29,310312,,,A*4E
$GPGGA,033605.000,3353.7517,N,09832.0245,W,1,08,1.1,310.6,M,-23.7,M,31.8,0000*7F
$GPGSA,A,3,17,13,11,08,07,19,01,28,,,,,2.0,1.1,1.7*3E
$GPGSV,3,1,09,08,76,357,38,07,57,126,38,28,48,305,30,11,42,084,41*76
$GPGSV,3,2,09,17,38,220,32,01,35,109,36,26,29,301,25,19,22,043,33*72
$GPGSV,3,3,09,13,10,178,36*48
$GPRMC,033605.000,A,3353.7517,N,09832.0245,W,0.10,101.75,310312,,,A*7F
$GPGGA,033606.000,3353.7517,N,09832.0245,W,1,08,1.1,310.7,M,-23.7,M,31.8,0000*7D
$GPGSA,A,3,17,13,11,08,07,19,01,28,,,,,2.0,1.1,1.7*3E
$GPRMC,033606.000,A,3353.7517,N,09832.0245,W,0.08,99.83,310312,,,A*4C
$GPGGA,033607.000,3353.7517,N,09832.0245,W,1,08,1.1,310.7,M,-23.7,M,31.8,0000*7C
$GPGSA,A,3,17,13,11,08,07,19,01,28,,,,,2.0,1.1,1.7*3E
$GPRMC,033607.000,A,3353.7517,N,09832.0245,W,0.09,94.41,310312,,,A*4F
$GPGGA,033608.000,3353.7517,N,09832.0245,W,1,08,1.1,310.8,M,-23.7,M,31.8,0000*7C
$GPGSA,A,3,17,13,11,08,07,19,01,28,,,,,2.0,1.1,1.7*3E
$GPRMC,033608.000,A,3353.7517,N,09832.0245,W,0.10,103.50,310312,,,A*77
$GPGGA,033609.000,3353.7516,N,09832.0245,W,1,08,1.1,310.8,M,-23.7,M,31.8,0000*7C
$GPGSA,A,3,17,13,11,08,07,19,01,28,,,,,2.0,1.1,1.7*3E
$GPRMC,033609.000,A,3353.7516,N,09832.0245,W,0.09,97.71,310312,,,A*40
$GPGGA,033610.000,3353.7516,N,09832.0245,W,1,08,1.1,310.9,M,-23.7,M,31.8,0000*75
$GPGSA,A,3,17,13,11,08,07,19,01,28,,,,,2.0,1.1,1.7*3E
$GPGSV,3,1,09,08,76,357,38,07,57,126,38,28,48,305,30,11,42,084,41*76
$GPGSV,3,2,09,17,38,220,33,01,35,109,36,26,29,301,25,19,22,043,33*73
$GPGSV,3,3,09,13,10,178,36*48
$GPRMC,033610.000,A,3353.7516,N,09832.0245,W,0.09,98.38,310312,,,A*4A
$GPGGA,033611.000,3353.7516,N,09832.0245,W,1,08,1.1,310.9,M,-23.7,M,31.8,0000*74
$GPGSA,A,3,17,13,11,08,07,19,01,28,,,,,2.0,1.1,1.7*3E
$GPRMC,033611.000,A,3353.7516,N,09832.0245,W,0.12,100.77,310312,,,A*7A
$GPGGA,033612.000,3353.7516,N,09832.0245,W,1,08,1.1,311.0,M,-23.7,M,31.8,0000*7F
$GPGSA,A,3,17,13,11,08,07,19,01,28,,,,,2.0,1.1,1.7*3E
$GPRMC,033612.000,A,3353.7516,N,09832.0245,W,0.09,93.72,310312,,,A*4D
$GPGGA,033613.000,3353.7516,N,09832.0245,W,1,08,1.1,311.1,M,-23.7,M,31.8,0000*7F
$GPGSA,A,3,17,13,11,08,07,19,01,28,,,,,2.0,1.1,1.7*3E
$GPRMC,033613.000,A,3353.7516,N,09832.0245,W,0.09,98.82,310312,,,A*48
$GPGGA,033614.000,3353.7516,N,09832.0245,W,1,08,1.1,311.2,M,-23.7,M,31.8,0000*7B
$GPGSA,A,3,17,13,11,08,07,19,01,28,,,,,2.0,1.1,1.7*3E
$GPRMC,033614.000,A,3353.7516,N,09832.0245,W,0.11,103.04,310312,,,A*7B
$GPGGA,033615.000,3353.7516,N,09832.0244,W,1,08,1.1,311.2,M,-23.7,M,31.8,0000*7B
$GPGSA,A,3,17,13,11,08,07,19,01,28,,,,,2.0,1.1,1.7*3E
$GPGSV,3,1,09,08,76,357,38,07,57,126,38,28,48,305,30,11,42,084,40*77
$GPGSV,3,2,09,17,38,220,33,01,35,109,36,26,29,301,25,19,22,043,32*72
$GPGSV,3,3,09,13,10,178,36*48
$GPRMC,033615.000,A,3353.7516,N,09832.0244,W,0.09,101.82,310312,,,A*7E
$GPGGA,033616.000,3353.7516,N,09832.0244,W,1,08,1.1,311.3,M,-23.7,M,31.8,0000*79
$GPGSA,A,3,17,13,11,08,07,19,01,28,,,,,2.0,1.1,1.7*3E
$GPRMC,033616.000,A,3353.7516,N,09832.0244,W,0.11,97.10,310312,,,A*41
$GPGGA,033617.000,3353.7516,N,09832.0244,W,1,08,1.1,311.4,M,-23.7,M,31.8,0000*7F
$GPGSA,A,3,17,13,11,08,07,19,01,28,,,,,2.0,1.1,1.7*3E
$GPRMC,033617.000,A,3353.7516,N,09832.0244,W,0.10,95.97,310312,,,A*4C
$GPGGA,033618.000,3353.7516,N,09832.0243,W,1,08,1.1,311.5,M,-23.7,M,31.8,0000*76
$GPGSA,A,3,17,13,11,08,07,19,01,28,,,,,2.0,1.1,1.7*3E
$GPRMC,033618.000,A,3353.7516,N,09832.0243,W,0.09,104.93,310312,,,A*71
$GPGGA,033619.000,3353.7516,N,09832.0243,W,1,08,1.1,311.6,M,-23.7,M,31.8,0000*74
$GPGSA,A,3,17,13,11,08,07,19,01,28,,,,,2.0,1.1,1.7*3E
$GPRMC,033619.000,A,3353.7516,N,09832.0243,W,0.11,99.90,310312,,,A*4F
$GPGGA,033620.000,3353.7516,N,09832.0243,W,1,08,1.1,311.6,M,-23.7,M,31.8,0000*7E
$GPGSA,A,3,17,13,11,08,07,19,01,28,,,,,2.0,1.1,1.7*3E
$GPGSV,3,1,09,08,77,358,39,07,56,126,38,28,49,306,30,11,42,083,40*7C
$GPGSV,3,2,09,17,39,220,34,01,36,109,36,26,29,301,26,19,21,043,32*77
$GPGSV,3,3,09,13,10,178,36*48
$GPRMC,033620.000,A,3353.7516,N,09832.0243,W,0.09,102.26,310312,,,A*72
$GPGGA,033621.000,3353.7516,N,09832.0242,W,1,08,1.1,311.7,M,-23.7,M,31.8,0000*7F
$GPGSA,A,3,17,13,11,08,07,19,01,28,,,,,2.0,1.1,1.7*3E
$GPRMC,033621.000,A,3353.7516,N,09832.0242,W,0.10,103.22,310312,,,A*7F
$GPGGA,033622.000,3353.7516,N,09832.0242,W,1,08,1.1,311.8,M,-23.7,M,31.8,0000*73
$GPGSA,A,3,17,13,11,08,07,19,01,28,,,,,2.0,1.1,1.7*3E
$GPRMC,033622.000,A,3353.7516,N,09832.0242,W,0.09,103.81,310312,,,A*7D
$GPGGA,033623.000,3353.7516,N,09832.0242,W,1,08,1.1,311.9,M,-23.7,M,31.8,0000*73
$GPGSA,A,3,17,13,11,08,07,19,01,28,,,,,2.0,1.1,1.7*3E
$GPRMC,033623.000,A,3353.7516,N,09832.0242,W,0.10,99.92,310312,,,A*44
$GPGGA,033624.000,3353.7517,N,09832.0241,W,1,08,1.1,312.0,M,-23.7,M,31.8,0000*7C
$GPGSA,A,3,17,13,11,08,07,19,01,28,,,,,2.0,1.1,1.7*3E
$GPRMC,033624.000,A,3353.7517,N,09832.0241,W,0.09,105.06,310312,,,A*70
$GPGGA,033625.000,3353.7517,N,09832.0241,W,1,08,1.1,312.0,M,-23.7,M,31.8,0000*7D
$GPGSA,A,3,17,13,11,08,07,19,01,28,,,,,2.0,1.1,1.7*3E
$GPGSV,3,1,09,08,77,358,39,07,56,126,39,28,49,306,31,11,42,083,40*7C
$GPGSV,3,2,09,17,39,220,33,01,36,109,36,26,29,301,26,19,21,043,32*70
$GPGSV,3,3,09,13,10,178,37*49
$GPRMC,033625.000,A,3353.7517,N,09832.0241,W,0.10,103.44,310312,,,A*79
$GPGGA,033626.000,3353.7517,N,09832.0241,W,1,08,1.1,312.1,M,-23.7,M,31.8,0000*7F
$GPGSA,A,3,17,13,11,08,07,19,01,28,,,,,2.0,1.1,1.7*3E
$GPRMC,033626.000,A,3353.7517,N,09832.0241,W,0.09,98.93,310312,,,A*4B
$GPGGA,033627.000,3353.7517,N,09832.0240,W,1,08,1.1,312.2,M,-23.7,M,31.8,0000*7C
$GPGSA,A,3,17,13,11,08,07,19,01,28,,,,,2.0,1.1,1.7*3E
$GPRMC,033627.000,A,3353.7517,N,09832.0240,W,0.09,104.48,310312,,,A*79
$GPGGA,033628.000,3353.7517,N,09832.0240,W,1,08,1.1,312.2,M,-23.7,M,31.8,0000*73
$GPGSA,A,3,17,13,11,08,07,19,01,28,,,,,2.0,1.1,1.7*3E
$GPRMC,033628.000,A,3353.7517,N,09832.0240,W,0.09,106.12,310312,,,A*7B
$GPGGA,033629.000,3353.7517,N,09832.0240,W,1,08,1.1,312.3,M,-23.7,M,31.8,0000*73
$GPGSA,A,3,17,13,11,08,07,19,01,28,,,,,2.0,1.1,1.7*3E
$GPRMC,033629.000,A,3353.7517,N,09832.0240,W,0.08,103.85,310312,,,A*70
$GPGGA,033630.000,3353.7517,N,09832.0240,W,1,08,1.1,312.3,M,-23.7,M,31.8,0000*7B
$GPGSA,A,3,17,13,11,08,07,19,01,28,,,,,2.0,1.1,1.6*3F
$GPGSV,3,1,09,08,77,358,39,07,56,126,39,28,49,306,31,11,42,083,40*7C
$GPGSV,3,2,09,17,39,220,33,01,36,109,35,26,29,301,27,19,21,043,31*71
$GPGSV,3,3,09,13,10,178,37*49
$GPRMC,033630.000,A,3353.7517,N,09832.0240,W,0.10,101.26,310312,,,A*7A
$GPGGA,033631.000,3353.7517,N,09832.0239,W,1,08,1.1,312.4,M,-23.7,M,31.8,0000*73
$GPGSA,A,3,17,13,11,08,07,19,01,28,,,,,2.0,1.1,1.6*3F
$GPRMC,033631.000,A,3353.7517,N,09832.0239,W,0.09,106.01,310312,,,A*7F
$GPGGA,033632.000,3353.7517,N,09832.0239,W,1,08,1.1,312.5,M,-23.7,M,31.8,0000*71
$GPGSA,A,3,17,13,11,08,07,19,01,28,,,,,2.0,1.1,1.6*3F
$GPRMC,033632.000,A,3353.7517,N,09832.0239,W,0.08,95.21,310312,,,A*44
$GPGGA,033633.000,3353.7517,N,09832.0239,W,1,08,1.1,312.5,M,-23.7,M,31.8,0000*70
$GPGSA,A,3,17,13,11,08,07,19,01,28,,,,,2.0,1.1,1.6*3F
$GPRMC,033633.000,A,3353.7517,N,09832.0239,W,0.10,105.91,310312,,,A*7F
$GPGGA,033634.000,3353.7517,N,09832.0239,W,1,08,1.1,312.6,M,-23.7,M,31.8,0000*74
$GPGSA,A,3,17,13,11,08,07,19,01,28,,,,,2.0,1.1,1.6*3F
$GPRMC,033634.000,A,3353.7517,N,09832.0239,W,0.09,99.58,310312,,,A*41
$GPGGA,033635.000,3353.7517,N,09832.0238,W,1,08,1.1,312.6,M,-23.7,M,31.8,0000*74
$GPGSA,A,3,17,13,11,08,07,19,01,28,,,,,2.0,1.1,1.6*3F
$GPGSV,3,1,09,08,77,358,39,07,56,126,39,28,49,306,31,11,42,083,39*72
$GPGSV,3,2,09,17,39,220,32,01,36,109,35,26,29,301,27,19,21,043,31*70
$GPGSV,3,3,09,13,10,178,37*49
$GPRMC,033635.000,A,3353.7517,N,09832.0238,W,0.11,106.61,310312,,,A*75
$GPGGA,033636.000,3353.7517,N,09832.0238,W,1,08,1.1,312.6,M,-23.7,M,31.8,0000*77
$GPGSA,A,3,17,13,11,08,07,19,01,28,,,,,2.0,1.1,1.6*3F
$GPRMC,033636.000,A,3353.7517,N,09832.0238,W,0.10,94.02,310312,,,A*48
$GPGGA,033637.000,3353.7517,N,09832.0238,W,1,08,1.1,312.7,M,-23.7,M,31.8,0000*77
$GPGSA,A,3,17,13,11,08,07,19,01,28,,,,,2.0,1.1,1.6*3F
$GPRMC,033637.000,A,3353.7517,N,09832.0238,W,0.10,108.78,310312,,,A*70
$GPGGA,033638.000,3353.7517,N,09832.0238,W,1,08,1.1,312.7,M,-23.7,M,31.8,0000*78
$GPGSA,A,3,17,13,11,08,07,19,01,28,,,,,2.0,1.1,1.6*3F
$GPRMC,033638.000,A,3353.7517,N,09832.0238,W,0.10,94.01,310312,,,A*45
$GPGGA,033639.000,3353.7517,N,09832.0238,W,1,08,1.1,312.7,M,-23.7,M,31.8,0000*79
$GPGSA,A,3,17,13,11,08,07,19,01,28,,,,,2.0,1.1,1.6*3F
$GPRMC,033639.000,A,3353.7517,N,09832.0238,W,0.09,110.00,310312,,,A*70
$GPGGA,033640.000,3353.7517,N,09832.0237,W,1,08,1.1,312.8,M,-23.7,M,31.8,0000*77
$GPGSA,A,3,17,13,11,08,07,19,01,28,,,,,2.0,1.1,1.6*3F
$GPGSV,3,1,09,08,77,358,39,07,56,126,40,28,49,306,30,11,42,083,39*7D
$GPGSV,3,2,09,17,39,220,31,01,36,109,34,26,29,301,27,19,21,043,31*72
$GPGSV,3,3,09,13,10,178,37*49
$GPRMC,033640.000,A,3353.7517,N,09832.0237,W,0.10,99.30,310312,,,A*4A
$GPGGA,033641.000,3353.7517,N,09832.0237,W,1,08,1.1,312.8,M,-23.7,M,31.8,0000*76
$GPGSA,A,3,17,13,11,08,07,19,01,28,,,,,2.0,1.1,1.6*3F
$GPRMC,033641.000,A,3353.7517,N,09832.0237,W,0.09,97.52,310312,,,A*49
$GPGGA,033642.000,3353.7517,N,09832.0237,W,1,08,1.1,312.8,M,-23.7,M,31.8,0000*75
$GPGSA,A,3,17,13,11,08,07,19,01,28,,,,,2.0,1.1,1.6*3F
$GPRMC,033642.000,A,3353.7517,N,09832.0237,W,0.10,110.55,310312,,,A*7B
$GPGGA,033643.000,3353.7517,N,09832.0237,W,1,08,1.1,312.9,M,-23.7,M,31.8,0000*75
$GPGSA,A,3,17,13,11,08,07,19,01,28,,,,,2.0,1.1,1.6*3F
$GPRMC,033643.000,A,3353.7517,N,09832.0237,W,0.08,100.87,310312,,,A*7D
$GPGGA,033644.000,3353.7517,N,09832.0237,W,1,08,1.1,312.9,M,-23.7,M,31.8,0000*72
$GPGSA,A,3,17,13,11,08,07,19,01,28,,,,,2.0,1.1,1.6*3F
$GPRMC,033644.000,A,3353.7517,N,09832.0237,W,0.09,99.95,310312,,,A*49
$GPGGA,033645.000,3353.7517,N,09832.0237,W,1,08,1.1,312.9,M,-23.7,M,31.8,0000*73
$GPGSA,A,3,17,13,11,08,07,19,01,28,,,,,2.0,1.1,1.6*3F
$GPGSV,3,1,10,08,77,358,39,07,56,126,40,28,49,306,30,11,42,083,39*75
$GPGSV,3,2,10,17,39,220,31,01,36,109,34,26,29,301,27,19,21,043,30*7B
$GPGSV,3,3,10,13,10,178,37,51,49,195,28*7F
$GPRMC,033645.000,A,3353.7517,N,09832.0237,W,0.09,104.18,310312,,,A*78
$GPGGA,033646.000,3353.7517,N,09832.0237,W,1,08,1.1,312.9,M,-23.7,M,31.8,0000*70
$GPGSA,A,3,17,13,11,08,07,19,01,28,,,,,2.0,1.1,1.6*3F
$GPRMC,033646.000,A,3353.7517,N,09832.0237,W,0.10,109.59,310312,,,A*7B
$GPGGA,033647.000,3353.7517,N,09832.0237,W,1,08,1.1,312.9,M,-23.7,M,31.8,0000*71
$GPGSA,A,3,17,13,11,08,07,19,01,28,,,,,2.0,1.1,1.6*3F
$GPRMC,033647.000,A,3353.7517,N,09832.0237,W,0.11,103.11,310312,,,A*7D
$GPGGA,033648.000,3353.7517,N,09832.0237,W,1,08,1.1,313.0,M,-23.7,M,31.8,0000*76
$GPGSA,A,3,17,13,11,08,07,19,01,28,,,,,2.0,1.1,1.6*3F
$GPRMC,033648.000,A,3353.7517,N,09832.0237,W,0.10,107.74,310312,,,A*74
$GPGGA,033649.000,3353.7517,N,09832.0237,W,1,08,1.1,313.0,M,-23.7,M,31.8,0000*77
$GPGSA,A,3,17,13,11,08,07,19,01,28,,,,,2.0,1.1,1.6*3F
$GPRMC,033649.000,A,3353.7517,N,09832.0237,W,0.10,102.23,310312,,,A*72
$GPGGA,033650.000,3353.7517,N,09832.0237,W,1,08,1.1,313.0,M,-23.7,M,31.8,0000*7F
$GPGSA,A,3,17,13,11,08,07,19,01,28,,,,,2.0,1.1,1.6*3F
$GPGSV,3,1,10,08,77,358,39,07,56,126,40,28,49,306,31,11,42,083,39*74
$GPGSV,3,2,10,17,39,221,31,01,36,109,34,26,29,300,28,19,21,043,30*74
$GPGSV,3,3,10,13,09,178,37,51,49,195,27*78
$GPRMC,033650.000,A,3353.7517,N,09832.0237,W,0.09,110.24,310312,,,A*76
$GPGGA,033651.000,3353.7517,N,09832.0237,W,1,08,1.1,313.0,M,-23.7,M,31.8,0000*7E
$GPGSA,A,3,17,13,11,08,07,19,01,28,,,,,2.0,1.1,1.6*3F
$GPRMC,033651.000,A,3353.7517,N,09832.0237,W,0.09,103.99,310312,,,A*73
$GPGGA,033652.000,3353.7517,N,09832.0237,W,1,08,1.1,313.0,M,-23.7,M,31.8,0000*7D
$GPGSA,A,3,17,13,11,08,07,19,01,28,,,,,2.0,1.1,1.6*3F
$GPRMC,033652.000,A,3353.7517,N,09832.0237,W,0.10,105.19,310312,,,A*76
$GPGGA,033653.000,3353.7517,N,09832.0237,W,1,08,1.1,313.0,M,-23.7,M,31.8,0000*7C
$GPGSA,A,3,17,13,11,08,07,19,01,28,,,,,2.0,1.1,1.6*3F
$GPRMC,033653.000,A,3353.7517,N,09832.0237,W,0.08,106.14,310312,,,A*70
$GPGGA,033654.000,3353.7517,N,09832.0238,W,1,08,1.1,313.0,M,-23.7,M,31.8,0000*74
$GPGSA,A,3,17,13,11,08,07,19,01,28,,,,,2.0,1.1,1.6*3F
$GPRMC,033654.000,A,3353.7517,N,09832.0238,W,0.10,108.31,310312,,,A*78
$GPGGA,033655.000,3353.7517,N,09832.0238,W,1,08,1.1,313.0,M,-23.7,M,31.8,0000*75
$GPGSA,A,3,17,13,11,08,07,19,01,28,,,,,2.0,1.1,1.6*3F
$GPGSV,3,1,10,08,77,358,39,07,56,126,40,28,49,306,31,11,42,083,39*74
$GPGSV,3,2,10,17,39,221,31,01,36,109,33,26,29,300,28,19,21,043,29*7B
$GPGSV,3,3,10,13,09,178,37,51,49,195,24*7B
$GPRMC,033655.000,A,3353.7517,N,09832.0238,W,0.10,106.26,310312,,,A*71
$GPGGA,033656.000,3353.7517,N,09832.0238,W,1,08,1.1,313.0,M,-23.7,M,31.8,0000*76
$GPGSA,A,3,17,13,11,08,07,19,01,28,,,,,2.0,1.1,1.6*3F
$GPRMC,033656.000,A,3353.7517,N,09832.0238,W,0.11,108.60,310312,,,A*7F
$GPGGA,033657.000,3353.7517,N,09832.0238,W,1,08,1.1,313.0,M,-23.7,M,31.8,0000*77
$GPGSA,A,3,17,13,11,08,07,19,01,28,,,,,2.0,1.1,1.6*3F
$GPRMC,033657.000,A,3353.7517,N,09832.0238,W,0.08,99.44,310312,,,A*49
$GPGGA,033658.000,3353.7517,N,09832.0238,W,1,08,1.1,313.0,M,-23.7,M,31.8,0000*78
$GPGSA,A,3,17,13,11,08,07,19,01,28,,,,,2.0,1.1,1.6*3F
$GPRMC,033658.000,A,3353.7517,N,09832.0238,W,0.12,107.04,310312,,,A*7F
$GPGGA,033659.000,3353.7517,N,09832.0238,W,1,08,1.1,313.0,M,-23.7,M,31.8,0000*79
$GPGSA,A,3,17,13,11,08,07,19,01,28,,,,,2.0,1.1,1.6*3F
$GPRMC,033659.000,A,3353.7517,N,09832.0238,W,0.10,111.54,310312,,,A*7E
$GPGGA,033700.000,3353.7517,N,09832.0238,W,1,08,1.1,313.0,M,-23.7,M,31.8,0000*74
$GPGSA,A,3,17,13,11,08,07,19,01,28,,,,,2.0,1.1,1.6*3F
$GPGSV,3,1,10,08,77,358,39,07,56,126,40,28,49,306,32,11,42,083,39*77
$GPGSV,3,2,10,17,39,221,31,01,36,109,33,26,29,300,29,19,21,043,29*7A
$GPGSV,3,3,10,13,09,178,37,51,49,195,28*77
$GPRMC,033700.000,A,3353.7517,N,09832.0238,W,0.10,104.77,310312,,,A*76
$GPGGA,033701.000,3353.7517,N,09832.0239,W,1,08,1.1,313.0,M,-23.7,M,31.8,0000*74
$GPGSA,A,3,17,13,11,08,07,19,01,28,,,,,2.0,1.1,1.6*3F
$GPRMC,033701.000,A,3353.7517,N,09832.0239,W,0.10,109.56,310312,,,A*78
$GPGGA,033702.000,3353.7517,N,09832.0239,W,1,08,1.1,313.0,M,-23.7,M,31.8,0000*77
$GPGSA,A,3,17,13,11,08,07,19,01,28,,,,,2.0,1.1,1.6*3F
$GPRMC,033702.000,A,3353.7517,N,09832.0239,W,0.10,107.93,310312,,,A*7C
$GPGGA,033703.000,3353.7518,N,09832.0244,W,2,09,0.9,312.4,M,-23.7,M,0.8,0000*4F
$GPGSA,A,3,17,13,26,11,08,07,19,01,28,,,,1.8,0.9,1.5*3A
$GPRMC,033703.000,A,3353.7518,N,09832.0244,W,0.06,91.87,310312,,,D*41
$GPGGA,033704.000,3353.7518,N,09832.0244,W,2,09,0.9,312.4,M,-23.7,M,0.8,0000*48
$GPGSA,A,3,17,13,26,11,08,07,19,01,28,,,,1.8,0.9,1.5*3A
$GPRMC,033704.000,A,3353.7518,N,09832.0244,W,0.08,111.97,310312,,,D*70
$GPGGA,033705.000,3353.7518,N,09832.0244,W,2,09,0.9,312.5,M,-23.7,M,0.8,0000*48
$GPGSA,A,3,17,13,26,11,08,07,19,01,28,,,,1.8,0.9,1.5*3A
$GPGSV,3,1,10,08,77,359,38,07,56,127,40,28,49,306,32,11,42,083,39*76
$GPGSV,3,2,10,17,39,221,32,01,36,109,33,26,29,300,29,19,21,043,30*71
$GPGSV,3,3,10,13,09,178,37,51,49,195,28*77
$GPRMC,033705.000,A,3353.7518,N,09832.0244,W,0.07,90.94,310312,,,D*45
$GPGGA,033706.000,3353.7518,N,09832.0244,W,2,09,0.9,312.5,M,-23.7,M,1.8,0000*4A
$GPGSA,A,3,17,13,26,11,08,07,19,01,28,,,,1.8,0.9,1.5*3A
$GPRMC,033706.000,A,3353.7518,N,09832.0244,W,0.07,91.83,310312,,,D*41
$GPGGA,033707.000,3353.7519,N,09832.0244,W,2,09,0.9,312.5,M,-23.7,M,2.8,0000*49
$GPGSA,A,3,17,13,26,11,08,07,19,01,28,,,,1.8,0.9,1.5*3A
$GPRMC,033707.000,A,3353.7519,N,09832.0244,W,0.07,90.92,310312,,,D*40
$GPGGA,033708.000,3353.7519,N,09832.0244,W,2,09,0.9,312.6,M,-23.7,M,3.8,0000*44
$GPGSA,A,3,17,13,26,11,08,07,19,01,28,,,,1.8,0.9,1.5*3A
$GPRMC,033708.000,A,3353.7519,N,09832.0244,W,0.07,86.33,310312,,,D*43
$GPGGA,033709.000,3353.7519,N,09832.0244,W,2,09,0.9,312.6,M,-23.7,M,0.8,0000*46
$GPGSA,A,3,17,13,26,11,08,07,19,01,28,,,,1.8,0.9,1.5*3A
$GPRMC,033709.000,A,3353.7519,N,09832.0244,W,0.07,81.17,310312,,,D*43
$GPGGA,033710.000,3353.7520,N,09832.0245,W,2,09,0.9,312.7,M,-23.7,M,0.8,0000*44
$GPGSA,A,3,17,13,26,11,08,07,19,01,28,,,,1.8,0.9,1.5*3A
$GPGSV,3,1,10,08,77,359,38,07,56,127,40,28,49,306,32,11,42,083,39*76
$GPGSV,3,2,10,17,39,221,31,01,36,109,33,26,29,300,29,19,21,043,30*72
$GPGSV,3,3,10,13,09,178,37,51,49,195,28*77
$GPRMC,033710.000,A,3353.7520,N,09832.0245,W,0.06,81.73,310312,,,D*43
$GPGGA,033711.000,3353.7520,N,09832.0245,W,2,09,0.9,312.8,M,-23.7,M,0.8,0000*4A
$GPGSA,A,3,17,13,26,11,08,07,19,01,28,,,,1.8,0.9,1.5*3A
$GPRMC,033711.000,A,3353.7520,N,09832.0245,W,0.06,76.59,310312,,,D*42
$GPGGA,033712.000,3353.7520,N,09832.0245,W,2,09,0.9,312.9,M,-23.7,M,1.8,0000*49
$GPGSA,A,3,17,13,26,11,08,07,19,01,28,,,,1.8,0.9,1.5*3A
$GPRMC,033712.000,A,3353.7520,N,09832.0245,W,0.07,67.06,310312,,,D*4A
$GPGGA,033713.000,3353.7521,N,09832.0245,W,2,09,0.9,313.0,M,-23.7,M,0.8,0000*40
$GPGSA,A,3,17,13,26,11,08,07,19,01,28,,,,1.8,0.9,1.5*3A
$GPRMC,033713.000,A,3353.7521,N,09832.0245,W,0.07,73.91,310312,,,D*41
$GPGGA,033714.000,3353.7521,N,09832.0245,W,2,09,0.9,313.1,M,-23.7,M,1.8,0000*47
$GPGSA,A,3,17,13,26,11,08,07,19,01,28,,,,1.8,0.9,1.5*3A
$GPRMC,033714.000,A,3353.7521,N,09832.0245,W,0.07,83.69,310312,,,D*4E
$GPGGA,033715.000,3353.7521,N,09832.0245,W,2,09,0.9,313.2,M,-23.7,M,0.8,0000*44
$GPGSA,A,3,17,13,26,11,08,07,19,01,28,,,,1.8,0.9,1.5*3A
$GPGSV,3,1,10,08,77,359,38,07,56,127,40,28,49,306,31,11,42,083,39*75
$GPGSV,3,2,10,17,39,221,31,01,36,109,33,26,29,300,29,19,21,043,30*72
$GPGSV,3,3,10,13,09,178,37,51,49,195,28*77
$GPRMC,033715.000,A,3353.7521,N,09832.0245,W,0.05,46.66,310312,,,D*4B
$GPGGA,033716.000,3353.7521,N,09832.0245,W,2,09,0.9,313.2,M,-23.7,M,0.8,0000*47
$GPGSA,A,3,17,13,26,11,08,07,19,01,28,,,,1.8,0.9,1.5*3A
$GPRMC,033716.000,A,3353.7521,N,09832.0245,W,0.06,85.40,310312,,,D*40
$GPGGA,033717.000,3353.7521,N,09832.0245,W,2,09,0.9,313.2,M,-23.7,M,0.8,0000*46
$GPGSA,A,3,17,13,26,11,08,07,19,01,28,,,,1.8,0.9,1.5*3A
$GPRMC,033717.000,A,3353.7521,N,09832.0245,W,0.08,115.36,310312,,,D*76
$GPGGA,033718.000,3353.7522,N,09832.0245,W,2,09,0.9,313.2,M,-23.7,M,1.8,0000*4B
$GPGSA,A,3,17,13,26,11,08,07,19,01,28,,,,1.8,0.9,1.5*3A
$GPRMC,033718.000,A,3353.7522,N,09832.0245,W,0.06,98.40,310312,,,D*41
$GPGGA,033719.000,3353.7522,N,09832.0245,W,2,09,0.9,313.2,M,-23.7,M,2.8,0000*49
$GPGSA,A,3,17,13,26,11,08,07,19,01,28,,,,1.8,0.9,1.5*3A
$GPRMC,033719.000,A,3353.7522,N,09832.0245,W,0.06,98.16,310312,,,D*43
$GPGGA,033720.000,3353.7522,N,09832.0245,W,2,09,0.9,313.2,M,-23.7,M,3.8,0000*42
$GPGSA,A,3,17,13,26,11,08,07,19,01,28,,,,1.8,0.9,1.5*3A
$GPGSV,3,1,10,08,77,359,39,07,56,127,40,28,49,306,31,11,42,083,39*74
$GPGSV,3,2,10,17,39,221,30,01,36,108,33,26,29,300,29,19,21,043,30*72
$GPGSV,3,3,10,13,09,178,37,51,49,195,28*77
$GPRMC,033720.000,A,3353.7522,N,09832.0245,W,0.07,107.73,310312,,,D*7C
$GPGGA,033721.000,3353.7522,N,09832.0245,W,2,09,0.9,313.2,M,-23.7,M,0.8,0000*40
$GPGSA,A,3,17,13,26,11,08,07,19,01,28,,,,1.8,0.9,1.5*3A
$GPRMC,033721.000,A,3353.7522,N,09832.0245,W,0.07,104.76,310312,,,D*7B
$GPGGA,033722.000,3353.7522,N,09832.0245,W,2,09,0.9,313.2,M,-23.7,M,0.8,0000*43
$GPGSA,A,3,17,13,26,11,08,07,19,01,28,,,,1.8,0.9,1.5*3A
$GPRMC,033722.000,A,3353.7522,N,09832.0245,W,0.10,106.84,310312,,,D*71
$GPGGA,033723.000,3353.7522,N,09832.0245,W,2,09,0.9,313.3,M,-23.7,M,0.8,0000*43
$GPGSA,A,3,17,13,26,11,08,07,19,01,28,,,,1.8,0.9,1.5*3A
$GPRMC,033723.000,A,3353.7522,N,09832.0245,W,0.07,71.65,310312,,,D*48
$GPGGA,033724.000,3353.7522,N,09832.0246,W,2,09,0.9,313.4,M,-23.7,M,1.8,0000*41
$GPGSA,A,3,17,13,26,11,08,07,19,01,28,,,,1.8,0.9,1.5*3A
$GPRMC,033724.000,A,3353.7522,N,09832.0246,W,0.08,62.59,310312,,,D*4E
$GPGGA,033725.000,3353.7522,N,09832.0246,W,2,09,0.9,313.5,M,-23.7,M,2.8,0000*42
$GPGSA,A,3,17,13,26,11,08,07,19,01,28,,,,1.8,0.9,1.5*3A
$GPGSV,3,1,10,08,77,359,39,07,56,127,40,28,49,306,30,11,42,083,39*75
$GPGSV,3,2,10,17,39,221,30,01,36,108,33,26,29,300,29,19,21,043,30*72
$GPGSV,3,3,10,13,09,178,37,51,49,195,28*77
$GPRMC,033725.000,A,3353.7522,N,09832.0246,W,0.07,84.47,310312,,,D*47
$GPGGA,033726.000,3353.7522,N,09832.0246,W,2,09,0.9,313.6,M,-23.7,M,3.8,0000*43
$GPGSA,A,3,17,13,26,11,08,07,19,01,28,,,,1.8,0.9,1.5*3A
$GPRMC,033726.000,A,3353.7522,N,09832.0246,W,0.07,72.89,310312,,,D*4F
$GPGGA,033727.000,3353.7522,N,09832.0246,W,2,09,0.9,313.7,M,-23.7,M,0.8,0000*40
$GPGSA,A,3,17,13,26,11,08,07,19,01,28,,,,1.8,0.9,1.5*3A
$GPRMC,033727.000,A,3353.7522,N,09832.0246,W,0.06,54.05,310312,,,D*4F
$GPGGA,033728.000,3353.7522,N,09832.0246,W,2,09,0.9,313.8,M,-23.7,M,0.8,0000*40
$GPGSA,A,3,17,13,26,11,08,07,19,01,28,,,,1.8,0.9,1.5*3A
$GPRMC,033728.000,A,3353.7522,N,09832.0246,W,0.06,60.63,310312,,,D*47
$GPGGA,033729.000,3353.7522,N,09832.0246,W,2,09,0.9,313.8,M,-23.7,M,0.8,0000*41
$GPGSA,A,3,17,13,26,11,08,07,19,01,28,,,,1.8,0.9,1.5*3A
$GPRMC,033729.000,A,3353.7522,N,09832.0246,W,0.09,119.99,310312,,,D*73
