$GPGGA,160129.000,3352.0104,N,09831.5586,W,2,08,1.3,286.6,M,-23.7,M,3.8,0000*41
$GPGSA,A,3,21,06,15,09,27,18,22,19,,,,,2.3,1.3,1.9*35
$GPGSV,3,1,11,18,58,045,34,21,55,146,38,22,53,315,33,14,48,233,*78
$GPGSV,3,2,11,09,38,072,36,06,27,262,34,27,24,050,29,03,21,273,*73
$GPGSV,3,3,11,15,18,047,34,19,14,311,34,51,49,195,37*49
$GPRMC,160129.000,A,3352.0104,N,09831.5586,W,0.19,165.15,030412,,,D*71
$GPGGA,160130.000,3352.0103,N,09831.5586,W,2,08,1.3,286.2,M,-23.7,M,0.8,0000*49
$GPGSA,A,3,21,06,15,09,27,18,22,19,,,,,2.3,1.3,1.9*35
$GPRMC,160130.000,A,3352.0103,N,09831.5586,W,0.16,146.35,030412,,,D*72
$GPGGA,160131.000,3352.0103,N,09831.5586,W,2,08,1.3,285.7,M,-23.7,M,0.8,0000*4E
$GPGSA,A,3,21,06,15,09,27,18,22,19,,,,,2.3,1.3,1.9*35
$GPRMC,160131.000,A,3352.0103,N,09831.5586,W,0.16,153.34,030412,,,D*76
$GPGGA,160132.000,3352.0103,N,09831.5586,W,2,09,1.2,285.3,M,-23.7,M,0.8,0000*49
$GPGSA,A,3,21,06,15,09,27,18,22,03,19,,,,2.2,1.2,1.8*37
$GPRMC,160132.000,A,3352.0103,N,09831.5586,W,0.17,147.50,030412,,,D*73
$GPGGA,160133.000,3352.0102,N,09831.5586,W,2,09,1.2,285.0,M,-23.7,M,1.8,0000*4B
$GPGSA,A,3,21,06,15,09,27,18,22,03,19,,,,2.2,1.2,1.8*37
$GPRMC,160133.000,A,3352.0102,N,09831.5586,W,0.20,137.19,030412,,,D*7D
$GPGGA,160134.000,3352.0102,N,09831.5586,W,2,09,1.2,284.6,M,-23.7,M,2.8,0000*48
$GPGSA,A,3,21,06,15,09,27,18,22,03,19,,,,2.2,1.2,1.8*37
$GPGSV,3,1,11,18,58,045,34,21,55,146,38,22,53,315,33,14,48,233,*78
$GPGSV,3,2,11,09,38,072,36,06,27,262,34,27,24,050,28,03,21,273,20*70
$GPGSV,3,3,11,15,18,047,33,19,14,311,33,51,49,195,36*48
$GPRMC,160134.000,A,3352.0102,N,09831.5586,W,0.17,183.07,030412,,,D*7E
$GPGGA,160135.000,3352.0101,N,09831.5586,W,2,09,1.2,284.2,M,-23.7,M,3.8,0000*4F
$GPGSA,A,3,21,06,15,09,27,18,22,03,19,,,,2.2,1.2,1.8*37
$GPRMC,160135.000,A,3352.0101,N,09831.5586,W,0.16,160.33,030412,,,D*77
$GPGGA,160136.000,3352.0101,N,09831.5586,W,2,09,1.2,283.9,M,-23.7,M,0.8,0000*43
$GPGSA,A,3,21,06,15,09,27,18,22,03,19,,,,2.2,1.2,1.8*37
$GPRMC,160136.000,A,3352.0101,N,09831.5586,W,0.22,177.08,030412,,,D*7D
$GPGGA,160137.000,3352.0100,N,09831.5586,W,2,09,1.2,283.6,M,-23.7,M,0.8,0000*4C
$GPGSA,A,3,21,06,15,09,27,18,22,03,19,,,,2.2,1.2,1.8*37
$GPRMC,160137.000,A,3352.0100,N,09831.5586,W,0.18,166.76,030412,,,D*7D
$GPGGA,160138.000,3352.0099,N,09831.5586,W,2,09,1.2,283.3,M,-23.7,M,0.8,0000*47
$GPGSA,A,3,21,06,15,09,27,18,22,03,19,,,,2.2,1.2,1.8*37
$GPRMC,160138.000,A,3352.0099,N,09831.5586,W,0.18,151.37,030412,,,D*72
$GPGGA,160139.000,3352.0099,N,09831.5586,W,2,09,1.2,283.1,M,-23.7,M,1.8,0000*45
$GPGSA,A,3,21,06,15,09,27,18,22,03,19,,,,2.2,1.2,1.8*37
$GPGSV,3,1,11,18,58,045,34,21,55,146,37,22,53,315,33,14,48,233,*77
$GPGSV,3,2,11,09,38,072,36,06,27,262,33,27,24,050,29,03,21,273,21*77
$GPGSV,3,3,11,15,18,047,34,19,14,311,33,51,49,195,36*4F
$GPRMC,160139.000,A,3352.0099,N,09831.5586,W,0.18,144.48,030412,,,D*7F
$GPGGA,160140.000,3352.0098,N,09831.5586,W,2,09,1.2,282.8,M,-23.7,M,2.8,0000*41
$GPGSA,A,3,21,06,15,09,27,18,22,03,19,,,,2.2,1.2,1.8*37
$GPRMC,160140.000,A,3352.0098,N,09831.5586,W,0.16,171.31,030412,,,D*76
$GPGGA,160141.000,3352.0098,N,09831.5586,W,2,09,1.2,282.7,M,-23.7,M,3.8,0000*4E
$GPGSA,A,3,21,06,15,09,27,18,22,03,19,,,,2.2,1.2,1.8*37
$GPRMC,160141.000,A,3352.0098,N,09831.5586,W,0.21,140.40,030412,,,D*77
$GPGGA,160142.000,3352.0098,N,09831.5586,W,2,09,1.2,282.6,M,-23.7,M,0.8,0000*4F
$GPGSA,A,3,21,06,15,09,27,18,22,03,19,,,,2.2,1.2,1.8*37
$GPRMC,160142.000,A,3352.0098,N,09831.5586,W,0.20,108.47,030412,,,D*7E
$GPGGA,160143.000,3352.0098,N,09831.5586,W,2,09,1.2,282.6,M,-23.7,M,0.8,0000*4E
$GPGSA,A,3,21,06,15,09,27,18,22,03,19,,,,2.2,1.2,1.8*37
$GPRMC,160143.000,A,3352.0098,N,09831.5586,W,0.16,131.41,030412,,,D*76
$GPGGA,160144.000,3352.0097,N,09831.5586,W,2,09,1.2,282.5,M,-23.7,M,0.8,0000*45
$GPGSA,A,3,21,06,15,09,27,18,22,03,19,,,,2.2,1.2,1.8*37
$GPGSV,3,1,11,18,58,045,34,21,55,146,37,22,53,315,32,14,48,233,*76
$GPGSV,3,2,11,09,38,072,36,06,27,262,33,27,24,050,29,03,21,273,22*74
$GPGSV,3,3,11,15,18,047,34,19,14,311,33,51,49,195,36*4F
$GPRMC,160144.000,A,3352.0097,N,09831.5586,W,0.14,156.38,030412,,,D*73
$GPGGA,160145.000,3352.0097,N,09831.5586,W,2,09,1.2,282.4,M,-23.7,M,0.8,0000*45
$GPGSA,A,3,21,06,15,09,27,18,22,03,19,,,,2.2,1.2,1.8*37
$GPRMC,160145.000,A,3352.0097,N,09831.5586,W,0.15,160.50,030412,,,D*78
$GPGGA,160146.000,3352.0097,N,09831.5586,W,2,09,1.2,282.3,M,-23.7,M,1.8,0000*40
$GPGSA,A,3,21,06,15,09,27,18,22,03,19,,,,2.2,1.2,1.8*37
$GPRMC,160146.000,A,3352.0097,N,09831.5586,W,0.13,177.91,030412,,,D*76
$GPGGA,160147.000,3352.0097,N,09831.5587,W,2,09,1.2,282.3,M,-23.7,M,0.8,0000*41
$GPGSA,A,3,21,06,15,09,27,18,22,03,19,,,,2.2,1.2,1.8*37
$GPRMC,160147.000,A,3352.0097,N,09831.5587,W,0.15,172.36,030412,,,D*78
$GPGGA,160148.000,3352.0096,N,09831.5587,W,2,09,1.2,282.2,M,-23.7,M,0.8,0000*4E
$GPGSA,A,3,21,06,15,09,27,18,22,03,19,,,,2.2,1.2,1.8*37
$GPRMC,160148.000,A,3352.0096,N,09831.5587,W,0.16,140.56,030412,,,D*72
$GPGGA,160149.000,3352.0096,N,09831.5587,W,2,09,1.2,282.0,M,-23.7,M,0.8,0000*4D
$GPGSA,A,3,21,06,15,09,27,18,22,03,19,,,,2.2,1.2,1.8*37
$GPGSV,3,1,11,18,58,045,34,21,55,146,37,22,53,315,32,14,48,233,*76
$GPGSV,3,2,11,09,38,072,36,06,27,262,33,27,24,050,30,03,21,273,23*7D
$GPGSV,3,3,11,15,18,047,34,19,14,311,33,51,49,195,36*4F
$GPRMC,160149.000,A,3352.0096,N,09831.5587,W,0.13,166.94,030412,,,D*7C
$GPGGA,160150.000,3352.0096,N,09831.5587,W,2,09,1.2,281.9,M,-23.7,M,0.8,0000*4F
$GPGSA,A,3,21,06,15,09,27,18,22,03,19,,,,2.2,1.2,1.8*37
$GPRMC,160150.000,A,3352.0096,N,09831.5587,W,0.14,151.24,030412,,,D*7C
$GPGGA,160151.000,3352.0095,N,09831.5587,W,2,09,1.2,281.8,M,-23.7,M,1.8,0000*4D
$GPGSA,A,3,21,06,15,09,27,18,22,03,19,,,,2.2,1.2,1.8*37
$GPRMC,160151.000,A,3352.0095,N,09831.5587,W,0.16,177.50,030412,,,D*7B
$GPGGA,160152.000,3352.0095,N,09831.5587,W,2,09,1.2,281.6,M,-23.7,M,2.8,0000*43
$GPGSA,A,3,21,06,15,09,27,18,22,03,19,,,,2.2,1.2,1.8*37
$GPRMC,160152.000,A,3352.0095,N,09831.5587,W,0.14,150.72,030412,,,D*7F
$GPGGA,160153.000,3352.0094,N,09831.5587,W,2,09,1.2,281.5,M,-23.7,M,3.8,0000*41
$GPGSA,A,3,21,06,15,09,27,18,22,03,19,,,,2.2,1.2,1.8*37
$GPRMC,160153.000,A,3352.0094,N,09831.5587,W,0.15,168.49,030412,,,D*7D
$GPGGA,160154.000,3352.0094,N,09831.5587,W,2,09,1.2,281.5,M,-23.7,M,0.8,0000*45
$GPGSA,A,3,21,06,15,09,27,18,22,03,19,,,,2.2,1.2,1.8*37
$GPGSV,3,1,11,18,58,045,34,21,55,146,37,22,53,315,32,14,48,233,*76
$GPGSV,3,2,11,09,38,072,35,06,27,262,33,27,24,050,30,03,21,273,24*79
$GPGSV,3,3,11,15,18,047,34,19,14,311,32,51,49,195,36*4E
$GPRMC,160154.000,A,3352.0094,N,09831.5587,W,0.16,120.64,030412,,,D*7A
$GPGGA,160155.000,3352.0094,N,09831.5586,W,2,09,1.2,281.5,M,-23.7,M,0.8,0000*45
$GPGSA,A,3,21,06,15,09,27,18,22,03,19,,,,2.2,1.2,1.8*37
$GPRMC,160155.000,A,3352.0094,N,09831.5586,W,0.12,164.37,030412,,,D*78
$GPGGA,160156.000,3352.0094,N,09831.5587,W,2,09,1.2,281.5,M,-23.7,M,0.8,0000*47
$GPGSA,A,3,21,06,15,09,27,18,22,03,19,,,,2.2,1.2,1.8*37
$GPRMC,160156.000,A,3352.0094,N,09831.5587,W,0.14,167.52,030412,,,D*7C
$GPGGA,160157.000,3352.0094,N,09831.5587,W,2,09,1.2,281.4,M,-23.7,M,1.8,0000*46
$GPGSA,A,3,21,06,15,09,27,18,22,03,19,,,,2.2,1.2,1.8*37
$GPRMC,160157.000,A,3352.0094,N,09831.5587,W,0.17,191.00,030412,,,D*70
$GPGGA,160158.000,3352.0094,N,09831.5587,W,2,10,1.2,281.4,M,-23.7,M,2.8,0000*42
$GPGSA,A,3,21,06,15,09,27,18,22,03,14,19,,,2.1,1.2,1.8*31
$GPRMC,160158.000,A,3352.0094,N,09831.5587,W,0.04,183.47,030412,,,D*7D
$GPGGA,160159.000,3352.0094,N,09831.5587,W,2,10,1.2,281.5,M,-23.7,M,3.8,0000*43
$GPGSA,A,3,21,06,15,09,27,18,22,03,14,19,,,2.1,1.2,1.8*31
$GPGSV,3,1,11,18,58,045,34,21,55,146,37,22,53,315,32,14,48,233,21*75
$GPGSV,3,2,11,09,38,072,35,06,27,262,33,27,24,050,30,03,21,273,24*79
$GPGSV,3,3,11,15,18,047,34,19,14,311,32,51,49,195,36*4E
$GPRMC,160159.000,A,3352.0094,N,09831.5587,W,0.12,94.63,030412,,,D*4A
$GPGGA,160200.000,3352.0094,N,09831.5587,W,2,10,1.2,281.4,M,-23.7,M,0.8,0000*4E
$GPGSA,A,3,21,06,15,09,27,18,22,03,14,19,,,2.1,1.2,1.8*31
$GPRMC,160200.000,A,3352.0094,N,09831.5587,W,0.06,169.99,030412,,,D*76
$GPGGA,160201.000,3352.0094,N,09831.5587,W,2,10,1.2,281.4,M,-23.7,M,0.8,0000*4F
$GPGSA,A,3,21,06,15,09,27,18,22,03,14,19,,,2.1,1.2,1.8*31
$GPRMC,160201.000,A,3352.0094,N,09831.5587,W,0.06,124.83,030412,,,D*75
$GPGGA,160202.000,3352.0094,N,09831.5587,W,2,10,1.2,281.3,M,-23.7,M,0.8,0000*4B
$GPGSA,A,3,21,06,15,09,27,18,22,03,14,19,,,2.1,1.2,1.8*31
$GPRMC,160202.000,A,3352.0094,N,09831.5587,W,0.18,161.96,030412,,,D*7C
$GPGGA,160203.000,3352.0094,N,09831.5587,W,2,10,1.2,281.3,M,-23.7,M,0.8,0000*4A
$GPGSA,A,3,21,06,15,09,27,18,22,03,14,19,,,2.1,1.2,1.8*31
$GPRMC,160203.000,A,3352.0094,N,09831.5587,W,0.10,113.43,030412,,,D*78
$GPGGA,160204.000,3352.0094,N,09831.5587,W,2,10,1.2,281.2,M,-23.7,M,0.8,0000*4C
$GPGSA,A,3,21,06,15,09,27,18,22,03,14,19,,,2.1,1.2,1.8*31
$GPGSV,3,1,11,18,58,045,34,21,55,146,36,22,53,315,32,14,48,233,22*77
$GPGSV,3,2,11,09,38,072,35,06,27,262,33,27,24,050,30,03,21,273,24*79
$GPGSV,3,3,11,15,18,047,34,19,14,311,32,51,49,195,36*4E
$GPRMC,160204.000,A,3352.0094,N,09831.5587,W,0.09,97.06,030412,,,D*4B
$GPGGA,160205.000,3352.0093,N,09831.5587,W,2,10,1.2,281.2,M,-23.7,M,1.8,0000*4B
$GPGSA,A,3,21,06,15,09,27,18,22,03,14,19,,,2.1,1.2,1.8*31
$GPRMC,160205.000,A,3352.0093,N,09831.5587,W,0.11,148.07,030412,,,D*76
$GPGGA,160206.000,3352.0093,N,09831.5587,W,2,09,1.2,281.2,M,-23.7,M,0.8,0000*41
$GPGSA,A,3,21,06,15,09,27,18,22,03,19,,,,2.2,1.2,1.8*37
$GPRMC,160206.000,A,3352.0093,N,09831.5587,W,0.15,153.78,030412,,,D*73
$GPGGA,160207.000,3352.0093,N,09831.5587,W,2,09,1.2,281.2,M,-23.7,M,0.8,0000*40
$GPGSA,A,3,21,06,15,09,27,18,22,03,19,,,,2.2,1.2,1.8*37
$GPRMC,160207.000,A,3352.0093,N,09831.5587,W,0.17,155.99,030412,,,D*79
$GPGGA,160208.000,3352.0093,N,09831.5587,W,2,09,1.2,281.3,M,-23.7,M,0.8,0000*4E
$GPGSA,A,3,21,06,15,09,27,18,22,03,19,,,,2.2,1.2,1.8*37
$GPRMC,160208.000,A,3352.0093,N,09831.5587,W,0.14,159.13,030412,,,D*7B
$GPGGA,160209.000,3352.0093,N,09831.5587,W,2,10,1.2,281.3,M,-23.7,M,1.8,0000*46
$GPGSA,A,3,21,06,15,09,27,18,22,03,14,19,,,2.1,1.2,1.8*31
$GPGSV,3,1,11,18,58,045,34,21,55,146,36,22,53,315,31,14,48,233,24*72
$GPGSV,3,2,11,09,38,072,35,06,27,262,33,27,24,050,31,03,21,273,25*79
$GPGSV,3,3,11,15,18,047,34,19,14,311,32,51,49,195,36*4E
$GPRMC,160209.000,A,3352.0093,N,09831.5587,W,0.12,151.45,030412,,,D*77
$GPGGA,160210.000,3352.0093,N,09831.5587,W,2,10,1.2,281.4,M,-23.7,M,0.8,0000*48
$GPGSA,A,3,21,06,15,09,27,18,22,03,14,19,,,2.1,1.2,1.8*31
$GPRMC,160210.000,A,3352.0093,N,09831.5587,W,0.10,156.00,030412,,,D*7B
$GPGGA,160211.000,3352.0092,N,09831.5587,W,2,10,1.2,281.4,M,-23.7,M,0.8,0000*48
$GPGSA,A,3,21,06,15,09,27,18,22,03,14,19,,,2.1,1.2,1.8*31
$GPRMC,160211.000,A,3352.0092,N,09831.5587,W,0.14,161.24,030412,,,D*7D
$GPGGA,160212.000,3352.0092,N,09831.5587,W,2,10,1.2,281.4,M,-23.7,M,0.8,0000*4B
$GPGSA,A,3,21,06,15,09,27,18,22,03,14,19,,,2.1,1.2,1.8*31
$GPRMC,160212.000,A,3352.0092,N,09831.5587,W,0.05,130.28,030412,,,D*76
$GPGGA,160213.000,3352.0092,N,09831.5587,W,2,10,1.2,281.4,M,-23.7,M,0.8,0000*4A
$GPGSA,A,3,21,06,15,09,27,18,22,03,14,19,,,2.1,1.2,1.8*31
$GPRMC,160213.000,A,3352.0092,N,09831.5587,W,0.06,188.91,030412,,,D*75
$GPGGA,160214.000,3352.0092,N,09831.5587,W,2,10,1.2,281.3,M,-23.7,M,0.8,0000*4A
$GPGSA,A,3,21,06,15,09,27,18,22,03,14,19,,,2.1,1.2,1.8*31
$GPGSV,3,1,11,18,58,045,34,21,55,146,36,22,53,315,31,14,48,233,24*72
$GPGSV,3,2,11,09,38,072,35,06,27,262,33,27,24,050,31,03,21,273,25*79
$GPGSV,3,3,11,15,18,047,34,19,14,311,31,51,49,195,36*4D
$GPRMC,160214.000,A,3352.0092,N,09831.5587,W,0.10,119.43,030412,,,D*72
$GPGGA,160215.000,3352.0092,N,09831.5586,W,2,10,1.2,281.3,M,-23.7,M,1.8,0000*4B
$GPGSA,A,3,21,06,15,09,27,18,22,03,14,19,,,2.1,1.2,1.8*31
$GPRMC,160215.000,A,3352.0092,N,09831.5586,W,0.12,122.45,030412,,,D*7E
$GPGGA,160216.000,3352.0091,N,09831.5586,W,2,10,1.2,281.2,M,-23.7,M,2.8,0000*49
$GPGSA,A,3,21,06,15,09,27,18,22,03,14,19,,,2.1,1.2,1.8*31
$GPRMC,160216.000,A,3352.0091,N,09831.5586,W,0.08,183.55,030412,,,D*7F
$GPGGA,160217.000,3352.0091,N,09831.5586,W,2,10,1.2,281.1,M,-23.7,M,3.8,0000*4A
$GPGSA,A,3,21,06,15,09,27,18,22,03,14,19,,,2.1,1.2,1.8*31
$GPRMC,160217.000,A,3352.0091,N,09831.5586,W,0.12,165.77,030412,,,D*7D
$GPGGA,160218.000,3352.0091,N,09831.5586,W,2,10,1.2,281.2,M,-23.7,M,0.8,0000*45
$GPGSA,A,3,21,06,15,09,27,18,22,03,14,19,,,2.1,1.2,1.8*31
$GPRMC,160218.000,A,3352.0091,N,09831.5586,W,0.09,126.26,030412,,,D*7B
$GPGGA,160219.000,3352.0091,N,09831.5586,W,2,10,1.2,281.2,M,-23.7,M,0.8,0000*44
$GPGSA,A,3,21,06,15,09,27,18,22,03,14,19,,,2.1,1.2,1.8*31
$GPGSV,3,1,11,18,58,045,34,21,55,146,36,22,53,315,31,14,48,233,24*72
$GPGSV,3,2,11,09,38,072,35,06,27,262,33,27,24,050,32,03,21,273,25*7A
$GPGSV,3,3,11,15,18,047,33,19,14,311,31,51,49,195,42*49
$GPRMC,160219.000,A,3352.0091,N,09831.5586,W,0.10,140.23,030412,,,D*77
$GPGGA,160220.000,3352.0091,N,09831.5586,W,2,10,1.2,281.2,M,-23.7,M,0.8,0000*4E
$GPGSA,A,3,21,06,15,09,27,18,22,03,14,19,,,2.1,1.2,1.8*31
$GPRMC,160220.000,A,3352.0091,N,09831.5586,W,0.17,174.70,030412,,,D*7B
$GPGGA,160221.000,3352.0091,N,09831.5586,W,2,10,1.2,281.2,M,-23.7,M,1.8,0000*4E
$GPGSA,A,3,21,06,15,09,27,18,22,03,14,19,,,2.1,1.2,1.8*31
$GPRMC,160221.000,A,3352.0091,N,09831.5586,W,0.10,140.63,030412,,,D*78
$GPGGA,160222.000,3352.0091,N,09831.5586,W,2,10,1.2,281.3,M,-23.7,M,2.8,0000*4F
$GPGSA,A,3,21,06,15,09,27,18,22,03,14,19,,,2.1,1.2,1.8*31
$GPRMC,160222.000,A,3352.0091,N,09831.5586,W,0.09,154.31,030412,,,D*71
$GPGGA,160223.000,3352.0091,N,09831.5586,W,2,10,1.2,281.3,M,-23.7,M,3.8,0000*4F
$GPGSA,A,3,21,06,15,09,27,18,22,03,14,19,,,2.1,1.2,1.8*31
$GPRMC,160223.000,A,3352.0091,N,09831.5586,W,0.07,130.96,030412,,,D*71
$GPGGA,160224.000,3352.0091,N,09831.5586,W,2,10,1.2,281.3,M,-23.7,M,0.8,0000*4B
$GPGSA,A,3,21,06,15,09,27,18,22,03,14,19,,,2.1,1.2,1.8*31
$GPGSV,3,1,11,18,58,045,35,21,55,146,37,22,53,315,31,14,48,233,25*73
$GPGSV,3,2,11,09,38,072,35,06,27,262,33,27,24,050,32,03,21,273,26*79
$GPGSV,3,3,11,15,18,047,33,19,14,311,30,51,49,195,36*4B
$GPRMC,160224.000,A,3352.0091,N,09831.5586,W,0.10,168.80,030412,,,D*7A
$GPGGA,160225.000,3352.0091,N,09831.5586,W,2,10,1.2,281.2,M,-23.7,M,0.8,0000*4B
$GPGSA,A,3,21,06,15,09,27,18,22,03,14,19,,,2.1,1.2,1.8*31
$GPRMC,160225.000,A,3352.0091,N,09831.5586,W,0.09,152.04,030412,,,D*76
$GPGGA,160226.000,3352.0090,N,09831.5586,W,2,10,1.2,281.1,M,-23.7,M,0.8,0000*4A
$GPGSA,A,3,21,06,15,09,27,18,22,03,14,19,,,2.1,1.2,1.8*31
$GPRMC,160226.000,A,3352.0090,N,09831.5586,W,0.10,154.09,030412,,,D*77
$GPGGA,160227.000,3352.0090,N,09831.5586,W,2,10,1.2,281.0,M,-23.7,M,0.8,0000*4A
$GPGSA,A,3,21,06,15,09,27,18,22,03,14,19,,,2.1,1.2,1.8*31
$GPRMC,160227.000,A,3352.0090,N,09831.5586,W,0.11,151.30,030412,,,D*78
$GPGGA,160228.000,3352.0090,N,09831.5586,W,2,10,1.2,280.9,M,-23.7,M,1.8,0000*4C
$GPGSA,A,3,21,06,15,09,27,18,22,03,14,19,,,2.1,1.2,1.8*31
$GPRMC,160228.000,A,3352.0090,N,09831.5586,W,0.10,155.35,030412,,,D*77
$GPGGA,160229.000,3352.0089,N,09831.5585,W,2,10,1.2,280.8,M,-23.7,M,2.8,0000*44
$GPGSA,A,3,21,06,15,09,27,18,22,03,14,19,,,2.1,1.2,1.8*31
$GPGSV,3,1,11,18,58,045,35,21,55,146,36,22,53,315,31,14,48,233,25*72
$GPGSV,3,2,11,09,38,072,35,06,27,262,33,27,24,050,32,03,21,273,26*79
$GPGSV,3,3,11,15,18,047,33,19,14,311,30,51,49,195,36*4B
$GPRMC,160229.000,A,3352.0089,N,09831.5585,W,0.11,151.82,030412,,,D*74
$GPGGA,160230.000,3352.0089,N,09831.5585,W,2,10,1.2,280.8,M,-23.7,M,0.8,0000*4E
$GPGSA,A,3,21,06,15,09,27,18,22,03,14,19,,,2.1,1.2,1.8*31
$GPRMC,160230.000,A,3352.0089,N,09831.5585,W,0.11,140.06,030412,,,D*70
$GPGGA,160231.000,3352.0089,N,09831.5585,W,2,10,1.2,280.8,M,-23.7,M,0.8,0000*4F
$GPGSA,A,3,21,06,15,09,27,18,22,03,14,19,,,2.1,1.2,1.8*31
$GPRMC,160231.000,A,3352.0089,N,09831.5585,W,0.09,153.07,030412,,,D*7B
$GPGGA,160232.000,3352.0089,N,09831.5585,W,2,10,1.2,280.8,M,-23.7,M,0.8,0000*4C
$GPGSA,A,3,21,06,15,09,27,18,22,03,14,19,,,2.1,1.2,1.8*31
$GPRMC,160232.000,A,3352.0089,N,09831.5585,W,0.08,155.75,030412,,,D*7A
$GPGGA,160233.000,3352.0089,N,09831.5585,W,2,10,1.2,280.8,M,-23.7,M,0.8,0000*4D
$GPGSA,A,3,21,06,15,09,27,18,22,03,14,19,,,2.1,1.2,1.8*31
$GPRMC,160233.000,A,3352.0089,N,09831.5585,W,0.10,153.76,030412,,,D*77
$GPGGA,160234.000,3352.0089,N,09831.5585,W,2,10,1.2,280.8,M,-23.7,M,1.8,0000*4B
$GPGSA,A,3,21,06,15,09,27,18,22,03,14,19,,,2.1,1.2,1.8*31
$GPGSV,3,1,11,18,58,046,35,21,55,147,36,22,53,316,30,14,48,233,25*72
$GPGSV,3,2,11,09,38,071,35,06,26,261,33,27,24,049,32,03,21,272,26*71
$GPGSV,3,3,11,15,17,047,33,19,15,310,30,51,49,195,36*44
$GPRMC,160234.000,A,3352.0089,N,09831.5585,W,0.08,160.28,030412,,,D*72
$GPGGA,160235.000,3352.0089,N,09831.5585,W,2,10,1.2,280.8,M,-23.7,M,2.8,0000*49
$GPGSA,A,3,21,06,15,09,27,18,22,03,14,19,,,2.1,1.2,1.8*31
$GPRMC,160235.000,A,3352.0089,N,09831.5585,W,0.06,149.54,030412,,,D*7D
$GPGGA,160236.000,3352.0089,N,09831.5585,W,2,10,1.2,280.7,M,-23.7,M,0.8,0000*47
$GPGSA,A,3,21,06,15,09,27,18,22,03,14,19,,,2.1,1.2,1.8*31
$GPRMC,160236.000,A,3352.0089,N,09831.5585,W,0.11,177.03,030412,,,D*77
$GPGGA,160237.000,3352.0088,N,09831.5585,W,2,10,1.2,280.7,M,-23.7,M,0.8,0000*47
$GPGSA,A,3,21,06,15,09,27,18,22,03,14,19,,,2.1,1.2,1.8*31
$GPRMC,160237.000,A,3352.0088,N,09831.5585,W,0.08,156.42,030412,,,D*79
$GPGGA,160238.000,3352.0088,N,09831.5585,W,2,10,1.2,280.6,M,-23.7,M,0.8,0000*49
$GPGSA,A,3,21,06,15,09,27,18,22,03,14,19,,,2.1,1.2,1.8*31
$GPRMC,160238.000,A,3352.0088,N,09831.5585,W,0.11,147.74,030412,,,D*7B
$GPGGA,160239.000,3352.0087,N,09831.5585,W,2,10,1.2,280.5,M,-23.7,M,0.8,0000*44
$GPGSA,A,3,21,06,15,09,27,18,22,03,14,19,,,2.1,1.2,1.8*31
$GPGSV,3,1,11,18,58,046,35,21,55,147,36,22,53,316,30,14,48,233,25*72
$GPGSV,3,2,11,09,38,071,35,06,26,261,32,27,24,049,32,03,21,272,27*71
$GPGSV,3,3,11,15,17,047,33,19,15,310,29,51,49,195,36*4C
$GPRMC,160239.000,A,3352.0087,N,09831.5585,W,0.11,153.46,030412,,,D*71
$GPGGA,160240.000,3352.0087,N,09831.5585,W,2,10,1.2,280.4,M,-23.7,M,0.8,0000*4B
$GPGSA,A,3,21,06,15,09,27,18,22,03,14,19,,,2.1,1.2,1.8*31
$GPRMC,160240.000,A,3352.0087,N,09831.5585,W,0.13,147.53,030412,,,D*7C
$GPGGA,160241.000,3352.0087,N,09831.5584,W,2,10,1.2,280.2,M,-23.7,M,1.8,0000*4C
$GPGSA,A,3,21,06,15,09,27,18,22,03,14,19,,,2.1,1.2,1.8*31
$GPRMC,160241.000,A,3352.0087,N,09831.5584,W,0.13,157.07,030412,,,D*7C
$GPGGA,160242.000,3352.0087,N,09831.5584,W,2,10,1.2,280.2,M,-23.7,M,0.8,0000*4E
$GPGSA,A,3,21,06,15,09,27,18,22,03,14,19,,,2.1,1.2,1.8*31
$GPRMC,160242.000,A,3352.0087,N,09831.5584,W,0.11,133.81,030412,,,D*71
$GPGGA,160243.000,3352.0086,N,09831.5584,W,2,10,1.2,280.2,M,-23.7,M,0.8,0000*4E
$GPGSA,A,3,21,06,15,09,27,18,22,03,14,19,,,2.1,1.2,1.8*31
$GPRMC,160243.000,A,3352.0086,N,09831.5584,W,0.12,140.46,030412,,,D*7D
$GPGGA,160244.000,3352.0086,N,09831.5584,W,2,10,1.2,280.3,M,-23.7,M,0.8,0000*48
$GPGSA,A,3,21,06,15,09,27,18,22,03,14,19,,,2.1,1.2,1.8*31
$GPGSV,3,1,11,18,58,046,35,21,55,147,36,22,53,316,30,14,48,233,25*72
$GPGSV,3,2,11,09,38,071,35,06,26,261,32,27,24,049,32,03,21,272,27*71
$GPGSV,3,3,11,15,17,047,34,19,15,310,29,51,49,195,36*4B
$GPRMC,160244.000,A,3352.0086,N,09831.5584,W,0.08,154.30,030412,,,D*75
$GPGGA,160245.000,3352.0086,N,09831.5584,W,2,10,1.2,280.3,M,-23.7,M,1.8,0000*48
$GPGSA,A,3,21,06,15,09,27,18,22,03,14,19,,,2.1,1.2,1.8*31
$GPRMC,160245.000,A,3352.0086,N,09831.5584,W,0.09,144.30,030412,,,D*74
$GPGGA,160246.000,3352.0086,N,09831.5584,W,2,10,1.2,280.4,M,-23.7,M,2.8,0000*4F
$GPGSA,A,3,21,06,15,09,27,18,22,03,14,19,,,2.1,1.2,1.8*31
$GPRMC,160246.000,A,3352.0086,N,09831.5584,W,0.07,134.59,030412,,,D*71
$GPGGA,160247.000,3352.0086,N,09831.5584,W,2,10,1.2,280.4,M,-23.7,M,3.8,0000*4F
$GPGSA,A,3,21,06,15,09,27,18,22,03,14,19,,,2.1,1.2,1.8*31
$GPRMC,160247.000,A,3352.0086,N,09831.5584,W,0.09,153.34,030412,,,D*74
$GPGGA,160248.000,3352.0086,N,09831.5584,W,2,10,1.2,280.3,M,-23.7,M,0.8,0000*44
$GPGSA,A,3,21,06,15,09,27,18,22,03,14,19,,,2.1,1.2,1.8*31
$GPRMC,160248.000,A,3352.0086,N,09831.5584,W,0.12,162.22,030412,,,D*74
$GPGGA,160249.000,3352.0086,N,09831.5583,W,2,10,1.2,280.3,M,-23.7,M,0.8,0000*42
$GPGSA,A,3,21,06,15,09,27,18,22,03,14,19,,,2.1,1.2,1.8*31
$GPGSV,3,1,11,18,58,046,35,21,55,147,37,22,53,316,30,14,48,233,24*72
$GPGSV,3,2,11,09,38,071,35,06,26,261,33,27,24,049,32,03,21,272,28*7F
$GPGSV,3,3,11,15,17,047,34,19,15,310,29,51,49,195,36*4B
$GPRMC,160249.000,A,3352.0086,N,09831.5583,W,0.12,150.38,030412,,,D*78
$GPGGA,160250.000,3352.0085,N,09831.5583,W,2,10,1.2,280.1,M,-23.7,M,0.8,0000*4B
$GPGSA,A,3,21,06,15,09,27,18,22,03,14,19,,,2.1,1.2,1.8*31
$GPRMC,160250.000,A,3352.0085,N,09831.5583,W,0.18,168.89,030412,,,D*78
$GPGGA,160251.000,3352.0085,N,09831.5583,W,2,10,1.2,280.0,M,-23.7,M,1.8,0000*4A
$GPGSA,A,3,21,06,15,09,27,18,22,03,14,19,,,2.1,1.2,1.8*31
$GPRMC,160251.000,A,3352.0085,N,09831.5583,W,0.15,154.22,030412,,,D*7A
$GPGGA,160252.000,3352.0084,N,09831.5583,W,2,10,1.2,279.9,M,-23.7,M,2.8,0000*44
$GPGSA,A,3,21,06,15,09,27,18,22,03,14,19,,,2.1,1.2,1.8*31
$GPRMC,160252.000,A,3352.0084,N,09831.5583,W,0.17,158.58,030412,,,D*7B
$GPGGA,160253.000,3352.0084,N,09831.5583,W,2,10,1.2,279.7,M,-23.7,M,0.8,0000*49
$GPGSA,A,3,21,06,15,09,27,18,22,03,14,19,,,2.1,1.2,1.8*31
$GPRMC,160253.000,A,3352.0084,N,09831.5583,W,0.12,124.12,030412,,,D*7A
$GPGGA,160254.000,3352.0084,N,09831.5583,W,2,10,1.2,279.7,M,-23.7,M,0.8,0000*4E
$GPGSA,A,3,21,06,15,09,27,18,22,03,14,19,,,2.1,1.2,1.8*31
$GPGSV,3,1,11,18,58,046,35,21,55,147,37,22,53,316,30,14,48,233,24*72
$GPGSV,3,2,11,09,38,071,36,06,26,261,33,27,24,049,32,03,21,272,28*7C
$GPGSV,3,3,11,15,17,047,34,19,15,310,29,51,49,195,36*4B
$GPRMC,160254.000,A,3352.0084,N,09831.5583,W,0.13,161.29,030412,,,D*75
$GPGGA,160255.000,3352.0084,N,09831.5583,W,2,10,1.2,279.7,M,-23.7,M,0.8,0000*4F
$GPGSA,A,3,21,06,15,09,27,18,22,03,14,19,,,2.1,1.2,1.8*31
$GPRMC,160255.000,A,3352.0084,N,09831.5583,W,0.10,153.14,030412,,,D*78
$GPGGA,160256.000,3352.0084,N,09831.5583,W,2,10,1.2,279.7,M,-23.7,M,0.8,0000*4C
$GPGSA,A,3,21,06,15,09,27,18,22,03,14,19,,,2.1,1.2,1.8*31
$GPRMC,160256.000,A,3352.0084,N,09831.5583,W,0.08,143.28,030412,,,D*7C
$GPGGA,160257.000,3352.0084,N,09831.5583,W,2,10,1.2,279.8,M,-23.7,M,1.8,0000*43
$GPGSA,A,3,21,06,15,09,27,18,22,03,14,19,,,2.1,1.2,1.8*31
$GPRMC,160257.000,A,3352.0084,N,09831.5583,W,0.09,145.28,030412,,,D*7A
$GPGGA,160258.000,3352.0084,N,09831.5583,W,2,10,1.2,279.8,M,-23.7,M,2.8,0000*4F
$GPGSA,A,3,21,06,15,09,27,18,22,03,14,19,,,2.1,1.2,1.8*31
$GPRMC,160258.000,A,3352.0084,N,09831.5583,W,0.06,136.89,030412,,,D*75
$GPGGA,160259.000,3352.0084,N,09831.5583,W,2,10,1.2,279.9,M,-23.7,M,3.8,0000*4E
$GPGSA,A,3,21,06,15,09,27,18,22,03,14,19,,,2.1,1.2,1.8*31
$GPGSV,3,1,11,18,58,046,35,21,55,147,37,22,53,316,30,14,48,233,24*72
$GPGSV,3,2,11,09,38,071,36,06,26,261,33,27,24,049,32,03,21,272,28*7C
$GPGSV,3,3,11,15,17,047,33,19,15,310,29,51,49,195,36*4C
$GPRMC,160259.000,A,3352.0084,N,09831.5583,W,0.06,144.23,030412,,,D*71
$GPGGA,160300.000,3352.0084,N,09831.5583,W,2,10,1.2,279.9,M,-23.7,M,0.8,0000*40
$GPGSA,A,3,21,06,15,09,27,18,22,03,14,19,,,2.1,1.2,1.8*31
$GPRMC,160300.000,A,3352.0084,N,09831.5583,W,0.09,157.84,030412,,,D*7C
$GPGGA,160301.000,3352.0084,N,09831.5583,W,2,10,1.2,279.9,M,-23.7,M,0.8,0000*41
$GPGSA,A,3,21,06,15,09,27,18,22,03,14,19,,,2.1,1.2,1.8*31
$GPRMC,160301.000,A,3352.0084,N,09831.5583,W,0.09,140.35,030412,,,D*71
$GPGGA,160302.000,3352.0084,N,09831.5583,W,2,10,1.2,279.8,M,-23.7,M,0.8,0000*43
$GPGSA,A,3,21,06,15,09,27,18,22,03,14,19,,,2.1,1.2,1.8*31
$GPRMC,160302.000,A,3352.0084,N,09831.5583,W,0.11,164.62,030412,,,D*7F
$GPGGA,160303.000,3352.0083,N,09831.5583,W,2,10,1.2,279.7,M,-23.7,M,1.8,0000*4B
$GPGSA,A,3,21,06,15,09,27,18,22,03,14,19,,,2.1,1.2,1.8*31
$GPRMC,160303.000,A,3352.0083,N,09831.5583,W,0.10,148.34,030412,,,D*75
$GPGGA,160304.000,3352.0083,N,09831.5582,W,2,10,1.2,279.6,M,-23.7,M,2.8,0000*4F
$GPGSA,A,3,21,06,15,09,27,18,22,03,14,19,,,2.1,1.2,1.8*31
$GPGSV,3,1,11,18,58,046,35,21,55,147,37,22,53,316,30,14,48,233,24*72
$GPGSV,3,2,11,09,38,071,36,06,26,261,33,27,24,049,32,03,21,272,29*7D
$GPGSV,3,3,11,15,17,047,33,19,15,310,29,51,49,195,36*4C
$GPRMC,160304.000,A,3352.0083,N,09831.5582,W,0.10,162.79,030412,,,D*72
$GPGGA,160305.000,3352.0083,N,09831.5582,W,2,10,1.2,279.5,M,-23.7,M,0.8,0000*4F
$GPGSA,A,3,21,06,15,09,27,18,22,03,14,19,,,2.1,1.2,1.8*31
$GPRMC,160305.000,A,3352.0083,N,09831.5582,W,0.13,156.20,030412,,,D*7B
$GPGGA,160306.000,3352.0083,N,09831.5582,W,2,10,1.2,279.5,M,-23.7,M,0.8,0000*4C
$GPGSA,A,3,21,06,15,09,27,18,22,03,14,19,,,2.1,1.2,1.8*31
$GPRMC,160306.000,A,3352.0083,N,09831.5582,W,0.09,151.57,030412,,,D*74
$GPGGA,160307.000,3352.0083,N,09831.5582,W,2,10,1.2,279.4,M,-23.7,M,0.8,0000*4C
$GPGSA,A,3,21,06,15,09,27,18,22,03,14,19,,,2.1,1.2,1.8*31
$GPRMC,160307.000,A,3352.0083,N,09831.5582,W,0.10,155.12,030412,,,D*78
$GPGGA,160308.000,3352.0083,N,09831.5582,W,2,10,1.2,279.4,M,-23.7,M,0.8,0000*43
$GPGSA,A,3,21,06,15,09,27,18,22,03,14,19,,,2.1,1.2,1.8*31
$GPRMC,160308.000,A,3352.0083,N,09831.5582,W,0.13,158.60,030412,,,D*7C
$GPGGA,160309.000,3352.0083,N,09831.5582,W,2,10,1.2,279.5,M,-23.7,M,0.8,0000*43
$GPGSA,A,3,21,06,15,09,27,18,22,03,14,19,,,2.1,1.2,1.8*31
$GPGSV,3,1,11,18,58,046,35,21,54,147,37,22,53,316,29,14,49,234,25*7C
$GPGSV,3,2,11,09,38,071,36,06,26,261,32,27,23,049,32,03,21,272,29*7B
$GPGSV,3,3,11,15,17,047,33,19,15,310,28,51,49,195,36*4D
$GPRMC,160309.000,A,3352.0083,N,09831.5582,W,0.08,144.98,030412,,,D*7D
$GPGGA,160310.000,3352.0083,N,09831.5583,W,2,10,1.2,279.5,M,-23.7,M,1.8,0000*4B
$GPGSA,A,3,21,06,15,09,27,18,22,03,14,19,,,2.1,1.2,1.8*31
$GPRMC,160310.000,A,3352.0083,N,09831.5583,W,0.10,158.55,030412,,,D*71
$GPGGA,160311.000,3352.0084,N,09831.5583,W,2,10,1.2,279.5,M,-23.7,M,2.8,0000*4E
$GPGSA,A,3,21,06,15,09,27,18,22,03,14,19,,,2.1,1.2,1.8*31
$GPRMC,160311.000,A,3352.0084,N,09831.5583,W,0.03,135.61,030412,,,D*79
$GPGGA,160312.000,3352.0085,N,09831.5583,W,2,10,1.2,279.5,M,-23.7,M,0.8,0000*4E
$GPGSA,A,3,21,06,15,09,27,18,22,03,14,19,,,2.1,1.2,1.8*31
$GPRMC,160312.000,A,3352.0085,N,09831.5583,W,0.36,162.36,030412,,,D*7D
$GPGGA,160313.000,3352.0086,N,09831.5584,W,2,10,1.2,279.5,M,-23.7,M,0.8,0000*4B
$GPGSA,A,3,21,06,15,09,27,18,22,03,14,19,,,2.1,1.2,1.8*31
$GPRMC,160313.000,A,3352.0086,N,09831.5584,W,0.23,159.26,030412,,,D*75
$GPGGA,160314.000,3352.0087,N,09831.5584,W,2,10,1.2,279.4,M,-23.7,M,0.8,0000*4C
$GPGSA,A,3,21,06,15,09,27,18,22,03,14,19,,,2.1,1.2,1.8*31
$GPGSV,3,1,11,18,58,046,34,21,54,147,38,22,53,316,29,14,49,234,25*72
$GPGSV,3,2,11,09,38,071,36,06,26,261,32,27,23,049,32,03,21,272,29*7B
$GPGSV,3,3,11,15,17,047,33,19,15,310,28,51,49,195,36*4D
$GPRMC,160314.000,A,3352.0087,N,09831.5584,W,0.14,155.79,030412,,,D*71
$GPGGA,160315.000,3352.0088,N,09831.5584,W,2,10,1.2,279.3,M,-23.7,M,0.8,0000*45
$GPGSA,A,3,21,06,15,09,27,18,22,03,14,19,,,2.1,1.2,1.8*31
$GPRMC,160315.000,A,3352.0088,N,09831.5584,W,0.04,123.91,030412,,,D*79
$GPGGA,160316.000,3352.0089,N,09831.5585,W,2,10,1.2,279.2,M,-23.7,M,1.8,0000*46
$GPGSA,A,3,21,06,15,09,27,18,22,03,14,19,,,2.1,1.2,1.8*31
$GPRMC,160316.000,A,3352.0089,N,09831.5585,W,0.13,152.94,030412,,,D*7F
$GPGGA,160317.000,3352.0090,N,09831.5585,W,2,10,1.2,279.1,M,-23.7,M,2.8,0000*4F
$GPGSA,A,3,21,06,15,09,27,18,22,03,14,19,,,2.1,1.2,1.8*31
$GPRMC,160317.000,A,3352.0090,N,09831.5585,W,0.12,154.13,030412,,,D*7E
$GPGGA,160318.000,3352.0091,N,09831.5585,W,2,10,1.2,279.1,M,-23.7,M,0.8,0000*43
$GPGSA,A,3,21,06,15,09,27,18,22,03,14,19,,,2.1,1.2,1.8*31
$GPRMC,160318.000,A,3352.0091,N,09831.5585,W,0.08,139.96,030412,,,D*7D
$GPGGA,160319.000,3352.0092,N,09831.5585,W,2,10,1.2,279.1,M,-23.7,M,0.8,0000*41
$GPGSA,A,3,21,06,15,09,27,18,22,03,14,19,,,2.1,1.2,1.8*31
$GPGSV,3,1,11,18,58,046,34,21,54,147,38,22,53,316,29,14,49,234,26*71
$GPGSV,3,2,11,09,38,071,36,06,26,261,32,27,23,049,32,03,21,272,30*73
$GPGSV,3,3,11,15,17,047,33,19,15,310,28,51,49,195,36*4D
$GPRMC,160319.000,A,3352.0092,N,09831.5585,W,0.09,145.98,030412,,,D*7B
$GPGGA,160320.000,3352.0093,N,09831.5586,W,2,10,1.2,279.2,M,-23.7,M,0.8,0000*4A
$GPGSA,A,3,21,06,15,09,27,18,22,03,14,19,,,2.1,1.2,1.8*31
$GPRMC,160320.000,A,3352.0093,N,09831.5586,W,0.10,158.19,030412,,,D*7E
$GPGGA,160321.000,3352.0093,N,09831.5586,W,2,10,1.2,279.2,M,-23.7,M,0.8,0000*4B
$GPGSA,A,3,21,06,15,09,27,18,22,03,14,19,,,2.1,1.2,1.8*31
$GPRMC,160321.000,A,3352.0093,N,09831.5586,W,0.07,153.61,030412,,,D*7D
$GPGGA,160322.000,3352.0094,N,09831.5586,W,2,10,1.2,279.3,M,-23.7,M,1.8,0000*4F
$GPGSA,A,3,21,06,15,09,27,18,22,03,14,19,,,2.1,1.2,1.8*31
$GPRMC,160322.000,A,3352.0094,N,09831.5586,W,0.07,153.24,030412,,,D*78
$GPGGA,160323.000,3352.0095,N,09831.5587,W,2,10,1.2,279.4,M,-23.7,M,2.8,0000*4A
$GPGSA,A,3,21,06,15,09,27,18,22,03,14,19,,,2.1,1.2,1.8*31
$GPRMC,160323.000,A,3352.0095,N,09831.5587,W,0.06,151.01,030412,,,D*7D
$GPGGA,160324.000,3352.0095,N,09831.5587,W,2,10,1.2,279.4,M,-23.7,M,0.8,0000*4F
$GPGSA,A,3,21,06,15,09,27,18,22,03,14,19,,,2.1,1.2,1.8*31
$GPGSV,3,1,11,18,58,046,34,21,54,147,38,22,53,316,29,14,49,234,26*71
$GPGSV,3,2,11,09,38,071,36,06,26,261,32,27,23,049,32,03,21,272,30*73
$GPGSV,3,3,11,15,17,047,34,19,15,310,27,51,49,195,36*45
$GPRMC,160324.000,A,3352.0095,N,09831.5587,W,0.12,157.20,030412,,,D*7A
$GPGGA,160325.000,3352.0095,N,09831.5587,W,2,10,1.2,279.4,M,-23.7,M,0.8,0000*4E
$GPGSA,A,3,21,06,15,09,27,18,22,03,14,19,,,2.1,1.2,1.8*31
$GPRMC,160325.000,A,3352.0095,N,09831.5587,W,0.07,156.20,030412,,,D*7E
$GPGGA,160326.000,3352.0095,N,09831.5587,W,2,10,1.2,279.4,M,-23.7,M,0.8,0000*4D
$GPGSA,A,3,21,06,15,09,27,18,22,03,14,19,,,2.1,1.2,1.8*31
$GPRMC,160326.000,A,3352.0095,N,09831.5587,W,0.09,154.76,030412,,,D*72
$GPGGA,160327.000,3352.0095,N,09831.5587,W,2,10,1.2,279.3,M,-23.7,M,1.8,0000*4A
$GPGSA,A,3,21,06,15,09,27,18,22,03,14,19,,,2.1,1.2,1.8*31
$GPRMC,160327.000,A,3352.0095,N,09831.5587,W,0.11,155.48,030412,,,D*76
$GPGGA,160328.000,3352.0095,N,09831.5587,W,2,10,1.2,279.2,M,-23.7,M,2.8,0000*47
$GPGSA,A,3,21,06,15,09,27,18,22,03,14,19,,,2.1,1.2,1.8*31
$GPRMC,160328.000,A,3352.0095,N,09831.5587,W,0.10,151.85,030412,,,D*7D
$GPGGA,160329.000,3352.0095,N,09831.5587,W,2,10,1.2,279.1,M,-23.7,M,0.8,0000*47
$GPGSA,A,3,21,06,15,09,27,18,22,03,14,19,,,2.1,1.2,1.8*31
$GPGSV,3,1,11,18,58,046,34,21,54,147,38,22,53,316,28,14,49,234,26*70
$GPGSV,3,2,11,09,38,071,36,06,26,261,32,27,23,049,33,03,21,272,30*72
$GPGSV,3,3,11,15,17,047,34,19,15,310,27,51,49,195,36*45
$GPRMC,160329.000,A,3352.0095,N,09831.5587,W,0.12,154.33,030412,,,D*76
$GPGGA,160330.000,3352.0095,N,09831.5587,W,2,10,1.2,279.1,M,-23.7,M,0.8,0000*4F
$GPGSA,A,3,21,06,15,09,27,18,22,03,14,19,,,2.1,1.2,1.8*31
$GPRMC,160330.000,A,3352.0095,N,09831.5587,W,0.10,146.05,030412,,,D*7A
$GPGGA,160331.000,3352.0095,N,09831.5587,W,2,10,1.2,279.1,M,-23.7,M,0.8,0000*4E
$GPGSA,A,3,21,06,15,09,27,18,22,03,14,19,,,2.1,1.2,1.8*31
$GPRMC,160331.000,A,3352.0095,N,09831.5587,W,0.10,156.50,030412,,,D*7A
$GPGGA,160332.000,3352.0095,N,09831.5587,W,2,10,1.2,279.1,M,-23.7,M,0.8,0000*4D
$GPGSA,A,3,21,06,15,09,27,18,22,03,14,19,,,2.1,1.2,1.8*31
$GPRMC,160332.000,A,3352.0095,N,09831.5587,W,0.10,145.57,030412,,,D*7C
$GPGGA,160333.000,3352.0095,N,09831.5587,W,2,10,1.2,279.2,M,-23.7,M,1.8,0000*4E
$GPGSA,A,3,21,06,15,09,27,18,22,03,14,19,,,2.1,1.2,1.8*31
$GPRMC,160333.000,A,3352.0095,N,09831.5587,W,0.09,150.83,030412,,,D*78
$GPGGA,160334.000,3352.0095,N,09831.5587,W,2,10,1.2,279.2,M,-23.7,M,2.8,0000*4A
$GPGSA,A,3,21,06,15,09,27,18,22,03,14,19,,,2.1,1.2,1.8*31
$GPGSV,3,1,11,18,58,046,34,21,54,147,38,22,53,316,28,14,49,234,26*70
$GPGSV,3,2,11,09,38,071,36,06,26,261,32,27,23,049,33,03,21,272,30*72
$GPGSV,3,3,11,15,17,047,34,19,15,310,27,51,49,195,36*45
$GPRMC,160334.000,A,3352.0095,N,09831.5587,W,0.09,144.82,030412,,,D*7B
$GPGGA,160335.000,3352.0095,N,09831.5588,W,2,10,1.2,279.3,M,-23.7,M,3.8,0000*44
$GPGSA,A,3,21,06,15,09,27,18,22,03,14,19,,,2.1,1.2,1.8*31
$GPRMC,160335.000,A,3352.0095,N,09831.5588,W,0.13,171.58,030412,,,D*7F
$GPGGA,160336.000,3352.0095,N,09831.5588,W,2,10,1.2,279.4,M,-23.7,M,0.8,0000*43
$GPGSA,A,3,21,06,15,09,27,18,22,03,14,19,,,2.1,1.2,1.8*31
$GPRMC,160336.000,A,3352.0095,N,09831.5588,W,0.07,108.22,030412,,,D*7A
$GPGGA,160337.000,3352.0095,N,09831.5587,W,2,10,1.2,279.4,M,-23.7,M,0.8,0000*4D
$GPGSA,A,3,21,06,15,09,27,18,22,03,14,19,,,2.1,1.2,1.8*31
$GPRMC,160337.000,A,3352.0095,N,09831.5587,W,0.09,126.30,030412,,,D*75
$GPGGA,160338.000,3352.0095,N,09831.5587,W,2,10,1.2,279.4,M,-23.7,M,0.8,0000*42
$GPGSA,A,3,21,06,15,09,27,18,22,03,14,19,,,2.1,1.2,1.8*31
$GPRMC,160338.000,A,3352.0095,N,09831.5587,W,0.07,126.10,030412,,,D*76
$GPGGA,160339.000,3352.0095,N,09831.5587,W,2,10,1.2,279.4,M,-23.7,M,0.8,0000*43
$GPGSA,A,3,21,06,15,09,27,18,22,03,14,19,,,2.1,1.2,1.8*31
$GPGSV,3,1,11,18,58,046,33,21,54,147,38,22,53,316,28,14,49,234,25*74
$GPGSV,3,2,11,09,38,071,36,06,26,261,33,27,23,049,33,03,21,272,30*73
$GPGSV,3,3,11,15,17,047,34,19,15,310,27,51,49,195,36*45
$GPRMC,160339.000,A,3352.0095,N,09831.5587,W,0.10,149.76,030412,,,D*78
$GPGGA,160340.000,3352.0095,N,09831.5587,W,2,10,1.2,279.4,M,-23.7,M,0.8,0000*4D
$GPGSA,A,3,21,06,15,09,27,18,22,03,14,19,,,2.1,1.2,1.8*31
$GPRMC,160340.000,A,3352.0095,N,09831.5587,W,0.06,141.39,030412,,,D*72
$GPGGA,160341.000,3352.0095,N,09831.5587,W,2,10,1.2,279.4,M,-23.7,M,1.8,0000*4D
$GPGSA,A,3,21,06,15,09,27,18,22,03,14,19,,,2.1,1.2,1.8*31
$GPRMC,160341.000,A,3352.0095,N,09831.5587,W,0.09,146.21,030412,,,D*72
$GPGGA,160342.000,3352.0096,N,09831.5588,W,2,10,1.2,279.5,M,-23.7,M,0.8,0000*42
$GPGSA,A,3,21,06,15,09,27,18,22,03,14,19,,,2.1,1.2,1.8*31
$GPRMC,160342.000,A,3352.0096,N,09831.5588,W,0.09,140.51,030412,,,D*7C
$GPGGA,160343.000,3352.0096,N,09831.5588,W,2,10,1.2,279.5,M,-23.7,M,0.8,0000*43
$GPGSA,A,3,21,06,15,09,27,18,22,03,14,19,,,2.1,1.2,1.8*31
$GPRMC,160343.000,A,3352.0096,N,09831.5588,W,0.07,151.28,030412,,,D*7D
$GPGGA,160344.000,3352.0096,N,09831.5588,W,2,10,1.2,279.6,M,-23.7,M,0.8,0000*47
$GPGSA,A,3,21,06,15,09,27,18,22,03,14,19,,,2.1,1.2,1.8*31
$GPGSV,3,1,11,18,58,046,33,21,54,147,38,22,54,316,27,14,49,234,25*7C
$GPGSV,3,2,11,09,38,071,36,06,26,261,33,27,23,049,34,03,21,272,31*75
$GPGSV,3,3,11,15,17,047,33,19,15,310,26,51,49,195,37*42
$GPRMC,160344.000,A,3352.0096,N,09831.5588,W,0.08,146.13,030412,,,D*7B
$GPGGA,160345.000,3352.0096,N,09831.5588,W,2,10,1.2,279.7,M,-23.7,M,1.8,0000*46
$GPGSA,A,3,21,06,15,09,27,18,22,03,14,19,,,2.1,1.2,1.8*31
$GPRMC,160345.000,A,3352.0096,N,09831.5588,W,0.07,128.60,030412,,,D*79
$GPGGA,160346.000,3352.0096,N,09831.5588,W,2,10,1.2,279.8,M,-23.7,M,2.8,0000*49
$GPGSA,A,3,21,06,15,09,27,18,22,03,14,19,,,2.1,1.2,1.8*31
$GPRMC,160346.000,A,3352.0096,N,09831.5588,W,0.06,142.18,030412,,,D*78
$GPGGA,160347.000,3352.0096,N,09831.5588,W,2,10,1.2,279.9,M,-23.7,M,3.8,0000*48
$GPGSA,A,3,21,06,15,09,27,18,22,03,14,19,,,2.1,1.2,1.8*31
$GPRMC,160347.000,A,3352.0096,N,09831.5588,W,0.07,132.80,030412,,,D*7E
$GPGGA,160348.000,3352.0096,N,09831.5588,W,2,10,1.2,279.9,M,-23.7,M,0.8,0000*44
$GPGSA,A,3,21,06,15,09,27,18,22,03,14,19,,,2.1,1.2,1.8*31
$GPRMC,160348.000,A,3352.0096,N,09831.5588,W,0.09,152.94,030412,,,D*7C
$GPGGA,160349.000,3352.0096,N,09831.5587,W,2,10,1.2,279.8,M,-23.7,M,0.8,0000*4B
$GPGSA,A,3,21,06,15,09,27,18,22,03,14,19,,,2.1,1.2,1.8*31
$GPGSV,3,1,11,18,58,047,33,21,54,147,38,22,54,317,27,14,49,234,25*7C
$GPGSV,3,2,11,09,38,070,36,06,26,260,33,27,23,049,34,03,21,272,31*75
$GPGSV,3,3,11,15,17,047,33,19,15,310,26,51,49,195,36*43
$GPRMC,160349.000,A,3352.0096,N,09831.5587,W,0.10,145.54,030412,,,D*70
$GPGGA,160350.000,3352.0095,N,09831.5587,W,2,10,1.2,279.8,M,-23.7,M,0.8,0000*40
$GPGSA,A,3,21,06,15,09,27,18,22,03,14,19,,,2.1,1.2,1.8*31
$GPRMC,160350.000,A,3352.0095,N,09831.5587,W,0.09,151.77,030412,,,D*77
$GPGGA,160351.000,3352.0095,N,09831.5587,W,2,10,1.2,279.8,M,-23.7,M,1.8,0000*40
$GPGSA,A,3,21,06,15,09,27,18,22,03,14,19,,,2.1,1.2,1.8*31
$GPRMC,160351.000,A,3352.0095,N,09831.5587,W,0.10,160.71,030412,,,D*7A
$GPGGA,160352.000,3352.0095,N,09831.5587,W,2,10,1.2,279.7,M,-23.7,M,0.8,0000*4D
$GPGSA,A,3,21,06,15,09,27,18,22,03,14,19,,,2.1,1.2,1.8*31
$GPRMC,160352.000,A,3352.0095,N,09831.5587,W,0.10,157.86,030412,,,D*75
$GPGGA,160353.000,3352.0094,N,09831.5587,W,2,10,1.2,279.7,M,-23.7,M,1.8,0000*4C
$GPGSA,A,3,21,06,15,09,27,18,22,03,14,19,,,2.1,1.2,1.8*31
$GPRMC,160353.000,A,3352.0094,N,09831.5587,W,0.10,157.56,030412,,,D*78
$GPGGA,160354.000,3352.0094,N,09831.5587,W,2,10,1.2,279.7,M,-23.7,M,0.8,0000*4A
$GPGSA,A,3,21,06,15,09,27,18,22,03,14,19,,,2.1,1.2,1.8*31
$GPGSV,3,1,11,18,58,047,33,21,54,147,37,22,54,317,26,14,49,234,26*71
$GPGSV,3,2,11,09,38,070,36,06,26,260,33,27,23,049,34,03,21,272,31*75
$GPGSV,3,3,11,15,17,047,33,19,15,310,26,51,49,195,38*4D
$GPRMC,160354.000,A,3352.0094,N,09831.5587,W,0.08,142.09,030412,,,D*78
$GPGGA,160355.000,3352.0094,N,09831.5587,W,2,10,1.2,279.7,M,-23.7,M,0.8,0000*4B
$GPGSA,A,3,21,06,15,09,27,18,22,03,14,19,,,2.1,1.2,1.8*31
$GPRMC,160355.000,A,3352.0094,N,09831.5587,W,0.10,161.22,030412,,,D*78
$GPGGA,160356.000,3352.0094,N,09831.5587,W,2,10,1.2,279.7,M,-23.7,M,0.8,0000*48
$GPGSA,A,3,21,06,15,09,27,18,22,03,14,19,,,2.1,1.2,1.8*31
$GPRMC,160356.000,A,3352.0094,N,09831.5587,W,0.09,152.45,030412,,,D*72
$GPGGA,160357.000,3352.0094,N,09831.5587,W,2,10,1.2,279.7,M,-23.7,M,0.8,0000*49
$GPGSA,A,3,21,06,15,09,27,18,22,03,14,19,,,2.1,1.2,1.8*31
$GPRMC,160357.000,A,3352.0094,N,09831.5587,W,0.06,154.30,030412,,,D*78
$GPGGA,160358.000,3352.0094,N,09831.5587,W,2,10,1.2,279.7,M,-23.7,M,1.8,0000*47
$GPGSA,A,3,21,06,15,09,27,18,22,03,14,19,,,2.1,1.2,1.8*31
$GPRMC,160358.000,A,3352.0094,N,09831.5587,W,0.07,150.57,030412,,,D*73
$GPGGA,160359.000,3352.0094,N,09831.5587,W,2,10,1.2,279.7,M,-23.7,M,2.8,0000*45
$GPGSA,A,3,21,06,15,09,27,18,22,03,14,19,,,2.1,1.2,1.8*31
$GPGSV,3,1,11,18,58,047,33,21,54,147,37,22,54,317,25,14,49,234,25*71
$GPGSV,3,2,11,09,38,070,36,06,26,260,33,27,23,049,34,03,21,272,31*75
$GPGSV,3,3,11,15,17,047,33,19,15,310,26,51,49,195,36*43
$GPRMC,160359.000,A,3352.0094,N,09831.5587,W,0.06,160.60,030412,,,D*74
$GPGGA,160400.000,3352.0094,N,09831.5587,W,2,10,1.2,279.6,M,-23.7,M,0.8,0000*4D
$GPGSA,A,3,21,06,15,09,27,18,22,03,14,19,,,2.1,1.2,1.8*31
$GPRMC,160400.000,A,3352.0094,N,09831.5587,W,0.11,157.32,030412,,,D*7A
$GPGGA,160401.000,3352.0093,N,09831.5587,W,2,10,1.2,279.5,M,-23.7,M,0.8,0000*48
$GPGSA,A,3,21,06,15,09,27,18,22,03,14,19,,,2.1,1.2,1.8*31
$GPRMC,160401.000,A,3352.0093,N,09831.5587,W,0.13,153.95,030412,,,D*77
$GPGGA,160402.000,3352.0093,N,09831.5586,W,2,10,1.2,279.3,M,-23.7,M,0.8,0000*4C
$GPGSA,A,3,21,06,15,09,27,18,22,03,14,19,,,2.1,1.2,1.8*31
$GPRMC,160402.000,A,3352.0093,N,09831.5586,W,0.04,138.05,030412,,,D*77
$GPGGA,160403.000,3352.0093,N,09831.5586,W,2,10,1.2,279.2,M,-23.7,M,0.8,0000*4C
$GPGSA,A,3,21,06,15,09,27,18,22,03,14,19,,,2.1,1.2,1.8*31
$GPRMC,160403.000,A,3352.0093,N,09831.5586,W,0.15,149.24,030412,,,D*73
$GPGGA,160404.000,3352.0092,N,09831.5586,W,2,10,1.2,279.1,M,-23.7,M,1.8,0000*48
$GPGSA,A,3,21,06,15,09,27,18,22,03,14,19,,,2.1,1.2,1.8*31
$GPGSV,3,1,11,18,58,047,33,21,54,147,37,22,54,317,25,14,49,234,25*71
$GPGSV,3,2,11,09,38,070,35,06,26,260,33,27,23,049,35,03,21,272,31*77
$GPGSV,3,3,11,15,17,047,32,19,15,310,26,51,49,195,36*42
$GPRMC,160404.000,A,3352.0092,N,09831.5586,W,0.14,142.98,030412,,,D*78
$GPGGA,160405.000,3352.0092,N,09831.5585,W,2,10,1.2,279.0,M,-23.7,M,2.8,0000*48
$GPGSA,A,3,21,06,15,09,27,18,22,03,14,19,,,2.1,1.2,1.8*31
$GPRMC,160405.000,A,3352.0092,N,09831.5585,W,0.12,141.03,030412,,,D*7D
$GPGGA,160406.000,3352.0092,N,09831.5585,W,2,10,1.2,278.9,M,-23.7,M,0.8,0000*41
$GPGSA,A,3,21,06,15,09,27,18,22,03,14,19,,,2.1,1.2,1.8*31
$GPRMC,160406.000,A,3352.0092,N,09831.5585,W,0.15,138.34,030412,,,D*73
$GPGGA,160407.000,3352.0092,N,09831.5585,W,2,10,1.2,279.0,M,-23.7,M,0.8,0000*48
$GPGSA,A,3,21,06,15,09,27,18,22,03,14,19,,,2.1,1.2,1.8*31
$GPRMC,160407.000,A,3352.0092,N,09831.5585,W,0.10,161.60,030412,,,D*7A
$GPGGA,160408.000,3352.0092,N,09831.5585,W,2,10,1.2,279.1,M,-23.7,M,0.8,0000*46
$GPGSA,A,3,21,06,15,09,27,18,22,03,14,19,,,2.1,1.2,1.8*31
$GPRMC,160408.000,A,3352.0092,N,09831.5585,W,0.03,290.18,030412,,,D*75
$GPGGA,160409.000,3352.0092,N,09831.5585,W,2,10,1.2,279.1,M,-23.7,M,0.8,0000*47
$GPGSA,A,3,21,06,15,09,27,18,22,03,14,19,,,2.1,1.2,1.8*31
$GPGSV,3,1,11,18,58,047,32,21,54,147,37,22,54,317,25,14,49,234,25*70
$GPGSV,3,2,11,09,38,070,35,06,26,260,33,27,23,049,35,03,21,272,32*74
$GPGSV,3,3,11,15,17,047,32,19,15,310,26,51,49,195,36*42
$GPRMC,160409.000,A,3352.0092,N,09831.5585,W,0.05,167.56,030412,,,D*73
$GPGGA,160410.000,3352.0092,N,09831.5586,W,2,10,1.2,279.1,M,-23.7,M,0.8,0000*4C
$GPGSA,A,3,21,06,15,09,27,18,22,03,14,19,,,2.1,1.2,1.8*31
$GPRMC,160410.000,A,3352.0092,N,09831.5586,W,0.03,169.38,030412,,,D*78
$GPGGA,160411.000,3352.0093,N,09831.5586,W,2,10,1.2,279.3,M,-23.7,M,1.8,0000*4F
$GPGSA,A,3,21,06,15,09,27,18,22,03,14,19,,,2.1,1.2,1.8*31
$GPRMC,160411.000,A,3352.0093,N,09831.5586,W,0.03,278.02,030412,,,D*72
$GPGGA,160412.000,3352.0093,N,09831.5586,W,2,10,1.2,279.4,M,-23.7,M,0.8,0000*4A
$GPGSA,A,3,21,06,15,09,27,18,22,03,14,19,,,2.1,1.2,1.8*31
$GPRMC,160412.000,A,3352.0093,N,09831.5586,W,0.03,227.48,030412,,,D*75
$GPGGA,160413.000,3352.0092,N,09831.5586,W,2,10,1.2,279.4,M,-23.7,M,0.8,0000*4A
$GPGSA,A,3,21,06,15,09,27,18,22,03,14,19,,,2.1,1.2,1.8*31
$GPRMC,160413.000,A,3352.0092,N,09831.5586,W,0.04,155.78,030412,,,D*77
$GPGGA,160414.000,3352.0092,N,09831.5586,W,2,10,1.2,279.4,M,-23.7,M,0.8,0000*4D
$GPGSA,A,3,21,06,15,09,27,18,22,03,14,19,,,2.1,1.2,1.8*31
$GPGSV,3,1,11,18,58,047,32,21,54,147,37,22,54,317,24,14,49,234,24*70
$GPGSV,3,2,11,09,38,070,35,06,26,260,33,27,23,049,35,03,21,272,32*74
$GPGSV,3,3,11,15,17,047,32,19,15,310,26,51,49,195,36*42
$GPRMC,160414.000,A,3352.0092,N,09831.5586,W,0.08,147.13,030412,,,D*72
$GPGGA,160415.000,3352.0092,N,09831.5586,W,2,10,1.2,279.4,M,-23.7,M,1.8,0000*4D
$GPGSA,A,3,21,06,15,09,27,18,22,03,14,19,,,2.1,1.2,1.8*31
$GPRMC,160415.000,A,3352.0092,N,09831.5586,W,0.09,139.75,030412,,,D*7B
$GPGGA,160416.000,3352.0091,N,09831.5586,W,2,10,1.2,279.4,M,-23.7,M,2.8,0000*4E
$GPGSA,A,3,21,06,15,09,27,18,22,03,14,19,,,2.1,1.2,1.8*31
$GPRMC,160416.000,A,3352.0091,N,09831.5586,W,0.11,145.01,030412,,,D*7A
$GPGGA,160417.000,3352.0091,N,09831.5585,W,2,10,1.2,279.4,M,-23.7,M,3.8,0000*4D
$GPGSA,A,3,21,06,15,09,27,18,22,03,14,19,,,2.1,1.2,1.8*31
$GPRMC,160417.000,A,3352.0091,N,09831.5585,W,0.11,142.44,030412,,,D*7E
$GPGGA,160418.000,3352.0091,N,09831.5585,W,2,10,1.2,279.4,M,-23.7,M,0.8,0000*41
$GPGSA,A,3,21,06,15,09,27,18,22,03,14,19,,,2.1,1.2,1.8*31
$GPRMC,160418.000,A,3352.0091,N,09831.5585,W,0.13,140.37,030412,,,D*75
$GPGGA,160419.000,3352.0091,N,09831.5585,W,2,10,1.2,279.5,M,-23.7,M,0.8,0000*41
$GPGSA,A,3,21,06,15,09,27,18,22,03,14,19,,,2.1,1.2,1.8*31
$GPGSV,3,1,11,18,58,047,31,21,54,147,36,22,54,317,24,14,49,234,24*72
$GPGSV,3,2,11,09,38,070,35,06,26,260,33,27,23,049,35,03,21,272,32*74
$GPGSV,3,3,11,15,17,047,32,19,15,310,26,51,49,195,36*42
$GPRMC,160419.000,A,3352.0091,N,09831.5585,W,0.04,140.53,030412,,,D*70
$GPGGA,160420.000,3352.0091,N,09831.5585,W,2,10,1.2,279.6,M,-23.7,M,0.8,0000*48
$GPGSA,A,3,21,06,15,09,27,18,22,03,14,19,,,2.1,1.2,1.8*31
$GPRMC,160420.000,A,3352.0091,N,09831.5585,W,0.10,150.45,030412,,,D*79
$GPGGA,160421.000,3352.0091,N,09831.5584,W,2,10,1.2,279.6,M,-23.7,M,1.8,0000*49
$GPGSA,A,3,21,06,15,09,27,18,22,03,14,19,,,2.1,1.2,1.8*31
$GPRMC,160421.000,A,3352.0091,N,09831.5584,W,0.04,99.30,030412,,,D*4A
$GPGGA,160422.000,3352.0091,N,09831.5584,W,2,10,1.2,279.8,M,-23.7,M,2.8,0000*47
$GPGSA,A,3,21,06,15,09,27,18,22,03,14,19,,,2.1,1.2,1.8*31
$GPRMC,160422.000,A,3352.0091,N,09831.5584,W,0.06,181.09,030412,,,D*79
$GPGGA,160423.000,3352.0091,N,09831.5585,W,2,10,1.2,279.9,M,-23.7,M,3.8,0000*47
$GPGSA,A,3,21,06,15,09,27,18,22,03,14,19,,,2.1,1.2,1.8*31
$GPRMC,160423.000,A,3352.0091,N,09831.5585,W,0.02,322.31,030412,,,D*7D
$GPGGA,160424.000,3352.0091,N,09831.5585,W,2,10,1.2,279.9,M,-23.7,M,0.8,0000*43
$GPGSA,A,3,21,06,15,09,27,18,22,03,14,19,,,2.1,1.2,1.8*31
$GPGSV,3,1,11,18,58,047,31,21,54,147,36,22,54,317,25,14,49,234,24*73
$GPGSV,3,2,11,09,38,070,35,06,26,260,33,27,23,049,35,03,21,272,31*77
$GPGSV,3,3,11,15,17,047,32,19,15,310,26,51,49,195,36*42
$GPRMC,160424.000,A,3352.0091,N,09831.5585,W,0.08,166.36,030412,,,D*75
$GPGGA,160425.000,3352.0090,N,09831.5585,W,2,10,1.2,280.0,M,-23.7,M,0.8,0000*4C
$GPGSA,A,3,21,06,15,09,27,18,22,03,14,19,,,2.1,1.2,1.8*31
$GPRMC,160425.000,A,3352.0090,N,09831.5585,W,0.07,172.61,030412,,,D*7D
$GPGGA,160426.000,3352.0090,N,09831.5584,W,2,10,1.2,280.0,M,-23.7,M,0.8,0000*4E
$GPGSA,A,3,21,06,15,09,27,18,22,03,14,19,,,2.1,1.2,1.8*31
$GPRMC,160426.000,A,3352.0090,N,09831.5584,W,0.14,156.36,030412,,,D*79
$GPGGA,160427.000,3352.0089,N,09831.5584,W,2,10,1.2,280.0,M,-23.7,M,0.8,0000*47
$GPGSA,A,3,21,06,15,09,27,18,22,03,14,19,,,2.1,1.2,1.8*31
$GPRMC,160427.000,A,3352.0089,N,09831.5584,W,0.09,149.09,030412,,,D*7E
$GPGGA,160428.000,3352.0089,N,09831.5584,W,2,10,1.2,280.0,M,-23.7,M,1.8,0000*49
$GPGSA,A,3,21,06,15,09,27,18,22,03,14,19,,,2.1,1.2,1.8*31
$GPRMC,160428.000,A,3352.0089,N,09831.5584,W,0.10,146.78,030412,,,D*70
$GPGGA,160429.000,3352.0089,N,09831.5584,W,2,10,1.2,279.9,M,-23.7,M,2.8,0000*44
$GPGSA,A,3,21,06,15,09,27,18,22,03,14,19,,,2.1,1.2,1.8*31
$GPGSV,3,1,11,18,58,047,31,21,54,147,35,22,54,317,25,14,49,234,24*70
$GPGSV,3,2,11,09,37,070,35,06,26,260,32,27,23,049,36,03,21,271,31*79
$GPGSV,3,3,11,15,16,047,32,19,15,309,26,51,49,195,36*4B
$GPRMC,160429.000,A,3352.0089,N,09831.5584,W,0.10,147.72,030412,,,D*7A
$GPGGA,160430.000,3352.0089,N,09831.5584,W,2,10,1.2,280.0,M,-23.7,M,0.8,0000*41
$GPGSA,A,3,21,06,15,09,27,18,22,03,14,19,,,2.1,1.2,1.8*31
$GPRMC,160430.000,A,3352.0089,N,09831.5584,W,0.07,151.50,030412,,,D*73
$GPGGA,160431.000,3352.0089,N,09831.5584,W,2,10,1.2,280.0,M,-23.7,M,0.8,0000*40
$GPGSA,A,3,21,06,15,09,27,18,22,03,14,19,,,2.1,1.2,1.8*31
$GPRMC,160431.000,A,3352.0089,N,09831.5584,W,0.05,132.45,030412,,,D*71
$GPGGA,160432.000,3352.0089,N,09831.5584,W,2,10,1.2,280.1,M,-23.7,M,0.8,0000*42
$GPGSA,A,3,21,06,15,09,27,18,22,03,14,19,,,2.1,1.2,1.8*31
$GPRMC,160432.000,A,3352.0089,N,09831.5584,W,0.05,146.71,030412,,,D*76
$GPGGA,160433.000,3352.0089,N,09831.5584,W,2,10,1.2,280.1,M,-23.7,M,1.8,0000*42
$GPGSA,A,3,21,06,15,09,27,18,22,03,14,19,,,2.1,1.2,1.8*31
$GPRMC,160433.000,A,3352.0089,N,09831.5584,W,0.06,148.09,030412,,,D*75
$GPGGA,160434.000,3352.0089,N,09831.5584,W,2,10,1.2,280.2,M,-23.7,M,0.8,0000*47
$GPGSA,A,3,21,06,15,09,27,18,22,03,14,19,,,2.1,1.2,1.8*31
$GPGSV,3,1,11,18,58,047,30,21,54,147,36,22,54,317,25,14,49,234,24*72
$GPGSV,3,2,11,09,37,070,35,06,26,260,32,27,23,049,36,03,21,271,31*79
$GPGSV,3,3,11,15,16,047,32,19,15,309,26,51,49,195,36*4B
$GPRMC,160434.000,A,3352.0089,N,09831.5584,W,0.05,159.90,030412,,,D*71
$GPGGA,160435.000,3352.0089,N,09831.5584,W,2,10,1.2,280.2,M,-23.7,M,0.8,0000*46
$GPGSA,A,3,21,06,15,09,27,18,22,03,14,19,,,2.1,1.2,1.8*31
$GPRMC,160435.000,A,3352.0089,N,09831.5584,W,0.06,141.73,030412,,,D*77
$GPGGA,160436.000,3352.0089,N,09831.5584,W,2,10,1.2,280.2,M,-23.7,M,0.8,0000*45
$GPGSA,A,3,21,06,15,09,27,18,22,03,14,19,,,2.1,1.2,1.8*31
$GPRMC,160436.000,A,3352.0089,N,09831.5584,W,0.08,155.57,030412,,,D*79
$GPGGA,160437.000,3352.0088,N,09831.5584,W,2,10,1.2,280.2,M,-23.7,M,0.8,0000*45
$GPGSA,A,3,21,06,15,09,27,18,22,03,14,19,,,2.1,1.2,1.8*31
$GPRMC,160437.000,A,3352.0088,N,09831.5584,W,0.08,150.57,030412,,,D*7C
$GPGGA,160438.000,3352.0088,N,09831.5584,W,2,10,1.2,280.1,M,-23.7,M,0.8,0000*49
$GPGSA,A,3,21,06,15,09,27,18,22,03,14,19,,,2.1,1.2,1.8*31
$GPRMC,160438.000,A,3352.0088,N,09831.5584,W,0.13,144.03,030412,,,D*7D
$GPGGA,160439.000,3352.0088,N,09831.5583,W,2,10,1.2,280.0,M,-23.7,M,1.8,0000*4F
$GPGSA,A,3,21,06,15,09,27,18,22,03,14,19,,,2.1,1.2,1.8*31
$GPGSV,3,1,11,18,58,047,30,21,54,147,36,22,54,317,25,14,49,234,25*73
$GPGSV,3,2,11,09,37,070,35,06,26,260,32,27,23,049,35,03,21,271,31*7A
$GPGSV,3,3,11,15,16,047,32,19,15,309,26,51,49,195,36*4B
$GPRMC,160439.000,A,3352.0088,N,09831.5583,W,0.10,147.20,030412,,,D*7A
$GPGGA,160440.000,3352.0087,N,09831.5583,W,2,10,1.2,280.0,M,-23.7,M,2.8,0000*4D
$GPGSA,A,3,21,06,15,09,27,18,22,03,14,19,,,2.1,1.2,1.8*31
$GPRMC,160440.000,A,3352.0087,N,09831.5583,W,0.13,147.47,030412,,,D*79
$GPGGA,160441.000,3352.0087,N,09831.5583,W,2,10,1.2,279.9,M,-23.7,M,3.8,0000*42
$GPGSA,A,3,21,06,15,09,27,18,22,03,14,19,,,2.1,1.2,1.8*31
$GPRMC,160441.000,A,3352.0087,N,09831.5583,W,0.11,141.79,030412,,,D*71
$GPGGA,160442.000,3352.0087,N,09831.5583,W,2,10,1.2,279.8,M,-23.7,M,0.8,0000*43
$GPGSA,A,3,21,06,15,09,27,18,22,03,14,19,,,2.1,1.2,1.8*31
$GPRMC,160442.000,A,3352.0087,N,09831.5583,W,0.09,131.43,030412,,,D*75
$GPGGA,160443.000,3352.0087,N,09831.5583,W,2,10,1.2,279.8,M,-23.7,M,0.8,0000*42
$GPGSA,A,3,21,06,15,09,27,18,22,03,14,19,,,2.1,1.2,1.8*31
$GPRMC,160443.000,A,3352.0087,N,09831.5583,W,0.11,150.35,030412,,,D*7B
$GPGGA,160444.000,3352.0087,N,09831.5583,W,2,10,1.2,279.8,M,-23.7,M,0.8,0000*45
$GPGSA,A,3,21,06,15,09,27,18,22,03,14,19,,,2.1,1.2,1.8*31
$GPGSV,3,1,11,18,58,047,30,21,54,147,36,22,54,317,25,14,49,234,25*73
$GPGSV,3,2,11,09,37,070,35,06,26,260,32,27,23,049,35,03,21,271,32*79
$GPGSV,3,3,11,15,16,047,32,19,15,309,27,51,49,195,36*4A
$GPRMC,160444.000,A,3352.0087,N,09831.5583,W,0.08,144.74,030412,,,D*74
$GPGGA,160445.000,3352.0087,N,09831.5583,W,2,10,1.2,279.8,M,-23.7,M,0.8,0000*44
$GPGSA,A,3,21,06,15,09,27,18,22,03,14,19,,,2.1,1.2,1.8*31
$GPRMC,160445.000,A,3352.0087,N,09831.5583,W,0.08,160.04,030412,,,D*74
$GPGGA,160446.000,3352.0087,N,09831.5583,W,2,10,1.2,279.8,M,-23.7,M,0.8,0000*47
$GPGSA,A,3,21,06,15,09,27,18,22,03,14,19,,,2.1,1.2,1.8*31
$GPRMC,160446.000,A,3352.0087,N,09831.5583,W,0.07,149.76,030412,,,D*76
$GPGGA,160447.000,3352.0087,N,09831.5583,W,2,10,1.2,279.8,M,-23.7,M,1.8,0000*47
$GPGSA,A,3,21,06,15,09,27,18,22,03,14,19,,,2.1,1.2,1.8*31
$GPRMC,160447.000,A,3352.0087,N,09831.5583,W,0.07,147.94,030412,,,D*75
$GPGGA,160448.000,3352.0087,N,09831.5583,W,2,10,1.2,279.8,M,-23.7,M,0.8,0000*49
$GPGSA,A,3,21,06,15,09,27,18,22,03,14,19,,,2.1,1.2,1.8*31
$GPRMC,160448.000,A,3352.0087,N,09831.5583,W,0.12,163.96,030412,,,D*7A
$GPGGA,160449.000,3352.0086,N,09831.5583,W,2,10,1.2,279.7,M,-23.7,M,0.8,0000*46
$GPGSA,A,3,21,06,15,09,27,18,22,03,14,19,,,2.1,1.2,1.8*31
$GPGSV,3,1,11,18,58,047,30,21,54,147,36,22,54,317,25,14,49,234,25*73
$GPGSV,3,2,11,09,37,070,35,06,26,260,31,27,23,049,35,03,21,271,32*7A
$GPGSV,3,3,11,15,16,047,32,19,15,309,27,51,49,195,36*4A
$GPRMC,160449.000,A,3352.0086,N,09831.5583,W,0.10,166.27,030412,,,D*77
$GPGGA,160450.000,3352.0086,N,09831.5583,W,2,10,1.2,279.7,M,-23.7,M,0.8,0000*4E
$GPGSA,A,3,21,06,15,09,27,18,22,03,14,19,,,2.1,1.2,1.8*31
$GPRMC,160450.000,A,3352.0086,N,09831.5583,W,0.12,156.59,030412,,,D*77
$GPGGA,160451.000,3352.0086,N,09831.5582,W,2,10,1.2,279.7,M,-23.7,M,1.8,0000*4F
$GPGSA,A,3,21,06,15,09,27,18,22,03,14,19,,,2.1,1.2,1.8*31
$GPRMC,160451.000,A,3352.0086,N,09831.5582,W,0.13,158.62,030412,,,D*70
$GPGGA,160452.000,3352.0085,N,09831.5582,W,2,10,1.2,279.6,M,-23.7,M,2.8,0000*4D
$GPGSA,A,3,21,06,15,09,27,18,22,03,14,19,,,2.1,1.2,1.8*31
$GPRMC,160452.000,A,3352.0085,N,09831.5582,W,0.13,153.25,030412,,,D*78
$GPGGA,160453.000,3352.0085,N,09831.5582,W,2,10,1.2,279.6,M,-23.7,M,0.8,0000*4E
$GPGSA,A,3,21,06,15,09,27,18,22,03,14,19,,,2.1,1.2,1.8*31
$GPRMC,160453.000,A,3352.0085,N,09831.5582,W,0.13,154.45,030412,,,D*78
$GPGGA,160454.000,3352.0085,N,09831.5582,W,2,10,1.2,279.6,M,-23.7,M,0.8,0000*49
$GPGSA,A,3,21,06,15,09,27,18,22,03,14,19,,,2.1,1.2,1.8*31
$GPGSV,3,1,11,18,58,047,30,21,54,147,35,22,54,317,25,14,49,234,25*70
$GPGSV,3,2,11,09,37,070,35,06,26,260,31,27,23,049,35,03,21,271,32*7A
$GPGSV,3,3,11,15,16,047,31,19,15,309,28,51,49,195,36*46
$GPRMC,160454.000,A,3352.0085,N,09831.5582,W,0.10,137.65,030412,,,D*7B
$GPGGA,160455.000,3352.0085,N,09831.5582,W,2,10,1.2,279.6,M,-23.7,M,0.8,0000*48
$GPGSA,A,3,21,06,15,09,27,18,22,03,14,19,,,2.1,1.2,1.8*31
$GPRMC,160455.000,A,3352.0085,N,09831.5582,W,0.08,137.96,030412,,,D*7F
$GPGGA,160456.000,3352.0085,N,09831.5582,W,2,10,1.2,279.6,M,-23.7,M,0.8,0000*4B
$GPGSA,A,3,21,06,15,09,27,18,22,03,14,19,,,2.1,1.2,1.8*31
$GPRMC,160456.000,A,3352.0085,N,09831.5582,W,0.07,146.21,030412,,,D*79
$GPGGA,160457.000,3352.0085,N,09831.5582,W,2,10,1.2,279.6,M,-23.7,M,0.8,0000*4A
$GPGSA,A,3,21,06,15,09,27,18,22,03,14,19,,,2.1,1.2,1.8*31
$GPRMC,160457.000,A,3352.0085,N,09831.5582,W,0.06,149.19,030412,,,D*7D
$GPGGA,160458.000,3352.0085,N,09831.5582,W,2,10,1.2,279.5,M,-23.7,M,1.8,0000*47
$GPGSA,A,3,21,06,15,09,27,18,22,03,14,19,,,2.1,1.2,1.8*31
$GPRMC,160458.000,A,3352.0085,N,09831.5582,W,0.08,144.62,030412,,,D*7D
$GPGGA,160459.000,3352.0085,N,09831.5582,W,2,10,1.2,279.5,M,-23.7,M,2.8,0000*45
$GPGSA,A,3,21,06,15,09,27,18,22,03,14,19,,,2.1,1.2,1.8*31
$GPGSV,3,1,11,18,58,047,29,21,54,147,36,22,54,317,25,14,49,234,26*78
$GPGSV,3,2,11,09,37,070,34,06,26,260,31,27,23,049,35,03,21,271,33*7A
$GPGSV,3,3,11,15,16,047,31,19,15,309,28,51,49,195,36*46
$GPRMC,160459.000,A,3352.0085,N,09831.5582,W,0.07,152.88,030412,,,D*70
$GPGGA,160500.000,3352.0085,N,09831.5582,W,2,10,1.2,279.5,M,-23.7,M,0.8,0000*4A
$GPGSA,A,3,21,06,15,09,27,18,22,03,14,19,,,2.1,1.2,1.8*31
$GPRMC,160500.000,A,3352.0085,N,09831.5582,W,0.11,170.24,030412,,,D*7C
$GPGGA,160501.000,3352.0084,N,09831.5582,W,2,10,1.2,279.5,M,-23.7,M,0.8,0000*4A
$GPGSA,A,3,21,06,15,09,27,18,22,03,14,19,,,2.1,1.2,1.8*31
$GPRMC,160501.000,A,3352.0084,N,09831.5582,W,0.10,167.33,030412,,,D*7D
$GPGGA,160502.000,3352.0084,N,09831.5582,W,2,10,1.2,279.5,M,-23.7,M,0.8,0000*49
$GPGSA,A,3,21,06,15,09,27,18,22,03,14,19,,,2.1,1.2,1.8*31
$GPRMC,160502.000,A,3352.0084,N,09831.5582,W,0.11,155.61,030412,,,D*79
$GPGGA,160503.000,3352.0084,N,09831.5581,W,2,10,1.2,279.5,M,-23.7,M,1.8,0000*4A
$GPGSA,A,3,21,06,15,09,27,18,22,03,14,19,,,2.1,1.2,1.8*31
$GPRMC,160503.000,A,3352.0084,N,09831.5581,W,0.11,157.61,030412,,,D*79
$GPGGA,160504.000,3352.0084,N,09831.5581,W,2,10,1.2,279.5,M,-23.7,M,2.8,0000*4E
$GPGSA,A,3,21,06,15,09,27,18,22,03,14,19,,,2.1,1.2,1.8*31
$GPGSV,3,1,11,18,58,047,29,21,54,147,36,22,54,317,24,14,49,234,26*79
$GPGSV,3,2,11,09,37,070,34,06,26,260,30,27,23,049,35,03,21,271,33*7B
$GPGSV,3,3,11,15,16,047,31,19,15,309,28,51,49,195,36*46
$GPRMC,160504.000,A,3352.0084,N,09831.5581,W,0.10,159.04,030412,,,D*72
$GPGGA,160505.000,3352.0084,N,09831.5581,W,2,10,1.2,279.5,M,-23.7,M,3.8,0000*4E
$GPGSA,A,3,21,06,15,09,27,18,22,03,14,19,,,2.1,1.2,1.8*31
$GPRMC,160505.000,A,3352.0084,N,09831.5581,W,0.12,154.46,030412,,,D*7A
$GPGGA,160506.000,3352.0084,N,09831.5581,W,2,10,1.2,279.5,M,-23.7,M,0.8,0000*4E
$GPGSA,A,3,21,06,15,09,27,18,22,03,14,19,,,2.1,1.2,1.8*31
$GPRMC,160506.000,A,3352.0084,N,09831.5581,W,0.05,119.77,030412,,,D*74
$GPGGA,160507.000,3352.0084,N,09831.5581,W,2,10,1.2,279.5,M,-23.7,M,0.8,0000*4F
$GPGSA,A,3,21,06,15,09,27,18,22,03,14,19,,,2.1,1.2,1.8*31
$GPRMC,160507.000,A,3352.0084,N,09831.5581,W,0.08,144.85,030412,,,D*7D
$GPGGA,160508.000,3352.0084,N,09831.5581,W,2,10,1.2,279.6,M,-23.7,M,0.8,0000*43
$GPGSA,A,3,21,06,15,09,27,18,22,03,14,19,,,2.1,1.2,1.8*31
$GPRMC,160508.000,A,3352.0084,N,09831.5581,W,0.02,166.53,030412,,,D*73
$GPGGA,160509.000,3352.0084,N,09831.5582,W,2,10,1.2,279.6,M,-23.7,M,1.8,0000*40
$GPGSA,A,3,21,06,15,09,27,18,22,03,14,19,,,2.1,1.2,1.8*31
$GPGSV,3,1,11,18,58,047,29,21,54,147,37,22,54,317,24,14,49,234,26*78
$GPGSV,3,2,11,09,37,070,34,06,26,260,30,27,23,049,34,03,21,271,33*7A
$GPGSV,3,3,11,15,16,047,31,19,15,309,28,51,49,195,36*46
$GPRMC,160509.000,A,3352.0084,N,09831.5582,W,0.08,149.05,030412,,,D*75
$GPGGA,160510.000,3352.0084,N,09831.5582,W,2,10,1.2,279.6,M,-23.7,M,2.8,0000*4B
$GPGSA,A,3,21,06,15,09,27,18,22,03,14,19,,,2.1,1.2,1.7*3E
$GPRMC,160510.000,A,3352.0084,N,09831.5582,W,0.07,161.46,030412,,,D*7F
$GPGGA,160511.000,3352.0085,N,09831.5582,W,2,10,1.2,279.6,M,-23.7,M,3.8,0000*4A
$GPGSA,A,3,21,06,15,09,27,18,22,03,14,19,,,2.1,1.2,1.7*3E
$GPRMC,160511.000,A,3352.0085,N,09831.5582,W,0.06,163.77,030412,,,D*7E
$GPGGA,160512.000,3352.0084,N,09831.5582,W,2,10,1.2,279.6,M,-23.7,M,0.8,0000*4B
$GPGSA,A,3,21,06,15,09,27,18,22,03,14,19,,,2.1,1.2,1.7*3E
$GPRMC,160512.000,A,3352.0084,N,09831.5582,W,0.11,174.06,030412,,,D*7A
$GPGGA,160513.000,3352.0084,N,09831.5582,W,2,10,1.2,279.6,M,-23.7,M,0.8,0000*4A
$GPGSA,A,3,21,06,15,09,27,18,22,03,14,19,,,2.1,1.2,1.7*3E
$GPRMC,160513.000,A,3352.0084,N,09831.5582,W,0.09,168.04,030412,,,D*7D
$GPGGA,160514.000,3352.0084,N,09831.5582,W,2,10,1.2,279.8,M,-23.7,M,0.8,0000*43
$GPGSA,A,3,21,06,15,09,27,18,22,03,14,19,,,2.1,1.2,1.7*3E
$GPGSV,3,1,11,18,58,047,29,21,54,147,36,22,54,317,24,14,49,234,25*7A
$GPGSV,3,2,11,09,37,070,34,06,26,260,29,27,23,049,34,03,21,271,33*72
$GPGSV,3,3,11,15,16,047,30,19,15,309,29,51,49,195,36*46
$GPRMC,160514.000,A,3352.0084,N,09831.5582,W,0.11,179.81,030412,,,D*7E
$GPGGA,160515.000,3352.0085,N,09831.5582,W,2,10,1.2,279.9,M,-23.7,M,0.8,0000*42
$GPGSA,A,3,21,06,15,09,27,18,22,03,14,19,,,2.1,1.2,1.7*3E
$GPRMC,160515.000,A,3352.0085,N,09831.5582,W,0.02,60.38,030412,,,D*47
$GPGGA,160516.000,3352.0085,N,09831.5582,W,2,10,1.2,280.0,M,-23.7,M,1.8,0000*4F
$GPGSA,A,3,21,06,15,09,27,18,22,03,14,19,,,2.1,1.2,1.7*3E
$GPRMC,160516.000,A,3352.0085,N,09831.5582,W,0.07,149.07,030412,,,D*77
$GPGGA,160517.000,3352.0085,N,09831.5582,W,2,10,1.2,279.9,M,-23.7,M,2.8,0000*42
$GPGSA,A,3,21,06,15,09,27,18,22,03,14,19,,,2.1,1.2,1.7*3E
$GPRMC,160517.000,A,3352.0085,N,09831.5582,W,0.15,145.31,030412,,,D*7C
$GPGGA,160518.000,3352.0085,N,09831.5581,W,2,10,1.2,280.0,M,-23.7,M,0.8,0000*43
$GPGSA,A,3,21,06,15,09,27,18,22,03,14,19,,,2.1,1.2,1.7*3E
$GPRMC,160518.000,A,3352.0085,N,09831.5581,W,0.05,42.05,030412,,,D*40
$GPGGA,160519.000,3352.0085,N,09831.5581,W,2,10,1.2,280.2,M,-23.7,M,0.8,0000*40
$GPGSA,A,3,21,06,15,09,27,18,22,03,14,19,,,2.1,1.2,1.7*3E
$GPGSV,3,1,11,18,58,047,29,21,54,147,36,22,54,317,24,14,49,234,24*7B
$GPGSV,3,2,11,09,37,070,34,06,26,260,29,27,23,049,34,03,21,271,33*72
$GPGSV,3,3,11,15,16,047,30,19,15,309,29,51,49,195,36*46
$GPRMC,160519.000,A,3352.0085,N,09831.5581,W,0.06,21.81,030412,,,D*4B
$GPGGA,160520.000,3352.0085,N,09831.5581,W,2,10,1.2,280.3,M,-23.7,M,0.8,0000*4B
$GPGSA,A,3,21,06,15,09,27,18,22,03,14,19,,,2.1,1.2,1.7*3E
$GPRMC,160520.000,A,3352.0085,N,09831.5581,W,0.00,302.83,030412,,,D*77
$GPGGA,160521.000,3352.0086,N,09831.5580,W,2,10,1.2,280.4,M,-23.7,M,1.8,0000*4E
$GPGSA,A,3,21,06,15,09,27,18,22,03,14,19,,,2.1,1.2,1.7*3E
$GPRMC,160521.000,A,3352.0086,N,09831.5580,W,0.01,347.08,030412,,,D*77
$GPGGA,160522.000,3352.0086,N,09831.5580,W,2,10,1.2,280.6,M,-23.7,M,0.8,0000*4E
$GPGSA,A,3,21,06,15,09,27,18,22,03,14,19,,,2.1,1.2,1.7*3E
$GPRMC,160522.000,A,3352.0086,N,09831.5580,W,0.12,349.03,030412,,,D*73
$GPGGA,160523.000,3352.0086,N,09831.5580,W,2,10,1.2,280.5,M,-23.7,M,1.8,0000*4D
$GPGSA,A,3,21,06,15,09,27,18,22,03,14,19,,,2.1,1.2,1.7*3E
$GPRMC,160523.000,A,3352.0086,N,09831.5580,W,0.03,70.77,030412,,,D*48
$GPGGA,160524.000,3352.0086,N,09831.5580,W,2,10,1.2,280.6,M,-23.7,M,0.8,0000*48
$GPGSA,A,3,21,06,15,09,27,18,22,03,14,19,,,2.1,1.2,1.7*3E
$GPGSV,3,1,11,18,58,047,28,21,54,147,36,22,54,317,23,14,49,234,24*7D
$GPGSV,3,2,11,09,37,070,34,06,26,260,29,27,23,049,34,03,21,271,33*72
$GPGSV,3,3,11,15,16,047,29,19,15,309,29,51,49,195,42*4D
$GPRMC,160524.000,A,3352.0086,N,09831.5580,W,0.08,190.07,030412,,,D*7C
$GPGGA,160525.000,3352.0086,N,09831.5579,W,2,10,1.2,280.5,M,-23.7,M,0.8,0000*4C
$GPGSA,A,3,21,06,15,09,27,18,22,03,14,19,,,2.1,1.2,1.7*3E
$GPRMC,160525.000,A,3352.0086,N,09831.5579,W,0.21,178.25,030412,,,D*76
$GPGGA,160526.000,3352.0085,N,09831.5579,W,2,10,1.2,280.5,M,-23.7,M,0.8,0000*4C
$GPGSA,A,3,21,06,15,09,27,18,22,03,14,19,,,2.1,1.2,1.7*3E
$GPRMC,160526.000,A,3352.0085,N,09831.5579,W,0.24,166.53,030412,,,D*7D
$GPGGA,160527.000,3352.0085,N,09831.5578,W,2,10,1.2,280.3,M,-23.7,M,1.8,0000*4B
$GPGSA,A,3,21,06,15,09,27,18,22,03,14,19,,,2.1,1.2,1.7*3E
