$GPGGA,161537.000,3353.7581,N,09832.0225,W,2,09,1.3,346.0,M,-23.7,M,2.8,0000*47
$GPGSA,A,3,21,22,14,15,27,06,18,09,03,,,,2.3,1.3,1.9*3B
$GPRMC,161537.000,A,3353.7581,N,09832.0225,W,0.53,16.99,300312,,,D*44
$GPGGA,161538.000,3353.7588,N,09832.0225,W,2,09,1.3,346.2,M,-23.7,M,3.8,0000*42
$GPGSA,A,3,21,22,14,15,27,06,18,09,03,,,,2.3,1.3,1.9*3B
$GPRMC,161538.000,A,3353.7588,N,09832.0225,W,0.53,347.37,300312,,,D*71
$GPGGA,161539.000,3353.7592,N,09832.0225,W,2,09,1.3,346.2,M,-23.7,M,,0000*6D
$GPGSA,A,3,21,22,14,15,27,06,18,09,03,,,,2.3,1.3,1.9*3B
$GPRMC,161539.000,A,3353.7592,N,09832.0225,W,0.51,327.59,300312,,,D*77
$GPGGA,161540.000,3353.7597,N,09832.0225,W,2,09,1.3,346.2,M,-23.7,M,,0000*66
$GPGSA,A,3,21,22,14,15,27,06,18,09,03,,,,2.3,1.3,1.9*3B
$GPRMC,161540.000,A,3353.7597,N,09832.0225,W,0.49,25.52,300312,,,D*4F
$GPGGA,161541.000,3353.7602,N,09832.0225,W,2,09,1.3,346.1,M,-23.7,M,,0000*6B
$GPGSA,A,3,21,22,14,15,27,06,18,09,03,,,,2.3,1.3,1.9*3B
$GPGSV,3,1,11,18,59,043,30,21,57,146,28,22,52,314,27,14,47,232,24*75
$GPGSV,3,2,11,09,38,074,36,06,27,263,19,27,24,051,28,03,21,274,22*7C
$GPGSV,3,3,11,15,18,046,34,19,14,311,,51,49,195,35*4D
$GPRMC,161541.000,A,3353.7602,N,09832.0225,W,0.50,350.98,300312,,,D*7E
$GPGGA,161542.000,3353.7609,N,09832.0226,W,2,09,1.3,345.8,M,-23.7,M,1.8,0000*4D
$GPGSA,A,3,21,22,14,15,27,06,18,09,03,,,,2.3,1.3,1.9*3B
$GPRMC,161542.000,A,3353.7609,N,09832.0226,W,0.65,341.92,300312,,,D*79
$GPGGA,161543.000,3353.7615,N,09832.0227,W,2,09,1.3,345.7,M,-23.7,M,2.8,0000*4C
$GPGSA,A,3,21,22,14,15,27,06,18,09,03,,,,2.3,1.3,1.9*3B
$GPRMC,161543.000,A,3353.7615,N,09832.0227,W,0.43,339.27,300312,,,D*71
$GPGGA,161544.000,3353.7620,N,09832.0227,W,2,09,1.3,345.5,M,-23.7,M,3.8,0000*4E
$GPGSA,A,3,21,22,14,15,27,06,18,09,03,,,,2.3,1.3,1.9*3B
$GPRMC,161544.000,A,3353.7620,N,09832.0227,W,0.50,338.33,300312,,,D*76
$GPGGA,161545.000,3353.7625,N,09832.0226,W,2,09,1.3,345.4,M,-23.7,M,,0000*6F
$GPGSA,A,3,21,22,14,15,27,06,18,09,03,,,,2.3,1.3,1.9*3B
$GPRMC,161545.000,A,3353.7625,N,09832.0226,W,0.53,23.64,300312,,,D*4B
$GPGGA,161546.000,3353.7628,N,09832.0225,W,2,09,1.3,345.3,M,-23.7,M,,0000*65
$GPGSA,A,3,21,22,14,15,27,06,18,09,03,,,,2.3,1.3,1.9*3B
$GPGSV,3,1,11,18,59,043,30,21,57,146,28,22,52,314,27,14,47,232,24*75
$GPGSV,3,2,11,09,38,074,36,06,27,263,18,27,24,051,29,03,21,274,23*7D
$GPGSV,3,3,11,15,18,046,35,19,14,311,,51,49,195,35*4C
$GPRMC,161546.000,A,3353.7628,N,09832.0225,W,0.50,31.35,300312,,,D*42
$GPGGA,161547.000,3353.7631,N,09832.0222,W,2,09,1.3,345.3,M,-23.7,M,,0000*6B
$GPGSA,A,3,21,22,14,15,27,06,18,09,03,,,,2.3,1.3,1.9*3B
$GPRMC,161547.000,A,3353.7631,N,09832.0222,W,0.49,50.67,300312,,,D*44
$GPGGA,161548.000,3353.7632,N,09832.0219,W,2,09,1.3,345.2,M,-23.7,M,1.8,0000*49
$GPGSA,A,3,21,22,14,15,27,06,18,09,03,,,,2.3,1.3,1.9*3B
$GPRMC,161548.000,A,3353.7632,N,09832.0219,W,0.43,64.57,300312,,,D*4E
$GPGGA,161549.000,3353.7632,N,09832.0217,W,2,09,1.3,344.7,M,-23.7,M,2.8,0000*41
$GPGSA,A,3,21,22,14,15,27,06,18,09,03,,,,2.3,1.3,1.9*3B
$GPRMC,161549.000,A,3353.7632,N,09832.0217,W,0.13,136.20,300312,,,D*72
$GPGGA,161550.000,3353.7631,N,09832.0215,W,2,09,1.3,344.2,M,-23.7,M,3.8,0000*4C
$GPGSA,A,3,21,22,14,15,27,06,18,09,03,,,,2.3,1.3,1.9*3B
$GPRMC,161550.000,A,3353.7631,N,09832.0215,W,0.09,302.67,300312,,,D*76
$GPGGA,161551.000,3353.7631,N,09832.0214,W,2,09,1.3,343.9,M,-23.7,M,,0000*65
$GPGSA,A,3,21,22,14,15,27,06,18,09,03,,,,2.3,1.3,1.9*3B
$GPGSV,3,1,11,18,59,043,30,21,57,146,27,22,52,314,27,14,47,232,24*7A
$GPGSV,3,2,11,09,38,074,36,06,27,263,16,27,24,051,29,03,21,274,23*73
$GPGSV,3,3,11,15,18,046,35,19,14,311,,51,49,195,34*4D
$GPRMC,161551.000,A,3353.7631,N,09832.0214,W,0.10,285.91,300312,,,D*79
$GPGGA,161552.000,3353.7630,N,09832.0212,W,2,09,1.3,343.6,M,-23.7,M,,0000*6E
$GPGSA,A,3,21,22,14,15,27,06,18,09,03,,,,2.3,1.3,1.9*3B
$GPRMC,161552.000,A,3353.7630,N,09832.0212,W,0.08,226.90,300312,,,D*7C
$GPGGA,161553.000,3353.7624,N,09832.0213,W,2,09,1.3,342.6,M,-23.7,M,,0000*6A
$GPGSA,A,3,21,22,14,15,27,06,18,09,03,,,,2.3,1.3,1.9*3B
$GPRMC,161553.000,A,3353.7624,N,09832.0213,W,0.18,154.04,300312,,,D*73
$GPGGA,161554.000,3353.7620,N,09832.0211,W,2,09,1.3,342.2,M,-23.7,M,,0000*6F
$GPGSA,A,3,21,22,14,15,27,06,18,09,03,,,,2.3,1.3,1.9*3B
$GPRMC,161554.000,A,3353.7620,N,09832.0211,W,0.58,170.29,300312,,,D*7F
$GPGGA,161555.000,3353.7618,N,09832.0207,W,2,09,1.3,342.8,M,-23.7,M,1.8,0000*4F
$GPGSA,A,3,21,22,14,15,27,06,18,09,03,,,,2.3,1.3,1.9*3B
$GPRMC,161555.000,A,3353.7618,N,09832.0207,W,0.69,185.10,300312,,,D*70
$GPGGA,161556.000,3353.7616,N,09832.0205,W,2,08,1.3,342.8,M,-23.7,M,,0000*66
$GPGSA,A,3,21,22,14,15,27,18,09,03,,,,,2.4,1.3,2.0*30
$GPGSV,3,1,11,18,59,043,30,21,57,146,22,22,52,314,28,14,47,232,23*77
$GPGSV,3,2,11,09,38,074,36,06,27,263,,27,24,051,30,03,21,274,23*7C
$GPGSV,3,3,11,15,18,046,35,19,14,311,,51,49,195,34*4D
$GPRMC,161556.000,A,3353.7616,N,09832.0205,W,0.05,322.38,300312,,,D*70
$GPGGA,161557.000,3353.7612,N,09832.0205,W,2,08,1.3,341.7,M,-23.7,M,,0000*6F
$GPGSA,A,3,21,22,14,15,27,18,09,03,,,,,2.4,1.3,2.0*30
$GPRMC,161557.000,A,3353.7612,N,09832.0205,W,0.44,180.69,300312,,,D*7E
$GPGGA,161558.000,3353.7608,N,09832.0202,W,2,08,1.3,341.7,M,-23.7,M,,0000*6C
$GPGSA,A,3,21,22,14,15,27,18,09,03,,,,,2.4,1.3,2.0*30
$GPRMC,161558.000,A,3353.7608,N,09832.0202,W,0.81,148.01,300312,,,D*7E
$GPGGA,161559.000,3353.7603,N,09832.0202,W,2,08,1.3,340.3,M,-23.7,M,,0000*63
$GPGSA,A,3,21,22,14,15,27,18,09,03,,,,,2.4,1.3,2.0*30
$GPRMC,161559.000,A,3353.7603,N,09832.0202,W,0.20,113.15,300312,,,D*74
$GPGGA,161600.000,3353.7599,N,09832.0203,W,2,08,1.3,338.9,M,-23.7,M,1.8,0000*4F
$GPGSA,A,3,21,22,14,15,27,18,09,03,,,,,2.4,1.3,2.0*30
$GPRMC,161600.000,A,3353.7599,N,09832.0203,W,0.31,233.46,300312,,,D*7D
$GPGGA,161601.000,3353.7584,N,09832.0204,W,2,08,1.3,337.5,M,-23.7,M,2.8,0000*45
$GPGSA,A,3,21,22,14,15,27,18,09,03,,,,,2.4,1.3,2.0*30
$GPGSV,3,1,11,18,59,043,30,21,57,146,21,22,52,314,27,14,47,232,23*7B
$GPGSV,3,2,11,09,38,074,36,06,27,263,,27,24,051,30,03,21,274,23*7C
$GPGSV,3,3,11,15,18,046,36,19,14,311,,51,49,195,35*4F
$GPRMC,161601.000,A,3353.7584,N,09832.0204,W,0.84,182.49,300312,,,D*7F
$GPGGA,161602.000,3353.7578,N,09832.0206,W,2,08,1.3,335.9,M,-23.7,M,,0000*6D
$GPGSA,A,3,21,22,14,15,27,18,09,03,,,,,2.4,1.3,2.0*30
$GPRMC,161602.000,A,3353.7578,N,09832.0206,W,0.60,207.06,300312,,,D*72
$GPGGA,161603.000,3353.7572,N,09832.0205,W,2,08,1.3,335.4,M,-23.7,M,,0000*68
$GPGSA,A,3,21,22,14,15,27,18,09,03,,,,,2.4,1.3,2.0*30
$GPRMC,161603.000,A,3353.7572,N,09832.0205,W,0.99,166.19,300312,,,D*76
$GPGGA,161604.000,3353.7571,N,09832.0204,W,2,08,1.3,335.2,M,-23.7,M,,0000*6B
$GPGSA,A,3,21,22,14,15,27,18,09,03,,,,,2.4,1.3,2.0*30
$GPRMC,161604.000,A,3353.7571,N,09832.0204,W,0.37,212.96,300312,,,D*70
$GPGGA,161605.000,3353.7565,N,09832.0204,W,2,08,1.3,334.6,M,-23.7,M,,0000*6A
$GPGSA,A,3,21,22,14,15,27,18,09,03,,,,,2.4,1.3,2.0*30
$GPRMC,161605.000,A,3353.7565,N,09832.0204,W,0.72,204.96,300312,,,D*72
$GPGGA,161606.000,3353.7561,N,09832.0204,W,2,08,1.3,334.0,M,-23.7,M,1.8,0000*4C
$GPGSA,A,3,21,22,14,15,27,18,09,03,,,,,2.4,1.3,2.0*30
$GPGSV,3,1,11,18,59,043,31,21,57,146,22,22,52,314,27,14,47,232,23*79
$GPGSV,3,2,11,09,38,074,36,06,27,263,,27,24,051,30,03,21,274,22*7D
$GPGSV,3,3,11,15,18,046,36,19,14,311,,51,49,195,34*4E
$GPRMC,161606.000,A,3353.7561,N,09832.0204,W,0.65,215.54,300312,,,D*7D
$GPGGA,161607.000,3353.7565,N,09832.0203,W,2,08,1.3,334.5,M,-23.7,M,2.8,0000*48
$GPGSA,A,3,21,22,14,15,27,18,09,03,,,,,2.4,1.3,2.0*30
$GPRMC,161607.000,A,3353.7565,N,09832.0203,W,0.30,159.69,300312,,,D*7A
$GPGGA,161608.000,3353.7569,N,09832.0200,W,2,08,1.3,335.1,M,-23.7,M,,0000*69
$GPGSA,A,3,21,22,14,15,27,18,09,03,,,,,2.4,1.3,2.0*30
$GPRMC,161608.000,A,3353.7569,N,09832.0200,W,0.30,121.74,300312,,,D*79
$GPGGA,161609.000,3353.7571,N,09832.0198,W,2,08,1.3,335.4,M,-23.7,M,,0000*66
$GPGSA,A,3,21,22,14,15,27,18,09,03,,,,,2.4,1.3,2.0*30
$GPRMC,161609.000,A,3353.7571,N,09832.0198,W,0.17,170.02,300312,,,D*73
$GPGGA,161610.000,3353.7572,N,09832.0196,W,2,08,1.3,335.6,M,-23.7,M,,0000*61
$GPGSA,A,3,21,22,14,15,27,18,09,03,,,,,2.4,1.3,2.0*30
$GPRMC,161610.000,A,3353.7572,N,09832.0196,W,0.34,119.48,300312,,,D*76
$GPGGA,161611.000,3353.7572,N,09832.0194,W,2,08,1.3,335.9,M,-23.7,M,,0000*6D
$GPGSA,A,3,21,22,14,15,27,18,09,03,,,,,2.4,1.3,2.0*30
$GPGSV,3,1,11,18,59,043,30,21,56,146,23,22,53,314,27,14,47,232,24*7E
$GPGSV,3,2,11,09,38,073,35,06,27,262,,27,24,050,31,03,21,273,22*7F
$GPGSV,3,3,11,15,18,047,36,19,14,311,,51,49,195,35*4E
$GPRMC,161611.000,A,3353.7572,N,09832.0194,W,0.52,137.76,300312,,,D*74
$GPGGA,161612.000,3353.7566,N,09832.0194,W,2,08,1.3,335.3,M,-23.7,M,,0000*61
$GPGSA,A,3,21,22,14,15,27,18,09,03,,,,,2.4,1.3,2.0*30
$GPRMC,161612.000,A,3353.7566,N,09832.0194,W,0.58,181.23,300312,,,D*75
$GPGGA,161613.000,3353.7558,N,09832.0194,W,2,08,1.3,334.6,M,-23.7,M,1.8,0000*4E
$GPGSA,A,3,21,22,14,15,27,18,09,03,,,,,2.4,1.3,2.0*30
$GPRMC,161613.000,A,3353.7558,N,09832.0194,W,0.84,170.87,300312,,,D*78
$GPGGA,161614.000,3353.7564,N,09832.0197,W,2,08,1.3,334.5,M,-23.7,M,2.8,0000*45
$GPGSA,A,3,21,22,14,15,27,18,09,03,,,,,2.4,1.3,2.0*30
$GPRMC,161614.000,A,3353.7564,N,09832.0197,W,0.42,67.15,300312,,,D*45
$GPGGA,161615.000,3353.7562,N,09832.0194,W,2,08,1.3,334.8,M,-23.7,M,,0000*68
$GPGSA,A,3,21,22,14,15,27,18,09,03,,,,,2.4,1.3,2.0*30
$GPRMC,161615.000,A,3353.7562,N,09832.0194,W,0.62,91.01,300312,,,D*4F
$GPGGA,161616.000,3353.7560,N,09832.0191,W,2,08,1.3,334.9,M,-23.7,M,,0000*6D
$GPGSA,A,3,21,22,14,15,27,18,09,03,,,,,2.4,1.3,2.0*30
$GPGSV,3,1,11,18,59,043,30,21,56,146,24,22,53,314,25,14,47,232,24*7B
$GPGSV,3,2,11,09,38,073,35,06,27,262,,27,24,050,31,03,21,273,21*7C
$GPGSV,3,3,11,15,18,047,36,19,14,311,,51,49,195,35*4E
$GPRMC,161616.000,A,3353.7560,N,09832.0191,W,0.77,126.96,300312,,,D*7C
$GPGGA,161617.000,3353.7560,N,09832.0192,W,2,08,1.3,335.1,M,-23.7,M,,0000*66
$GPGSA,A,3,21,22,14,15,27,18,09,03,,,,,2.4,1.3,2.0*30
$GPRMC,161617.000,A,3353.7560,N,09832.0192,W,0.08,159.02,300312,,,D*73
$GPGGA,161618.000,3353.7558,N,09832.0193,W,2,08,1.3,334.6,M,-23.7,M,,0000*65
$GPGSA,A,3,21,22,14,15,27,18,09,03,,,,,2.4,1.3,2.0*30
$GPRMC,161618.000,A,3353.7558,N,09832.0193,W,0.45,126.09,300312,,,D*7C
$GPGGA,161619.000,3353.7557,N,09832.0193,W,2,08,1.3,334.0,M,-23.7,M,1.8,0000*4A
$GPGSA,A,3,21,22,14,15,27,18,09,03,,,,,2.4,1.3,2.0*30
$GPRMC,161619.000,A,3353.7557,N,09832.0193,W,0.46,128.82,300312,,,D*7C
$GPGGA,161620.000,3353.7555,N,09832.0194,W,2,08,1.3,333.2,M,-23.7,M,2.8,0000*43
$GPGSA,A,3,21,22,14,15,27,18,09,03,,,,,2.4,1.3,2.0*30
$GPRMC,161620.000,A,3353.7555,N,09832.0194,W,0.67,141.19,300312,,,D*7D
$GPGGA,161621.000,3353.7552,N,09832.0196,W,2,08,1.3,332.4,M,-23.7,M,,0000*64
$GPGSA,A,3,21,22,14,15,27,18,09,03,,,,,2.4,1.3,2.0*30
$GPGSV,3,1,11,18,59,043,30,21,56,146,25,22,53,314,19,14,47,232,23*72
$GPGSV,3,2,11,09,38,073,35,06,27,262,,27,24,050,31,03,21,273,20*7D
$GPGSV,3,3,11,15,18,047,36,19,14,311,,51,49,195,36*4D
$GPRMC,161621.000,A,3353.7552,N,09832.0196,W,0.98,137.55,300312,,,D*70
$GPGGA,161622.000,3353.7552,N,09832.0199,W,2,08,1.3,331.0,M,-23.7,M,1.8,0000*48
$GPGSA,A,3,21,22,14,15,27,18,09,03,,,,,2.4,1.3,2.0*30
$GPRMC,161622.000,A,3353.7552,N,09832.0199,W,0.46,164.03,300312,,,D*7A
$GPGGA,161623.000,3353.7552,N,09832.0201,W,2,08,1.3,330.7,M,-23.7,M,,0000*6A
$GPGSA,A,3,21,22,14,15,27,18,09,03,,,,,2.4,1.3,2.0*30
$GPRMC,161623.000,A,3353.7552,N,09832.0201,W,0.31,212.85,300312,,,D*75
$GPGGA,161624.000,3353.7555,N,09832.0204,W,2,08,1.3,330.3,M,-23.7,M,1.8,0000*4C
$GPGSA,A,3,21,22,14,15,27,18,09,03,,,,,2.4,1.3,2.0*30
$GPRMC,161624.000,A,3353.7555,N,09832.0204,W,0.15,326.17,300312,,,D*7B
$GPGGA,161625.000,3353.7558,N,09832.0205,W,2,08,1.3,330.1,M,-23.7,M,,0000*64
$GPGSA,A,3,21,22,14,15,27,18,09,03,,,,,2.4,1.3,2.0*30
$GPRMC,161625.000,A,3353.7558,N,09832.0205,W,0.40,200.36,300312,,,D*70
$GPGGA,161626.000,3353.7561,N,09832.0207,W,2,09,1.3,329.9,M,-23.7,M,1.8,0000*49
$GPGSA,A,3,21,22,14,15,27,06,18,09,03,,,,2.3,1.3,1.9*3B
$GPGSV,3,1,11,18,59,043,30,21,56,146,25,22,53,314,20,14,47,232,23*78
$GPGSV,3,2,11,09,38,073,34,06,27,262,14,27,24,050,32,03,21,273,21*7B
$GPGSV,3,3,11,15,18,047,36,19,14,311,,51,49,195,35*4E
$GPRMC,161626.000,A,3353.7561,N,09832.0207,W,0.11,42.98,300312,,,D*4F
$GPGGA,161627.000,3353.7562,N,09832.0208,W,2,09,1.3,329.8,M,-23.7,M,,0000*62
$GPGSA,A,3,21,22,14,15,27,06,18,09,03,,,,2.3,1.3,1.9*3B
$GPRMC,161627.000,A,3353.7562,N,09832.0208,W,0.59,130.92,300312,,,D*70
$GPGGA,161628.000,3353.7562,N,09832.0208,W,2,09,1.3,329.7,M,-23.7,M,,0000*62
$GPGSA,A,3,21,22,14,15,27,06,18,09,03,,,,2.3,1.3,1.9*3B
$GPRMC,161628.000,A,3353.7562,N,09832.0208,W,1.04,123.04,300312,,,D*7B
$GPGGA,161629.000,3353.7562,N,09832.0210,W,2,09,1.3,329.4,M,-23.7,M,,0000*69
$GPGSA,A,3,21,22,14,15,27,06,18,09,03,,,,2.3,1.3,1.9*3B
$GPRMC,161629.000,A,3353.7562,N,09832.0210,W,0.43,140.42,300312,,,D*76
$GPGGA,161630.000,3353.7563,N,09832.0215,W,2,09,1.3,328.9,M,-23.7,M,1.8,0000*4E
$GPGSA,A,3,21,22,14,15,27,06,18,09,03,,,,2.3,1.3,1.9*3B
$GPRMC,161630.000,A,3353.7563,N,09832.0215,W,0.28,227.01,300312,,,D*72
$GPGGA,161631.000,3353.7563,N,09832.0216,W,2,09,1.3,329.1,M,-23.7,M,2.8,0000*46
$GPGSA,A,3,21,22,14,15,27,06,18,09,03,,,,2.3,1.3,1.9*3B
$GPGSV,3,1,11,18,59,043,30,21,56,146,26,22,53,314,20,14,47,232,23*7B
$GPGSV,3,2,11,09,38,073,34,06,27,262,13,27,24,050,32,03,21,273,21*7C
$GPGSV,3,3,11,15,18,047,36,19,14,311,,51,49,195,35*4E
$GPRMC,161631.000,A,3353.7563,N,09832.0216,W,0.12,161.77,300312,,,D*79
$GPGGA,161632.000,3353.7563,N,09832.0218,W,2,09,1.3,328.8,M,-23.7,M,3.8,0000*42
$GPGSA,A,3,21,22,14,15,27,06,18,09,03,,,,2.3,1.3,1.9*3B
$GPRMC,161632.000,A,3353.7563,N,09832.0218,W,0.08,339.19,300312,,,D*78
$GPGGA,161633.000,3353.7564,N,09832.0215,W,2,09,1.3,329.2,M,-23.7,M,,0000*67
$GPGSA,A,3,21,22,14,15,27,06,18,09,03,,,,2.3,1.3,1.9*3B
$GPRMC,161633.000,A,3353.7564,N,09832.0215,W,0.43,333.14,300312,,,D*7B
$GPGGA,161634.000,3353.7565,N,09832.0213,W,2,08,1.3,329.6,M,-23.7,M,,0000*62
$GPGSA,A,3,21,22,14,15,27,18,09,03,,,,,2.4,1.3,2.0*30
$GPRMC,161634.000,A,3353.7565,N,09832.0213,W,0.45,333.89,300312,,,D*79
$GPGGA,161635.000,3353.7563,N,09832.0211,W,2,08,1.3,329.7,M,-23.7,M,,0000*66
$GPGSA,A,3,21,22,14,15,27,18,09,03,,,,,2.4,1.3,2.0*30
$GPRMC,161635.000,A,3353.7563,N,09832.0211,W,0.64,325.82,300312,,,D*73
$GPGGA,161636.000,3353.7559,N,09832.0209,W,2,08,1.3,329.7,M,-23.7,M,,0000*65
$GPGSA,A,3,21,22,14,15,27,18,09,03,,,,,2.4,1.3,2.0*30
$GPGSV,3,1,11,18,59,043,29,21,56,146,26,22,53,314,21,14,47,232,23*72
$GPGSV,3,2,11,09,38,073,34,06,27,262,,27,24,050,32,03,21,273,20*7F
$GPGSV,3,3,11,15,18,047,35,19,14,311,,51,49,195,35*4D
$GPRMC,161636.000,A,3353.7559,N,09832.0209,W,0.39,309.59,300312,,,D*70
$GPGGA,161637.000,3353.7554,N,09832.0206,W,2,08,1.3,329.9,M,-23.7,M,1.8,0000*4F
$GPGSA,A,3,21,22,14,15,27,18,09,03,,,,,2.4,1.3,2.0*30
$GPRMC,161637.000,A,3353.7554,N,09832.0206,W,0.49,139.53,300312,,,D*7F
$GPGGA,161638.000,3353.7545,N,09832.0200,W,2,08,1.3,329.9,M,-23.7,M,2.8,0000*45
$GPGSA,A,3,21,22,14,15,27,18,09,03,,,,,2.4,1.3,2.0*30
$GPRMC,161638.000,A,3353.7545,N,09832.0200,W,0.91,171.45,300312,,,D*78
$GPGGA,161639.000,3353.7543,N,09832.0196,W,2,08,1.3,330.6,M,-23.7,M,,0000*6D
$GPGSA,A,3,21,22,14,15,27,18,09,03,,,,,2.4,1.3,2.0*30
$GPRMC,161639.000,A,3353.7543,N,09832.0196,W,0.49,111.39,300312,,,D*7B
$GPGGA,161640.000,3353.7539,N,09832.0189,W,2,08,1.3,331.1,M,-23.7,M,,0000*66
$GPGSA,A,3,21,22,14,15,27,18,09,03,,,,,2.4,1.3,2.0*30
$GPRMC,161640.000,A,3353.7539,N,09832.0189,W,0.49,124.06,300312,,,D*7C
$GPGGA,161641.000,3353.7535,N,09832.0186,W,2,08,1.3,331.1,M,-23.7,M,,0000*64
$GPGSA,A,3,21,22,14,15,27,18,09,03,,,,,2.4,1.3,2.0*30
$GPGSV,3,1,11,18,59,043,30,21,56,146,25,22,53,314,21,14,47,232,23*79
$GPGSV,3,2,11,09,38,073,34,06,27,262,,27,24,050,32,03,21,273,20*7F
$GPGSV,3,3,11,15,18,047,35,19,14,311,,51,49,195,37*4F
$GPRMC,161641.000,A,3353.7535,N,09832.0186,W,1.18,160.89,300312,,,D*7C
$GPGGA,161642.000,3353.7530,N,09832.0178,W,2,08,1.3,330.9,M,-23.7,M,,0000*6A
$GPGSA,A,3,21,22,14,15,27,18,09,03,,,,,2.4,1.3,2.0*30
$GPRMC,161642.000,A,3353.7530,N,09832.0178,W,0.22,124.94,300312,,,D*7F
$GPGGA,161643.000,3353.7523,N,09832.0169,W,2,08,1.3,331.8,M,-23.7,M,1.8,0000*4E
$GPGSA,A,3,21,22,14,15,27,18,09,03,,,,,2.4,1.3,2.0*30
$GPRMC,161643.000,A,3353.7523,N,09832.0169,W,0.41,358.77,300312,,,D*7D
$GPGGA,161644.000,3353.7521,N,09832.0165,W,2,08,1.3,332.4,M,-23.7,M,,0000*6F
$GPGSA,A,3,21,22,14,15,27,18,09,03,,,,,2.4,1.3,2.0*30
$GPRMC,161644.000,A,3353.7521,N,09832.0165,W,0.47,338.93,300312,,,D*7E
$GPGGA,161645.000,3353.7514,N,09832.0163,W,2,08,1.3,332.1,M,-23.7,M,,0000*6B
$GPGSA,A,3,21,22,14,15,27,18,09,03,,,,,2.4,1.3,2.0*30
$GPRMC,161645.000,A,3353.7514,N,09832.0163,W,0.25,270.83,300312,,,D*77
$GPGGA,161646.000,3353.7506,N,09832.0159,W,2,08,1.3,332.4,M,-23.7,M,,0000*67
$GPGSA,A,3,21,22,14,15,27,18,09,03,,,,,2.3,1.3,2.0*37
$GPGSV,3,1,11,18,59,043,30,21,56,146,24,22,53,314,21,14,47,232,22*79
$GPGSV,3,2,11,09,38,073,34,06,27,262,,27,24,050,32,03,21,273,21*7E
$GPGSV,3,3,11,15,18,047,34,19,14,311,,51,49,195,34*4D
$GPRMC,161646.000,A,3353.7506,N,09832.0159,W,0.28,205.71,300312,,,D*7C
$GPGGA,161647.000,3353.7497,N,09832.0155,W,2,08,1.3,332.3,M,-23.7,M,,0000*64
$GPGSA,A,3,21,22,14,15,27,18,09,03,,,,,2.3,1.3,2.0*37
$GPRMC,161647.000,A,3353.7497,N,09832.0155,W,0.35,177.79,300312,,,D*7A
$GPGGA,161648.000,3353.7497,N,09832.0160,W,2,09,1.3,331.6,M,-23.7,M,1.8,0000*4D
$GPGSA,A,3,21,22,14,15,27,06,18,09,03,,,,2.3,1.3,1.9*3B
$GPRMC,161648.000,A,3353.7497,N,09832.0160,W,0.39,275.26,300312,,,D*74
$GPGGA,161649.000,3353.7492,N,09832.0159,W,2,09,1.3,331.1,M,-23.7,M,2.8,0000*47
$GPGSA,A,3,21,22,14,15,27,06,18,09,03,,,,2.3,1.3,1.9*3B
$GPRMC,161649.000,A,3353.7492,N,09832.0159,W,0.22,275.64,300312,,,D*76
$GPGGA,161650.000,3353.7493,N,09832.0163,W,2,09,1.3,330.2,M,-23.7,M,3.8,0000*44
$GPGSA,A,3,21,22,14,15,27,06,18,09,03,,,,2.3,1.3,1.9*3B
$GPRMC,161650.000,A,3353.7493,N,09832.0163,W,0.02,191.92,300312,,,D*74
$GPGGA,161651.000,3353.7492,N,09832.0162,W,2,09,1.3,330.1,M,-23.7,M,,0000*63
$GPGSA,A,3,21,22,14,15,27,06,18,09,03,,,,2.3,1.3,1.9*3B
$GPGSV,3,1,11,18,59,043,30,21,56,146,25,22,53,314,21,14,47,232,19*70
$GPGSV,3,2,11,09,38,073,34,06,27,262,18,27,24,050,32,03,21,273,21*77
$GPGSV,3,3,11,15,18,047,34,19,14,311,,51,49,195,35*4C
$GPRMC,161651.000,A,3353.7492,N,09832.0162,W,0.15,69.26,300312,,,D*4A
$GPGGA,161652.000,3353.7493,N,09832.0162,W,2,09,1.3,330.0,M,-23.7,M,,0000*60
$GPGSA,A,3,21,22,14,15,27,06,18,09,03,,,,2.3,1.3,1.9*3B
$GPRMC,161652.000,A,3353.7493,N,09832.0162,W,0.54,135.57,300312,,,D*73
$GPGGA,161653.000,3353.7494,N,09832.0162,W,2,09,1.3,330.0,M,-23.7,M,,0000*66
$GPGSA,A,3,21,22,14,15,27,06,18,09,03,,,,2.3,1.3,1.9*3B
$GPRMC,161653.000,A,3353.7494,N,09832.0162,W,0.44,254.28,300312,,,D*78
$GPGGA,161654.000,3353.7496,N,09832.0169,W,2,09,1.3,329.2,M,-23.7,M,1.8,0000*45
$GPGSA,A,3,21,22,14,15,27,06,18,09,03,,,,2.3,1.3,1.9*3B
$GPRMC,161654.000,A,3353.7496,N,09832.0169,W,0.71,291.62,300312,,,D*77
$GPGGA,161655.000,3353.7499,N,09832.0174,W,2,09,1.3,328.3,M,-23.7,M,2.8,0000*44
$GPGSA,A,3,21,22,14,15,27,06,18,09,03,,,,2.3,1.3,1.9*3B
$GPRMC,161655.000,A,3353.7499,N,09832.0174,W,0.55,295.39,300312,,,D*79
$GPGGA,161656.000,3353.7500,N,09832.0178,W,2,09,1.3,327.8,M,-23.7,M,3.8,0000*4F
$GPGSA,A,3,21,22,14,15,27,06,18,09,03,,,,2.3,1.3,1.9*3B
$GPGSV,3,1,11,18,58,044,29,21,56,146,26,22,53,315,20,14,47,232,19*7D
$GPGSV,3,2,11,09,38,073,35,06,27,262,18,27,24,050,32,03,21,273,21*76
$GPGSV,3,3,11,15,18,047,34,19,14,311,,51,49,195,35*4C
$GPRMC,161656.000,A,3353.7500,N,09832.0178,W,0.33,153.59,300312,,,D*78
$GPGGA,161657.000,3353.7499,N,09832.0176,W,2,09,1.3,327.3,M,-23.7,M,,0000*6F
$GPGSA,A,3,21,22,14,15,27,06,18,09,03,,,,2.3,1.3,1.9*3B
$GPRMC,161657.000,A,3353.7499,N,09832.0176,W,0.43,157.18,300312,,,D*70
$GPGGA,161658.000,3353.7501,N,09832.0179,W,2,09,1.3,327.0,M,-23.7,M,1.8,0000*4B
$GPGSA,A,3,21,22,14,15,27,06,18,09,03,,,,2.3,1.3,1.9*3B
$GPRMC,161658.000,A,3353.7501,N,09832.0179,W,0.20,197.24,300312,,,D*76
$GPGGA,161659.000,3353.7504,N,09832.0182,W,2,09,1.3,327.0,M,-23.7,M,,0000*6C
$GPGSA,A,3,21,22,14,15,27,06,18,09,03,,,,2.2,1.3,1.9*3A
$GPRMC,161659.000,A,3353.7504,N,09832.0182,W,0.39,260.77,300312,,,D*73
$GPGGA,161700.000,3353.7505,N,09832.0186,W,2,09,1.3,326.4,M,-23.7,M,,0000*61
$GPGSA,A,3,21,22,14,15,27,06,18,09,03,,,,2.2,1.3,1.9*3A
$GPRMC,161700.000,A,3353.7505,N,09832.0186,W,0.24,166.58,300312,,,D*7F
$GPGGA,161701.000,3353.7507,N,09832.0188,W,2,09,1.3,326.0,M,-23.7,M,,0000*68
$GPGSA,A,3,21,22,14,15,27,06,18,09,03,,,,2.2,1.3,1.9*3A
$GPGSV,3,1,11,18,58,044,29,21,56,146,27,22,53,315,20,14,47,232,19*7C
$GPGSV,3,2,11,09,38,073,35,06,27,262,17,27,24,050,32,03,21,273,21*79
$GPGSV,3,3,11,15,18,047,33,19,14,311,,51,49,195,35*4B
$GPRMC,161701.000,A,3353.7507,N,09832.0188,W,0.17,103.61,300312,,,D*7B
$GPGGA,161702.000,3353.7509,N,09832.0192,W,2,09,1.3,325.1,M,-23.7,M,1.8,0000*4B
$GPGSA,A,3,21,22,14,15,27,06,18,09,03,,,,2.2,1.3,1.9*3A
$GPRMC,161702.000,A,3353.7509,N,09832.0192,W,0.09,120.55,300312,,,D*74
$GPGGA,161703.000,3353.7511,N,09832.0194,W,2,09,1.3,324.7,M,-23.7,M,,0000*65
$GPGSA,A,3,21,22,14,15,27,06,18,09,03,,,,2.2,1.3,1.9*3A
$GPRMC,161703.000,A,3353.7511,N,09832.0194,W,0.33,122.45,300312,,,D*70
$GPGGA,161704.000,3353.7512,N,09832.0198,W,2,09,1.3,324.0,M,-23.7,M,,0000*6A
$GPGSA,A,3,21,22,14,15,27,06,18,09,03,,,,2.2,1.3,1.9*3A
$GPRMC,161704.000,A,3353.7512,N,09832.0198,W,0.38,164.85,300312,,,D*7D
$GPGGA,161705.000,3353.7512,N,09832.0200,W,2,09,1.3,323.7,M,-23.7,M,,0000*69
$GPGSA,A,3,21,22,14,15,27,06,18,09,03,,,,2.2,1.3,1.9*3A
$GPRMC,161705.000,A,3353.7512,N,09832.0200,W,0.48,151.95,300312,,,D*7E
$GPGGA,161706.000,3353.7513,N,09832.0201,W,2,09,1.3,323.6,M,-23.7,M,1.8,0000*4C
$GPGSA,A,3,21,22,14,15,27,06,18,09,03,,,,2.2,1.3,1.9*3A
$GPGSV,3,1,11,18,58,044,28,21,56,146,29,22,53,315,21,14,47,232,20*78
$GPGSV,3,2,11,09,38,073,35,06,27,262,18,27,24,050,33,03,21,273,21*77
$GPGSV,3,3,11,15,18,047,33,19,14,311,,51,49,195,37*49
$GPRMC,161706.000,A,3353.7513,N,09832.0201,W,0.18,214.95,300312,,,D*7A
$GPGGA,161707.000,3353.7513,N,09832.0201,W,2,09,1.3,323.2,M,-23.7,M,,0000*6E
$GPGSA,A,3,21,22,14,15,27,06,18,09,03,,,,2.2,1.3,1.9*3A
$GPRMC,161707.000,A,3353.7513,N,09832.0201,W,0.34,255.79,300312,,,D*72
$GPGGA,161708.000,3353.7513,N,09832.0202,W,2,09,1.3,323.2,M,-23.7,M,1.8,0000*45
$GPGSA,A,3,21,22,14,15,27,06,18,09,03,,,,2.2,1.3,1.9*3A
$GPRMC,161708.000,A,3353.7513,N,09832.0202,W,0.39,223.71,300312,,,D*7A
$GPGGA,161709.000,3353.7515,N,09832.0202,W,2,09,1.3,323.3,M,-23.7,M,,0000*64
$GPGSA,A,3,21,22,14,15,27,06,18,09,03,,,,2.2,1.3,1.9*3A
$GPRMC,161709.000,A,3353.7515,N,09832.0202,W,0.25,196.85,300312,,,D*76
$GPGGA,161710.000,3353.7516,N,09832.0202,W,2,09,1.3,323.5,M,-23.7,M,,0000*69
$GPGSA,A,3,21,22,14,15,27,06,18,09,03,,,,2.2,1.3,1.9*3A
$GPRMC,161710.000,A,3353.7516,N,09832.0202,W,0.35,155.10,300312,,,D*7F
$GPGGA,161711.000,3353.7517,N,09832.0202,W,2,09,1.3,323.7,M,-23.7,M,,0000*6B
$GPGSA,A,3,21,22,14,15,27,06,18,09,03,,,,2.2,1.3,1.9*3A
$GPGSV,3,1,11,18,58,044,28,21,56,146,30,22,53,315,20,14,47,232,21*70
$GPGSV,3,2,11,09,38,073,36,06,27,262,18,27,24,050,33,03,21,273,21*74
$GPGSV,3,3,11,15,18,047,32,19,14,311,,51,49,195,35*4A
$GPRMC,161711.000,A,3353.7517,N,09832.0202,W,0.39,106.49,300312,,,D*79
$GPGGA,161712.000,3353.7517,N,09832.0202,W,2,09,1.3,323.8,M,-23.7,M,1.8,0000*40
$GPGSA,A,3,21,22,14,15,27,06,18,09,03,,,,2.2,1.3,1.9*3A
$GPRMC,161712.000,A,3353.7517,N,09832.0202,W,0.54,115.88,300312,,,D*7E
$GPGGA,161713.000,3353.7517,N,09832.0202,W,2,09,1.3,323.7,M,-23.7,M,,0000*69
$GPGSA,A,3,21,22,14,15,27,06,18,09,03,,,,2.2,1.3,1.9*3A
$GPRMC,161713.000,A,3353.7517,N,09832.0202,W,0.49,151.33,300312,,,D*73
$GPGGA,161714.000,3353.7518,N,09832.0205,W,2,09,1.3,323.2,M,-23.7,M,,0000*63
$GPGSA,A,3,21,22,14,15,27,06,18,09,03,,,,2.2,1.3,1.9*3A
$GPRMC,161714.000,A,3353.7518,N,09832.0205,W,0.36,162.22,300312,,,D*74
$GPGGA,161715.000,3353.7520,N,09832.0205,W,2,09,1.3,323.5,M,-23.7,M,,0000*6E
$GPGSA,A,3,21,22,14,15,27,06,18,09,03,,,,2.2,1.3,1.9*3A
$GPRMC,161715.000,A,3353.7520,N,09832.0205,W,0.12,235.07,300312,,,D*7E
$GPGGA,161716.000,3353.7522,N,09832.0205,W,2,09,1.3,323.9,M,-23.7,M,,0000*63
$GPGSA,A,3,21,22,14,15,27,06,18,09,03,,,,2.2,1.3,1.9*3A
$GPGSV,3,1,11,18,58,044,28,21,56,146,31,22,53,315,20,14,47,232,22*72
$GPGSV,3,2,11,09,38,073,36,06,27,262,17,27,24,050,33,03,21,273,21*7B
$GPGSV,3,3,11,15,18,047,32,19,14,311,,51,49,195,35*4A
$GPRMC,161716.000,A,3353.7522,N,09832.0205,W,0.43,107.30,300312,,,D*7D
$GPGGA,161717.000,3353.7523,N,09832.0204,W,2,09,1.3,324.3,M,-23.7,M,,0000*6F
$GPGSA,A,3,21,22,14,15,27,06,18,09,03,,,,2.2,1.3,1.9*3A
$GPRMC,161717.000,A,3353.7523,N,09832.0204,W,0.34,117.37,300312,,,D*7A
$GPGGA,161718.000,3353.7526,N,09832.0203,W,2,09,1.3,324.8,M,-23.7,M,1.8,0000*4E
$GPGSA,A,3,21,22,14,15,27,06,18,09,03,,,,2.2,1.3,1.9*3A
$GPRMC,161718.000,A,3353.7526,N,09832.0203,W,0.28,317.34,300312,,,D*7B
$GPGGA,161719.000,3353.7527,N,09832.0202,W,2,09,1.3,325.1,M,-23.7,M,2.8,0000*44
$GPGSA,A,3,21,22,14,15,27,06,18,09,03,,,,2.2,1.3,1.9*3A
$GPRMC,161719.000,A,3353.7527,N,09832.0202,W,0.29,141.77,300312,,,D*7D
$GPGGA,161720.000,3353.7527,N,09832.0201,W,2,09,1.3,325.3,M,-23.7,M,3.8,0000*4E
$GPGSA,A,3,21,22,14,15,27,06,18,09,03,,,,2.2,1.3,1.8*3B
$GPRMC,161720.000,A,3353.7527,N,09832.0201,W,0.34,133.71,300312,,,D*7B
$GPGGA,161721.000,3353.7527,N,09832.0203,W,2,09,1.3,325.3,M,-23.7,M,4.8,0000*4A
$GPGSA,A,3,21,22,14,15,27,06,18,09,03,,,,2.2,1.3,1.8*3B
$GPGSV,3,1,11,18,58,044,29,21,56,146,31,22,53,315,19,14,47,232,23*78
$GPGSV,3,2,11,09,38,073,37,06,27,262,16,27,24,050,32,03,21,273,20*7B
$GPGSV,3,3,11,15,18,047,31,19,14,311,,51,49,195,39*45
$GPRMC,161721.000,A,3353.7527,N,09832.0203,W,0.42,118.34,300312,,,D*71
$GPGGA,161722.000,3353.7527,N,09832.0204,W,2,09,1.3,325.7,M,-23.7,M,,0000*68
$GPGSA,A,3,21,22,14,15,27,06,18,09,03,,,,2.2,1.3,1.8*3B
$GPRMC,161722.000,A,3353.7527,N,09832.0204,W,0.45,122.99,300312,,,D*7C
$GPGGA,161723.000,3353.7526,N,09832.0205,W,2,09,1.3,325.6,M,-23.7,M,,0000*68
$GPGSA,A,3,21,22,14,15,27,06,18,09,03,,,,2.2,1.3,1.8*3B
$GPRMC,161723.000,A,3353.7526,N,09832.0205,W,0.55,138.24,300312,,,D*71
$GPGGA,161724.000,3353.7526,N,09832.0206,W,2,09,1.3,325.6,M,-23.7,M,1.8,0000*4B
$GPGSA,A,3,21,22,14,15,27,06,18,09,03,,,,2.2,1.3,1.8*3B
$GPRMC,161724.000,A,3353.7526,N,09832.0206,W,0.58,118.36,300312,,,D*79
$GPGGA,161725.000,3353.7528,N,09832.0209,W,2,09,1.3,325.1,M,-23.7,M,2.8,0000*4F
$GPGSA,A,3,21,22,14,15,27,06,18,09,03,,,,2.2,1.3,1.8*3B
$GPRMC,161725.000,A,3353.7528,N,09832.0209,W,0.16,172.18,300312,,,D*73
$GPGGA,161726.000,3353.7529,N,09832.0210,W,2,09,1.3,325.4,M,-23.7,M,3.8,0000*41
$GPGSA,A,3,21,22,14,15,27,06,18,09,03,,,,2.2,1.3,1.8*3B
$GPGSV,3,1,11,18,58,044,29,21,56,146,32,22,53,315,18,14,47,232,23*7A
$GPGSV,3,2,11,09,38,073,37,06,27,262,14,27,24,050,32,03,21,273,20*79
$GPGSV,3,3,11,15,18,047,31,19,14,311,,51,49,195,35*49
$GPRMC,161726.000,A,3353.7529,N,09832.0210,W,0.25,289.53,300312,,,D*71
$GPGGA,161727.000,3353.7529,N,09832.0215,W,2,09,1.3,325.4,M,-23.7,M,,0000*60
$GPGSA,A,3,21,22,14,15,27,06,18,09,03,,,,2.2,1.3,1.8*3B
$GPRMC,161727.000,A,3353.7529,N,09832.0215,W,0.28,318.89,300312,,,D*76
$GPGGA,161728.000,3353.7530,N,09832.0218,W,2,09,1.3,325.4,M,-23.7,M,1.8,0000*4D
$GPGSA,A,3,21,22,14,15,27,06,18,09,03,,,,2.2,1.3,1.8*3B
$GPRMC,161728.000,A,3353.7530,N,09832.0218,W,0.44,286.33,300312,,,D*71
$GPGGA,161729.000,3353.7531,N,09832.0220,W,2,09,1.3,325.2,M,-23.7,M,2.8,0000*43
$GPGSA,A,3,21,22,14,15,27,06,18,09,03,,,,2.2,1.3,1.8*3B
$GPRMC,161729.000,A,3353.7531,N,09832.0220,W,0.27,125.86,300312,,,D*7B
$GPGGA,161730.000,3353.7531,N,09832.0223,W,2,09,1.3,325.4,M,-23.7,M,3.8,0000*4F
$GPGSA,A,3,21,22,14,15,27,06,18,09,03,,,,2.2,1.3,1.8*3B
$GPRMC,161730.000,A,3353.7531,N,09832.0223,W,0.21,115.49,300312,,,D*76
$GPGGA,161731.000,3353.7531,N,09832.0226,W,2,08,1.3,325.3,M,-23.7,M,4.8,0000*4A
$GPGSA,A,3,21,22,14,15,27,18,09,03,,,,,2.3,1.3,1.9*3D
$GPGSV,3,1,11,18,58,044,29,21,56,146,32,22,53,315,19,14,47,232,24*7C
$GPGSV,3,2,11,09,38,073,37,06,27,262,,27,24,050,31,03,21,273,21*7E
$GPGSV,3,3,11,15,18,047,30,19,14,311,,51,49,195,35*48
$GPRMC,161731.000,A,3353.7531,N,09832.0226,W,0.23,105.88,300312,,,D*7C
$GPGGA,161732.000,3353.7532,N,09832.0225,W,2,08,1.3,325.6,M,-23.7,M,5.8,0000*4D
$GPGSA,A,3,21,22,14,15,27,18,09,03,,,,,2.3,1.3,1.9*3D
$GPRMC,161732.000,A,3353.7532,N,09832.0225,W,0.44,112.91,300312,,,D*70
$GPGGA,161733.000,3353.7531,N,09832.0227,W,2,08,1.3,325.5,M,-23.7,M,,0000*6D
$GPGSA,A,3,21,22,14,15,27,18,09,03,,,,,2.3,1.3,1.9*3D
$GPRMC,161733.000,A,3353.7531,N,09832.0227,W,0.14,18.74,300312,,,D*45
$GPGGA,161734.000,3353.7530,N,09832.0232,W,2,08,1.3,324.9,M,-23.7,M,,0000*62
$GPGSA,A,3,21,22,14,15,27,18,09,03,,,,,2.3,1.3,1.9*3D
$GPRMC,161734.000,A,3353.7530,N,09832.0232,W,0.28,238.00,300312,,,D*7B
$GPGGA,161735.000,3353.7530,N,09832.0235,W,2,08,1.3,324.7,M,-23.7,M,,0000*6A
$GPGSA,A,3,21,22,14,15,27,18,09,03,,,,,2.3,1.3,1.9*3D
$GPRMC,161735.000,A,3353.7530,N,09832.0235,W,0.06,178.56,300312,,,D*75
$GPGGA,161736.000,3353.7530,N,09832.0240,W,2,08,1.3,324.4,M,-23.7,M,1.8,0000*4F
$GPGSA,A,3,21,22,14,15,27,18,09,03,,,,,2.3,1.3,1.9*3D
$GPGSV,3,1,11,18,58,044,30,21,56,146,32,22,53,315,21,14,47,232,24*7F
$GPGSV,3,2,11,09,38,073,36,06,27,262,,27,24,050,31,03,21,273,21*7F
$GPGSV,3,3,11,15,18,047,30,19,14,311,,51,49,195,35*48
$GPRMC,161736.000,A,3353.7530,N,09832.0240,W,0.06,116.12,300312,,,D*7C
$GPGGA,161737.000,3353.7530,N,09832.0244,W,2,08,1.3,323.9,M,-23.7,M,2.8,0000*43
$GPGSA,A,3,21,22,14,15,27,18,09,03,,,,,2.3,1.3,1.9*3D
$GPRMC,161737.000,A,3353.7530,N,09832.0244,W,0.17,99.64,300312,,,D*4E
$GPGGA,161738.000,3353.7529,N,09832.0247,W,2,08,1.3,323.5,M,-23.7,M,,0000*6F
$GPGSA,A,3,21,22,14,15,27,18,09,03,,,,,2.3,1.3,1.9*3D
$GPRMC,161738.000,A,3353.7529,N,09832.0247,W,0.36,131.19,300312,,,D*70
$GPGGA,161739.000,3353.7530,N,09832.0246,W,2,08,1.3,323.6,M,-23.7,M,,0000*64
$GPGSA,A,3,21,22,14,15,27,18,09,03,,,,,2.3,1.3,1.9*3D
$GPRMC,161739.000,A,3353.7530,N,09832.0246,W,0.07,30.96,300312,,,D*4D
$GPGGA,161740.000,3353.7529,N,09832.0251,W,2,08,1.3,323.1,M,-23.7,M,,0000*63
$GPGSA,A,3,21,22,14,15,27,18,09,03,,,,,2.3,1.3,1.9*3D
$GPRMC,161740.000,A,3353.7529,N,09832.0251,W,0.42,216.69,300312,,,D*7A
$GPGGA,161741.000,3353.7529,N,09832.0255,W,2,08,1.3,322.7,M,-23.7,M,,0000*61
$GPGSA,A,3,21,22,14,15,27,18,09,03,,,,,2.3,1.3,1.9*3D
$GPGSV,3,1,11,18,58,044,29,21,56,146,32,22,53,315,22,14,47,232,24*74
$GPGSV,3,2,11,09,38,073,36,06,27,262,,27,24,050,30,03,21,273,23*7C
$GPGSV,3,3,11,15,18,047,30,19,14,311,,51,49,195,34*49
$GPRMC,161741.000,A,3353.7529,N,09832.0255,W,0.29,196.31,300312,,,D*74
$GPGGA,161742.000,3353.7528,N,09832.0261,W,2,08,1.3,322.2,M,-23.7,M,1.8,0000*46
$GPGSA,A,3,21,22,14,15,27,18,09,03,,,,,2.3,1.3,1.9*3D
$GPRMC,161742.000,A,3353.7528,N,09832.0261,W,0.14,262.30,300312,,,D*76
$GPGGA,161743.000,3353.7529,N,09832.0264,W,2,08,1.3,321.9,M,-23.7,M,2.8,0000*48
$GPGSA,A,3,21,22,14,15,27,18,09,03,,,,,2.3,1.3,1.9*3D
$GPRMC,161743.000,A,3353.7529,N,09832.0264,W,0.16,155.94,300312,,,D*78
$GPGGA,161744.000,3353.7529,N,09832.0264,W,2,08,1.3,321.8,M,-23.7,M,,0000*6A
$GPGSA,A,3,21,22,14,15,27,18,09,03,,,,,2.3,1.3,1.9*3D
$GPRMC,161744.000,A,3353.7529,N,09832.0264,W,0.39,151.13,300312,,,D*79
$GPGGA,161745.000,3353.7530,N,09832.0265,W,2,08,1.3,321.5,M,-23.7,M,,0000*6F
$GPGSA,A,3,21,22,14,15,27,18,09,03,,,,,2.3,1.3,1.9*3D
$GPRMC,161745.000,A,3353.7530,N,09832.0265,W,0.13,140.93,300312,,,D*71
$GPGGA,161746.000,3353.7531,N,09832.0267,W,2,08,1.3,321.3,M,-23.7,M,,0000*69
$GPGSA,A,3,21,22,14,15,27,18,09,03,,,,,2.3,1.3,1.9*3D
$GPGSV,3,1,11,18,58,045,29,21,55,146,32,22,53,315,23,14,48,233,24*79
$GPGSV,3,2,11,09,38,072,37,06,27,262,,27,24,050,29,03,21,273,24*73
$GPGSV,3,3,11,15,17,047,30,19,15,310,,51,49,195,35*47
$GPRMC,161746.000,A,3353.7531,N,09832.0267,W,0.30,244.99,300312,,,D*7D
$GPGGA,161747.000,3353.7532,N,09832.0268,W,2,08,1.3,321.2,M,-23.7,M,,0000*65
$GPGSA,A,3,21,22,14,15,27,18,09,03,,,,,2.3,1.3,1.9*3D
$GPRMC,161747.000,A,3353.7532,N,09832.0268,W,0.05,151.60,300312,,,D*77
$GPGGA,161748.000,3353.7532,N,09832.0269,W,2,08,1.3,320.9,M,-23.7,M,,0000*61
$GPGSA,A,3,21,22,14,15,27,18,09,03,,,,,2.3,1.3,1.9*3D
$GPRMC,161748.000,A,3353.7532,N,09832.0269,W,0.24,204.43,300312,,,D*78
$GPGGA,161749.000,3353.7533,N,09832.0270,W,2,08,1.3,320.9,M,-23.7,M,1.8,0000*4E
$GPGSA,A,3,21,22,14,15,27,18,09,03,,,,,2.3,1.3,1.9*3D
$GPRMC,161749.000,A,3353.7533,N,09832.0270,W,0.14,178.78,300312,,,D*73
$GPGGA,161750.000,3353.7534,N,09832.0271,W,2,08,1.3,320.9,M,-23.7,M,2.8,0000*43
$GPGSA,A,3,21,22,14,15,27,18,09,03,,,,,2.3,1.3,1.9*3D
$GPRMC,161750.000,A,3353.7534,N,09832.0271,W,0.12,138.69,300312,,,D*7F
$GPGGA,161751.000,3353.7535,N,09832.0273,W,2,08,1.3,321.0,M,-23.7,M,,0000*6D
$GPGSA,A,3,21,22,14,15,27,18,09,03,,,,,2.3,1.3,1.9*3D
$GPGSV,3,1,11,18,58,045,29,21,55,146,32,22,53,315,23,14,48,233,25*78
$GPGSV,3,2,11,09,38,072,37,06,27,262,,27,24,050,28,03,21,273,24*72
$GPGSV,3,3,11,15,17,047,29,19,15,310,,51,49,195,35*4F
$GPRMC,161751.000,A,3353.7535,N,09832.0273,W,0.33,290.72,300312,,,D*75
$GPGGA,161752.000,3353.7536,N,09832.0274,W,2,08,1.3,321.0,M,-23.7,M,,0000*6A
$GPGSA,A,3,21,22,14,15,27,18,09,03,,,,,2.3,1.3,1.9*3D
$GPRMC,161752.000,A,3353.7536,N,09832.0274,W,0.14,136.77,300312,,,D*7D
$GPGGA,161753.000,3353.7537,N,09832.0275,W,2,08,1.3,321.1,M,-23.7,M,,0000*6A
$GPGSA,A,3,21,22,14,15,27,18,09,03,,,,,2.3,1.3,1.9*3D
$GPRMC,161753.000,A,3353.7537,N,09832.0275,W,0.06,155.11,300312,,,D*7A
$GPGGA,161754.000,3353.7537,N,09832.0276,W,2,08,1.3,321.1,M,-23.7,M,1.8,0000*49
$GPGSA,A,3,21,22,14,15,27,18,09,03,,,,,2.3,1.3,1.9*3D
$GPRMC,161754.000,A,3353.7537,N,09832.0276,W,0.17,151.25,300312,,,D*7D
$GPGGA,161755.000,3353.7538,N,09832.0278,W,2,08,1.3,321.2,M,-23.7,M,2.8,0000*49
$GPGSA,A,3,21,22,14,15,27,18,09,03,,,,,2.3,1.3,1.9*3D
$GPRMC,161755.000,A,3353.7538,N,09832.0278,W,0.04,256.51,300312,,,D*78
$GPGGA,161756.000,3353.7539,N,09832.0279,W,2,08,1.3,321.4,M,-23.7,M,3.8,0000*4D
$GPGSA,A,3,21,22,14,15,27,18,09,03,,,,,2.3,1.3,1.9*3D
$GPGSV,3,1,11,18,58,045,29,21,55,146,31,22,53,315,23,14,48,233,25*7B
$GPGSV,3,2,11,09,38,072,37,06,27,262,,27,24,050,28,03,21,273,24*72
$GPGSV,3,3,11,15,17,047,28,19,15,310,,51,49,195,41*4D
$GPRMC,161756.000,A,3353.7539,N,09832.0279,W,0.13,320.55,300312,,,D*79
$GPGGA,161757.000,3353.7540,N,09832.0278,W,2,08,1.3,321.5,M,-23.7,M,,0000*67
$GPGSA,A,3,21,22,14,15,27,18,09,03,,,,,2.3,1.3,1.9*3D
$GPRMC,161757.000,A,3353.7540,N,09832.0278,W,0.15,141.06,300312,,,D*72
$GPGGA,161758.000,3353.7540,N,09832.0281,W,2,08,1.3,321.1,M,-23.7,M,1.8,0000*4D
$GPGSA,A,3,21,22,14,15,27,18,09,03,,,,,2.3,1.3,1.9*3D
$GPRMC,161758.000,A,3353.7540,N,09832.0281,W,0.16,188.42,300312,,,D*7D
$GPGGA,161759.000,3353.7540,N,09832.0282,W,2,08,1.3,320.8,M,-23.7,M,,0000*60
$GPGSA,A,3,21,22,14,15,27,18,09,03,,,,,2.3,1.3,1.9*3D
$GPRMC,161759.000,A,3353.7540,N,09832.0282,W,0.15,186.35,300312,,,D*72
$GPGGA,161800.000,3353.7541,N,09832.0281,W,2,08,1.3,321.0,M,-23.7,M,1.8,0000*4F
$GPGSA,A,3,21,22,14,15,27,18,09,03,,,,,2.3,1.3,1.9*3D
$GPRMC,161800.000,A,3353.7541,N,09832.0281,W,0.19,118.15,300312,,,D*7A
$GPGGA,161801.000,3353.7541,N,09832.0282,W,2,08,1.3,320.9,M,-23.7,M,,0000*62
$GPGSA,A,3,21,22,14,15,27,18,09,03,,,,,2.3,1.3,1.9*3D
$GPGSV,3,1,11,18,58,045,30,21,55,146,31,22,53,315,23,14,48,233,26*70
$GPGSV,3,2,11,09,38,072,36,06,27,262,,27,24,050,28,03,21,273,25*72
$GPGSV,3,3,11,15,17,047,28,19,15,310,,51,49,195,35*4E
$GPRMC,161801.000,A,3353.7541,N,09832.0282,W,0.17,139.53,300312,,,D*77
$GPGGA,161802.000,3353.7541,N,09832.0282,W,2,08,1.3,320.8,M,-23.7,M,1.8,0000*47
$GPGSA,A,3,21,22,14,15,27,18,09,03,,,,,2.3,1.3,1.9*3D
$GPRMC,161802.000,A,3353.7541,N,09832.0282,W,0.17,141.92,300312,,,D*76
$GPGGA,161803.000,3353.7542,N,09832.0281,W,2,08,1.3,321.0,M,-23.7,M,,0000*68
$GPGSA,A,3,21,22,14,15,27,18,09,03,,,,,2.3,1.3,1.9*3D
$GPRMC,161803.000,A,3353.7542,N,09832.0281,W,0.14,135.01,300312,,,D*7D
$GPGGA,161804.000,3353.7543,N,09832.0280,W,2,08,1.3,321.2,M,-23.7,M,1.8,0000*4A
$GPGSA,A,3,21,22,14,15,27,18,09,03,,,,,2.3,1.3,1.9*3D
$GPRMC,161804.000,A,3353.7543,N,09832.0280,W,0.07,134.75,300312,,,D*7A
$GPGGA,161805.000,3353.7544,N,09832.0280,W,2,08,1.3,321.5,M,-23.7,M,,0000*6C
$GPGSA,A,3,21,22,14,15,27,18,09,03,,,,,2.3,1.3,1.9*3D
$GPRMC,161805.000,A,3353.7544,N,09832.0280,W,0.17,98.01,300312,,,D*49
$GPGGA,161806.000,3353.7545,N,09832.0279,W,2,08,1.3,321.7,M,-23.7,M,,0000*6A
$GPGSA,A,3,21,22,14,15,27,18,09,03,,,,,2.3,1.3,1.9*3D
$GPGSV,3,1,11,18,58,045,30,21,55,146,32,22,53,315,23,14,48,233,27*72
$GPGSV,3,2,11,09,38,072,36,06,27,262,,27,24,050,28,03,21,273,25*72
$GPGSV,3,3,11,15,17,047,28,19,15,310,,51,49,195,35*4E
$GPRMC,161806.000,A,3353.7545,N,09832.0279,W,0.07,124.19,300312,,,D*73
$GPGGA,161807.000,3353.7545,N,09832.0278,W,2,08,1.3,321.9,M,-23.7,M,1.8,0000*43
$GPGSA,A,3,21,22,14,15,27,18,09,03,,,,,2.3,1.3,1.9*3D
$GPRMC,161807.000,A,3353.7545,N,09832.0278,W,0.23,132.31,300312,,,D*78
$GPGGA,161808.000,3353.7545,N,09832.0277,W,2,08,1.3,322.0,M,-23.7,M,2.8,0000*4A
$GPGSA,A,3,21,22,14,15,27,18,09,03,,,,,2.3,1.3,1.9*3D
$GPRMC,161808.000,A,3353.7545,N,09832.0277,W,0.34,134.80,300312,,,D*72
$GPGGA,161809.000,3353.7546,N,09832.0276,W,2,08,1.3,321.9,M,-23.7,M,,0000*67
$GPGSA,A,3,21,22,14,15,27,18,09,03,,,,,2.3,1.3,1.9*3D
$GPRMC,161809.000,A,3353.7546,N,09832.0276,W,0.31,134.03,300312,,,D*7F
$GPGGA,161810.000,3353.7546,N,09832.0276,W,2,08,1.3,322.0,M,-23.7,M,,0000*65
$GPGSA,A,3,21,22,14,15,27,18,09,03,,,,,2.3,1.3,1.9*3D
$GPRMC,161810.000,A,3353.7546,N,09832.0276,W,0.10,320.27,300312,,,D*75
$GPGGA,161811.000,3353.7547,N,09832.0276,W,2,08,1.3,322.0,M,-23.7,M,,0000*65
$GPGSA,A,3,21,22,14,15,27,18,09,03,,,,,2.3,1.3,1.9*3D
$GPGSV,3,1,11,18,58,045,30,21,55,147,32,22,53,315,18,14,48,233,28*74
$GPGSV,3,2,11,09,38,072,36,06,26,261,,27,24,050,28,03,21,272,25*71
$GPGSV,3,3,11,15,17,047,28,19,15,310,,51,49,195,35*4E
$GPRMC,161811.000,A,3353.7547,N,09832.0276,W,0.09,120.40,300312,,,D*7E
$GPGGA,161812.000,3353.7548,N,09832.0275,W,2,08,1.3,322.0,M,-23.7,M,,0000*6A
$GPGSA,A,3,21,22,14,15,27,18,09,03,,,,,2.3,1.3,1.9*3D
$GPRMC,161812.000,A,3353.7548,N,09832.0275,W,0.14,326.57,300312,,,D*7F
$GPGGA,161813.000,3353.7549,N,09832.0276,W,2,08,1.3,321.9,M,-23.7,M,1.8,0000*44
$GPGSA,A,3,21,22,14,15,27,18,09,03,,,,,2.3,1.3,1.9*3D
$GPRMC,161813.000,A,3353.7549,N,09832.0276,W,0.26,332.38,300312,,,D*71
$GPGGA,161814.000,3353.7550,N,09832.0276,W,2,08,1.3,321.8,M,-23.7,M,2.8,0000*49
$GPGSA,A,3,21,22,14,15,27,18,09,03,,,,,2.3,1.3,1.9*3D
$GPRMC,161814.000,A,3353.7550,N,09832.0276,W,0.03,52.43,300312,,,D*40
$GPGGA,161815.000,3353.7550,N,09832.0276,W,2,08,1.3,321.5,M,-23.7,M,,0000*61
$GPGSA,A,3,21,22,14,15,27,18,09,03,,,,,2.3,1.3,1.9*3D
$GPRMC,161815.000,A,3353.7550,N,09832.0276,W,0.27,135.45,300312,,,D*71
$GPGGA,161816.000,3353.7550,N,09832.0276,W,2,08,1.3,321.3,M,-23.7,M,,0000*64
$GPGSA,A,3,21,22,14,15,27,18,09,03,,,,,2.3,1.3,1.9*3D
$GPGSV,3,1,11,18,58,045,31,21,55,147,31,22,53,315,19,14,48,233,29*76
$GPGSV,3,2,11,09,38,072,37,06,26,261,,27,24,050,28,03,21,272,26*73
$GPGSV,3,3,11,15,17,047,28,19,15,310,,51,49,195,35*4E
$GPRMC,161816.000,A,3353.7550,N,09832.0276,W,0.25,135.94,300312,,,D*7C
$GPGGA,161817.000,3353.7550,N,09832.0275,W,2,08,1.3,320.9,M,-23.7,M,,0000*6D
$GPGSA,A,3,21,22,14,15,27,18,09,03,,,,,2.3,1.3,1.9*3D
$GPRMC,161817.000,A,3353.7550,N,09832.0275,W,0.39,137.78,300312,,,D*73
$GPGGA,161818.000,3353.7550,N,09832.0274,W,2,08,1.3,320.5,M,-23.7,M,,0000*6F
$GPGSA,A,3,21,22,14,15,27,18,09,03,,,,,2.3,1.3,1.9*3D
$GPRMC,161818.000,A,3353.7550,N,09832.0274,W,0.38,140.99,300312,,,D*73
$GPGGA,161819.000,3353.7549,N,09832.0274,W,2,08,1.3,320.2,M,-23.7,M,1.8,0000*46
$GPGSA,A,3,21,22,14,15,27,18,09,03,,,,,2.3,1.3,1.9*3D
$GPRMC,161819.000,A,3353.7549,N,09832.0274,W,0.42,140.65,300312,,,D*74
$GPGGA,161820.000,3353.7550,N,09832.0274,W,2,08,1.3,320.0,M,-23.7,M,2.8,0000*45
$GPGSA,A,3,21,22,14,15,27,18,09,03,,,,,2.3,1.3,1.9*3D
$GPRMC,161820.000,A,3353.7550,N,09832.0274,W,0.08,145.61,300312,,,D*79
$GPGGA,161821.000,3353.7551,N,09832.0274,W,2,08,1.3,319.8,M,-23.7,M,,0000*63
$GPGSA,A,3,21,22,14,15,27,18,09,03,,,,,2.3,1.3,1.9*3D
$GPGSV,3,1,11,18,58,045,31,21,55,147,31,22,53,315,19,14,48,233,29*76
$GPGSV,3,2,11,09,38,072,37,06,26,261,,27,24,050,28,03,21,272,26*73
$GPGSV,3,3,11,15,17,047,29,19,15,310,,51,49,195,35*4F
$GPRMC,161821.000,A,3353.7551,N,09832.0274,W,0.07,321.27,300312,,,D*74
$GPGGA,161822.000,3353.7552,N,09832.0275,W,2,08,1.3,319.7,M,-23.7,M,1.8,0000*4A
$GPGSA,A,3,21,22,14,15,27,18,09,03,,,,,2.3,1.3,1.9*3D
$GPRMC,161822.000,A,3353.7552,N,09832.0275,W,0.20,326.80,300312,,,D*7A
$GPGGA,161823.000,3353.7553,N,09832.0276,W,2,09,1.3,319.4,M,-23.7,M,2.8,0000*48
$GPGSA,A,3,21,22,14,15,27,06,18,09,03,,,,2.2,1.3,1.8*3B
$GPRMC,161823.000,A,3353.7553,N,09832.0276,W,0.19,316.32,300312,,,D*79
$GPGGA,161824.000,3353.7553,N,09832.0276,W,2,09,1.3,319.0,M,-23.7,M,,0000*6F
$GPGSA,A,3,21,22,14,15,27,06,18,09,03,,,,2.2,1.3,1.8*3B
$GPRMC,161824.000,A,3353.7553,N,09832.0276,W,0.13,182.53,300312,,,D*7C
$GPGGA,161825.000,3353.7554,N,09832.0276,W,2,09,1.3,318.4,M,-23.7,M,1.8,0000*4B
$GPGSA,A,3,21,22,14,15,27,06,18,09,03,,,,2.2,1.3,1.8*3B
$GPRMC,161825.000,A,3353.7554,N,09832.0276,W,0.14,235.78,300312,,,D*7B
$GPGGA,161826.000,3353.7554,N,09832.0277,W,2,09,1.3,318.1,M,-23.7,M,2.8,0000*4F
$GPGSA,A,3,21,22,14,15,27,06,18,09,03,,,,2.2,1.3,1.8*3B
$GPGSV,3,1,11,18,58,045,31,21,55,147,31,22,53,315,19,14,48,233,30*7E
$GPGSV,3,2,11,09,38,072,37,06,26,261,19,27,24,050,29,03,21,272,26*7A
$GPGSV,3,3,11,15,17,047,29,19,15,310,,51,49,195,35*4F
$GPRMC,161826.000,A,3353.7554,N,09832.0277,W,0.22,134.99,300312,,,D*71
$GPGGA,161827.000,3353.7554,N,09832.0276,W,2,09,1.3,317.7,M,-23.7,M,,0000*62
$GPGSA,A,3,21,22,14,15,27,06,18,09,03,,,,2.2,1.3,1.8*3B
$GPRMC,161827.000,A,3353.7554,N,09832.0276,W,0.40,148.93,300312,,,D*74
$GPGGA,161828.000,3353.7554,N,09832.0276,W,2,09,1.3,317.6,M,-23.7,M,,0000*6C
$GPGSA,A,3,21,22,14,15,27,06,18,09,03,,,,2.2,1.3,1.8*3B
$GPRMC,161828.000,A,3353.7554,N,09832.0276,W,0.13,206.79,300312,,,D*70
$GPGGA,161829.000,3353.7555,N,09832.0277,W,2,09,1.3,317.4,M,-23.7,M,,0000*6F
$GPGSA,A,3,21,22,14,15,27,06,18,09,03,,,,2.2,1.3,1.8*3B
$GPRMC,161829.000,A,3353.7555,N,09832.0277,W,0.18,281.49,300312,,,D*76
$GPGGA,161830.000,3353.7556,N,09832.0277,W,2,09,1.3,317.3,M,-23.7,M,1.8,0000*44
$GPGSA,A,3,21,22,14,15,27,06,18,09,03,,,,2.2,1.3,1.8*3B
$GPRMC,161830.000,A,3353.7556,N,09832.0277,W,0.12,163.30,300312,,,D*76
$GPGGA,161831.000,3353.7556,N,09832.0277,W,2,09,1.3,317.2,M,-23.7,M,2.8,0000*47
$GPGSA,A,3,21,22,14,15,27,06,18,09,03,,,,2.2,1.3,1.8*3B
$GPGSV,3,1,11,18,58,045,31,21,55,147,31,22,53,315,20,14,48,233,31*75
$GPGSV,3,2,11,09,38,072,37,06,26,261,18,27,24,050,28,03,21,272,26*7A
$GPGSV,3,3,11,15,17,047,30,19,15,310,,51,49,195,35*47
$GPRMC,161831.000,A,3353.7556,N,09832.0277,W,0.10,133.03,300312,,,D*70
$GPGGA,161832.000,3353.7557,N,09832.0277,W,2,09,1.3,317.2,M,-23.7,M,3.8,0000*44
$GPGSA,A,3,21,22,14,15,27,06,18,09,03,,,,2.2,1.3,1.8*3B
$GPRMC,161832.000,A,3353.7557,N,09832.0277,W,0.08,80.97,300312,,,D*4F
$GPGGA,161833.000,3353.7558,N,09832.0277,W,2,09,1.3,317.0,M,-23.7,M,,0000*6D
$GPGSA,A,3,21,22,14,15,27,06,18,09,03,,,,2.2,1.3,1.8*3B
$GPRMC,161833.000,A,3353.7558,N,09832.0277,W,0.09,115.20,300312,,,D*71
$GPGGA,161834.000,3353.7558,N,09832.0277,W,2,09,1.3,316.7,M,-23.7,M,,0000*6C
$GPGSA,A,3,21,22,14,15,27,06,18,09,03,,,,2.2,1.3,1.8*3B
$GPRMC,161834.000,A,3353.7558,N,09832.0277,W,0.23,136.24,300312,,,D*7B
$GPGGA,161835.000,3353.7558,N,09832.0277,W,2,09,1.3,316.4,M,-23.7,M,,0000*6E
$GPGSA,A,3,21,22,14,15,27,06,18,09,03,,,,2.2,1.3,1.8*3B
$GPRMC,161835.000,A,3353.7558,N,09832.0277,W,0.12,179.39,300312,,,D*7F
$GPGGA,161836.000,3353.7558,N,09832.0277,W,2,09,1.3,316.0,M,-23.7,M,,0000*69
$GPGSA,A,3,21,22,14,15,27,06,18,09,03,,,,2.2,1.3,1.8*3B
$GPGSV,3,1,11,18,58,045,32,21,55,147,30,22,53,316,21,14,48,233,31*75
$GPGSV,3,2,11,09,38,072,37,06,26,261,19,27,24,049,28,03,21,272,26*73
$GPGSV,3,3,11,15,17,047,29,19,15,310,,51,49,195,35*4F
$GPRMC,161836.000,A,3353.7558,N,09832.0277,W,0.25,143.57,300312,,,D*79
$GPGGA,161837.000,3353.7558,N,09832.0277,W,2,09,1.3,315.5,M,-23.7,M,1.8,0000*49
$GPGSA,A,3,21,22,14,15,27,06,18,09,03,,,,2.2,1.3,1.8*3B
$GPRMC,161837.000,A,3353.7558,N,09832.0277,W,0.32,154.77,300312,,,D*7A
$GPGGA,161838.000,3353.7559,N,09832.0277,W,2,09,1.3,315.3,M,-23.7,M,2.8,0000*42
$GPGSA,A,3,21,22,14,15,27,06,18,09,03,,,,2.2,1.3,1.8*3B
$GPRMC,161838.000,A,3353.7559,N,09832.0277,W,0.16,286.16,300312,,,D*79
$GPGGA,161839.000,3353.7560,N,09832.0278,W,2,09,1.3,315.2,M,-23.7,M,,0000*63
$GPGSA,A,3,21,22,14,15,27,06,18,09,03,,,,2.2,1.3,1.8*3B
$GPRMC,161839.000,A,3353.7560,N,09832.0278,W,0.18,289.45,300312,,,D*7A
$GPGGA,161840.000,3353.7561,N,09832.0279,W,2,09,1.3,315.2,M,-23.7,M,,0000*6D
$GPGSA,A,3,21,22,14,15,27,06,18,09,03,,,,2.2,1.3,1.8*3B
$GPRMC,161840.000,A,3353.7561,N,09832.0279,W,0.07,358.73,300312,,,D*72
$GPGGA,161841.000,3353.7561,N,09832.0279,W,2,09,1.3,315.3,M,-23.7,M,,0000*6D
$GPGSA,A,3,21,22,14,15,27,06,18,09,03,,,,2.2,1.3,1.8*3B
$GPGSV,3,1,11,18,58,045,32,21,55,147,30,22,53,316,20,14,48,233,31*74
$GPGSV,3,2,11,09,38,071,37,06,26,261,19,27,24,049,27,03,21,272,26*7F
$GPGSV,3,3,11,15,17,047,29,19,15,310,,51,49,195,34*4E
$GPRMC,161841.000,A,3353.7561,N,09832.0279,W,0.07,29.72,300312,,,D*47
$GPGGA,161842.000,3353.7562,N,09832.0279,W,2,09,1.3,315.3,M,-23.7,M,,0000*6D
$GPGSA,A,3,21,22,14,15,27,06,18,09,03,,,,2.2,1.3,1.8*3B
$GPRMC,161842.000,A,3353.7562,N,09832.0279,W,0.05,141.83,300312,,,D*74
$GPGGA,161843.000,3353.7562,N,09832.0279,W,2,09,1.3,315.0,M,-23.7,M,1.8,0000*48
$GPGSA,A,3,21,22,14,15,27,06,18,09,03,,,,2.2,1.3,1.8*3B
$GPRMC,161843.000,A,3353.7562,N,09832.0279,W,0.20,172.24,300312,,,D*7F
$GPGGA,161844.000,3353.7562,N,09832.0278,W,2,09,1.3,314.9,M,-23.7,M,2.8,0000*45
$GPGSA,A,3,21,22,14,15,27,06,18,09,03,,,,2.2,1.3,1.8*3B
$GPRMC,161844.000,A,3353.7562,N,09832.0278,W,0.40,136.67,300312,,,D*78
$GPGGA,161845.000,3353.7561,N,09832.0278,W,2,09,1.3,314.7,M,-23.7,M,,0000*6D
$GPGSA,A,3,21,22,14,15,27,06,18,09,03,,,,2.2,1.3,1.8*3B
$GPRMC,161845.000,A,3353.7561,N,09832.0278,W,0.47,135.04,300312,,,D*7B
$GPGGA,161846.000,3353.7562,N,09832.0278,W,2,09,1.3,314.7,M,-23.7,M,,0000*6D
$GPGSA,A,3,21,22,14,15,27,06,18,09,03,,,,2.2,1.3,1.8*3B
$GPGSV,3,1,11,18,58,045,33,21,55,147,30,22,53,316,20,14,48,233,31*75
$GPGSV,3,2,11,09,38,071,37,06,26,261,18,27,24,049,27,03,21,272,27*7F
$GPGSV,3,3,11,15,17,047,29,19,15,310,,51,49,195,35*4F
$GPRMC,161846.000,A,3353.7562,N,09832.0278,W,0.17,113.53,300312,,,D*78
$GPGGA,161847.000,3353.7562,N,09832.0278,W,2,08,1.3,314.7,M,-23.7,M,,0000*6D
$GPGSA,A,3,21,22,14,15,27,18,09,03,,,,,2.3,1.3,1.9*3D
$GPRMC,161847.000,A,3353.7562,N,09832.0278,W,0.10,329.66,300312,,,D*73
$GPGGA,161848.000,3353.7563,N,09832.0278,W,2,08,1.3,314.7,M,-23.7,M,1.8,0000*44
$GPGSA,A,3,21,22,14,15,27,18,09,03,,,,,2.3,1.3,1.9*3D
$GPRMC,161848.000,A,3353.7563,N,09832.0278,W,0.14,333.87,300312,,,D*7D
$GPGGA,161849.000,3353.7564,N,09832.0279,W,2,09,1.3,314.5,M,-23.7,M,,0000*67
$GPGSA,A,3,21,22,14,15,27,06,18,09,03,,,,2.2,1.3,1.8*3B
$GPRMC,161849.000,A,3353.7564,N,09832.0279,W,0.06,225.98,300312,,,D*71
$GPGGA,161850.000,3353.7564,N,09832.0279,W,2,09,1.3,314.4,M,-23.7,M,1.8,0000*49
$GPGSA,A,3,21,22,14,15,27,06,18,09,03,,,,2.2,1.3,1.8*3B
$GPRMC,161850.000,A,3353.7564,N,09832.0279,W,0.14,292.08,300312,,,D*7F
$GPGGA,161851.000,3353.7564,N,09832.0280,W,2,09,1.3,314.3,M,-23.7,M,,0000*6E
$GPGSA,A,3,21,22,14,15,27,06,18,09,03,,,,2.2,1.3,1.8*3B
$GPGSV,3,1,11,18,58,045,33,21,55,147,30,22,53,316,20,14,48,233,31*75
$GPGSV,3,2,11,09,38,071,37,06,26,261,13,27,24,049,28,03,21,272,27*7B
$GPGSV,3,3,11,15,17,047,28,19,15,310,,51,49,195,35*4E
$GPRMC,161851.000,A,3353.7564,N,09832.0280,W,0.06,292.42,300312,,,D*75
$GPGGA,161852.000,3353.7564,N,09832.0280,W,2,09,1.3,314.1,M,-23.7,M,,0000*6F
$GPGSA,A,3,21,22,14,15,27,06,18,09,03,,,,2.2,1.3,1.8*3B
$GPRMC,161852.000,A,3353.7564,N,09832.0280,W,0.08,153.08,300312,,,D*78
$GPGGA,161853.000,3353.7564,N,09832.0280,W,2,09,1.3,314.0,M,-23.7,M,,0000*6F
$GPGSA,A,3,21,22,14,15,27,06,18,09,03,,,,2.2,1.3,1.8*3B
$GPRMC,161853.000,A,3353.7564,N,09832.0280,W,0.05,259.90,300312,,,D*7C
$GPGGA,161854.000,3353.7565,N,09832.0280,W,2,09,1.3,314.0,M,-23.7,M,1.8,0000*4E
$GPGSA,A,3,21,22,14,15,27,06,18,09,03,,,,2.2,1.3,1.8*3B
$GPRMC,161854.000,A,3353.7565,N,09832.0280,W,0.28,312.79,300312,,,D*7C
$GPGGA,161855.000,3353.7566,N,09832.0281,W,2,09,1.3,314.0,M,-23.7,M,2.8,0000*4E
$GPGSA,A,3,21,22,14,15,27,06,18,09,03,,,,2.2,1.3,1.8*3B
$GPRMC,161855.000,A,3353.7566,N,09832.0281,W,0.20,302.48,300312,,,D*74
$GPGGA,161856.000,3353.7565,N,09832.0281,W,2,09,1.3,313.7,M,-23.7,M,3.8,0000*4F
$GPGSA,A,3,21,22,14,15,27,06,18,09,03,,,,2.2,1.3,1.8*3B
$GPGSV,3,1,11,18,58,045,33,21,55,147,30,22,53,316,21,14,48,233,31*74
$GPGSV,3,2,11,09,38,071,38,06,26,261,13,27,24,049,28,03,21,272,26*75
$GPGSV,3,3,11,15,17,047,28,19,15,310,,51,49,195,35*4E
$GPRMC,161856.000,A,3353.7565,N,09832.0281,W,0.21,270.99,300312,,,D*7D
$GPGGA,161857.000,3353.7565,N,09832.0282,W,2,09,1.3,313.6,M,-23.7,M,,0000*69
$GPGSA,A,3,21,22,14,15,27,06,18,09,03,,,,2.2,1.3,1.8*3B
$GPRMC,161857.000,A,3353.7565,N,09832.0282,W,0.18,147.48,300312,,,D*7E
$GPGGA,161858.000,3353.7564,N,09832.0281,W,2,09,1.3,313.3,M,-23.7,M,,0000*61
$GPGSA,A,3,21,22,14,15,27,06,18,09,03,,,,2.2,1.3,1.8*3B
$GPRMC,161858.000,A,3353.7564,N,09832.0281,W,0.37,151.60,300312,,,D*73
$GPGGA,161859.000,3353.7563,N,09832.0281,W,2,09,1.3,313.0,M,-23.7,M,,0000*64
$GPGSA,A,3,21,22,14,15,27,06,18,09,03,,,,2.2,1.3,1.8*3B
$GPRMC,161859.000,A,3353.7563,N,09832.0281,W,0.42,154.71,300312,,,D*72
$GPGGA,161900.000,3353.7562,N,09832.0280,W,2,09,1.3,312.9,M,-23.7,M,1.8,0000*46
$GPGSA,A,3,21,22,14,15,27,06,18,09,03,,,,2.2,1.3,1.8*3B
$GPRMC,161900.000,A,3353.7562,N,09832.0280,W,0.37,142.36,300312,,,D*79
$GPGGA,161901.000,3353.7562,N,09832.0280,W,2,09,1.3,312.7,M,-23.7,M,2.8,0000*4A
$GPGSA,A,3,21,22,14,15,27,06,18,09,03,,,,2.2,1.3,1.8*3B
$GPGSV,3,1,11,18,58,045,34,21,55,147,30,22,53,316,23,14,48,233,31*71
$GPGSV,3,2,11,09,38,071,38,06,26,261,13,27,24,049,28,03,21,272,26*75
$GPGSV,3,3,11,15,17,047,27,19,15,310,,51,49,195,35*41
$GPRMC,161901.000,A,3353.7562,N,09832.0280,W,0.26,150.67,300312,,,D*7F
$GPGGA,161902.000,3353.7561,N,09832.0280,W,2,09,1.3,312.4,M,-23.7,M,3.8,0000*48
$GPGSA,A,3,21,22,14,15,27,06,18,09,03,,,,2.2,1.3,1.8*3B
$GPRMC,161902.000,A,3353.7561,N,09832.0280,W,0.31,163.52,300312,,,D*7F
$GPGGA,161903.000,3353.7561,N,09832.0279,W,2,08,1.3,312.4,M,-23.7,M,,0000*6B
$GPGSA,A,3,21,22,14,15,27,18,09,03,,,,,2.3,1.3,1.9*3D
$GPRMC,161903.000,A,3353.7561,N,09832.0279,W,0.16,146.52,300312,,,D*7A
$GPGGA,161904.000,3353.7561,N,09832.0279,W,2,08,1.3,312.4,M,-23.7,M,,0000*6C
$GPGSA,A,3,21,22,14,15,27,18,09,03,,,,,2.3,1.3,1.9*3D
$GPRMC,161904.000,A,3353.7561,N,09832.0279,W,0.11,128.95,300312,,,D*79
$GPGGA,161905.000,3353.7561,N,09832.0279,W,2,08,1.3,312.3,M,-23.7,M,,0000*6A
$GPGSA,A,3,21,22,14,15,27,18,09,03,,,,,2.3,1.3,1.9*3D
$GPRMC,161905.000,A,3353.7561,N,09832.0279,W,0.30,139.04,300312,,,D*73
$GPGGA,161906.000,3353.7561,N,09832.0279,W,2,08,1.3,312.3,M,-23.7,M,,0000*69
$GPGSA,A,3,21,22,14,15,27,18,09,03,,,,,2.3,1.3,1.9*3D
$GPGSV,3,1,11,18,58,045,34,21,55,147,31,22,53,316,23,14,48,233,31*70
$GPGSV,3,2,11,09,38,071,37,06,26,261,,27,24,049,29,03,21,272,26*79
$GPGSV,3,3,11,15,17,047,27,19,15,310,,51,49,195,34*40
$GPRMC,161906.000,A,3353.7561,N,09832.0279,W,0.14,134.49,300312,,,D*72
$GPGGA,161907.000,3353.7561,N,09832.0279,W,2,08,1.3,312.5,M,-23.7,M,1.8,0000*49
$GPGSA,A,3,21,22,14,15,27,18,09,03,,,,,2.3,1.3,1.9*3D
$GPRMC,161907.000,A,3353.7561,N,09832.0279,W,0.18,114.94,300312,,,D*7D
$GPGGA,161908.000,3353.7562,N,09832.0279,W,2,08,1.3,312.6,M,-23.7,M,,0000*61
$GPGSA,A,3,21,22,14,15,27,18,09,03,,,,,2.3,1.3,1.9*3D
$GPRMC,161908.000,A,3353.7562,N,09832.0279,W,0.09,127.49,300312,,,D*71
$GPGGA,161909.000,3353.7562,N,09832.0280,W,2,08,1.3,312.5,M,-23.7,M,,0000*65
$GPGSA,A,3,21,22,14,15,27,18,09,03,,,,,2.3,1.3,1.9*3D
$GPRMC,161909.000,A,3353.7562,N,09832.0280,W,0.26,300.56,300312,,,D*72
$GPGGA,161910.000,3353.7562,N,09832.0281,W,2,08,1.3,312.4,M,-23.7,M,,0000*6D
$GPGSA,A,3,21,22,14,15,27,18,09,03,,,,,2.3,1.3,1.9*3D
$GPRMC,161910.000,A,3353.7562,N,09832.0281,W,0.10,186.30,300312,,,D*72
$GPGGA,161911.000,3353.7563,N,09832.0281,W,2,08,1.3,312.5,M,-23.7,M,,0000*6C
$GPGSA,A,3,21,22,14,15,27,18,09,03,,,,,2.3,1.3,1.9*3D
$GPGSV,3,1,11,18,58,045,34,21,55,147,32,22,53,316,22,14,48,233,31*72
$GPGSV,3,2,11,09,38,071,37,06,26,261,,27,24,049,30,03,21,272,20*77
$GPGSV,3,3,11,15,17,047,27,19,15,310,15,51,49,195,35*45
$GPRMC,161911.000,A,3353.7563,N,09832.0281,W,0.04,308.66,300312,,,D*70
$GPGGA,161912.000,3353.7562,N,09832.0281,W,2,08,1.3,312.4,M,-23.7,M,1.8,0000*48
$GPGSA,A,3,21,22,14,15,27,18,09,03,,,,,2.3,1.3,1.9*3D
$GPRMC,161912.000,A,3353.7562,N,09832.0281,W,0.26,145.63,300312,,,D*7C
$GPGGA,161913.000,3353.7562,N,09832.0281,W,2,08,1.3,312.3,M,-23.7,M,2.8,0000*4D
$GPGSA,A,3,21,22,14,15,27,18,09,03,,,,,2.3,1.3,1.9*3D
$GPRMC,161913.000,A,3353.7562,N,09832.0281,W,0.60,133.92,300312,,,D*70
$GPGGA,161914.000,3353.7561,N,09832.0280,W,2,08,1.3,312.1,M,-23.7,M,,0000*6E
$GPGSA,A,3,21,22,14,15,27,18,09,03,,,,,2.3,1.3,1.9*3D
$GPRMC,161914.000,A,3353.7561,N,09832.0280,W,0.39,148.61,300312,,,D*79
$GPGGA,161915.000,3353.7560,N,09832.0280,W,2,08,1.3,311.9,M,-23.7,M,,0000*65
$GPGSA,A,3,21,22,14,15,27,18,09,03,,,,,2.3,1.3,1.9*3D
$GPRMC,161915.000,A,3353.7560,N,09832.0280,W,0.39,151.35,300312,,,D*70
$GPGGA,161916.000,3353.7560,N,09832.0280,W,2,08,1.3,311.8,M,-23.7,M,,0000*67
$GPGSA,A,3,21,22,14,15,27,18,09,03,,,,,2.3,1.3,1.9*3D
$GPGSV,3,1,11,18,58,046,34,21,55,147,33,22,53,316,18,14,48,233,31*79
$GPGSV,3,2,11,09,38,071,37,06,26,261,,27,23,049,31,03,21,272,21*70
$GPGSV,3,3,11,15,17,047,26,19,15,310,13,51,49,195,35*42
$GPRMC,161916.000,A,3353.7560,N,09832.0280,W,0.35,148.94,300312,,,D*7C
$GPGGA,161917.000,3353.7560,N,09832.0280,W,2,08,1.3,311.7,M,-23.7,M,,0000*69
$GPGSA,A,3,21,22,14,15,27,18,09,03,,,,,2.3,1.3,1.9*3D
$GPRMC,161917.000,A,3353.7560,N,09832.0280,W,0.06,126.84,300312,,,D*74
$GPGGA,161918.000,3353.7561,N,09832.0280,W,2,08,1.3,312.1,M,-23.7,M,1.8,0000*45
$GPGSA,A,3,21,22,14,15,27,18,09,03,,,,,2.3,1.3,1.9*3D
$GPRMC,161918.000,A,3353.7561,N,09832.0280,W,0.16,110.71,300312,,,D*74
$GPGGA,161919.000,3353.7562,N,09832.0280,W,2,08,1.3,312.3,M,-23.7,M,2.8,0000*46
$GPGSA,A,3,21,22,14,15,27,18,09,03,,,,,2.3,1.3,1.9*3D
$GPRMC,161919.000,A,3353.7562,N,09832.0280,W,0.13,110.26,300312,,,D*71
$GPGGA,161920.000,3353.7563,N,09832.0280,W,2,08,1.3,312.7,M,-23.7,M,,0000*6D
$GPGSA,A,3,21,22,14,15,27,18,09,03,,,,,2.3,1.3,1.9*3D
$GPRMC,161920.000,A,3353.7563,N,09832.0280,W,0.25,116.76,300312,,,D*7C
$GPGGA,161921.000,3353.7563,N,09832.0280,W,2,08,1.3,312.8,M,-23.7,M,,0000*63
$GPGSA,A,3,21,22,14,15,27,18,09,03,,,,,2.3,1.3,1.9*3D
$GPGSV,3,1,11,18,58,046,35,21,55,147,34,22,53,316,26,14,48,233,32*71
$GPGSV,3,2,11,09,38,071,37,06,26,261,,27,23,049,31,03,21,272,21*70
$GPGSV,3,3,11,15,17,047,26,19,15,310,,51,49,195,35*40
$GPRMC,161921.000,A,3353.7563,N,09832.0280,W,0.05,292.87,300312,,,D*7E
$GPGGA,161922.000,3353.7563,N,09832.0280,W,2,08,1.3,313.0,M,-23.7,M,,0000*69
$GPGSA,A,3,21,22,14,15,27,18,09,03,,,,,2.3,1.3,1.9*3D
$GPRMC,161922.000,A,3353.7563,N,09832.0280,W,0.36,128.16,300312,,,D*77
$GPGGA,161923.000,3353.7563,N,09832.0280,W,2,08,1.3,313.1,M,-23.7,M,,0000*69
$GPGSA,A,3,21,22,14,15,27,18,09,03,,,,,2.3,1.3,1.9*3D
$GPRMC,161923.000,A,3353.7563,N,09832.0280,W,0.11,141.70,300312,,,D*7C
$GPGGA,161924.000,3353.7563,N,09832.0281,W,2,08,1.3,313.2,M,-23.7,M,1.8,0000*4B
$GPGSA,A,3,21,22,14,15,27,18,09,03,,,,,2.3,1.3,1.9*3D
$GPRMC,161924.000,A,3353.7563,N,09832.0281,W,0.24,129.59,300312,,,D*79
$GPGGA,161925.000,3353.7564,N,09832.0280,W,2,08,1.3,313.5,M,-23.7,M,2.8,0000*48
$GPGSA,A,3,21,22,14,15,27,18,09,03,,,,,2.3,1.3,1.9*3D
$GPRMC,161925.000,A,3353.7564,N,09832.0280,W,0.43,121.85,300312,,,D*76
$GPGGA,161926.000,3353.7564,N,09832.0279,W,2,08,1.3,313.8,M,-23.7,M,3.8,0000*41
$GPGSA,A,3,21,22,14,15,27,18,09,03,,,,,2.3,1.3,1.9*3D
$GPGSV,3,1,11,18,58,046,35,21,55,147,34,22,53,316,26,14,48,233,32*71
$GPGSV,3,2,11,09,38,071,37,06,26,261,,27,23,049,31,03,21,272,20*71
$GPGSV,3,3,11,15,17,047,26,19,15,310,,51,49,195,35*40
$GPRMC,161926.000,A,3353.7564,N,09832.0279,W,0.48,118.93,300312,,,D*75
$GPGGA,161927.000,3353.7564,N,09832.0279,W,2,08,1.3,314.2,M,-23.7,M,,0000*68
$GPGSA,A,3,21,22,14,15,27,18,09,03,,,,,2.3,1.3,1.9*3D
$GPRMC,161927.000,A,3353.7564,N,09832.0279,W,0.44,106.55,300312,,,D*7D
$GPGGA,161928.000,3353.7564,N,09832.0278,W,2,08,1.3,314.6,M,-23.7,M,,0000*62
$GPGSA,A,3,21,22,14,15,27,18,09,03,,,,,2.3,1.3,1.9*3D
$GPRMC,161928.000,A,3353.7564,N,09832.0278,W,0.45,102.48,300312,,,D*7A
$GPGGA,161929.000,3353.7565,N,09832.0278,W,2,09,1.3,314.8,M,-23.7,M,,0000*6D
$GPGSA,A,3,21,22,14,15,27,06,18,09,03,,,,2.2,1.3,1.8*3B
$GPRMC,161929.000,A,3353.7565,N,09832.0278,W,0.21,66.51,300312,,,D*43
$GPGGA,161930.000,3353.7566,N,09832.0278,W,2,09,1.3,315.1,M,-23.7,M,1.8,0000*49
$GPGSA,A,3,21,22,14,15,27,06,18,09,03,,,,2.2,1.3,1.8*3B
$GPRMC,161930.000,A,3353.7566,N,09832.0278,W,0.21,69.11,300312,,,D*43
$GPGGA,161931.000,3353.7567,N,09832.0278,W,2,09,1.3,315.3,M,-23.7,M,,0000*6C
$GPGSA,A,3,21,22,14,15,27,06,18,09,03,,,,2.2,1.3,1.8*3B
$GPGSV,3,1,11,18,58,046,35,21,55,147,34,22,53,316,27,14,48,233,32*70
$GPGSV,3,2,11,09,38,071,37,06,26,261,15,27,23,049,31,03,21,272,19*7F
$GPGSV,3,3,11,15,17,047,26,19,15,310,,51,49,195,35*40
$GPRMC,161931.000,A,3353.7567,N,09832.0278,W,0.19,45.29,300312,,,D*4D
$GPGGA,161932.000,3353.7568,N,09832.0279,W,2,09,1.3,315.5,M,-23.7,M,1.8,0000*40
$GPGSA,A,3,21,22,14,15,27,06,18,09,03,,,,2.2,1.3,1.8*3B
$GPRMC,161932.000,A,3353.7568,N,09832.0279,W,0.20,63.91,300312,,,D*4D
$GPGGA,161933.000,3353.7568,N,09832.0279,W,2,09,1.3,315.7,M,-23.7,M,,0000*64
$GPGSA,A,3,21,22,14,15,27,06,18,09,03,,,,2.2,1.3,1.8*3B
$GPRMC,161933.000,A,3353.7568,N,09832.0279,W,0.21,99.54,300312,,,D*41
$GPGGA,161934.000,3353.7568,N,09832.0280,W,2,09,1.3,315.6,M,-23.7,M,1.8,0000*43
$GPGSA,A,3,21,22,14,15,27,06,18,09,03,,,,2.2,1.3,1.8*3B
$GPRMC,161934.000,A,3353.7568,N,09832.0280,W,0.06,93.89,300312,,,D*4F
$GPGGA,161935.000,3353.7568,N,09832.0280,W,2,08,1.3,315.5,M,-23.7,M,,0000*67
$GPGSA,A,3,21,22,14,15,27,18,09,03,,,,,2.3,1.3,1.9*3D
$GPRMC,161935.000,A,3353.7568,N,09832.0280,W,0.04,238.88,300312,,,D*7E
$GPGGA,161936.000,3353.7568,N,09832.0281,W,2,08,1.3,315.5,M,-23.7,M,1.8,0000*42
$GPGSA,A,3,21,22,14,15,27,18,09,03,,,,,2.3,1.3,1.9*3D
$GPGSV,3,1,11,18,58,046,35,21,55,147,35,22,53,316,28,14,48,233,32*7E
$GPGSV,3,2,11,09,38,071,37,06,26,261,,27,23,049,31,03,21,272,19*7B
$GPGSV,3,3,11,15,17,047,26,19,15,310,,51,49,195,35*40
$GPRMC,161936.000,A,3353.7568,N,09832.0281,W,0.29,117.17,300312,,,D*7B
$GPGGA,161937.000,3353.7568,N,09832.0280,W,2,08,1.3,315.6,M,-23.7,M,,0000*66
$GPGSA,A,3,21,22,14,15,27,18,09,03,,,,,2.3,1.3,1.9*3D
$GPRMC,161937.000,A,3353.7568,N,09832.0280,W,0.44,119.29,300312,,,D*73
$GPGGA,161938.000,3353.7568,N,09832.0280,W,2,08,1.3,315.6,M,-23.7,M,,0000*69
$GPGSA,A,3,21,22,14,15,27,18,09,03,,,,,2.3,1.3,1.9*3D
$GPRMC,161938.000,A,3353.7568,N,09832.0280,W,0.26,125.38,300312,,,D*77
$GPGGA,161939.000,3353.7568,N,09832.0281,W,2,08,1.3,315.5,M,-23.7,M,,0000*6A
$GPGSA,A,3,21,22,14,15,27,18,09,03,,,,,2.3,1.3,1.9*3D
$GPRMC,161939.000,A,3353.7568,N,09832.0281,W,0.05,15.15,300312,,,D*4B
$GPGGA,161940.000,3353.7569,N,09832.0282,W,2,08,1.3,315.5,M,-23.7,M,,0000*66
$GPGSA,A,3,21,22,14,15,27,18,09,03,,,,,2.3,1.3,1.9*3D
$GPRMC,161940.000,A,3353.7569,N,09832.0282,W,0.06,61.70,300312,,,D*44
$GPGGA,161941.000,3353.7569,N,09832.0282,W,2,08,1.3,315.5,M,-23.7,M,,0000*67
$GPGSA,A,3,21,22,14,15,27,18,09,03,,,,,2.3,1.3,1.9*3D
