$GPGGA,160353.000,3353.7558,N,09832.0289,W,2,06,1.5,317.5,M,-23.7,M,0.8,0000*4A
$GPGSA,A,3,27,21,14,22,09,18,,,,,,,3.5,1.5,3.2*32
$GPGSV,3,1,11,18,59,040,39,21,58,144,24,22,51,312,27,14,45,230,22*7D
$GPGSV,3,2,11,09,38,076,27,06,28,265,,27,25,052,27,03,22,276,*73
$GPGSV,3,3,11,15,20,046,,19,13,313,,51,49,195,38*49
$GPRMC,160353.000,A,3353.7558,N,09832.0289,W,0.13,213.82,010412,,,D*7F
$GPGGA,160354.000,3353.7558,N,09832.0286,W,2,06,1.5,316.8,M,-23.7,M,0.8,0000*4E
$GPGSA,A,3,27,21,14,22,09,18,,,,,,,3.5,1.5,3.2*32
$GPRMC,160354.000,A,3353.7558,N,09832.0286,W,0.37,180.06,010412,,,D*74
$GPGGA,160355.000,3353.7562,N,09832.0285,W,2,06,1.5,316.1,M,-23.7,M,1.8,0000*4D
$GPGSA,A,3,27,21,14,22,09,18,,,,,,,3.5,1.5,3.2*32
$GPRMC,160355.000,A,3353.7562,N,09832.0285,W,0.20,135.15,010412,,,D*75
$GPGGA,160356.000,3353.7565,N,09832.0282,W,2,06,1.5,315.5,M,-23.7,M,2.8,0000*4A
$GPGSA,A,3,27,21,14,22,09,18,,,,,,,3.5,1.5,3.2*32
$GPRMC,160356.000,A,3353.7565,N,09832.0282,W,0.41,55.44,010412,,,D*42
$GPGGA,160357.000,3353.7568,N,09832.0281,W,2,06,1.5,315.2,M,-23.7,M,0.8,0000*40
$GPGSA,A,3,27,21,14,22,09,18,,,,,,,3.5,1.5,3.2*32
$GPRMC,160357.000,A,3353.7568,N,09832.0281,W,0.40,31.82,010412,,,D*44
$GPGGA,160358.000,3353.7571,N,09832.0282,W,2,07,1.5,315.0,M,-23.7,M,0.8,0000*47
$GPGSA,A,3,27,21,14,22,09,15,18,,,,,,3.0,1.5,2.6*36
$GPGSV,3,1,11,18,59,040,39,21,58,145,24,22,51,312,27,14,46,230,23*7E
$GPGSV,3,2,11,09,38,075,27,06,27,264,,27,25,052,28,03,22,275,*72
$GPGSV,3,3,11,15,20,046,17,19,14,312,,51,49,195,38*49
$GPRMC,160358.000,A,3353.7571,N,09832.0282,W,0.23,208.86,010412,,,D*79
$GPGGA,160359.000,3353.7573,N,09832.0283,W,2,07,1.5,315.2,M,-23.7,M,0.8,0000*47
$GPGSA,A,3,27,21,14,22,09,15,18,,,,,,3.0,1.5,2.6*36
$GPRMC,160359.000,A,3353.7573,N,09832.0283,W,0.08,247.21,010412,,,D*74
$GPGGA,160400.000,3353.7578,N,09832.0285,W,2,07,1.5,315.1,M,-23.7,M,1.8,0000*43
$GPGSA,A,3,27,21,14,22,09,15,18,,,,,,3.0,1.5,2.6*36
$GPRMC,160400.000,A,3353.7578,N,09832.0285,W,0.04,124.78,010412,,,D*74
$GPGGA,160401.000,3353.7584,N,09832.0286,W,2,07,1.5,315.0,M,-23.7,M,2.8,0000*40
$GPGSA,A,3,27,21,14,22,09,15,18,,,,,,3.0,1.5,2.6*36
$GPRMC,160401.000,A,3353.7584,N,09832.0286,W,0.20,35.08,010412,,,D*45
$GPGGA,160402.000,3353.7590,N,09832.0287,W,2,07,1.5,314.8,M,-23.7,M,3.8,0000*4F
$GPGSA,A,3,27,21,14,22,09,15,18,,,,,,3.0,1.5,2.6*36
$GPRMC,160402.000,A,3353.7590,N,09832.0287,W,0.09,279.34,010412,,,D*7C
$GPGGA,160403.000,3353.7595,N,09832.0290,W,2,07,1.5,314.8,M,-23.7,M,0.8,0000*4E
$GPGSA,A,3,27,21,14,22,09,15,18,,,,,,3.0,1.5,2.6*36
$GPGSV,3,1,11,18,59,040,39,21,58,145,25,22,51,312,26,14,46,230,24*79
$GPGSV,3,2,11,09,38,075,28,06,27,264,,27,25,052,28,03,22,275,19*75
$GPGSV,3,3,11,15,20,046,18,19,14,312,,51,49,195,44*4D
$GPRMC,160403.000,A,3353.7595,N,09832.0290,W,0.14,246.88,010412,,,D*79
$GPGGA,160404.000,3353.7603,N,09832.0292,W,2,07,1.5,314.4,M,-23.7,M,0.8,0000*4B
$GPGSA,A,3,27,21,14,22,09,15,18,,,,,,3.0,1.5,2.6*36
$GPRMC,160404.000,A,3353.7603,N,09832.0292,W,0.22,332.11,010412,,,D*77
$GPGGA,160405.000,3353.7611,N,09832.0293,W,2,07,1.5,314.4,M,-23.7,M,0.8,0000*48
$GPGSA,A,3,27,21,14,22,09,15,18,,,,,,3.0,1.5,2.6*36
$GPRMC,160405.000,A,3353.7611,N,09832.0293,W,0.17,356.91,010412,,,D*78
$GPGGA,160406.000,3353.7616,N,09832.0294,W,2,07,1.5,314.8,M,-23.7,M,1.8,0000*46
$GPGSA,A,3,27,21,14,22,09,15,18,,,,,,3.0,1.5,2.6*36
$GPRMC,160406.000,A,3353.7616,N,09832.0294,W,0.24,10.10,010412,,,D*43
$GPGGA,160407.000,3353.7616,N,09832.0294,W,2,07,1.5,315.6,M,-23.7,M,2.8,0000*4B
$GPGSA,A,3,27,21,14,22,09,15,18,,,,,,3.0,1.5,2.6*36
$GPRMC,160407.000,A,3353.7616,N,09832.0294,W,0.19,104.49,010412,,,D*74
$GPGGA,160408.000,3353.7622,N,09832.0295,W,2,07,1.5,315.8,M,-23.7,M,3.8,0000*4D
$GPGSA,A,3,27,21,14,22,09,15,18,,,,,,3.0,1.5,2.6*36
$GPGSV,3,1,11,18,59,040,39,21,58,145,25,22,51,312,26,14,46,230,24*79
$GPGSV,3,2,11,09,38,075,28,06,27,264,,27,25,052,29,03,22,275,18*75
$GPGSV,3,3,11,15,20,046,19,19,14,312,,51,49,195,38*47
$GPRMC,160408.000,A,3353.7622,N,09832.0295,W,0.11,64.20,010412,,,D*4D
$GPGGA,160409.000,3353.7623,N,09832.0296,W,2,07,1.5,316.2,M,-23.7,M,0.8,0000*44
$GPGSA,A,3,27,21,14,22,09,15,18,,,,,,3.0,1.5,2.6*36
$GPRMC,160409.000,A,3353.7623,N,09832.0296,W,0.11,134.37,010412,,,D*7C
$GPGGA,160410.000,3353.7624,N,09832.0297,W,2,07,1.5,316.4,M,-23.7,M,0.8,0000*4C
$GPGSA,A,3,27,21,14,22,09,15,18,,,,,,3.0,1.5,2.6*36
$GPRMC,160410.000,A,3353.7624,N,09832.0297,W,0.13,119.60,010412,,,D*7D
$GPGGA,160411.000,3353.7625,N,09832.0298,W,2,07,1.5,316.5,M,-23.7,M,0.8,0000*42
$GPGSA,A,3,27,21,14,22,09,15,18,,,,,,3.0,1.5,2.6*36
$GPRMC,160411.000,A,3353.7625,N,09832.0298,W,0.13,71.41,010412,,,D*4E
$GPGGA,160412.000,3353.7627,N,09832.0299,W,2,07,1.5,316.6,M,-23.7,M,0.8,0000*41
$GPGSA,A,3,27,21,14,22,09,15,18,,,,,,3.0,1.5,2.6*36
$GPRMC,160412.000,A,3353.7627,N,09832.0299,W,0.12,30.68,010412,,,D*41
$GPGGA,160413.000,3353.7627,N,09832.0299,W,2,07,1.5,316.9,M,-23.7,M,0.8,0000*4F
$GPGSA,A,3,27,21,14,22,09,15,18,,,,,,3.0,1.5,2.6*36
$GPGSV,3,1,11,18,59,040,39,21,58,145,24,22,52,312,26,14,46,230,25*7A
$GPGSV,3,2,11,09,38,075,29,06,27,264,,27,25,052,30,03,22,275,18*7C
$GPGSV,3,3,11,15,20,046,19,19,14,312,,51,49,195,38*47
$GPRMC,160413.000,A,3353.7627,N,09832.0299,W,0.11,151.68,010412,,,D*75
$GPGGA,160414.000,3353.7628,N,09832.0300,W,2,07,1.5,317.1,M,-23.7,M,1.8,0000*4E
$GPGSA,A,3,27,21,14,22,09,15,18,,,,,,3.0,1.5,2.6*36
$GPRMC,160414.000,A,3353.7628,N,09832.0300,W,0.18,325.80,010412,,,D*72
$GPGGA,160415.000,3353.7628,N,09832.0300,W,2,07,1.5,317.4,M,-23.7,M,0.8,0000*4B
$GPGSA,A,3,27,21,14,22,09,15,18,,,,,,3.0,1.5,2.6*36
$GPRMC,160415.000,A,3353.7628,N,09832.0300,W,0.10,32.16,010412,,,D*41
$GPGGA,160416.000,3353.7629,N,09832.0300,W,2,07,1.5,317.7,M,-23.7,M,0.8,0000*4A
$GPGSA,A,3,27,21,14,22,09,15,18,,,,,,3.0,1.5,2.6*36
$GPRMC,160416.000,A,3353.7629,N,09832.0300,W,0.21,0.18,010412,,,D*7E
$GPGGA,160417.000,3353.7629,N,09832.0300,W,2,07,1.5,317.9,M,-23.7,M,0.8,0000*45
$GPGSA,A,3,27,21,14,22,09,15,18,,,,,,3.0,1.5,2.6*36
$GPRMC,160417.000,A,3353.7629,N,09832.0300,W,0.29,125.16,010412,,,D*7F
$GPGGA,160418.000,3353.7628,N,09832.0298,W,2,06,1.6,318.1,M,-23.7,M,1.8,0000*4F
$GPGSA,A,3,27,21,14,22,15,18,,,,,,,3.1,1.6,2.7*3C
$GPGSV,3,1,11,18,59,040,39,21,58,145,23,22,52,312,26,14,46,230,25*7D
$GPGSV,3,2,11,09,38,075,,06,27,264,,27,25,052,30,03,22,275,18*77
$GPGSV,3,3,11,15,20,046,19,19,14,312,,51,49,195,38*47
$GPRMC,160418.000,A,3353.7628,N,09832.0298,W,0.52,125.19,010412,,,D*72
$GPGGA,160419.000,3353.7627,N,09832.0297,W,2,06,1.6,318.3,M,-23.7,M,0.8,0000*4D
$GPGSA,A,3,27,21,14,22,15,18,,,,,,,3.1,1.6,2.7*3C
$GPRMC,160419.000,A,3353.7627,N,09832.0297,W,0.11,46.12,010412,,,D*4B
$GPGGA,160420.000,3353.7625,N,09832.0296,W,2,07,1.5,318.6,M,-23.7,M,1.8,0000*42
$GPGSA,A,3,27,21,14,22,09,15,18,,,,,,3.0,1.5,2.6*36
$GPRMC,160420.000,A,3353.7625,N,09832.0296,W,0.31,136.69,010412,,,D*7A
$GPGGA,160421.000,3353.7623,N,09832.0295,W,2,07,1.5,318.7,M,-23.7,M,0.8,0000*46
$GPGSA,A,3,27,21,14,22,09,15,18,,,,,,3.0,1.5,2.6*36
$GPRMC,160421.000,A,3353.7623,N,09832.0295,W,0.50,152.24,010412,,,D*72
$GPGGA,160422.000,3353.7619,N,09832.0292,W,2,07,1.5,318.9,M,-23.7,M,0.8,0000*45
$GPGSA,A,3,27,21,14,22,09,15,18,,,,,,3.0,1.5,2.6*36
$GPRMC,160422.000,A,3353.7619,N,09832.0292,W,0.74,156.96,010412,,,D*74
$GPGGA,160423.000,3353.7617,N,09832.0291,W,2,07,1.5,318.9,M,-23.7,M,0.8,0000*49
$GPGSA,A,3,27,21,14,22,09,15,18,,,,,,3.0,1.5,2.6*36
$GPGSV,3,1,11,18,59,040,39,21,58,145,23,22,52,312,26,14,46,230,25*7D
$GPGSV,3,2,11,09,38,075,27,06,27,264,13,27,25,052,30,03,22,275,17*7F
$GPGSV,3,3,11,15,20,046,18,19,14,312,,51,49,195,38*46
$GPRMC,160423.000,A,3353.7617,N,09832.0291,W,0.12,78.82,010412,,,D*40
$GPGGA,160424.000,3353.7615,N,09832.0289,W,2,06,1.5,319.0,M,-23.7,M,1.8,0000*4D
$GPGSA,A,3,27,21,14,22,09,18,,,,,,,3.5,1.5,3.2*32
$GPRMC,160424.000,A,3353.7615,N,09832.0289,W,0.37,143.44,010412,,,D*78
$GPGGA,160425.000,3353.7612,N,09832.0288,W,2,06,1.5,319.1,M,-23.7,M,0.8,0000*4A
$GPGSA,A,3,27,21,14,22,09,18,,,,,,,3.5,1.5,3.2*32
$GPRMC,160425.000,A,3353.7612,N,09832.0288,W,0.65,155.35,010412,,,D*79
$GPGGA,160426.000,3353.7611,N,09832.0287,W,2,06,1.5,319.1,M,-23.7,M,0.8,0000*45
$GPGSA,A,3,27,21,14,22,09,18,,,,,,,3.5,1.5,3.2*32
$GPRMC,160426.000,A,3353.7611,N,09832.0287,W,0.17,139.17,010412,,,D*79
$GPGGA,160427.000,3353.7610,N,09832.0287,W,2,06,1.5,319.3,M,-23.7,M,0.8,0000*47
$GPGSA,A,3,27,21,14,22,09,18,,,,,,,3.5,1.5,3.2*32
$GPRMC,160427.000,A,3353.7610,N,09832.0287,W,0.16,32.42,010412,,,D*42
$GPGGA,160428.000,3353.7610,N,09832.0286,W,2,06,1.5,319.5,M,-23.7,M,0.8,0000*4F
$GPGSA,A,3,27,21,14,22,09,18,,,,,,,3.5,1.5,3.2*32
$GPGSV,3,1,11,18,59,040,39,21,58,145,22,22,52,312,27,14,46,230,25*7D
$GPGSV,3,2,11,09,38,075,27,06,27,264,13,27,25,052,31,03,22,275,17*7E
$GPGSV,3,3,11,15,20,046,,19,14,312,,51,49,195,38*4F
$GPRMC,160428.000,A,3353.7610,N,09832.0286,W,0.25,134.06,010412,,,D*7B
$GPGGA,160429.000,3353.7607,N,09832.0284,W,2,06,1.5,319.8,M,-23.7,M,0.8,0000*47
$GPGSA,A,3,27,21,14,22,09,18,,,,,,,3.5,1.5,3.2*32
$GPRMC,160429.000,A,3353.7607,N,09832.0284,W,0.62,146.68,010412,,,D*70
$GPGGA,160430.000,3353.7606,N,09832.0283,W,2,06,1.5,320.1,M,-23.7,M,1.8,0000*4B
$GPGSA,A,3,27,21,14,22,09,18,,,,,,,3.5,1.5,3.2*32
$GPRMC,160430.000,A,3353.7606,N,09832.0283,W,0.61,145.66,010412,,,D*70
$GPGGA,160431.000,3353.7605,N,09832.0282,W,2,06,1.5,320.4,M,-23.7,M,2.8,0000*4E
$GPGSA,A,3,27,21,14,22,09,18,,,,,,,3.5,1.5,3.2*32
$GPRMC,160431.000,A,3353.7605,N,09832.0282,W,0.15,79.60,010412,,,D*48
$GPGGA,160432.000,3353.7603,N,09832.0281,W,2,06,1.5,320.7,M,-23.7,M,3.8,0000*4A
$GPGSA,A,3,27,21,14,22,09,18,,,,,,,3.5,1.5,3.2*32
$GPRMC,160432.000,A,3353.7603,N,09832.0281,W,0.24,112.72,010412,,,D*73
$GPGGA,160433.000,3353.7600,N,09832.0276,W,2,06,1.5,320.9,M,-23.7,M,0.8,0000*4D
$GPGSA,A,3,27,21,14,22,09,18,,,,,,,3.5,1.5,3.2*32
$GPGSV,3,1,11,18,59,040,39,21,58,145,18,22,52,312,27,14,46,230,25*74
$GPGSV,3,2,11,09,38,075,26,06,27,264,15,27,25,052,31,03,22,275,18*76
$GPGSV,3,3,11,15,20,046,,19,14,312,,51,49,195,38*4F
$GPRMC,160433.000,A,3353.7600,N,09832.0276,W,0.34,135.33,010412,,,D*78
$GPGGA,160434.000,3353.7597,N,09832.0272,W,2,06,1.5,321.1,M,-23.7,M,0.8,0000*4A
$GPGSA,A,3,27,21,14,22,09,18,,,,,,,3.5,1.5,3.2*32
$GPRMC,160434.000,A,3353.7597,N,09832.0272,W,0.75,148.52,010412,,,D*7E
$GPGGA,160435.000,3353.7594,N,09832.0269,W,2,06,1.5,321.3,M,-23.7,M,0.8,0000*40
$GPGSA,A,3,27,21,14,22,09,18,,,,,,,3.5,1.5,3.2*32
$GPRMC,160435.000,A,3353.7594,N,09832.0269,W,0.85,150.82,010412,,,D*7D
$GPGGA,160436.000,3353.7592,N,09832.0269,W,2,06,1.5,321.3,M,-23.7,M,1.8,0000*44
$GPGSA,A,3,27,21,14,22,09,18,,,,,,,3.5,1.5,3.2*32
$GPRMC,160436.000,A,3353.7592,N,09832.0269,W,0.33,146.90,010412,,,D*71
$GPGGA,160437.000,3353.7593,N,09832.0270,W,2,06,1.5,321.3,M,-23.7,M,2.8,0000*4F
$GPGSA,A,3,27,21,14,22,09,18,,,,,,,3.5,1.5,3.2*32
$GPRMC,160437.000,A,3353.7593,N,09832.0270,W,0.06,60.86,010412,,,D*4D
$GPGGA,160438.000,3353.7592,N,09832.0270,W,2,07,1.5,321.2,M,-23.7,M,3.8,0000*40
$GPGSA,A,3,27,21,14,22,09,15,18,,,,,,3.0,1.5,2.6*36
$GPGSV,3,1,11,18,59,040,39,21,58,145,18,22,52,312,27,14,46,230,25*74
$GPGSV,3,2,11,09,38,075,25,06,27,264,16,27,25,052,31,03,22,275,17*79
$GPGSV,3,3,11,15,20,046,19,19,14,312,,51,49,195,38*47
$GPRMC,160438.000,A,3353.7592,N,09832.0270,W,0.46,140.17,010412,,,D*7C
$GPGGA,160439.000,3353.7593,N,09832.0270,W,2,07,1.5,321.2,M,-23.7,M,0.8,0000*43
$GPGSA,A,3,27,21,14,22,09,15,18,,,,,,3.0,1.5,2.6*36
$GPRMC,160439.000,A,3353.7593,N,09832.0270,W,0.32,15.43,010412,,,D*4F
$GPGGA,160440.000,3353.7595,N,09832.0271,W,2,07,1.5,321.2,M,-23.7,M,0.8,0000*4A
$GPGSA,A,3,27,21,14,22,09,15,18,,,,,,3.0,1.5,2.6*36
$GPRMC,160440.000,A,3353.7595,N,09832.0271,W,0.60,352.75,010412,,,D*74
$GPGGA,160441.000,3353.7595,N,09832.0271,W,2,07,1.5,322.2,M,-23.7,M,0.8,0000*48
$GPGSA,A,3,27,21,14,22,09,15,18,,,,,,3.0,1.5,2.6*36
$GPRMC,160441.000,A,3353.7595,N,09832.0271,W,0.16,86.24,010412,,,D*4A
$GPGGA,160442.000,3353.7595,N,09832.0271,W,2,07,1.5,322.5,M,-23.7,M,1.8,0000*4D
$GPGSA,A,3,27,21,14,22,09,15,18,,,,,,3.0,1.5,2.6*36
$GPRMC,160442.000,A,3353.7595,N,09832.0271,W,0.52,151.49,010412,,,D*79
$GPGGA,160443.000,3353.7594,N,09832.0270,W,2,07,1.5,322.9,M,-23.7,M,2.8,0000*43
$GPGSA,A,3,27,21,14,22,09,15,18,,,,,,3.0,1.5,2.6*36
$GPRMC,160443.000,A,3353.7594,N,09832.0270,W,0.48,151.60,010412,,,D*78
$GPGGA,160444.000,3353.7593,N,09832.0270,W,2,07,1.5,323.1,M,-23.7,M,3.8,0000*4B
$GPGSA,A,3,27,21,14,22,09,15,18,,,,,,3.0,1.5,2.6*36
$GPRMC,160444.000,A,3353.7593,N,09832.0270,W,0.53,144.52,010412,,,D*77
$GPGGA,160445.000,3353.7593,N,09832.0270,W,2,07,1.5,323.2,M,-23.7,M,0.8,0000*4A
$GPGSA,A,3,27,21,14,22,09,15,18,,,,,,3.0,1.5,2.6*36
$GPRMC,160445.000,A,3353.7593,N,09832.0270,W,0.62,153.84,010412,,,D*79
$GPGGA,160446.000,3353.7592,N,09832.0270,W,2,07,1.5,323.3,M,-23.7,M,0.8,0000*49
$GPGSA,A,3,27,21,14,22,09,15,18,,,,,,3.0,1.5,2.6*36
$GPRMC,160446.000,A,3353.7592,N,09832.0270,W,0.75,157.61,010412,,,D*72
$GPGGA,160447.000,3353.7592,N,09832.0270,W,2,07,1.5,323.3,M,-23.7,M,0.8,0000*48
$GPGSA,A,3,27,21,14,22,09,15,18,,,,,,3.0,1.5,2.6*36
$GPRMC,160447.000,A,3353.7592,N,09832.0270,W,0.08,43.51,010412,,,D*4E
$GPGGA,160448.000,3353.7593,N,09832.0271,W,2,07,1.5,323.3,M,-23.7,M,1.8,0000*46
$GPGSA,A,3,27,21,14,22,09,15,18,,,,,,3.0,1.5,2.6*36
$GPGSV,3,1,11,18,59,040,38,21,58,145,19,22,52,312,29,14,46,230,27*78
$GPGSV,3,2,11,09,38,075,26,06,27,264,17,27,25,052,31,03,22,275,*7D
$GPGSV,3,3,11,15,20,046,26,19,14,312,,51,49,195,38*4B
$GPRMC,160448.000,A,3353.7593,N,09832.0271,W,0.09,47.03,010412,,,D*43
$GPGGA,160449.000,3353.7594,N,09832.0272,W,2,07,1.5,323.2,M,-23.7,M,2.8,0000*41
$GPGSA,A,3,27,21,14,22,09,15,18,,,,,,3.0,1.5,2.6*36
$GPRMC,160449.000,A,3353.7594,N,09832.0272,W,0.36,348.53,010412,,,D*73
$GPGGA,160450.000,3353.7595,N,09832.0272,W,2,07,1.5,323.2,M,-23.7,M,0.8,0000*4A
$GPGSA,A,3,27,21,14,22,09,15,18,,,,,,3.0,1.5,2.6*36
$GPRMC,160450.000,A,3353.7595,N,09832.0272,W,0.11,148.32,010412,,,D*7A
$GPGGA,160451.000,3353.7595,N,09832.0272,W,2,07,1.5,323.3,M,-23.7,M,0.8,0000*4A
$GPGSA,A,3,27,21,14,22,09,15,18,,,,,,3.0,1.5,2.6*36
$GPRMC,160451.000,A,3353.7595,N,09832.0272,W,0.41,142.25,010412,,,D*72
$GPGGA,160452.000,3353.7594,N,09832.0272,W,2,07,1.5,323.9,M,-23.7,M,0.8,0000*42
$GPGSA,A,3,27,21,14,22,09,15,18,,,,,,3.0,1.5,2.6*36
$GPRMC,160452.000,A,3353.7594,N,09832.0272,W,0.26,134.93,010412,,,D*7D
$GPGGA,160453.000,3353.7594,N,09832.0271,W,2,07,1.5,324.5,M,-23.7,M,0.8,0000*4B
$GPGSA,A,3,27,21,14,22,09,15,18,,,,,,3.0,1.5,2.6*36
$GPGSV,3,1,11,18,59,040,38,21,58,145,19,22,52,312,29,14,46,230,26*79
$GPGSV,3,2,11,09,38,075,26,06,27,264,17,27,25,052,31,03,22,275,*7D
$GPGSV,3,3,11,15,20,046,27,19,14,312,,51,49,195,38*4A
$GPRMC,160453.000,A,3353.7594,N,09832.0271,W,0.17,106.34,010412,,,D*71
$GPGGA,160454.000,3353.7594,N,09832.0271,W,2,07,1.5,325.0,M,-23.7,M,1.8,0000*49
$GPGSA,A,3,27,21,14,22,09,15,18,,,,,,3.0,1.5,2.6*36
$GPRMC,160454.000,A,3353.7594,N,09832.0271,W,0.14,85.69,010412,,,D*47
$GPGGA,160455.000,3353.7595,N,09832.0271,W,2,07,1.5,325.5,M,-23.7,M,2.8,0000*4F
$GPGSA,A,3,27,21,14,22,09,15,18,,,,,,3.0,1.5,2.6*36
$GPRMC,160455.000,A,3353.7595,N,09832.0271,W,0.19,30.41,010412,,,D*4E
$GPGGA,160456.000,3353.7597,N,09832.0275,W,2,07,1.5,325.7,M,-23.7,M,0.8,0000*4A
$GPGSA,A,3,27,21,14,22,09,15,18,,,,,,3.0,1.5,2.6*36
$GPRMC,160456.000,A,3353.7597,N,09832.0275,W,0.45,355.97,010412,,,D*79
$GPGGA,160457.000,3353.7600,N,09832.0278,W,2,07,1.5,325.8,M,-23.7,M,0.8,0000*44
$GPGSA,A,3,27,21,14,22,09,15,18,,,,,,3.0,1.5,2.6*36
$GPRMC,160457.000,A,3353.7600,N,09832.0278,W,0.21,342.58,010412,,,D*7F
$GPGGA,160458.000,3353.7602,N,09832.0281,W,2,07,1.5,325.9,M,-23.7,M,0.8,0000*4E
$GPGSA,A,3,27,21,14,22,09,15,18,,,,,,3.0,1.5,2.6*36
$GPGSV,3,1,11,18,59,040,38,21,58,145,20,22,52,312,30,14,46,230,27*7A
$GPGSV,3,2,11,09,38,075,27,06,27,264,16,27,25,052,31,03,22,275,*7D
$GPGSV,3,3,11,15,20,046,27,19,14,312,,51,49,195,38*4A
$GPRMC,160458.000,A,3353.7602,N,09832.0281,W,0.37,343.82,010412,,,D*75
$GPGGA,160459.000,3353.7604,N,09832.0283,W,2,07,1.5,325.9,M,-23.7,M,0.8,0000*4B
$GPGSA,A,3,27,21,14,22,09,15,18,,,,,,3.0,1.5,2.6*36
$GPRMC,160459.000,A,3353.7604,N,09832.0283,W,0.16,356.01,010412,,,D*7C
$GPGGA,160500.000,3353.7605,N,09832.0285,W,2,07,1.5,325.9,M,-23.7,M,0.8,0000*41
$GPGSA,A,3,27,21,14,22,09,15,18,,,,,,3.0,1.5,2.6*36
$GPRMC,160500.000,A,3353.7605,N,09832.0285,W,0.04,23.27,010412,,,D*40
$GPGGA,160501.000,3353.7606,N,09832.0287,W,2,07,1.5,325.9,M,-23.7,M,1.8,0000*40
$GPGSA,A,3,27,21,14,22,09,15,18,,,,,,3.0,1.5,2.6*36
$GPRMC,160501.000,A,3353.7606,N,09832.0287,W,0.10,157.91,010412,,,D*7A
$GPGGA,160502.000,3353.7607,N,09832.0289,W,2,07,1.5,325.9,M,-23.7,M,2.8,0000*4F
$GPGSA,A,3,27,21,14,22,09,15,18,,,,,,3.0,1.5,2.6*36
$GPGSV,3,1,11,18,59,040,38,21,58,145,22,22,52,312,31,14,46,230,27*79
$GPGSV,3,2,11,09,38,075,27,06,27,264,16,27,25,052,31,03,22,275,*7D
$GPGSV,3,3,11,15,20,046,28,19,14,312,,51,49,195,38*45
$GPRMC,160502.000,A,3353.7607,N,09832.0289,W,0.02,124.54,010412,,,D*78
$GPGGA,160503.000,3353.7609,N,09832.0290,W,2,07,1.5,326.0,M,-23.7,M,0.8,0000*40
$GPGSA,A,3,27,21,14,22,09,15,18,,,,,,3.0,1.5,2.6*36
$GPGSV,3,1,11,18,59,040,38,21,58,145,22,22,52,312,31,14,46,230,27*79
$GPGSV,3,2,11,09,38,075,27,06,27,264,16,27,25,052,31,03,22,275,*7D
$GPGSV,3,3,11,15,20,046,28,19,14,312,,51,49,195,38*45
$GPRMC,160503.000,A,3353.7609,N,09832.0290,W,0.17,21.20,010412,,,D*4C
$GPGGA,160504.000,3353.7610,N,09832.0291,W,2,07,1.5,326.1,M,-23.7,M,0.8,0000*4F
$GPGSA,A,3,27,21,14,22,09,15,18,,,,,,3.0,1.5,2.6*36
$GPRMC,160504.000,A,3353.7610,N,09832.0291,W,0.09,73.78,010412,,,D*47
$GPGGA,160505.000,3353.7611,N,09832.0291,W,2,07,1.5,326.3,M,-23.7,M,0.8,0000*4D
$GPGSA,A,3,27,21,14,22,09,15,18,,,,,,3.0,1.5,2.6*36
$GPRMC,160505.000,A,3353.7611,N,09832.0291,W,0.12,51.44,010412,,,D*42
$GPGGA,160506.000,3353.7612,N,09832.0292,W,2,07,1.5,326.4,M,-23.7,M,1.8,0000*48
$GPGSA,A,3,27,21,14,22,09,15,18,,,,,,3.0,1.5,2.6*36
$GPRMC,160506.000,A,3353.7612,N,09832.0292,W,0.28,357.68,010412,,,D*73
$GPGGA,160507.000,3353.7613,N,09832.0293,W,2,07,1.5,326.6,M,-23.7,M,2.8,0000*48
$GPGSA,A,3,27,21,14,22,09,15,18,,,,,,3.0,1.5,2.6*36
$GPRMC,160507.000,A,3353.7613,N,09832.0293,W,0.14,98.87,010412,,,D*4C
$GPGGA,160508.000,3353.7614,N,09832.0293,W,2,07,1.5,326.7,M,-23.7,M,3.8,0000*40
$GPGSA,A,3,27,21,14,22,09,15,18,,,,,,3.0,1.5,2.6*36
$GPGSV,3,1,11,18,59,040,38,21,58,145,24,22,52,312,31,14,46,230,27*7F
$GPGSV,3,2,11,09,38,075,27,06,27,264,15,27,25,052,31,03,22,275,*7E
$GPGSV,3,3,11,15,20,046,29,19,14,312,,51,49,195,38*44
$GPRMC,160508.000,A,3353.7614,N,09832.0293,W,0.13,49.30,010412,,,D*43
$GPGGA,160509.000,3353.7614,N,09832.0293,W,2,07,1.5,326.8,M,-23.7,M,0.8,0000*4D
$GPGSA,A,3,27,21,14,22,09,15,18,,,,,,3.0,1.5,2.6*36
$GPRMC,160509.000,A,3353.7614,N,09832.0293,W,0.11,11.71,010412,,,D*48
$GPGGA,160510.000,3353.7614,N,09832.0292,W,2,07,1.5,326.9,M,-23.7,M,0.8,0000*45
$GPGSA,A,3,27,21,14,22,09,15,18,,,,,,3.0,1.5,2.6*36
$GPRMC,160510.000,A,3353.7614,N,09832.0292,W,0.10,106.25,010412,,,D*76
$GPGGA,160511.000,3353.7613,N,09832.0291,W,2,07,1.5,327.0,M,-23.7,M,0.8,0000*48
$GPGSA,A,3,27,21,14,22,09,15,18,,,,,,3.0,1.5,2.6*36
$GPRMC,160511.000,A,3353.7613,N,09832.0291,W,0.18,138.56,010412,,,D*72
$GPGGA,160512.000,3353.7612,N,09832.0289,W,2,07,1.5,327.1,M,-23.7,M,1.8,0000*43
$GPGSA,A,3,27,21,14,22,09,15,18,,,,,,3.0,1.5,2.6*36
$GPRMC,160512.000,A,3353.7612,N,09832.0289,W,0.17,134.87,010412,,,D*76
$GPGGA,160513.000,3353.7612,N,09832.0288,W,2,07,1.5,327.2,M,-23.7,M,0.8,0000*41
$GPGSA,A,3,27,21,14,22,09,15,18,,,,,,3.0,1.5,2.6*36
$GPGSV,3,1,11,18,59,040,38,21,58,145,25,22,52,312,32,14,46,230,26*7C
$GPGSV,3,2,11,09,38,075,22,06,27,264,16,27,25,052,31,03,22,275,*78
$GPGSV,3,3,11,15,20,046,29,19,14,312,,51,49,195,38*44
$GPRMC,160513.000,A,3353.7612,N,09832.0288,W,0.29,132.26,010412,,,D*76
$GPGGA,160514.000,3353.7611,N,09832.0287,W,2,07,1.5,327.3,M,-23.7,M,1.8,0000*4A
$GPGSA,A,3,27,21,14,22,09,15,18,,,,,,3.0,1.5,2.6*36
$GPRMC,160514.000,A,3353.7611,N,09832.0287,W,0.26,138.27,010412,,,D*79
$GPGGA,160515.000,3353.7607,N,09832.0287,W,2,07,1.5,326.9,M,-23.7,M,0.8,0000*46
$GPGSA,A,3,27,21,14,22,09,15,18,,,,,,3.0,1.5,2.6*36
$GPRMC,160515.000,A,3353.7607,N,09832.0287,W,0.28,142.21,010412,,,D*7A
$GPGGA,160516.000,3353.7606,N,09832.0286,W,2,07,1.5,327.0,M,-23.7,M,0.8,0000*4D
$GPGSA,A,3,27,21,14,22,09,15,18,,,,,,3.0,1.5,2.6*36
$GPRMC,160516.000,A,3353.7606,N,09832.0286,W,0.29,126.89,010412,,,D*78
$GPGGA,160517.000,3353.7606,N,09832.0285,W,2,07,1.5,327.1,M,-23.7,M,0.8,0000*4E
$GPGSA,A,3,27,21,14,22,09,15,18,,,,,,3.0,1.5,2.6*36
$GPRMC,160517.000,A,3353.7606,N,09832.0285,W,0.05,69.29,010412,,,D*44
$GPGGA,160518.000,3353.7608,N,09832.0285,W,2,06,1.6,327.2,M,-23.7,M,0.8,0000*4E
$GPGSA,A,3,27,21,14,22,15,18,,,,,,,3.1,1.6,2.7*3C
$GPGSV,3,1,11,18,59,040,38,21,58,145,26,22,52,312,32,14,46,230,25*7C
$GPGSV,3,2,11,09,38,075,17,06,27,264,15,27,25,052,31,03,22,275,*7D
$GPGSV,3,3,11,15,20,046,29,19,14,312,,51,49,195,38*44
$GPRMC,160518.000,A,3353.7608,N,09832.0285,W,0.12,91.34,010412,,,D*48
$GPGGA,160519.000,3353.7609,N,09832.0284,W,2,06,1.6,327.3,M,-23.7,M,1.8,0000*4F
$GPGSA,A,3,27,21,14,22,15,18,,,,,,,3.1,1.6,2.7*3C
$GPRMC,160519.000,A,3353.7609,N,09832.0284,W,0.12,87.98,010412,,,D*48
$GPGGA,160520.000,3353.7610,N,09832.0284,W,2,06,1.6,327.3,M,-23.7,M,0.8,0000*4C
$GPGSA,A,3,27,21,14,22,15,18,,,,,,,3.1,1.6,2.7*3C
$GPRMC,160520.000,A,3353.7610,N,09832.0284,W,0.13,109.21,010412,,,D*7E
$GPGGA,160521.000,3353.7610,N,09832.0284,W,2,06,1.6,327.4,M,-23.7,M,0.8,0000*4A
$GPGSA,A,3,27,21,14,22,15,18,,,,,,,3.1,1.6,2.7*3C
$GPRMC,160521.000,A,3353.7610,N,09832.0284,W,0.11,129.60,010412,,,D*7A
$GPGGA,160522.000,3353.7611,N,09832.0283,W,2,06,1.6,327.4,M,-23.7,M,0.8,0000*4F
$GPGSA,A,3,27,21,14,22,15,18,,,,,,,3.1,1.6,2.7*3C
$GPGSV,3,1,11,18,59,040,38,21,58,145,27,22,52,312,32,14,46,230,24*7C
$GPGSV,3,2,11,09,38,075,,06,27,264,15,27,25,052,31,03,22,275,*7B
$GPGSV,3,3,11,15,20,046,29,19,14,312,,51,49,195,38*44
$GPRMC,160522.000,A,3353.7611,N,09832.0283,W,0.12,121.37,010412,,,D*76
$GPGGA,160523.000,3353.7611,N,09832.0283,W,2,06,1.6,327.4,M,-23.7,M,0.8,0000*4E
$GPGSA,A,3,27,21,14,22,15,18,,,,,,,3.1,1.6,2.7*3C
$GPGSV,3,1,11,18,59,040,38,21,58,145,27,22,52,312,32,14,46,230,24*7C
$GPGSV,3,2,11,09,38,075,,06,27,264,15,27,25,052,31,03,22,275,*7B
$GPGSV,3,3,11,15,20,046,29,19,14,312,,51,49,195,38*44
$GPRMC,160523.000,A,3353.7611,N,09832.0283,W,0.15,158.08,010412,,,D*72
$GPGGA,160524.000,3353.7611,N,09832.0283,W,2,06,1.6,327.2,M,-23.7,M,1.8,0000*4E
$GPGSA,A,3,27,21,14,22,15,18,,,,,,,3.1,1.6,2.7*3C
$GPRMC,160524.000,A,3353.7611,N,09832.0283,W,0.32,189.64,010412,,,D*76
$GPGGA,160525.000,3353.7610,N,09832.0283,W,2,06,1.6,327.1,M,-23.7,M,2.8,0000*4E
$GPGSA,A,3,27,21,14,22,15,18,,,,,,,3.1,1.6,2.7*3C
$GPRMC,160525.000,A,3353.7610,N,09832.0283,W,0.44,194.67,010412,,,D*78
$GPGGA,160526.000,3353.7609,N,09832.0283,W,2,06,1.6,327.1,M,-23.7,M,3.8,0000*44
$GPGSA,A,3,27,21,14,22,15,18,,,,,,,3.1,1.6,2.7*3C
$GPRMC,160526.000,A,3353.7609,N,09832.0283,W,0.21,168.47,010412,,,D*71
$GPGGA,160527.000,3353.7610,N,09832.0282,W,2,06,1.6,327.3,M,-23.7,M,0.8,0000*4D
$GPGSA,A,3,27,21,14,22,15,18,,,,,,,3.1,1.6,2.7*3C
$GPRMC,160527.000,A,3353.7610,N,09832.0282,W,0.21,92.80,010412,,,D*46
$GPGGA,160528.000,3353.7611,N,09832.0280,W,2,06,1.6,327.6,M,-23.7,M,0.8,0000*44
$GPGSA,A,3,27,21,14,22,15,18,,,,,,,3.1,1.6,2.7*3C
$GPGSV,3,1,11,18,59,040,38,21,58,145,27,22,52,312,33,14,46,230,15*7F
$GPGSV,3,2,11,09,38,075,,06,27,264,,27,25,052,31,03,22,275,*7F
$GPGSV,3,3,11,15,20,046,29,19,14,312,,51,49,195,38*44
$GPRMC,160528.000,A,3353.7611,N,09832.0280,W,0.34,59.13,010412,,,D*43
$GPGGA,160529.000,3353.7612,N,09832.0278,W,2,06,1.6,327.9,M,-23.7,M,0.8,0000*4E
$GPGSA,A,3,27,21,14,22,15,18,,,,,,,3.1,1.6,2.7*3C
$GPRMC,160529.000,A,3353.7612,N,09832.0278,W,0.39,53.79,010412,,,D*4D
$GPGGA,160530.000,3353.7612,N,09832.0277,W,2,06,1.6,328.1,M,-23.7,M,0.8,0000*4E
$GPGSA,A,3,27,21,14,22,15,18,,,,,,,3.1,1.6,2.7*3C
$GPRMC,160530.000,A,3353.7612,N,09832.0277,W,0.14,118.59,010412,,,D*79
$GPGGA,160531.000,3353.7613,N,09832.0276,W,2,06,1.6,328.3,M,-23.7,M,1.8,0000*4C
$GPGSA,A,3,27,21,14,22,15,18,,,,,,,3.1,1.6,2.7*3C
$GPRMC,160531.000,A,3353.7613,N,09832.0276,W,0.17,96.99,010412,,,D*40
$GPGGA,160532.000,3353.7613,N,09832.0276,W,2,06,1.6,328.5,M,-23.7,M,2.8,0000*4A
$GPGSA,A,3,27,21,14,22,15,18,,,,,,,3.1,1.6,2.7*3C
$GPRMC,160532.000,A,3353.7613,N,09832.0276,W,0.16,96.67,010412,,,D*43
$GPGGA,160533.000,3353.7613,N,09832.0275,W,2,06,1.6,328.5,M,-23.7,M,0.8,0000*4A
$GPGSA,A,3,27,21,14,22,15,18,,,,,,,3.1,1.6,2.7*3C
$GPGSV,3,1,11,18,59,041,38,21,57,145,28,22,52,313,33,14,46,231,20*78
$GPGSV,3,2,11,09,38,074,,06,27,263,,27,25,051,31,03,21,274,*78
$GPGSV,3,3,11,15,19,046,29,19,14,312,,51,49,195,38*4E
$GPRMC,160533.000,A,3353.7613,N,09832.0275,W,0.17,157.10,010412,,,D*7C
$GPGGA,160534.000,3353.7614,N,09832.0274,W,2,06,1.6,328.6,M,-23.7,M,0.8,0000*48
$GPGSA,A,3,27,21,14,22,15,18,,,,,,,3.1,1.6,2.7*3C
$GPRMC,160534.000,A,3353.7614,N,09832.0274,W,0.29,68.84,010412,,,D*40
$GPGGA,160535.000,3353.7614,N,09832.0273,W,2,06,1.6,328.8,M,-23.7,M,0.8,0000*40
$GPGSA,A,3,27,21,14,22,15,18,,,,,,,3.1,1.6,2.7*3C
$GPRMC,160535.000,A,3353.7614,N,09832.0273,W,0.28,56.24,010412,,,D*40
$GPGGA,160536.000,3353.7614,N,09832.0273,W,2,06,1.6,328.7,M,-23.7,M,1.8,0000*4D
$GPGSA,A,3,27,21,14,22,15,18,,,,,,,3.1,1.6,2.7*3C
$GPRMC,160536.000,A,3353.7614,N,09832.0273,W,0.16,172.22,010412,,,D*7F
$GPGGA,160537.000,3353.7614,N,09832.0273,W,2,06,1.6,328.5,M,-23.7,M,2.8,0000*4D
$GPGSA,A,3,27,21,14,22,15,18,,,,,,,3.1,1.6,2.7*3C
$GPRMC,160537.000,A,3353.7614,N,09832.0273,W,0.33,189.91,010412,,,D*75
$GPGGA,160538.000,3353.7613,N,09832.0274,W,2,06,1.6,328.3,M,-23.7,M,0.8,0000*46
$GPGSA,A,3,27,21,14,22,15,18,,,,,,,3.1,1.6,2.7*3C
$GPGSV,3,1,11,18,59,042,38,21,57,145,28,22,52,313,33,14,46,231,14*7C
$GPGSV,3,2,11,09,38,074,,06,27,263,11,27,25,051,31,03,21,274,*78
$GPGSV,3,3,11,15,19,046,29,19,14,312,,51,49,195,38*4E
$GPRMC,160538.000,A,3353.7613,N,09832.0274,W,0.49,195.95,010412,,,D*7E
$GPGGA,160539.000,3353.7612,N,09832.0274,W,2,06,1.6,328.2,M,-23.7,M,0.8,0000*47
$GPGSA,A,3,27,21,14,22,15,18,,,,,,,3.1,1.6,2.7*3C
$GPRMC,160539.000,A,3353.7612,N,09832.0274,W,0.50,191.08,010412,,,D*76
$GPGGA,160540.000,3353.7611,N,09832.0274,W,2,06,1.6,328.2,M,-23.7,M,0.8,0000*4A
$GPGSA,A,3,27,21,14,22,15,18,,,,,,,3.1,1.6,2.7*3C
$GPRMC,160540.000,A,3353.7611,N,09832.0274,W,0.52,194.92,010412,,,D*7F
$GPGGA,160541.000,3353.7610,N,09832.0274,W,2,06,1.6,328.2,M,-23.7,M,0.8,0000*4A
$GPGSA,A,3,27,21,14,22,15,18,,,,,,,3.1,1.6,2.7*3C
$GPRMC,160541.000,A,3353.7610,N,09832.0274,W,0.52,191.85,010412,,,D*7C
$GPGGA,160542.000,3353.7609,N,09832.0274,W,2,06,1.6,328.2,M,-23.7,M,1.8,0000*40
$GPGSA,A,3,27,21,14,22,15,18,,,,,,,3.1,1.6,2.7*3C
$GPGSV,3,1,11,18,59,042,38,21,57,145,28,22,52,313,33,14,46,231,14*7C
$GPGSV,3,2,11,09,38,074,,06,27,263,,27,25,051,30,03,21,274,*79
$GPGSV,3,3,11,15,19,046,30,19,14,312,,51,49,195,38*46
$GPRMC,160542.000,A,3353.7609,N,09832.0274,W,0.52,191.71,010412,,,D*7C
$GPGGA,160543.000,3353.7609,N,09832.0274,W,2,06,1.6,328.2,M,-23.7,M,2.8,0000*42
$GPGSA,A,3,27,21,14,22,15,18,,,,,,,3.1,1.6,2.7*3C
$GPGSV,3,1,11,18,59,042,38,21,57,145,28,22,52,313,33,14,46,231,14*7C
$GPGSV,3,2,11,09,38,074,,06,27,263,,27,25,051,30,03,21,274,*79
$GPGSV,3,3,11,15,19,046,30,19,14,312,,51,49,195,38*46
$GPRMC,160543.000,A,3353.7609,N,09832.0274,W,0.48,193.63,010412,,,D*77
$GPGGA,160544.000,3353.7608,N,09832.0274,W,2,07,1.5,328.2,M,-23.7,M,3.8,0000*47
$GPGSA,A,3,27,21,14,22,09,15,18,,,,,,3.0,1.5,2.6*36
$GPRMC,160544.000,A,3353.7608,N,09832.0274,W,0.53,188.16,010412,,,D*73
$GPGGA,160545.000,3353.7607,N,09832.0274,W,2,07,1.5,328.0,M,-23.7,M,0.8,0000*48
$GPGSA,A,3,27,21,14,22,09,15,18,,,,,,3.0,1.5,2.6*36
$GPRMC,160545.000,A,3353.7607,N,09832.0274,W,0.47,196.37,010412,,,D*74
$GPGGA,160546.000,3353.7606,N,09832.0274,W,2,07,1.5,327.7,M,-23.7,M,0.8,0000*42
$GPGSA,A,3,27,21,14,22,09,15,18,,,,,,3.0,1.5,2.6*36
$GPRMC,160546.000,A,3353.7606,N,09832.0274,W,0.56,189.76,010412,,,D*7D
$GPGGA,160547.000,3353.7606,N,09832.0274,W,2,07,1.5,327.5,M,-23.7,M,0.8,0000*41
$GPGSA,A,3,27,21,14,22,09,15,18,,,,,,3.0,1.5,2.6*36
$GPRMC,160547.000,A,3353.7606,N,09832.0274,W,0.46,220.88,010412,,,D*7C
$GPGGA,160548.000,3353.7605,N,09832.0275,W,2,07,1.5,327.3,M,-23.7,M,0.8,0000*4A
$GPGSA,A,3,27,21,14,22,09,15,18,,,,,,3.0,1.5,2.6*36
$GPGSV,3,1,11,18,59,042,38,21,57,145,29,22,52,313,33,14,46,231,15*7C
$GPGSV,3,2,11,09,38,074,19,06,27,263,,27,25,051,30,03,21,274,*71
$GPGSV,3,3,11,15,19,046,31,19,14,312,,51,49,195,38*47
$GPRMC,160548.000,A,3353.7605,N,09832.0275,W,0.51,227.67,010412,,,D*71
$GPGGA,160549.000,3353.7605,N,09832.0276,W,2,07,1.5,327.1,M,-23.7,M,1.8,0000*4B
$GPGSA,A,3,27,21,14,22,09,15,18,,,,,,3.0,1.5,2.6*36
$GPRMC,160549.000,A,3353.7605,N,09832.0276,W,0.43,228.52,010412,,,D*79
$GPGGA,160550.000,3353.7605,N,09832.0276,W,2,07,1.5,327.0,M,-23.7,M,2.8,0000*41
$GPGSA,A,3,27,21,14,22,09,15,18,,,,,,3.0,1.5,2.6*36
$GPRMC,160550.000,A,3353.7605,N,09832.0276,W,0.25,153.57,010412,,,D*7B
$GPGGA,160551.000,3353.7606,N,09832.0274,W,2,07,1.5,327.1,M,-23.7,M,0.8,0000*42
$GPGSA,A,3,27,21,14,22,09,15,18,,,,,,3.0,1.5,2.6*36
$GPRMC,160551.000,A,3353.7606,N,09832.0274,W,0.29,143.17,010412,,,D*72
$GPGGA,160552.000,3353.7606,N,09832.0273,W,2,07,1.5,327.2,M,-23.7,M,0.8,0000*45
$GPGSA,A,3,27,21,14,22,09,15,18,,,,,,3.0,1.5,2.6*36
$GPRMC,160552.000,A,3353.7606,N,09832.0273,W,0.35,164.39,010412,,,D*72
$GPGGA,160553.000,3353.7606,N,09832.0273,W,2,06,1.6,327.2,M,-23.7,M,0.8,0000*46
$GPGSA,A,3,27,21,14,22,15,18,,,,,,,3.1,1.6,2.7*3C
$GPGSV,3,1,11,18,59,042,38,21,57,145,29,22,52,313,33,14,46,231,17*7E
$GPGSV,3,2,11,09,38,074,11,06,27,263,,27,25,051,30,03,21,274,*79
$GPGSV,3,3,11,15,19,046,31,19,14,312,,51,49,195,38*47
$GPRMC,160553.000,A,3353.7606,N,09832.0273,W,0.35,203.09,010412,,,D*72
$GPGGA,160554.000,3353.7606,N,09832.0272,W,2,06,1.6,327.4,M,-23.7,M,0.8,0000*46
$GPGSA,A,3,27,21,14,22,15,18,,,,,,,3.1,1.6,2.7*3C
$GPRMC,160554.000,A,3353.7606,N,09832.0272,W,0.16,135.78,010412,,,D*75
$GPGGA,160555.000,3353.7607,N,09832.0271,W,2,06,1.6,327.6,M,-23.7,M,1.8,0000*46
$GPGSA,A,3,27,21,14,22,15,18,,,,,,,3.1,1.6,2.7*3C
$GPRMC,160555.000,A,3353.7607,N,09832.0271,W,0.21,87.42,010412,,,D*43
$GPGGA,160556.000,3353.7607,N,09832.0271,W,2,06,1.6,327.8,M,-23.7,M,2.8,0000*48
$GPGSA,A,3,27,21,14,22,15,18,,,,,,,3.1,1.6,2.7*3C
$GPRMC,160556.000,A,3353.7607,N,09832.0271,W,0.15,156.49,010412,,,D*71
$GPGGA,160557.000,3353.7607,N,09832.0270,W,2,06,1.6,327.9,M,-23.7,M,0.8,0000*4B
$GPGSA,A,3,27,21,14,22,15,18,,,,,,,3.1,1.6,2.7*3C
$GPRMC,160557.000,A,3353.7607,N,09832.0270,W,0.11,117.33,010412,,,D*7D
$GPGGA,160558.000,3353.7604,N,09832.0268,W,2,06,1.6,327.9,M,-23.7,M,0.8,0000*4E
$GPGSA,A,3,27,21,14,22,15,18,,,,,,,3.1,1.6,2.7*3C
$GPGSV,3,1,11,18,59,042,38,21,57,145,29,22,52,313,32,14,46,231,18*70
$GPGSV,3,2,11,09,38,074,,06,27,263,,27,25,051,30,03,21,274,*79
$GPGSV,3,3,11,15,19,046,31,19,14,312,,51,49,195,38*47
$GPRMC,160558.000,A,3353.7604,N,09832.0268,W,0.26,152.05,010412,,,D*78
$GPGGA,160559.000,3353.7601,N,09832.0267,W,2,06,1.6,327.9,M,-23.7,M,0.8,0000*45
$GPGSA,A,3,27,21,14,22,15,18,,,,,,,3.1,1.6,2.7*3C
$GPRMC,160559.000,A,3353.7601,N,09832.0267,W,0.23,131.56,010412,,,D*75
$GPGGA,160600.000,3353.7600,N,09832.0267,W,2,06,1.6,327.8,M,-23.7,M,1.8,0000*4B
$GPGSA,A,3,27,21,14,22,15,18,,,,,,,3.1,1.6,2.7*3C
$GPRMC,160600.000,A,3353.7600,N,09832.0267,W,0.23,164.78,010412,,,D*77
$GPGGA,160601.000,3353.7599,N,09832.0266,W,2,06,1.6,327.8,M,-23.7,M,0.8,0000*49
$GPGSA,A,3,27,21,14,22,15,18,,,,,,,3.1,1.6,2.7*3C
$GPRMC,160601.000,A,3353.7599,N,09832.0266,W,0.20,100.89,010412,,,D*7B
$GPGGA,160602.000,3353.7598,N,09832.0266,W,2,06,1.6,327.8,M,-23.7,M,1.8,0000*4A
$GPGSA,A,3,27,21,14,22,15,18,,,,,,,3.1,1.6,2.7*3C
$GPRMC,160602.000,A,3353.7598,N,09832.0266,W,0.17,132.81,010412,,,D*74
$GPGGA,160603.000,3353.7598,N,09832.0266,W,2,07,1.5,327.8,M,-23.7,M,0.8,0000*48
$GPGSA,A,3,27,21,14,22,09,15,18,,,,,,3.0,1.5,2.7*37
$GPGSV,3,1,11,18,59,042,38,21,57,145,29,22,52,313,32,14,46,231,20*7B
$GPGSV,3,2,11,09,38,074,21,06,27,263,,27,25,051,31,03,21,274,*7B
$GPGSV,3,3,11,15,19,046,31,19,14,312,,51,49,195,38*47
$GPRMC,160603.000,A,3353.7598,N,09832.0266,W,0.19,165.29,010412,,,D*7B
$GPGGA,160604.000,3353.7598,N,09832.0266,W,2,07,1.5,327.7,M,-23.7,M,0.8,0000*40
$GPGSA,A,3,27,21,14,22,09,15,18,,,,,,3.0,1.5,2.7*37
$GPRMC,160604.000,A,3353.7598,N,09832.0266,W,0.14,205.47,010412,,,D*7C
$GPGGA,160605.000,3353.7597,N,09832.0267,W,2,07,1.5,327.6,M,-23.7,M,0.8,0000*4E
$GPGSA,A,3,27,21,14,22,09,15,18,,,,,,3.0,1.5,2.7*37
$GPRMC,160605.000,A,3353.7597,N,09832.0267,W,0.19,174.73,010412,,,D*7C
$GPGGA,160606.000,3353.7597,N,09832.0267,W,2,07,1.5,327.6,M,-23.7,M,1.8,0000*4C
$GPGSA,A,3,27,21,14,22,09,15,18,,,,,,3.0,1.5,2.7*37
$GPRMC,160606.000,A,3353.7597,N,09832.0267,W,0.15,161.77,010412,,,D*73
$GPGGA,160607.000,3353.7597,N,09832.0267,W,2,07,1.5,327.5,M,-23.7,M,2.8,0000*4D
$GPGSA,A,3,27,21,14,22,09,15,18,,,,,,3.0,1.5,2.7*37
$GPGSV,3,1,11,18,59,042,38,21,57,145,30,22,52,313,31,14,46,231,20*70
$GPGSV,3,2,11,09,38,074,22,06,27,263,,27,25,051,31,03,21,274,*78
$GPGSV,3,3,11,15,19,046,31,19,14,312,,51,49,195,38*47
$GPRMC,160607.000,A,3353.7597,N,09832.0267,W,0.24,174.95,010412,,,D*78
$GPGGA,160608.000,3353.7597,N,09832.0267,W,2,07,1.5,327.6,M,-23.7,M,3.8,0000*40
$GPGSA,A,3,27,21,14,22,09,15,18,,,,,,3.0,1.5,2.7*37
$GPGSV,3,1,11,18,59,042,37,21,57,145,30,22,52,313,31,14,46,231,20*7F
$GPGSV,3,2,11,09,38,074,23,06,27,263,,27,25,051,31,03,21,274,*79
$GPGSV,3,3,11,15,19,046,31,19,14,312,,51,49,195,38*47
$GPRMC,160608.000,A,3353.7597,N,09832.0267,W,0.32,101.97,010412,,,D*70
$GPGGA,160609.000,3353.7598,N,09832.0266,W,2,07,1.5,327.8,M,-23.7,M,0.8,0000*42
$GPGSA,A,3,27,21,14,22,09,15,18,,,,,,3.0,1.5,2.7*37
$GPRMC,160609.000,A,3353.7598,N,09832.0266,W,0.31,78.77,010412,,,D*4D
$GPGGA,160610.000,3353.7598,N,09832.0265,W,2,07,1.5,328.0,M,-23.7,M,0.8,0000*4E
$GPGSA,A,3,27,21,14,22,09,15,18,,,,,,3.0,1.5,2.7*37
$GPRMC,160610.000,A,3353.7598,N,09832.0265,W,0.07,85.73,010412,,,D*45
$GPGGA,160611.000,3353.7598,N,09832.0265,W,2,07,1.5,328.0,M,-23.7,M,0.8,0000*4F
$GPGSA,A,3,27,21,14,22,09,15,18,,,,,,3.0,1.5,2.7*37
$GPRMC,160611.000,A,3353.7598,N,09832.0265,W,0.14,151.24,010412,,,D*7C
$GPGGA,160612.000,3353.7598,N,09832.0265,W,2,07,1.5,328.1,M,-23.7,M,1.8,0000*4C
$GPGSA,A,3,27,21,14,22,09,15,18,,,,,,3.0,1.5,2.7*37
$GPRMC,160612.000,A,3353.7598,N,09832.0265,W,0.29,109.61,010412,,,D*7D
$GPGGA,160613.000,3353.7598,N,09832.0264,W,2,07,1.5,328.3,M,-23.7,M,2.8,0000*4D
$GPGSA,A,3,27,21,14,22,09,15,18,,,,,,3.0,1.5,2.7*37
$GPGSV,3,1,11,18,59,042,37,21,57,145,30,22,52,313,30,14,46,231,20*7E
$GPGSV,3,2,11,09,38,074,24,06,27,263,,27,25,051,31,03,21,274,19*76
$GPGSV,3,3,11,15,19,046,30,19,14,312,,51,49,195,38*46
$GPRMC,160613.000,A,3353.7598,N,09832.0264,W,0.26,86.40,010412,,,D*47
$GPGGA,160614.000,3353.7599,N,09832.0265,W,2,07,1.5,328.3,M,-23.7,M,3.8,0000*4B
$GPGSA,A,3,27,21,14,22,09,15,18,,,,,,3.0,1.5,2.7*37
$GPRMC,160614.000,A,3353.7599,N,09832.0265,W,0.09,127.44,010412,,,D*73
$GPGGA,160615.000,3353.7598,N,09832.0265,W,2,07,1.5,328.3,M,-23.7,M,0.8,0000*48
$GPGSA,A,3,27,21,14,22,09,15,18,,,,,,3.0,1.5,2.7*37
$GPRMC,160615.000,A,3353.7598,N,09832.0265,W,0.13,199.61,010412,,,D*7A
$GPGGA,160616.000,3353.7599,N,09832.0265,W,2,07,1.5,328.5,M,-23.7,M,0.8,0000*4C
$GPGSA,A,3,27,21,14,22,09,15,18,,,,,,3.0,1.5,2.7*37
$GPRMC,160616.000,A,3353.7599,N,09832.0265,W,0.19,82.61,010412,,,D*49
$GPGGA,160617.000,3353.7599,N,09832.0266,W,2,07,1.5,328.4,M,-23.7,M,0.8,0000*4F
$GPGSA,A,3,27,21,14,22,09,15,18,,,,,,3.0,1.5,2.7*37
$GPRMC,160617.000,A,3353.7599,N,09832.0266,W,0.12,150.44,010412,,,D*79
$GPGGA,160618.000,3353.7599,N,09832.0266,W,2,07,1.5,328.6,M,-23.7,M,0.8,0000*42
$GPGSA,A,3,27,21,14,22,09,15,18,,,,,,3.0,1.5,2.7*37
$GPRMC,160618.000,A,3353.7599,N,09832.0266,W,0.26,75.86,010412,,,D*49
$GPGGA,160619.000,3353.7600,N,09832.0265,W,2,07,1.5,328.7,M,-23.7,M,1.8,0000*43
$GPGSA,A,3,27,21,14,22,09,15,18,,,,,,3.0,1.5,2.7*37
$GPRMC,160619.000,A,3353.7600,N,09832.0265,W,0.36,64.73,010412,,,D*43
$GPGGA,160620.000,3353.7600,N,09832.0265,W,2,07,1.5,328.6,M,-23.7,M,0.8,0000*49
$GPGSA,A,3,27,21,14,22,09,15,18,,,,,,3.0,1.5,2.7*37
$GPRMC,160620.000,A,3353.7600,N,09832.0265,W,0.13,137.63,010412,,,D*78
$GPGGA,160621.000,3353.7600,N,09832.0266,W,2,07,1.5,328.5,M,-23.7,M,0.8,0000*48
$GPGSA,A,3,27,21,14,22,09,15,18,,,,,,3.0,1.5,2.7*37
$GPRMC,160621.000,A,3353.7600,N,09832.0266,W,0.18,93.12,010412,,,D*48
$GPGGA,160622.000,3353.7600,N,09832.0266,W,2,07,1.5,328.3,M,-23.7,M,0.8,0000*4D
$GPGSA,A,3,27,21,14,22,09,15,18,,,,,,3.0,1.5,2.7*37
$GPGSV,3,1,11,18,59,042,37,21,57,145,30,22,52,313,29,14,46,231,20*76
$GPGSV,3,2,11,09,38,074,26,06,27,263,,27,25,051,31,03,21,274,18*75
$GPGSV,3,3,11,15,19,046,29,19,14,312,,51,49,195,38*4E
$GPRMC,160622.000,A,3353.7600,N,09832.0266,W,0.27,76.84,010412,,,D*43
$GPGGA,160623.000,3353.7601,N,09832.0265,W,2,07,1.5,328.1,M,-23.7,M,0.8,0000*4C
$GPGSA,A,3,27,21,14,22,09,15,18,,,,,,3.0,1.5,2.7*37
$GPGSV,3,1,11,18,59,042,37,21,57,145,30,22,52,313,29,14,46,231,20*76
$GPGSV,3,2,11,09,38,074,27,06,27,263,,27,25,051,31,03,21,274,18*74
$GPGSV,3,3,11,15,19,046,29,19,14,312,,51,49,195,38*4E
$GPRMC,160623.000,A,3353.7601,N,09832.0265,W,0.32,68.05,010412,,,D*42
$GPGGA,160624.000,3353.7601,N,09832.0265,W,2,07,1.5,327.9,M,-23.7,M,1.8,0000*4D
$GPGSA,A,3,27,21,14,22,09,15,18,,,,,,3.0,1.5,2.7*37
$GPRMC,160624.000,A,3353.7601,N,09832.0265,W,0.28,70.28,010412,,,D*48
$GPGGA,160625.000,3353.7601,N,09832.0265,W,2,07,1.5,327.7,M,-23.7,M,2.8,0000*41
$GPGSA,A,3,27,21,14,22,09,15,18,,,,,,3.0,1.5,2.7*37
$GPRMC,160625.000,A,3353.7601,N,09832.0265,W,0.23,73.73,010412,,,D*4F
$GPGGA,160626.000,3353.7601,N,09832.0266,W,2,07,1.5,327.5,M,-23.7,M,0.8,0000*41
$GPGSA,A,3,27,21,14,22,09,15,18,,,,,,3.0,1.5,2.7*37
$GPRMC,160626.000,A,3353.7601,N,09832.0266,W,0.17,87.57,010412,,,D*45
$GPGGA,160627.000,3353.7601,N,09832.0266,W,2,07,1.5,327.3,M,-23.7,M,0.8,0000*46
$GPGSA,A,3,27,21,14,22,09,15,18,,,,,,3.0,1.5,2.7*37
$GPRMC,160627.000,A,3353.7601,N,09832.0266,W,0.12,146.46,010412,,,D*7D
$GPGGA,160628.000,3353.7601,N,09832.0267,W,2,07,1.5,327.1,M,-23.7,M,0.8,0000*4A
$GPGSA,A,3,27,21,14,22,09,15,18,,,,,,3.0,1.5,2.7*37
$GPGSV,3,1,11,18,59,042,37,21,57,145,31,22,52,313,30,14,46,231,21*7E
$GPGSV,3,2,11,09,38,074,28,06,27,263,,27,25,051,32,03,21,274,17*77
$GPGSV,3,3,11,15,19,046,29,19,14,312,,51,49,195,38*4E
$GPRMC,160628.000,A,3353.7601,N,09832.0267,W,0.18,192.18,010412,,,D*7B
$GPGGA,160629.000,3353.7601,N,09832.0267,W,2,07,1.5,327.1,M,-23.7,M,0.8,0000*4B
$GPGSA,A,3,27,21,14,22,09,15,18,,,,,,3.0,1.5,2.7*37
$GPRMC,160629.000,A,3353.7601,N,09832.0267,W,0.15,103.46,010412,,,D*74
$GPGGA,160630.000,3353.7602,N,09832.0267,W,2,07,1.5,327.1,M,-23.7,M,1.8,0000*41
$GPGSA,A,3,27,21,14,22,09,15,18,,,,,,3.0,1.5,2.7*37
$GPRMC,160630.000,A,3353.7602,N,09832.0267,W,0.23,80.11,010412,,,D*42
$GPGGA,160631.000,3353.7602,N,09832.0268,W,2,07,1.5,327.0,M,-23.7,M,2.8,0000*4D
$GPGSA,A,3,27,21,14,22,09,15,18,,,,,,3.0,1.5,2.7*37
$GPRMC,160631.000,A,3353.7602,N,09832.0268,W,0.14,110.39,010412,,,D*7A
$GPGGA,160632.000,3353.7602,N,09832.0268,W,2,07,1.5,326.9,M,-23.7,M,3.8,0000*47
$GPGSA,A,3,27,21,14,22,09,15,18,,,,,,3.0,1.5,2.7*37
$GPRMC,160632.000,A,3353.7602,N,09832.0268,W,0.17,165.26,010412,,,D*76
$GPGGA,160633.000,3353.7602,N,09832.0269,W,2,07,1.5,326.7,M,-23.7,M,0.8,0000*4A
$GPGSA,A,3,27,21,14,22,09,15,18,,,,,,3.0,1.5,2.7*37
$GPGSV,3,1,11,18,59,042,37,21,57,145,31,22,52,313,30,14,46,231,22*7D
$GPGSV,3,2,11,09,38,074,28,06,27,263,,27,25,051,31,03,21,274,15*76
$GPGSV,3,3,11,15,19,046,29,19,14,312,,51,49,195,38*4E
$GPRMC,160633.000,A,3353.7602,N,09832.0269,W,0.13,133.91,010412,,,D*7D
$GPGGA,160634.000,3353.7602,N,09832.0269,W,2,07,1.5,326.5,M,-23.7,M,0.8,0000*4F
$GPGSA,A,3,27,21,14,22,09,15,18,,,,,,3.0,1.5,2.7*37
$GPRMC,160634.000,A,3353.7602,N,09832.0269,W,0.14,105.23,010412,,,D*71
$GPGGA,160635.000,3353.7603,N,09832.0270,W,2,07,1.5,326.2,M,-23.7,M,0.8,0000*40
$GPGSA,A,3,27,21,14,22,09,15,18,,,,,,3.0,1.5,2.7*37
$GPRMC,160635.000,A,3353.7603,N,09832.0270,W,0.13,100.47,010412,,,D*79
$GPGGA,160636.000,3353.7603,N,09832.0270,W,2,07,1.5,326.0,M,-23.7,M,0.8,0000*41
$GPGSA,A,3,27,21,14,22,09,15,18,,,,,,3.0,1.5,2.7*37
$GPRMC,160636.000,A,3353.7603,N,09832.0270,W,0.11,158.75,010412,,,D*74
$GPGGA,160637.000,3353.7603,N,09832.0271,W,2,07,1.5,325.8,M,-23.7,M,1.8,0000*4B
$GPGSA,A,3,27,21,14,22,09,15,18,,,,,,3.0,1.5,2.7*37
$GPRMC,160637.000,A,3353.7603,N,09832.0271,W,0.12,146.16,010412,,,D*7D
$GPGGA,160638.000,3353.7603,N,09832.0272,W,2,07,1.5,325.5,M,-23.7,M,2.8,0000*49
$GPGSA,A,3,27,21,14,22,09,15,18,,,,,,3.0,1.5,2.7*37
$GPGSV,3,1,11,18,59,042,37,21,57,145,31,22,52,313,30,14,46,231,23*7C
$GPGSV,3,2,11,09,38,074,29,06,27,263,,27,25,051,32,03,21,274,15*74
$GPGSV,3,3,11,15,19,046,28,19,14,312,,51,49,195,38*4F
$GPRMC,160638.000,A,3353.7603,N,09832.0272,W,0.17,196.00,010412,,,D*7E
$GPGGA,160639.000,3353.7603,N,09832.0272,W,2,07,1.5,325.4,M,-23.7,M,0.8,0000*4B
$GPGSA,A,3,27,21,14,22,09,15,18,,,,,,3.0,1.5,2.7*37
$GPRMC,160639.000,A,3353.7603,N,09832.0272,W,0.08,119.80,010412,,,D*7E
$GPGGA,160640.000,3353.7603,N,09832.0273,W,2,07,1.5,325.2,M,-23.7,M,0.8,0000*42
$GPGSA,A,3,27,21,14,22,09,15,18,,,,,,3.0,1.5,2.7*37
$GPRMC,160640.000,A,3353.7603,N,09832.0273,W,0.18,195.42,010412,,,D*7A
$GPGGA,160641.000,3353.7603,N,09832.0274,W,2,07,1.5,325.0,M,-23.7,M,0.8,0000*46
$GPGSA,A,3,27,21,14,22,09,15,18,,,,,,3.0,1.5,2.7*37
$GPRMC,160641.000,A,3353.7603,N,09832.0274,W,0.22,212.49,010412,,,D*72
$GPGGA,160642.000,3353.7603,N,09832.0275,W,2,07,1.5,324.9,M,-23.7,M,1.8,0000*4D
$GPGSA,A,3,27,21,14,22,09,15,18,,,,,,3.0,1.5,2.7*37
$GPGSV,3,1,11,18,59,042,36,21,57,145,31,22,52,313,30,14,46,231,24*7A
$GPGSV,3,2,11,09,38,074,29,06,27,263,,27,25,051,31,03,21,274,15*77
$GPGSV,3,3,11,15,19,046,28,19,14,312,,51,49,195,38*4F
$GPRMC,160642.000,A,3353.7603,N,09832.0275,W,0.14,161.26,010412,,,D*7B
$GPGGA,160643.000,3353.7604,N,09832.0275,W,2,07,1.5,324.9,M,-23.7,M,0.8,0000*4A
$GPGSA,A,3,27,21,14,22,09,15,18,,,,,,3.0,1.5,2.7*37
$GPGSV,3,1,11,18,59,042,36,21,57,145,31,22,52,313,30,14,46,231,24*7A
$GPGSV,3,2,11,09,38,074,29,06,27,263,,27,25,051,31,03,21,274,15*77
$GPGSV,3,3,11,15,19,046,28,19,14,312,,51,49,195,38*4F
$GPRMC,160643.000,A,3353.7604,N,09832.0275,W,0.14,82.15,010412,,,D*41
$GPGGA,160644.000,3353.7604,N,09832.0275,W,2,07,1.5,324.8,M,-23.7,M,0.8,0000*4C
$GPGSA,A,3,27,21,14,22,09,15,18,,,,,,3.0,1.5,2.7*37
$GPRMC,160644.000,A,3353.7604,N,09832.0275,W,0.11,99.04,010412,,,D*49
$GPGGA,160645.000,3353.7604,N,09832.0275,W,2,07,1.5,324.6,M,-23.7,M,0.8,0000*43
$GPGSA,A,3,27,21,14,22,09,15,18,,,,,,3.0,1.5,2.7*37
$GPRMC,160645.000,A,3353.7604,N,09832.0275,W,0.17,137.84,010412,,,D*73
$GPGGA,160646.000,3353.7604,N,09832.0275,W,2,07,1.5,324.5,M,-23.7,M,0.8,0000*43
$GPGSA,A,3,27,21,14,22,09,15,18,,,,,,3.0,1.5,2.7*37
$GPRMC,160646.000,A,3353.7604,N,09832.0275,W,0.16,139.03,010412,,,D*70
$GPGGA,160647.000,3353.7604,N,09832.0276,W,2,07,1.5,324.3,M,-23.7,M,0.8,0000*47
$GPGSA,A,3,27,21,14,22,09,15,18,,,,,,3.0,1.5,2.7*37
$GPRMC,160647.000,A,3353.7604,N,09832.0276,W,0.17,138.73,010412,,,D*75
$GPGGA,160648.000,3353.7604,N,09832.0276,W,2,07,1.5,324.1,M,-23.7,M,1.8,0000*4B
$GPGSA,A,3,27,21,14,22,09,15,18,,,,,,3.0,1.5,2.7*37
$GPGSV,3,1,11,18,59,042,36,21,57,145,32,22,52,313,31,14,46,231,25*79
$GPGSV,3,2,11,09,38,074,29,06,27,263,,27,25,051,31,03,21,274,14*76
$GPGSV,3,3,11,15,19,046,28,19,14,312,,51,49,195,38*4F
$GPRMC,160648.000,A,3353.7604,N,09832.0276,W,0.16,144.74,010412,,,D*77
$GPGGA,160649.000,3353.7604,N,09832.0276,W,2,07,1.5,324.0,M,-23.7,M,0.8,0000*4A
$GPGSA,A,3,27,21,14,22,09,15,18,,,,,,3.0,1.5,2.7*37
$GPRMC,160649.000,A,3353.7604,N,09832.0276,W,0.13,134.05,010412,,,D*72
$GPGGA,160650.000,3353.7604,N,09832.0276,W,2,07,1.5,323.8,M,-23.7,M,1.8,0000*4C
$GPGSA,A,3,27,21,14,22,09,15,18,,,,,,3.0,1.5,2.7*37
$GPRMC,160650.000,A,3353.7604,N,09832.0276,W,0.15,137.84,010412,,,D*76
$GPGGA,160651.000,3353.7604,N,09832.0277,W,2,07,1.5,323.8,M,-23.7,M,0.8,0000*4D
$GPGSA,A,3,27,21,14,22,09,15,18,,,,,,3.0,1.5,2.7*37
$GPRMC,160651.000,A,3353.7604,N,09832.0277,W,0.10,139.65,010412,,,D*72
$GPGGA,160652.000,3353.7604,N,09832.0277,W,2,07,1.5,323.7,M,-23.7,M,0.8,0000*41
$GPGSA,A,3,27,21,14,22,09,15,18,,,,,,3.0,1.5,2.7*37
$GPGSV,3,1,11,18,59,042,36,21,57,145,31,22,52,313,31,14,46,231,25*7A
$GPGSV,3,2,11,09,38,074,30,06,27,263,,27,25,051,31,03,21,274,14*7E
$GPGSV,3,3,11,15,19,046,27,19,14,312,,51,49,195,37*4F
$GPRMC,160652.000,A,3353.7604,N,09832.0277,W,0.10,130.67,010412,,,D*7A
$GPGGA,160653.000,3353.7605,N,09832.0277,W,2,07,1.5,323.7,M,-23.7,M,0.8,0000*41
$GPGSA,A,3,27,21,14,22,09,15,18,,,,,,3.0,1.5,2.7*37
$GPGSV,3,1,11,18,59,042,36,21,57,145,31,22,52,313,31,14,46,231,25*7A
$GPGSV,3,2,11,09,38,074,30,06,27,263,,27,25,051,31,03,21,274,15*7F
$GPGSV,3,3,11,15,19,046,27,19,14,312,,51,49,195,37*4F
$GPRMC,160653.000,A,3353.7605,N,09832.0277,W,0.07,118.01,010412,,,D*76
$GPGGA,160654.000,3353.7605,N,09832.0278,W,2,07,1.5,323.7,M,-23.7,M,1.8,0000*48
$GPGSA,A,3,27,21,14,22,09,15,18,,,,,,3.0,1.5,2.7*37
$GPRMC,160654.000,A,3353.7605,N,09832.0278,W,0.09,138.87,010412,,,D*7C
$GPGGA,160655.000,3353.7605,N,09832.0278,W,2,07,1.5,323.8,M,-23.7,M,2.8,0000*45
$GPGSA,A,3,27,21,14,22,09,15,18,,,,,,3.0,1.5,2.7*37
$GPRMC,160655.000,A,3353.7605,N,09832.0278,W,0.13,153.50,010412,,,D*71
$GPGGA,160656.000,3353.7605,N,09832.0278,W,2,07,1.5,324.0,M,-23.7,M,3.8,0000*48
$GPGSA,A,3,27,21,14,22,09,15,18,,,,,,3.0,1.5,2.7*37
$GPRMC,160656.000,A,3353.7605,N,09832.0278,W,0.18,72.80,010412,,,D*46
$GPGGA,160657.000,3353.7606,N,09832.0278,W,2,07,1.5,323.8,M,-23.7,M,0.8,0000*46
$GPGSA,A,3,27,21,14,22,09,15,18,,,,,,3.0,1.5,2.7*37
$GPRMC,160657.000,A,3353.7606,N,09832.0278,W,0.17,89.65,010412,,,D*44
$GPGGA,160658.000,3353.7605,N,09832.0278,W,2,07,1.5,323.7,M,-23.7,M,0.8,0000*45
$GPGSA,A,3,27,21,14,22,09,15,18,,,,,,3.0,1.5,2.7*37
$GPRMC,160658.000,A,3353.7605,N,09832.0278,W,0.19,144.27,010412,,,D*70
$GPGGA,160659.000,3353.7605,N,09832.0278,W,2,07,1.5,323.8,M,-23.7,M,0.8,0000*4B
$GPGSA,A,3,27,21,14,22,09,15,18,,,,,,3.0,1.5,2.7*37
$GPRMC,160659.000,A,3353.7605,N,09832.0278,W,0.20,154.25,010412,,,D*78
$GPGGA,160700.000,3353.7605,N,09832.0279,W,2,07,1.5,323.6,M,-23.7,M,1.8,0000*48
$GPGSA,A,3,27,21,14,22,09,15,18,,,,,,3.0,1.5,2.7*37
$GPRMC,160700.000,A,3353.7605,N,09832.0279,W,0.36,189.83,010412,,,D*7F
$GPGGA,160701.000,3353.7604,N,09832.0280,W,2,07,1.5,323.4,M,-23.7,M,2.8,0000*4F
$GPGSA,A,3,27,21,14,22,09,15,18,,,,,,3.0,1.5,2.7*37
$GPRMC,160701.000,A,3353.7604,N,09832.0280,W,0.41,196.68,010412,,,D*72
$GPGGA,160702.000,3353.7603,N,09832.0279,W,2,07,1.5,323.1,M,-23.7,M,3.8,0000*49
$GPGSA,A,3,27,21,14,22,09,15,18,,,,,,3.0,1.5,2.7*37
$GPGSV,3,1,11,18,59,042,35,21,57,145,30,22,52,313,32,14,46,231,19*74
$GPGSV,3,2,11,09,38,074,30,06,27,263,,27,25,051,31,03,21,274,15*7F
$GPGSV,3,3,11,15,19,046,23,19,14,312,,51,49,195,38*44
$GPRMC,160702.000,A,3353.7603,N,09832.0279,W,0.33,188.75,010412,,,D*76
$GPGGA,160703.000,3353.7602,N,09832.0279,W,2,07,1.5,322.9,M,-23.7,M,0.8,0000*43
$GPGSA,A,3,27,21,14,22,09,15,18,,,,,,3.0,1.5,2.7*37
$GPGSV,3,1,11,18,59,042,35,21,57,145,30,22,52,313,32,14,46,231,19*74
$GPGSV,3,2,11,09,38,074,30,06,27,263,,27,25,051,31,03,21,274,15*7F
$GPGSV,3,3,11,15,19,046,23,19,14,312,,51,49,195,38*44
$GPRMC,160703.000,A,3353.7602,N,09832.0279,W,0.18,159.58,010412,,,D*7C
$GPGGA,160704.000,3353.7602,N,09832.0278,W,2,07,1.5,322.8,M,-23.7,M,0.8,0000*44
$GPGSA,A,3,27,21,14,22,09,15,18,,,,,,3.0,1.5,2.7*37
$GPRMC,160704.000,A,3353.7602,N,09832.0278,W,0.38,197.39,010412,,,D*7D
$GPGGA,160705.000,3353.7602,N,09832.0278,W,2,07,1.5,322.7,M,-23.7,M,0.8,0000*4A
$GPGSA,A,3,27,21,14,22,09,15,18,,,,,,3.0,1.5,2.7*37
$GPRMC,160705.000,A,3353.7602,N,09832.0278,W,0.16,84.91,010412,,,D*41
$GPGGA,160706.000,3353.7603,N,09832.0276,W,2,07,1.5,322.8,M,-23.7,M,1.8,0000*48
$GPGSA,A,3,27,21,14,22,09,15,18,,,,,,3.0,1.5,2.7*37
$GPRMC,160706.000,A,3353.7603,N,09832.0276,W,0.31,67.33,010412,,,D*4D
$GPGGA,160707.000,3353.7603,N,09832.0276,W,2,06,2.2,322.8,M,-23.7,M,0.8,0000*4D
$GPGSA,A,3,27,21,22,09,15,18,,,,,,,4.2,2.2,3.6*33
$GPRMC,160707.000,A,3353.7603,N,09832.0276,W,0.12,127.97,010412,,,D*76
$GPGGA,160708.000,3353.7603,N,09832.0275,W,2,06,2.2,322.8,M,-23.7,M,0.8,0000*41
$GPGSA,A,3,27,21,22,09,15,18,,,,,,,4.2,2.2,3.6*33
$GPRMC,160708.000,A,3353.7603,N,09832.0275,W,0.14,138.14,010412,,,D*79
$GPGGA,160709.000,3353.7603,N,09832.0275,W,2,06,2.2,322.7,M,-23.7,M,0.8,0000*4F
$GPGSA,A,3,27,21,22,09,15,18,,,,,,,4.2,2.2,3.6*33
$GPRMC,160709.000,A,3353.7603,N,09832.0275,W,0.18,175.43,010412,,,D*7F
$GPGGA,160710.000,3353.7603,N,09832.0275,W,2,06,2.2,322.6,M,-23.7,M,0.8,0000*46
$GPGSA,A,3,27,21,22,09,15,18,,,,,,,4.2,2.2,3.6*33
$GPRMC,160710.000,A,3353.7603,N,09832.0275,W,0.14,170.36,010412,,,D*7C
$GPGGA,160711.000,3353.7602,N,09832.0274,W,2,06,2.2,322.6,M,-23.7,M,0.8,0000*47
$GPGSA,A,3,27,21,22,09,15,18,,,,,,,4.2,2.2,3.6*33
$GPRMC,160711.000,A,3353.7602,N,09832.0274,W,0.23,176.15,010412,,,D*7E
$GPGGA,160712.000,3353.7602,N,09832.0274,W,2,06,2.2,322.5,M,-23.7,M,1.8,0000*46
$GPGSA,A,3,27,21,22,09,15,18,,,,,,,4.2,2.2,3.6*33
$GPRMC,160712.000,A,3353.7602,N,09832.0274,W,0.15,130.24,010412,,,D*78
$GPGGA,160713.000,3353.7602,N,09832.0274,W,2,06,2.2,322.6,M,-23.7,M,2.8,0000*47
$GPGSA,A,3,27,21,22,09,15,18,,,,,,,4.2,2.2,3.6*33
$GPGSV,3,1,11,18,59,042,33,21,57,145,28,22,52,313,32,14,46,231,*73
$GPGSV,3,2,11,09,38,074,29,06,27,263,,27,25,051,31,03,21,274,16*74
$GPGSV,3,3,11,15,19,046,23,19,14,312,,51,49,195,38*44
$GPRMC,160713.000,A,3353.7602,N,09832.0274,W,0.21,173.20,010412,,,D*7D
$GPGGA,160714.000,3353.7602,N,09832.0273,W,2,06,2.2,322.6,M,-23.7,M,3.8,0000*46
$GPGSA,A,3,27,21,22,09,15,18,,,,,,,4.2,2.2,3.6*33
$GPRMC,160714.000,A,3353.7602,N,09832.0273,W,0.25,174.69,010412,,,D*73
$GPGGA,160715.000,3353.7602,N,09832.0272,W,2,06,2.2,322.8,M,-23.7,M,0.8,0000*4B
$GPGSA,A,3,27,21,22,09,15,18,,,,,,,4.2,2.2,3.6*33
$GPRMC,160715.000,A,3353.7602,N,09832.0272,W,0.34,168.32,010412,,,D*70
$GPGGA,160716.000,3353.7602,N,09832.0271,W,2,06,2.2,322.9,M,-23.7,M,0.8,0000*4A
$GPGSA,A,3,27,21,22,09,15,18,,,,,,,4.2,2.2,3.6*33
$GPRMC,160716.000,A,3353.7602,N,09832.0271,W,0.18,112.07,010412,,,D*75
$GPGGA,160717.000,3353.7602,N,09832.0271,W,2,06,2.2,323.0,M,-23.7,M,0.8,0000*43
$GPGSA,A,3,27,21,22,09,15,18,,,,,,,4.2,2.2,3.6*33
$GPRMC,160717.000,A,3353.7602,N,09832.0271,W,0.16,112.30,010412,,,D*7E
$GPGGA,160718.000,3353.7602,N,09832.0270,W,2,06,2.2,323.1,M,-23.7,M,1.8,0000*4D
$GPGSA,A,3,27,21,22,09,15,18,,,,,,,4.2,2.2,3.6*33
$GPRMC,160718.000,A,3353.7602,N,09832.0270,W,0.26,76.09,010412,,,D*4A
$GPGGA,160719.000,3353.7603,N,09832.0269,W,2,06,2.2,323.2,M,-23.7,M,2.8,0000*45
$GPGSA,A,3,27,21,22,09,15,18,,,,,,,4.2,2.2,3.6*33
$GPRMC,160719.000,A,3353.7603,N,09832.0269,W,0.17,84.13,010412,,,D*46
$GPGGA,160720.000,3353.7603,N,09832.0268,W,2,06,2.2,323.3,M,-23.7,M,3.8,0000*4E
$GPGSA,A,3,27,21,22,09,15,18,,,,,,,4.2,2.2,3.6*33
$GPRMC,160720.000,A,3353.7603,N,09832.0268,W,0.20,82.50,010412,,,D*48
$GPGGA,160721.000,3353.7603,N,09832.0268,W,2,06,2.2,323.4,M,-23.7,M,0.8,0000*4B
$GPGSA,A,3,27,21,22,09,15,18,,,,,,,4.2,2.2,3.6*33
$GPRMC,160721.000,A,3353.7603,N,09832.0268,W,0.15,170.37,010412,,,D*72
$GPGGA,160722.000,3353.7603,N,09832.0268,W,2,06,2.2,323.4,M,-23.7,M,0.8,0000*48
$GPGSA,A,3,27,21,22,09,15,18,,,,,,,4.2,2.2,3.6*33
$GPRMC,160722.000,A,3353.7603,N,09832.0268,W,0.10,123.80,010412,,,D*7E
$GPGGA,160723.000,3353.7604,N,09832.0268,W,2,06,2.2,323.5,M,-23.7,M,0.8,0000*4F
$GPGSA,A,3,27,21,22,09,15,18,,,,,,,4.2,2.2,3.6*33
$GPGSV,3,1,11,18,59,043,32,21,56,146,28,22,52,314,32,14,47,232,*74
$GPGSV,3,2,11,09,38,073,30,06,27,263,,27,24,051,32,03,21,274,19*76
$GPGSV,3,3,11,15,18,046,23,19,14,311,,51,49,195,44*4D
$GPRMC,160723.000,A,3353.7604,N,09832.0268,W,0.12,102.58,010412,,,D*7C
$GPGGA,160724.000,3353.7604,N,09832.0268,W,2,06,2.2,323.6,M,-23.7,M,0.8,0000*4B
$GPGSA,A,3,27,21,22,09,15,18,,,,,,,4.2,2.2,3.6*33
$GPRMC,160724.000,A,3353.7604,N,09832.0268,W,0.16,147.03,010412,,,D*70
$GPGGA,160725.000,3353.7604,N,09832.0268,W,2,06,2.2,323.7,M,-23.7,M,1.8,0000*4A
$GPGSA,A,3,27,21,22,09,15,18,,,,,,,4.2,2.2,3.6*33
$GPRMC,160725.000,A,3353.7604,N,09832.0268,W,0.15,145.67,010412,,,D*72
$GPGGA,160726.000,3353.7604,N,09832.0267,W,2,07,1.5,323.9,M,-23.7,M,2.8,0000*4E
$GPGSA,A,3,27,21,14,22,09,15,18,,,,,,3.0,1.5,2.7*37
$GPRMC,160726.000,A,3353.7604,N,09832.0267,W,0.33,68.69,010412,,,D*4A
$GPGGA,160727.000,3353.7605,N,09832.0265,W,2,07,1.5,324.2,M,-23.7,M,0.8,0000*42
$GPGSA,A,3,27,21,14,22,09,15,18,,,,,,3.0,1.5,2.7*37
$GPGSV,3,1,11,18,59,043,31,21,56,146,28,22,52,314,32,14,47,232,15*73
$GPGSV,3,2,11,09,38,073,30,06,27,263,,27,24,051,32,03,21,274,19*76
$GPGSV,3,3,11,15,18,046,23,19,14,311,,51,49,195,38*46
$GPRMC,160727.000,A,3353.7605,N,09832.0265,W,0.57,57.71,010412,,,D*4F
$GPGGA,160728.000,3353.7607,N,09832.0263,W,2,07,1.5,324.6,M,-23.7,M,0.8,0000*4D
$GPGSA,A,3,27,21,14,22,09,15,18,,,,,,3.0,1.5,2.7*37
$GPGSV,3,1,11,18,59,043,31,21,56,146,28,22,52,314,32,14,47,232,15*73
$GPGSV,3,2,11,09,38,073,30,06,27,263,,27,24,051,32,03,21,274,19*76
$GPGSV,3,3,11,15,18,046,23,19,14,311,,51,49,195,38*46
$GPRMC,160728.000,A,3353.7607,N,09832.0263,W,0.52,62.71,010412,,,D*47
$GPGGA,160729.000,3353.7607,N,09832.0262,W,2,07,1.5,325.0,M,-23.7,M,0.8,0000*4A
$GPGSA,A,3,27,21,14,22,09,15,18,,,,,,3.0,1.5,2.7*37
$GPRMC,160729.000,A,3353.7607,N,09832.0262,W,0.32,80.82,010412,,,D*41
$GPGGA,160730.000,3353.7607,N,09832.0262,W,2,07,1.5,325.0,M,-23.7,M,1.8,0000*43
$GPGSA,A,3,27,21,14,22,09,15,18,,,,,,3.0,1.5,2.7*37
$GPRMC,160730.000,A,3353.7607,N,09832.0262,W,0.18,148.89,010412,,,D*7F
$GPGGA,160731.000,3353.7607,N,09832.0261,W,2,07,1.5,325.3,M,-23.7,M,0.8,0000*43
$GPGSA,A,3,27,21,14,22,09,15,18,,,,,,3.0,1.5,2.7*37
$GPRMC,160731.000,A,3353.7607,N,09832.0261,W,0.22,83.11,010412,,,D*43
$GPGGA,160732.000,3353.7607,N,09832.0261,W,2,07,1.5,325.4,M,-23.7,M,1.8,0000*46
$GPGSA,A,3,27,21,14,22,09,15,18,,,,,,3.0,1.5,2.7*37
$GPRMC,160732.000,A,3353.7607,N,09832.0261,W,0.18,113.87,010412,,,D*7E
$GPGGA,160733.000,3353.7606,N,09832.0262,W,2,07,1.5,325.4,M,-23.7,M,0.8,0000*44
$GPGSA,A,3,27,21,14,22,09,15,18,,,,,,3.0,1.5,2.7*37
$GPGSV,3,1,11,18,59,043,31,21,56,146,28,22,52,314,33,14,47,232,17*70
$GPGSV,3,2,11,09,38,073,30,06,27,263,,27,24,051,32,03,21,274,*7E
$GPGSV,3,3,11,15,18,046,24,19,14,311,,51,49,195,44*4A
$GPRMC,160733.000,A,3353.7606,N,09832.0262,W,0.26,188.78,010412,,,D*72
$GPGGA,160734.000,3353.7606,N,09832.0262,W,2,07,1.5,325.3,M,-23.7,M,0.8,0000*44
$GPGSA,A,3,27,21,14,22,09,15,18,,,,,,3.0,1.5,2.7*37
$GPRMC,160734.000,A,3353.7606,N,09832.0262,W,0.13,165.72,010412,,,D*7A
$GPGGA,160735.000,3353.7606,N,09832.0262,W,2,07,1.5,325.4,M,-23.7,M,0.8,0000*42
$GPGSA,A,3,27,21,14,22,09,15,18,,,,,,3.0,1.5,2.7*37
$GPRMC,160735.000,A,3353.7606,N,09832.0262,W,0.15,85.04,010412,,,D*43
$GPGGA,160736.000,3353.7607,N,09832.0262,W,2,07,1.5,325.6,M,-23.7,M,1.8,0000*43
$GPGSA,A,3,27,21,14,22,09,15,18,,,,,,3.0,1.5,2.7*37
$GPRMC,160736.000,A,3353.7607,N,09832.0262,W,0.22,63.97,010412,,,D*47
$GPGGA,160737.000,3353.7608,N,09832.0261,W,2,07,1.5,325.8,M,-23.7,M,0.8,0000*41
$GPGSA,A,3,27,21,14,22,09,15,18,,,,,,3.0,1.5,2.7*37
$GPRMC,160737.000,A,3353.7608,N,09832.0261,W,0.44,50.70,010412,,,D*43
$GPGGA,160738.000,3353.7608,N,09832.0260,W,2,07,1.5,325.8,M,-23.7,M,1.8,0000*4E
$GPGSA,A,3,27,21,14,22,09,15,18,,,,,,3.0,1.5,2.7*37
$GPGSV,3,1,11,18,59,043,31,21,56,146,28,22,52,314,33,14,47,232,18*7F
$GPGSV,3,2,11,09,38,073,31,06,27,263,,27,24,051,32,03,21,274,*7F
$GPGSV,3,3,11,15,18,046,25,19,14,311,,51,49,195,44*4B
$GPRMC,160738.000,A,3353.7608,N,09832.0260,W,0.11,125.31,010412,,,D*7B
$GPGGA,160739.000,3353.7608,N,09832.0260,W,2,07,1.5,325.7,M,-23.7,M,0.8,0000*41
$GPGSA,A,3,27,21,14,22,09,15,18,,,,,,3.0,1.5,2.7*37
$GPRMC,160739.000,A,3353.7608,N,09832.0260,W,0.22,153.95,010412,,,D*75
$GPGGA,160740.000,3353.7608,N,09832.0260,W,2,06,2.2,325.8,M,-23.7,M,0.8,0000*45
$GPGSA,A,3,27,21,22,09,15,18,,,,,,,4.2,2.2,3.6*33
$GPRMC,160740.000,A,3353.7608,N,09832.0260,W,0.21,123.92,010412,,,D*78
$GPGGA,160741.000,3353.7607,N,09832.0260,W,2,06,2.2,325.9,M,-23.7,M,0.8,0000*4A
$GPGSA,A,3,27,21,22,09,15,18,,,,,,,4.2,2.2,3.6*33
$GPRMC,160741.000,A,3353.7607,N,09832.0260,W,0.18,117.33,010412,,,D*70
$GPGGA,160742.000,3353.7608,N,09832.0259,W,2,06,2.2,326.0,M,-23.7,M,0.8,0000*46
$GPGSA,A,3,27,21,22,09,15,18,,,,,,,4.2,2.2,3.6*33
$GPGSV,3,1,11,18,59,043,31,21,56,146,27,22,52,314,33,14,47,232,08*71
$GPGSV,3,2,11,09,38,073,32,06,27,263,,27,24,051,32,03,21,274,*7C
$GPGSV,3,3,11,15,18,046,26,19,14,311,,51,49,195,44*48
$GPRMC,160742.000,A,3353.7608,N,09832.0259,W,0.16,99.65,010412,,,D*4C
$GPGGA,160743.000,3353.7608,N,09832.0259,W,2,06,2.2,326.2,M,-23.7,M,1.8,0000*44
$GPGSA,A,3,27,21,22,09,15,18,,,,,,,4.2,2.2,3.6*33
$GPGSV,3,1,11,18,59,043,30,21,56,146,27,22,52,314,33,14,47,232,*78
$GPGSV,3,2,11,09,38,073,32,06,27,263,,27,24,051,32,03,21,274,*7C
$GPGSV,3,3,11,15,18,046,27,19,14,311,,51,49,195,44*49
$GPRMC,160743.000,A,3353.7608,N,09832.0259,W,0.18,115.01,010412,,,D*74
$GPGGA,160744.000,3353.7608,N,09832.0259,W,2,06,2.2,326.3,M,-23.7,M,2.8,0000*41
$GPGSA,A,3,27,21,22,09,15,18,,,,,,,4.2,2.2,3.6*33
$GPRMC,160744.000,A,3353.7608,N,09832.0259,W,0.16,105.45,010412,,,D*7C
$GPGGA,160745.000,3353.7608,N,09832.0258,W,2,06,2.2,326.5,M,-23.7,M,0.8,0000*45
$GPGSA,A,3,27,21,22,09,15,18,,,,,,,4.2,2.2,3.6*33
$GPRMC,160745.000,A,3353.7608,N,09832.0258,W,0.12,99.63,010412,,,D*48
$GPGGA,160746.000,3353.7608,N,09832.0258,W,2,06,2.2,326.8,M,-23.7,M,0.8,0000*4B
$GPGSA,A,3,27,21,22,09,15,18,,,,,,,4.2,2.2,3.6*33
$GPRMC,160746.000,A,3353.7608,N,09832.0258,W,0.14,64.27,010412,,,D*4F
$GPGGA,160747.000,3353.7608,N,09832.0258,W,2,06,2.2,327.2,M,-23.7,M,0.8,0000*41
$GPGSA,A,3,27,21,22,09,15,18,,,,,,,4.2,2.2,3.6*33
$GPGSV,3,1,11,18,59,043,30,21,56,146,27,22,52,314,33,14,47,232,*78
$GPGSV,3,2,11,09,38,073,32,06,27,263,,27,24,051,33,03,21,274,*7D
$GPGSV,3,3,11,15,18,046,28,19,14,311,,51,49,195,38*4D
$GPRMC,160747.000,A,3353.7608,N,09832.0258,W,0.18,86.23,010412,,,D*4A
$GPGGA,160748.000,3353.7609,N,09832.0257,W,2,06,2.1,327.6,M,-23.7,M,1.8,0000*46
$GPGSA,A,3,27,21,22,09,15,18,,,,,,,4.2,2.1,3.6*30
$GPGSV,3,1,11,18,59,043,30,21,56,146,27,22,52,314,33,14,47,232,*78
$GPGSV,3,2,11,09,38,073,32,06,27,263,,27,24,051,33,03,21,274,*7D
$GPGSV,3,3,11,15,18,046,28,19,14,311,,51,49,195,37*42
$GPRMC,160748.000,A,3353.7609,N,09832.0257,W,0.19,70.51,010412,,,D*46
$GPGGA,160749.000,3353.7609,N,09832.0257,W,2,06,2.1,328.0,M,-23.7,M,2.8,0000*4D
$GPGSA,A,3,27,21,22,09,15,18,,,,,,,4.2,2.1,3.6*30
$GPRMC,160749.000,A,3353.7609,N,09832.0257,W,0.20,77.25,010412,,,D*49
$GPGGA,160750.000,3353.7610,N,09832.0256,W,2,07,1.5,328.5,M,-23.7,M,3.8,0000*4E
$GPGSA,A,3,27,21,14,22,09,15,18,,,,,,3.0,1.5,2.7*37
$GPRMC,160750.000,A,3353.7610,N,09832.0256,W,0.36,53.91,010412,,,D*46
$GPGGA,160751.000,3353.7611,N,09832.0254,W,2,07,1.5,329.1,M,-23.7,M,0.8,0000*4A
$GPGSA,A,3,27,21,14,22,09,15,18,,,,,,3.0,1.5,2.7*37
$GPRMC,160751.000,A,3353.7611,N,09832.0254,W,0.47,61.75,010412,,,D*49
$GPGGA,160752.000,3353.7612,N,09832.0253,W,2,07,1.5,329.8,M,-23.7,M,0.8,0000*44
$GPGSA,A,3,27,21,14,22,09,15,18,,,,,,3.0,1.5,2.7*37
$GPGSV,3,1,11,18,59,043,29,21,56,146,27,22,52,314,32,14,47,232,15*75
$GPGSV,3,2,11,09,38,073,32,06,27,263,,27,24,051,33,03,21,274,*7D
$GPGSV,3,3,11,15,18,046,29,19,14,311,,51,49,195,38*4C
$GPRMC,160752.000,A,3353.7612,N,09832.0253,W,0.60,52.84,010412,,,D*45
$GPGGA,160753.000,3353.7614,N,09832.0251,W,2,07,1.5,330.5,M,-23.7,M,0.8,0000*44
$GPGSA,A,3,27,21,14,22,09,15,18,,,,,,3.0,1.5,2.7*37
$GPGSV,3,1,11,18,59,043,29,21,56,146,27,22,52,314,32,14,47,232,15*75
