$GPGGA,043434.000,3353.7546,N,09832.0261,W,2,06,1.9,319.8,M,-23.7,M,0.8,0000*4A
$GPGSA,A,3,08,11,28,07,17,01,,,,,,,4.1,1.9,3.6*38
$GPGSV,3,1,11,08,69,148,33,17,63,252,31,28,60,349,37,01,40,071,41*75
$GPGSV,3,2,11,26,29,268,22,11,29,053,29,07,29,147,40,15,09,309,*70
$GPGSV,3,3,11,27,08,321,,04,04,193,,51,49,195,38*40
$GPRMC,043434.000,A,3353.7546,N,09832.0261,W,0.21,91.21,010412,,,D*40
$GPGGA,043435.000,3353.7546,N,09832.0261,W,2,06,1.9,319.8,M,-23.7,M,0.8,0000*4B
$GPGSA,A,3,08,11,28,07,17,01,,,,,,,4.1,1.9,3.6*38
$GPRMC,043435.000,A,3353.7546,N,09832.0261,W,0.19,130.68,010412,,,D*7D
$GPGGA,043436.000,3353.7546,N,09832.0260,W,2,06,1.9,319.8,M,-23.7,M,0.8,0000*49
$GPGSA,A,3,08,11,28,07,17,01,,,,,,,4.1,1.9,3.6*38
$GPRMC,043436.000,A,3353.7546,N,09832.0260,W,0.17,135.35,010412,,,D*7C
$GPGGA,043437.000,3353.7546,N,09832.0260,W,2,06,1.9,319.7,M,-23.7,M,0.8,0000*47
$GPGSA,A,3,08,11,28,07,17,01,,,,,,,4.1,1.9,3.6*38
$GPRMC,043437.000,A,3353.7546,N,09832.0260,W,0.18,135.81,010412,,,D*7D
$GPGGA,043438.000,3353.7546,N,09832.0260,W,2,06,1.9,319.7,M,-23.7,M,0.8,0000*48
$GPGSA,A,3,08,11,28,07,17,01,,,,,,,4.1,1.9,3.6*38
$GPRMC,043438.000,A,3353.7546,N,09832.0260,W,0.17,128.31,010412,,,D*7A
$GPGGA,043439.000,3353.7546,N,09832.0260,W,2,06,1.9,319.7,M,-23.7,M,0.8,0000*49
$GPGSA,A,3,08,11,28,07,17,01,,,,,,,4.1,1.9,3.6*38
$GPGSV,3,1,11,08,69,148,34,17,63,252,31,28,60,349,37,01,40,071,41*72
$GPGSV,3,2,11,26,29,268,21,11,29,053,28,07,29,147,40,15,09,309,*72
$GPGSV,3,3,11,27,08,321,,04,04,193,,51,49,195,38*40
$GPRMC,043439.000,A,3353.7546,N,09832.0260,W,0.15,137.84,010412,,,D*79
$GPGGA,043440.000,3353.7545,N,09832.0261,W,2,06,1.9,319.7,M,-23.7,M,0.8,0000*45
$GPGSA,A,3,08,11,28,07,17,01,,,,,,,4.1,1.9,3.6*38
$GPRMC,043440.000,A,3353.7545,N,09832.0261,W,0.10,146.72,010412,,,D*7F
$GPGGA,043441.000,3353.7546,N,09832.0261,W,2,06,1.9,319.6,M,-23.7,M,0.8,0000*46
$GPGSA,A,3,08,11,28,07,17,01,,,,,,,4.1,1.9,3.6*38
$GPRMC,043441.000,A,3353.7546,N,09832.0261,W,0.11,80.85,010412,,,D*4F
$GPGGA,043442.000,3353.7546,N,09832.0261,W,2,06,1.9,319.6,M,-23.7,M,1.8,0000*44
$GPGSA,A,3,08,11,28,07,17,01,,,,,,,4.1,1.9,3.6*38
$GPRMC,043442.000,A,3353.7546,N,09832.0261,W,0.14,83.28,010412,,,D*4D
$GPGGA,043443.000,3353.7546,N,09832.0261,W,2,06,1.9,319.6,M,-23.7,M,2.8,0000*46
$GPGSA,A,3,08,11,28,07,17,01,,,,,,,4.1,1.9,3.6*38
$GPRMC,043443.000,A,3353.7546,N,09832.0261,W,0.14,74.16,010412,,,D*49
$GPGGA,043444.000,3353.7547,N,09832.0261,W,2,06,1.9,319.5,M,-23.7,M,0.8,0000*41
$GPGSA,A,3,08,11,28,07,17,01,,,,,,,4.1,1.9,3.6*38
$GPGSV,3,1,11,08,69,148,33,17,63,252,31,28,60,349,37,01,40,071,41*75
$GPGSV,3,2,11,26,29,268,21,11,29,053,28,07,29,147,40,15,09,309,*72
$GPGSV,3,3,11,27,08,321,,04,04,193,,51,49,195,38*40
$GPRMC,043444.000,A,3353.7547,N,09832.0261,W,0.13,77.15,010412,,,D*48
$GPGGA,043445.000,3353.7547,N,09832.0261,W,2,06,1.9,319.5,M,-23.7,M,0.8,0000*40
$GPGSA,A,3,08,11,28,07,17,01,,,,,,,4.1,1.9,3.6*38
$GPRMC,043445.000,A,3353.7547,N,09832.0261,W,0.14,82.17,010412,,,D*46
$GPGGA,043446.000,3353.7547,N,09832.0260,W,2,06,1.9,319.4,M,-23.7,M,0.8,0000*43
$GPGSA,A,3,08,11,28,07,17,01,,,,,,,4.1,1.9,3.6*38
$GPRMC,043446.000,A,3353.7547,N,09832.0260,W,0.18,91.98,010412,,,D*4D
$GPGGA,043447.000,3353.7547,N,09832.0260,W,2,06,1.9,319.4,M,-23.7,M,0.8,0000*42
$GPGSA,A,3,08,11,28,07,17,01,,,,,,,4.1,1.9,3.6*38
$GPRMC,043447.000,A,3353.7547,N,09832.0260,W,0.15,137.00,010412,,,D*7D
$GPGGA,043448.000,3353.7547,N,09832.0260,W,2,06,1.9,319.4,M,-23.7,M,1.8,0000*4C
$GPGSA,A,3,08,11,28,07,17,01,,,,,,,4.1,1.9,3.6*38
$GPRMC,043448.000,A,3353.7547,N,09832.0260,W,0.15,134.42,010412,,,D*77
$GPGGA,043449.000,3353.7547,N,09832.0261,W,2,06,1.9,319.3,M,-23.7,M,0.8,0000*4A
$GPGSA,A,3,08,11,28,07,17,01,,,,,,,4.1,1.9,3.6*38
$GPGSV,3,1,11,08,69,148,33,17,63,252,31,28,60,349,37,01,40,071,41*75
$GPGSV,3,2,11,26,29,268,21,11,29,053,28,07,29,147,40,15,09,309,*72
$GPGSV,3,3,11,27,08,321,,04,04,193,,51,49,195,38*40
$GPRMC,043449.000,A,3353.7547,N,09832.0261,W,0.15,142.99,010412,,,D*70
$GPGGA,043450.000,3353.7546,N,09832.0261,W,2,06,1.9,319.3,M,-23.7,M,1.8,0000*42
$GPGSA,A,3,08,11,28,07,17,01,,,,,,,4.1,1.9,3.6*38
$GPRMC,043450.000,A,3353.7546,N,09832.0261,W,0.15,141.76,010412,,,D*7B
$GPGGA,043451.000,3353.7546,N,09832.0261,W,2,06,1.9,319.2,M,-23.7,M,0.8,0000*43
$GPGSA,A,3,08,11,28,07,17,01,,,,,,,4.1,1.9,3.6*38
$GPRMC,043451.000,A,3353.7546,N,09832.0261,W,0.14,143.90,010412,,,D*71
$GPGGA,043452.000,3353.7546,N,09832.0261,W,2,06,1.9,319.1,M,-23.7,M,0.8,0000*43
$GPGSA,A,3,08,11,28,07,17,01,,,,,,,4.1,1.9,3.6*38
$GPRMC,043452.000,A,3353.7546,N,09832.0261,W,0.09,140.40,010412,,,D*70
$GPGGA,043453.000,3353.7546,N,09832.0261,W,2,06,1.9,319.1,M,-23.7,M,0.8,0000*42
$GPGSA,A,3,08,11,28,07,17,01,,,,,,,4.1,1.9,3.6*38
$GPRMC,043453.000,A,3353.7546,N,09832.0261,W,0.13,81.20,010412,,,D*40
$GPGGA,043454.000,3353.7547,N,09832.0261,W,2,06,1.9,319.0,M,-23.7,M,1.8,0000*44
$GPGSA,A,3,08,11,28,07,17,01,,,,,,,4.1,1.9,3.6*38
$GPGSV,3,1,11,08,69,148,33,17,63,252,31,28,60,349,37,01,40,071,40*74
$GPGSV,3,2,11,26,29,268,22,11,29,053,28,07,29,147,39,15,09,309,*7F
$GPGSV,3,3,11,27,08,321,,04,04,193,,51,49,195,38*40
$GPRMC,043454.000,A,3353.7547,N,09832.0261,W,0.13,74.97,010412,,,D*40
$GPGGA,043455.000,3353.7547,N,09832.0261,W,2,06,1.9,318.9,M,-23.7,M,2.8,0000*4E
$GPGSA,A,3,08,11,28,07,17,01,,,,,,,4.1,1.9,3.6*38
$GPRMC,043455.000,A,3353.7547,N,09832.0261,W,0.14,78.44,010412,,,D*44
$GPGGA,043456.000,3353.7547,N,09832.0261,W,2,06,1.9,318.8,M,-23.7,M,3.8,0000*4D
$GPGSA,A,3,08,11,28,07,17,01,,,,,,,4.1,1.9,3.6*38
$GPRMC,043456.000,A,3353.7547,N,09832.0261,W,0.14,71.85,010412,,,D*43
$GPGGA,043457.000,3353.7548,N,09832.0261,W,2,06,1.9,318.7,M,-23.7,M,0.8,0000*4F
$GPGSA,A,3,08,11,28,07,17,01,,,,,,,4.1,1.9,3.6*38
$GPRMC,043457.000,A,3353.7548,N,09832.0261,W,0.12,77.12,010412,,,D*43
$GPGGA,043458.000,3353.7548,N,09832.0261,W,2,06,1.9,318.6,M,-23.7,M,0.8,0000*41
$GPGSA,A,3,08,11,28,07,17,01,,,,,,,4.1,1.9,3.6*38
$GPRMC,043458.000,A,3353.7548,N,09832.0261,W,0.18,88.99,010412,,,D*45
$GPGGA,043459.000,3353.7548,N,09832.0261,W,2,06,1.9,318.6,M,-23.7,M,0.8,0000*40
$GPGSA,A,3,08,11,28,07,17,01,,,,,,,4.1,1.9,3.6*38
$GPGSV,3,1,11,08,69,148,33,17,63,252,31,28,60,349,37,01,40,071,40*74
$GPGSV,3,2,11,26,29,268,22,11,29,053,29,07,29,147,39,15,09,309,*7E
$GPGSV,3,3,11,27,08,321,,04,04,193,,51,49,195,38*40
$GPRMC,043459.000,A,3353.7548,N,09832.0261,W,0.11,130.80,010412,,,D*77
$GPGGA,043500.000,3353.7548,N,09832.0261,W,2,06,1.9,318.5,M,-23.7,M,1.8,0000*4F
$GPGSA,A,3,08,11,28,07,17,01,,,,,,,4.1,1.9,3.6*38
$GPRMC,043500.000,A,3353.7548,N,09832.0261,W,0.11,126.30,010412,,,D*76
$GPGGA,043501.000,3353.7547,N,09832.0261,W,2,06,1.9,318.5,M,-23.7,M,2.8,0000*42
$GPGSA,A,3,08,11,28,07,17,01,,,,,,,4.1,1.9,3.6*38
$GPRMC,043501.000,A,3353.7547,N,09832.0261,W,0.10,124.17,010412,,,D*7E
$GPGGA,043502.000,3353.7547,N,09832.0261,W,2,06,1.9,318.4,M,-23.7,M,3.8,0000*41
$GPGSA,A,3,08,11,28,07,17,01,,,,,,,4.1,1.9,3.6*38
$GPRMC,043502.000,A,3353.7547,N,09832.0261,W,0.11,135.23,010412,,,D*7B
$GPGGA,043503.000,3353.7547,N,09832.0261,W,2,06,1.9,318.3,M,-23.7,M,0.8,0000*44
$GPGSA,A,3,08,11,28,07,17,01,,,,,,,4.1,1.9,3.6*38
$GPRMC,043503.000,A,3353.7547,N,09832.0261,W,0.10,129.02,010412,,,D*75
$GPGGA,043504.000,3353.7547,N,09832.0262,W,2,06,1.9,318.3,M,-23.7,M,0.8,0000*40
$GPGSA,A,3,08,11,28,07,17,01,,,,,,,4.1,1.9,3.6*38
$GPGSV,3,1,11,08,69,148,33,17,63,252,30,28,60,349,37,01,40,071,40*75
$GPGSV,3,2,11,26,29,268,22,11,29,053,29,07,29,147,40,15,09,309,*70
$GPGSV,3,3,11,27,08,321,,04,04,193,,51,49,195,38*40
$GPRMC,043504.000,A,3353.7547,N,09832.0262,W,0.06,139.30,010412,,,D*76
$GPGGA,043505.000,3353.7547,N,09832.0262,W,2,06,1.9,318.2,M,-23.7,M,0.8,0000*40
$GPGSA,A,3,08,11,28,07,17,01,,,,,,,4.1,1.9,3.6*38
$GPRMC,043505.000,A,3353.7547,N,09832.0262,W,0.12,74.66,010412,,,D*49
$GPGGA,043506.000,3353.7548,N,09832.0262,W,2,06,1.9,318.1,M,-23.7,M,1.8,0000*4E
$GPGSA,A,3,08,11,28,07,17,01,,,,,,,4.1,1.9,3.6*38
$GPRMC,043506.000,A,3353.7548,N,09832.0262,W,0.13,65.36,010412,,,D*41
$GPGGA,043507.000,3353.7548,N,09832.0262,W,2,06,1.9,318.0,M,-23.7,M,2.8,0000*4D
$GPGSA,A,3,08,11,28,07,17,01,,,,,,,4.1,1.9,3.6*38
$GPRMC,043507.000,A,3353.7548,N,09832.0262,W,0.11,69.81,010412,,,D*42
$GPGGA,043508.000,3353.7548,N,09832.0262,W,2,06,1.9,317.9,M,-23.7,M,0.8,0000*46
$GPGSA,A,3,08,11,28,07,17,01,,,,,,,4.1,1.9,3.6*38
$GPRMC,043508.000,A,3353.7548,N,09832.0262,W,0.15,80.99,010412,,,D*47
$GPGGA,043509.000,3353.7549,N,09832.0262,W,2,06,1.9,317.8,M,-23.7,M,0.8,0000*47
$GPGSA,A,3,08,11,28,07,17,01,,,,,,,4.1,1.9,3.6*38
$GPGSV,3,1,11,08,69,148,33,17,63,252,29,28,60,349,37,01,40,071,40*7D
$GPGSV,3,2,11,26,29,268,21,11,29,053,29,07,29,147,40,15,09,309,*73
$GPGSV,3,3,11,27,08,321,,04,04,193,,51,49,195,38*40
$GPRMC,043509.000,A,3353.7549,N,09832.0262,W,0.12,65.87,010412,,,D*44
$GPGGA,043510.000,3353.7549,N,09832.0262,W,2,06,1.9,317.8,M,-23.7,M,0.8,0000*4F
$GPGSA,A,3,08,11,28,07,17,01,,,,,,,4.1,1.9,3.6*38
$GPRMC,043510.000,A,3353.7549,N,09832.0262,W,0.22,84.05,010412,,,D*4A
$GPGGA,043511.000,3353.7549,N,09832.0262,W,2,06,1.9,317.7,M,-23.7,M,0.8,0000*41
$GPGSA,A,3,08,11,28,07,17,01,,,,,,,4.1,1.9,3.6*38
$GPRMC,043511.000,A,3353.7549,N,09832.0262,W,0.11,139.57,010412,,,D*7B
$GPGGA,043512.000,3353.7549,N,09832.0262,W,2,06,1.9,317.7,M,-23.7,M,1.8,0000*43
$GPGSA,A,3,08,11,28,07,17,01,,,,,,,4.1,1.9,3.6*38
$GPRMC,043512.000,A,3353.7549,N,09832.0262,W,0.16,132.07,010412,,,D*71
$GPGGA,043513.000,3353.7548,N,09832.0262,W,2,06,1.9,317.6,M,-23.7,M,0.8,0000*43
$GPGSA,A,3,08,11,28,07,17,01,,,,,,,4.1,1.9,3.6*38
$GPRMC,043513.000,A,3353.7548,N,09832.0262,W,0.16,129.14,010412,,,D*79
$GPGGA,043514.000,3353.7548,N,09832.0262,W,2,06,1.9,317.6,M,-23.7,M,1.8,0000*45
$GPGSA,A,3,08,11,28,07,17,01,,,,,,,4.1,1.9,3.6*38
$GPGSV,3,1,11,08,69,148,33,17,63,252,29,28,60,349,37,01,40,071,40*7D
$GPGSV,3,2,11,26,29,268,21,11,29,053,29,07,29,147,41,15,09,309,*72
$GPGSV,3,3,11,27,08,321,,04,04,193,,51,49,195,38*40
$GPRMC,043514.000,A,3353.7548,N,09832.0262,W,0.14,135.01,010412,,,D*75
$GPGGA,043515.000,3353.7548,N,09832.0262,W,2,06,1.9,317.6,M,-23.7,M,0.8,0000*45
$GPGSA,A,3,08,11,28,07,17,01,,,,,,,4.1,1.9,3.6*38
$GPRMC,043515.000,A,3353.7548,N,09832.0262,W,0.10,143.78,010412,,,D*7F
$GPGGA,043516.000,3353.7548,N,09832.0263,W,2,06,1.9,317.5,M,-23.7,M,0.8,0000*44
$GPGSA,A,3,08,11,28,07,17,01,,,,,,,4.1,1.9,3.6*38
$GPRMC,043516.000,A,3353.7548,N,09832.0263,W,0.08,166.73,010412,,,D*78
$GPGGA,043517.000,3353.7548,N,09832.0263,W,2,06,1.9,317.5,M,-23.7,M,0.8,0000*45
$GPGSA,A,3,08,11,28,07,17,01,,,,,,,4.1,1.9,3.6*38
$GPRMC,043517.000,A,3353.7548,N,09832.0263,W,0.11,61.72,010412,,,D*46
$GPGGA,043518.000,3353.7548,N,09832.0263,W,2,06,1.9,317.5,M,-23.7,M,1.8,0000*4B
$GPGSA,A,3,08,11,28,07,17,01,,,,,,,4.1,1.9,3.6*38
$GPRMC,043518.000,A,3353.7548,N,09832.0263,W,0.10,66.75,010412,,,D*48
$GPGGA,043519.000,3353.7545,N,09832.0261,W,2,06,1.9,319.9,M,-23.7,M,2.8,0000*44
$GPGSA,A,3,08,11,28,07,17,01,,,,,,,4.1,1.9,3.6*38
$GPGSV,3,1,11,08,68,149,33,17,63,253,29,28,60,350,36,01,40,071,40*75
$GPGSV,3,2,11,26,29,267,20,11,28,053,29,07,28,148,41,15,09,309,*73
$GPGSV,3,3,11,27,09,321,,04,04,193,,51,49,195,38*41
$GPRMC,043519.000,A,3353.7545,N,09832.0261,W,0.13,96.38,010412,,,D*43
$GPGGA,043520.000,3353.7542,N,09832.0260,W,2,06,1.9,321.8,M,-23.7,M,3.8,0000*43
$GPGSA,A,3,08,11,28,07,17,01,,,,,,,4.1,1.9,3.6*38
$GPRMC,043520.000,A,3353.7542,N,09832.0260,W,0.21,103.75,010412,,,D*7A
$GPGGA,043521.000,3353.7540,N,09832.0259,W,2,06,1.9,323.5,M,-23.7,M,0.8,0000*46
$GPGSA,A,3,08,11,28,07,17,01,,,,,,,4.1,1.9,3.6*38
$GPRMC,043521.000,A,3353.7540,N,09832.0259,W,0.30,106.01,010412,,,D*75
$GPGGA,043522.000,3353.7538,N,09832.0257,W,2,06,1.9,325.0,M,-23.7,M,0.8,0000*47
$GPGSA,A,3,08,11,28,07,17,01,,,,,,,4.1,1.9,3.6*38
$GPRMC,043522.000,A,3353.7538,N,09832.0257,W,0.37,108.91,010412,,,D*77
$GPGGA,043523.000,3353.7536,N,09832.0256,W,2,06,1.9,326.3,M,-23.7,M,0.8,0000*49
$GPGSA,A,3,08,11,28,07,17,01,,,,,,,4.1,1.9,3.6*38
$GPRMC,043523.000,A,3353.7536,N,09832.0256,W,0.39,129.90,010412,,,D*75
$GPGGA,043524.000,3353.7534,N,09832.0255,W,2,06,1.9,327.4,M,-23.7,M,0.8,0000*49
$GPGSA,A,3,08,11,28,07,17,01,,,,,,,4.1,1.9,3.6*38
$GPGSV,3,1,11,08,68,149,33,17,63,253,29,28,60,350,36,01,40,071,40*75
$GPGSV,3,2,11,26,29,267,21,11,28,053,29,07,28,148,41,15,09,309,*72
$GPGSV,3,3,11,27,09,321,,04,04,193,,51,49,195,38*41
$GPRMC,043524.000,A,3353.7534,N,09832.0255,W,0.42,130.65,010412,,,D*7D
$GPGGA,043525.000,3353.7533,N,09832.0254,W,2,06,1.9,328.4,M,-23.7,M,0.8,0000*41
$GPGSA,A,3,08,11,28,07,17,01,,,,,,,4.1,1.9,3.6*38
$GPRMC,043525.000,A,3353.7533,N,09832.0254,W,0.43,129.82,010412,,,D*7A
$GPGGA,043526.000,3353.7531,N,09832.0253,W,2,06,1.9,329.3,M,-23.7,M,0.8,0000*41
$GPGSA,A,3,08,11,28,07,17,01,,,,,,,4.1,1.9,3.6*38
$GPRMC,043526.000,A,3353.7531,N,09832.0253,W,0.42,130.64,010412,,,D*7D
$GPGGA,043527.000,3353.7530,N,09832.0252,W,2,06,1.9,330.1,M,-23.7,M,0.8,0000*4A
$GPGSA,A,3,08,11,28,07,17,01,,,,,,,4.1,1.9,3.6*38
$GPRMC,043527.000,A,3353.7530,N,09832.0252,W,0.42,131.11,010412,,,D*7F
$GPGGA,043528.000,3353.7529,N,09832.0252,W,2,06,1.9,330.7,M,-23.7,M,0.8,0000*4B
$GPGSA,A,3,08,11,28,07,17,01,,,,,,,4.1,1.9,3.6*38
$GPRMC,043528.000,A,3353.7529,N,09832.0252,W,0.34,134.92,010412,,,D*77
$GPGGA,043529.000,3353.7528,N,09832.0251,W,2,06,1.9,331.4,M,-23.7,M,0.8,0000*4A
$GPGSA,A,3,08,11,28,07,17,01,,,,,,,4.1,1.9,3.6*38
$GPGSV,3,1,11,08,68,149,32,17,63,253,29,28,60,350,36,01,40,071,41*75
$GPGSV,3,2,11,26,29,267,22,11,28,053,29,07,28,148,41,15,09,309,*71
$GPGSV,3,3,11,27,09,321,,04,04,193,,51,49,195,38*41
$GPRMC,043529.000,A,3353.7528,N,09832.0251,W,0.34,113.43,010412,,,D*7D
$GPGGA,043530.000,3353.7528,N,09832.0252,W,2,06,1.9,331.1,M,-23.7,M,1.8,0000*45
$GPGSA,A,3,08,11,28,07,17,01,,,,,,,4.1,1.9,3.6*38
$GPRMC,043530.000,A,3353.7528,N,09832.0252,W,0.34,104.80,010412,,,D*7F
$GPGGA,043531.000,3353.7528,N,09832.0251,W,2,06,1.9,331.8,M,-23.7,M,0.8,0000*4F
$GPGSA,A,3,08,11,28,07,17,01,,,,,,,4.1,1.9,3.6*38
$GPRMC,043531.000,A,3353.7528,N,09832.0251,W,0.32,110.50,010412,,,D*73
$GPGGA,043532.000,3353.7527,N,09832.0250,W,2,06,1.9,332.4,M,-23.7,M,1.8,0000*4C
$GPGSA,A,3,08,11,28,07,17,01,,,,,,,4.1,1.9,3.6*38
$GPRMC,043532.000,A,3353.7527,N,09832.0250,W,0.30,108.83,010412,,,D*7B
$GPGGA,043533.000,3353.7527,N,09832.0250,W,2,06,1.9,333.0,M,-23.7,M,0.8,0000*49
$GPGSA,A,3,08,11,28,07,17,01,,,,,,,4.1,1.9,3.6*38
$GPRMC,043533.000,A,3353.7527,N,09832.0250,W,0.34,109.13,010412,,,D*76
$GPGGA,043534.000,3353.7526,N,09832.0249,W,2,06,1.9,333.5,M,-23.7,M,0.8,0000*42
$GPGSA,A,3,08,11,28,07,17,01,,,,,,,4.1,1.9,3.6*38
$GPGSV,3,1,11,08,68,149,32,17,63,253,28,28,60,350,36,01,40,071,41*74
$GPGSV,3,2,11,26,29,267,22,11,28,053,29,07,28,148,41,15,09,309,*71
$GPGSV,3,3,11,27,09,321,,04,04,193,,51,49,195,38*41
$GPRMC,043534.000,A,3353.7526,N,09832.0249,W,0.41,107.37,010412,,,D*72
$GPGGA,043535.000,3353.7525,N,09832.0248,W,2,06,1.9,333.9,M,-23.7,M,0.8,0000*4D
$GPGSA,A,3,08,11,28,07,17,01,,,,,,,4.1,1.9,3.6*38
$GPRMC,043535.000,A,3353.7525,N,09832.0248,W,0.38,128.25,010412,,,D*71
$GPGGA,043536.000,3353.7524,N,09832.0248,W,2,06,1.9,334.3,M,-23.7,M,1.8,0000*43
$GPGSA,A,3,08,11,28,07,17,01,,,,,,,4.1,1.9,3.6*38
$GPRMC,043536.000,A,3353.7524,N,09832.0248,W,0.38,128.40,010412,,,D*70
$GPGGA,043537.000,3353.7524,N,09832.0247,W,2,06,1.9,334.6,M,-23.7,M,2.8,0000*4B
$GPGSA,A,3,08,11,28,07,17,01,,,,,,,4.1,1.9,3.6*38
$GPRMC,043537.000,A,3353.7524,N,09832.0247,W,0.36,126.86,010412,,,D*74
$GPGGA,043538.000,3353.7523,N,09832.0247,W,2,06,1.9,334.9,M,-23.7,M,3.8,0000*4D
$GPGSA,A,3,08,11,28,07,17,01,,,,,,,4.1,1.9,3.6*38
$GPRMC,043538.000,A,3353.7523,N,09832.0247,W,0.34,128.84,010412,,,D*72
$GPGGA,043539.000,3353.7523,N,09832.0247,W,2,06,1.9,335.1,M,-23.7,M,0.8,0000*46
$GPGSA,A,3,08,11,28,07,17,01,,,,,,,4.1,1.9,3.6*38
$GPGSV,3,1,11,08,68,149,32,17,63,253,28,28,60,350,36,01,40,071,41*74
$GPGSV,3,2,11,26,29,267,23,11,28,053,28,07,28,148,41,15,09,309,*71
$GPGSV,3,3,11,27,09,321,,04,04,193,,51,49,195,38*41
$GPRMC,043539.000,A,3353.7523,N,09832.0247,W,0.32,134.28,010412,,,D*7E
$GPGGA,043540.000,3353.7522,N,09832.0247,W,2,06,1.9,335.3,M,-23.7,M,0.8,0000*4B
$GPGSA,A,3,08,11,28,07,17,01,,,,,,,4.1,1.9,3.6*38
$GPRMC,043540.000,A,3353.7522,N,09832.0247,W,0.23,136.31,010412,,,D*7B
$GPGGA,043541.000,3353.7522,N,09832.0247,W,2,06,1.9,335.5,M,-23.7,M,0.8,0000*4C
$GPGSA,A,3,08,11,28,07,17,01,,,,,,,4.1,1.9,3.6*38
$GPRMC,043541.000,A,3353.7522,N,09832.0247,W,0.25,102.32,010412,,,D*78
$GPGGA,043542.000,3353.7522,N,09832.0247,W,2,06,1.9,335.7,M,-23.7,M,1.8,0000*4C
$GPGSA,A,3,08,11,28,07,17,01,,,,,,,4.1,1.9,3.6*38
$GPRMC,043542.000,A,3353.7522,N,09832.0247,W,0.25,101.34,010412,,,D*7E
$GPGGA,043543.000,3353.7522,N,09832.0247,W,2,06,1.9,335.9,M,-23.7,M,2.8,0000*40
$GPGSA,A,3,08,11,28,07,17,01,,,,,,,4.1,1.9,3.6*38
$GPRMC,043543.000,A,3353.7522,N,09832.0247,W,0.24,103.08,010412,,,D*73
$GPGGA,043544.000,3353.7522,N,09832.0247,W,2,06,1.9,336.0,M,-23.7,M,3.8,0000*4C
$GPGSA,A,3,08,11,28,07,17,01,,,,,,,4.1,1.9,3.6*38
$GPGSV,3,1,11,08,68,149,32,17,63,253,27,28,60,350,36,01,40,071,40*7A
$GPGSV,3,2,11,26,29,267,23,11,28,053,29,07,28,148,41,15,09,309,*70
$GPGSV,3,3,11,27,09,321,,04,04,193,,51,49,195,38*41
$GPRMC,043544.000,A,3353.7522,N,09832.0247,W,0.23,97.72,010412,,,D*42
$GPGGA,043545.000,3353.7522,N,09832.0247,W,2,06,1.9,336.2,M,-23.7,M,0.8,0000*4C
$GPGSA,A,3,08,11,28,07,17,01,,,,,,,4.1,1.9,3.6*38
$GPRMC,043545.000,A,3353.7522,N,09832.0247,W,0.26,97.64,010412,,,D*41
$GPGGA,043546.000,3353.7521,N,09832.0246,W,2,06,1.9,336.3,M,-23.7,M,0.8,0000*4C
$GPGSA,A,3,08,11,28,07,17,01,,,,,,,4.1,1.9,3.6*38
$GPRMC,043546.000,A,3353.7521,N,09832.0246,W,0.31,101.48,010412,,,D*76
$GPGGA,043547.000,3353.7521,N,09832.0246,W,2,06,1.9,336.4,M,-23.7,M,0.8,0000*4A
$GPGSA,A,3,08,11,28,07,17,01,,,,,,,4.1,1.9,3.6*38
$GPRMC,043547.000,A,3353.7521,N,09832.0246,W,0.26,127.00,010412,,,D*79
$GPGGA,043548.000,3353.7521,N,09832.0246,W,2,06,1.9,336.4,M,-23.7,M,0.8,0000*45
$GPGSA,A,3,08,11,28,07,17,01,,,,,,,4.1,1.9,3.6*38
$GPRMC,043548.000,A,3353.7521,N,09832.0246,W,0.28,128.22,010412,,,D*77
$GPGGA,043549.000,3353.7520,N,09832.0245,W,2,06,1.9,336.5,M,-23.7,M,0.8,0000*47
$GPGSA,A,3,08,11,28,07,17,01,,,,,,,4.1,1.9,3.6*38
$GPGSV,3,1,11,08,68,149,33,17,63,253,26,28,60,350,36,01,40,071,40*7A
$GPGSV,3,2,11,26,29,267,24,11,28,053,29,07,28,148,41,15,09,309,*77
$GPGSV,3,3,11,27,09,321,,04,04,193,,51,49,195,38*41
$GPRMC,043549.000,A,3353.7520,N,09832.0245,W,0.25,129.85,010412,,,D*75
$GPGGA,043550.000,3353.7520,N,09832.0243,W,2,06,1.9,336.7,M,-23.7,M,1.8,0000*4A
$GPGSA,A,3,08,11,28,07,17,01,,,,,,,4.1,1.9,3.6*38
$GPRMC,043550.000,A,3353.7520,N,09832.0243,W,0.25,127.00,010412,,,D*78
$GPGGA,043551.000,3353.7519,N,09832.0242,W,2,06,1.9,336.8,M,-23.7,M,0.8,0000*4E
$GPGSA,A,3,08,11,28,07,17,01,,,,,,,4.1,1.9,3.6*38
$GPRMC,043551.000,A,3353.7519,N,09832.0242,W,0.23,127.41,010412,,,D*71
$GPGGA,043552.000,3353.7519,N,09832.0241,W,2,06,1.9,336.8,M,-23.7,M,0.8,0000*4E
$GPGSA,A,3,08,11,28,07,17,01,,,,,,,4.1,1.9,3.6*38
$GPRMC,043552.000,A,3353.7519,N,09832.0241,W,0.17,133.36,010412,,,D*73
$GPGGA,043553.000,3353.7519,N,09832.0241,W,2,06,1.9,336.9,M,-23.7,M,0.8,0000*4E
$GPGSA,A,3,08,11,28,07,17,01,,,,,,,4.1,1.9,3.6*38
$GPRMC,043553.000,A,3353.7519,N,09832.0241,W,0.11,99.66,010412,,,D*40
$GPGGA,043554.000,3353.7519,N,09832.0240,W,2,06,1.9,337.0,M,-23.7,M,0.8,0000*40
$GPGSA,A,3,08,11,28,07,17,01,,,,,,,4.1,1.9,3.6*38
$GPGSV,3,1,11,08,68,149,33,17,63,253,26,28,60,350,36,01,40,071,40*7A
$GPGSV,3,2,11,26,29,267,24,11,28,053,29,07,28,148,41,15,09,309,*77
$GPGSV,3,3,11,27,09,321,,04,04,193,,51,49,195,38*41
$GPRMC,043554.000,A,3353.7519,N,09832.0240,W,0.15,96.40,010412,,,D*49
$GPGGA,043555.000,3353.7519,N,09832.0243,W,2,06,1.9,336.9,M,-23.7,M,1.8,0000*4B
$GPGSA,A,3,08,11,28,07,17,01,,,,,,,4.1,1.9,3.6*38
$GPRMC,043555.000,A,3353.7519,N,09832.0243,W,0.07,86.89,010412,,,D*4C
$GPGGA,043556.000,3353.7519,N,09832.0244,W,2,06,1.9,336.9,M,-23.7,M,2.8,0000*4C
$GPGSA,A,3,08,11,28,07,17,01,,,,,,,4.1,1.9,3.6*38
$GPRMC,043556.000,A,3353.7519,N,09832.0244,W,0.11,100.28,010412,,,D*7B
$GPGGA,043557.000,3353.7519,N,09832.0244,W,2,06,1.9,337.0,M,-23.7,M,0.8,0000*47
$GPGSA,A,3,08,11,28,07,17,01,,,,,,,4.1,1.9,3.6*38
$GPRMC,043557.000,A,3353.7519,N,09832.0244,W,0.16,99.89,010412,,,D*47
$GPGGA,043558.000,3353.7519,N,09832.0242,W,2,06,1.9,337.1,M,-23.7,M,0.8,0000*4F
$GPGSA,A,3,08,11,28,07,17,01,,,,,,,4.1,1.9,3.6*38
$GPRMC,043558.000,A,3353.7519,N,09832.0242,W,0.20,99.47,010412,,,D*49
$GPGGA,043559.000,3353.7519,N,09832.0240,W,2,06,1.9,337.3,M,-23.7,M,0.8,0000*4E
$GPGSA,A,3,08,11,28,07,17,01,,,,,,,4.1,1.9,3.6*38
$GPGSV,3,1,11,08,68,149,33,17,63,253,25,28,60,350,36,01,40,071,40*79
$GPGSV,3,2,11,26,29,267,23,11,28,053,28,07,28,148,41,15,09,309,*71
$GPGSV,3,3,11,27,09,321,,04,04,193,,51,49,195,38*41
$GPRMC,043559.000,A,3353.7519,N,09832.0240,W,0.25,111.48,010412,,,D*71
$GPGGA,043600.000,3353.7518,N,09832.0238,W,2,06,1.9,337.5,M,-23.7,M,1.8,0000*48
$GPGSA,A,3,08,11,28,07,17,01,,,,,,,4.1,1.9,3.6*38
$GPRMC,043600.000,A,3353.7518,N,09832.0238,W,0.31,110.23,010412,,,D*79
$GPGGA,043601.000,3353.7518,N,09832.0235,W,2,06,1.9,337.7,M,-23.7,M,2.8,0000*45
$GPGSA,A,3,08,11,28,07,17,01,,,,,,,4.1,1.9,3.6*38
$GPRMC,043601.000,A,3353.7518,N,09832.0235,W,0.35,107.40,010412,,,D*72
$GPGGA,043602.000,3353.7518,N,09832.0234,W,2,06,1.9,337.8,M,-23.7,M,3.8,0000*49
$GPGSA,A,3,08,11,28,07,17,01,,,,,,,4.1,1.9,3.6*38
$GPRMC,043602.000,A,3353.7518,N,09832.0234,W,0.28,114.04,010412,,,D*7E
$GPGGA,043603.000,3353.7517,N,09832.0233,W,2,06,1.9,338.0,M,-23.7,M,0.8,0000*44
$GPGSA,A,3,08,11,28,07,17,01,,,,,,,4.1,1.9,3.6*38
$GPRMC,043603.000,A,3353.7517,N,09832.0233,W,0.14,129.60,010412,,,D*74
$GPGGA,043604.000,3353.7517,N,09832.0234,W,2,06,1.9,338.0,M,-23.7,M,0.8,0000*44
$GPGSA,A,3,08,11,28,07,17,01,,,,,,,4.1,1.9,3.6*38
$GPGSV,3,1,11,08,68,149,34,17,63,253,24,28,60,350,36,01,40,071,40*7F
$GPGSV,3,2,11,26,29,267,23,11,28,053,28,07,28,148,41,15,09,309,*71
$GPGSV,3,3,11,27,09,321,,04,04,193,,51,49,195,38*41
$GPRMC,043604.000,A,3353.7517,N,09832.0234,W,0.10,137.88,010412,,,D*79
$GPGGA,043605.000,3353.7517,N,09832.0237,W,2,06,1.9,337.8,M,-23.7,M,0.8,0000*41
$GPGSA,A,3,08,11,28,07,17,01,,,,,,,4.1,1.9,3.6*38
$GPRMC,043605.000,A,3353.7517,N,09832.0237,W,0.12,275.09,010412,,,D*75
$GPGGA,043606.000,3353.7517,N,09832.0241,W,2,06,1.9,337.5,M,-23.7,M,1.8,0000*4F
$GPGSA,A,3,08,11,28,07,17,01,,,,,,,4.1,1.9,3.6*38
$GPRMC,043606.000,A,3353.7517,N,09832.0241,W,0.03,71.42,010412,,,D*4E
$GPGGA,043607.000,3353.7518,N,09832.0241,W,2,06,1.9,337.5,M,-23.7,M,2.8,0000*42
$GPGSA,A,3,08,11,28,07,17,01,,,,,,,4.1,1.9,3.6*38
$GPRMC,043607.000,A,3353.7518,N,09832.0241,W,0.22,89.32,010412,,,D*43
$GPGGA,043608.000,3353.7518,N,09832.0240,W,2,06,1.9,337.6,M,-23.7,M,3.8,0000*4E
$GPGSA,A,3,08,11,28,07,17,01,,,,,,,4.1,1.9,3.6*38
$GPRMC,043608.000,A,3353.7518,N,09832.0240,W,0.27,85.18,010412,,,D*4C
$GPGGA,043609.000,3353.7518,N,09832.0238,W,2,06,1.9,337.8,M,-23.7,M,0.8,0000*4D
$GPGSA,A,3,08,11,28,07,17,01,,,,,,,4.1,1.9,3.6*38
$GPGSV,3,1,11,08,68,149,34,17,63,253,23,28,60,350,36,01,40,071,39*76
$GPGSV,3,2,11,26,29,267,23,11,28,053,28,07,28,148,41,15,09,309,*71
$GPGSV,3,3,11,27,09,321,,04,04,193,,51,49,195,38*41
$GPRMC,043609.000,A,3353.7518,N,09832.0238,W,0.08,72.20,010412,,,D*4C
$GPGGA,043610.000,3353.7518,N,09832.0241,W,2,06,1.9,337.7,M,-23.7,M,0.8,0000*44
$GPGSA,A,3,08,11,28,07,17,01,,,,,,,4.1,1.9,3.6*38
$GPRMC,043610.000,A,3353.7518,N,09832.0241,W,0.26,91.33,010412,,,D*49
$GPGGA,043611.000,3353.7518,N,09832.0245,W,2,06,1.9,337.4,M,-23.7,M,0.8,0000*42
$GPGSA,A,3,08,11,28,07,17,01,,,,,,,4.1,1.9,3.6*38
$GPRMC,043611.000,A,3353.7518,N,09832.0245,W,0.30,116.72,010412,,,D*70
$GPGGA,043612.000,3353.7517,N,09832.0248,W,2,06,1.9,337.1,M,-23.7,M,1.8,0000*47
$GPGSA,A,3,08,11,28,07,17,01,,,,,,,4.1,1.9,3.6*38
$GPRMC,043612.000,A,3353.7517,N,09832.0248,W,0.15,130.53,010412,,,D*71
$GPGGA,043613.000,3353.7517,N,09832.0252,W,2,06,1.9,336.8,M,-23.7,M,0.8,0000*44
$GPGSA,A,3,08,11,28,07,17,01,,,,,,,4.1,1.9,3.6*38
$GPRMC,043613.000,A,3353.7517,N,09832.0252,W,0.12,147.02,010412,,,D*78
$GPGGA,043614.000,3353.7517,N,09832.0256,W,2,06,1.9,336.4,M,-23.7,M,0.8,0000*4B
$GPGSA,A,3,08,11,28,07,17,01,,,,,,,4.1,1.9,3.6*38
$GPGSV,3,1,11,08,68,149,34,17,63,253,22,28,60,350,35,01,40,071,39*74
$GPGSV,3,2,11,26,29,267,23,11,28,053,27,07,28,148,41,15,09,309,*7E
$GPGSV,3,3,11,27,09,321,,04,04,193,,51,49,195,38*41
$GPRMC,043614.000,A,3353.7517,N,09832.0256,W,0.11,208.07,010412,,,D*75
$GPGGA,043615.000,3353.7517,N,09832.0258,W,2,06,1.9,336.2,M,-23.7,M,0.8,0000*42
$GPGSA,A,3,08,11,28,07,17,01,,,,,,,4.1,1.9,3.6*38
$GPRMC,043615.000,A,3353.7517,N,09832.0258,W,0.17,124.65,010412,,,D*75
$GPGGA,043616.000,3353.7517,N,09832.0258,W,2,05,2.5,336.2,M,-23.7,M,0.8,0000*4D
$GPGSA,A,3,08,11,28,07,01,,,,,,,,4.6,2.5,3.9*39
$GPRMC,043616.000,A,3353.7517,N,09832.0258,W,0.11,231.34,010412,,,D*73
$GPGGA,043617.000,3353.7517,N,09832.0258,W,2,05,2.5,336.1,M,-23.7,M,0.8,0000*4F
$GPGSA,A,3,08,11,28,07,01,,,,,,,,4.6,2.5,3.9*39
$GPRMC,043617.000,A,3353.7517,N,09832.0258,W,0.06,6.16,010412,,,D*72
$GPGGA,043618.000,3353.7517,N,09832.0263,W,2,06,1.9,335.8,M,-23.7,M,1.8,0000*4F
$GPGSA,A,3,08,11,28,07,17,01,,,,,,,4.1,1.9,3.6*38
$GPRMC,043618.000,A,3353.7517,N,09832.0263,W,0.18,288.58,010412,,,D*74
$GPGGA,043619.000,3353.7518,N,09832.0265,W,2,06,1.9,335.6,M,-23.7,M,2.8,0000*4A
$GPGSA,A,3,08,11,28,07,17,01,,,,,,,4.1,1.9,3.6*38
$GPGSV,3,1,11,08,68,149,35,17,63,253,17,28,60,350,35,01,40,071,39*73
$GPGSV,3,2,11,26,29,267,24,11,28,053,27,07,28,148,41,15,09,309,*79
$GPGSV,3,3,11,27,09,321,,04,04,193,,51,49,195,38*41
$GPRMC,043619.000,A,3353.7518,N,09832.0265,W,0.20,296.03,010412,,,D*76
$GPGGA,043620.000,3353.7518,N,09832.0265,W,2,06,1.9,335.6,M,-23.7,M,3.8,0000*41
$GPGSA,A,3,08,11,28,07,17,01,,,,,,,4.1,1.9,3.6*38
$GPRMC,043620.000,A,3353.7518,N,09832.0265,W,0.21,292.10,010412,,,D*7B
$GPGGA,043621.000,3353.7518,N,09832.0264,W,2,06,1.9,335.7,M,-23.7,M,0.8,0000*43
$GPGSA,A,3,08,11,28,07,17,01,,,,,,,4.1,1.9,3.6*38
$GPRMC,043621.000,A,3353.7518,N,09832.0264,W,0.12,309.33,010412,,,D*79
$GPGGA,043622.000,3353.7518,N,09832.0263,W,2,06,1.9,335.7,M,-23.7,M,0.8,0000*47
$GPGSA,A,3,08,11,28,07,17,01,,,,,,,4.1,1.9,3.6*38
$GPRMC,043622.000,A,3353.7518,N,09832.0263,W,0.23,82.86,010412,,,D*41
$GPGGA,043623.000,3353.7518,N,09832.0259,W,2,06,1.9,335.9,M,-23.7,M,0.8,0000*41
$GPGSA,A,3,08,11,28,07,17,01,,,,,,,4.1,1.9,3.6*38
$GPRMC,043623.000,A,3353.7518,N,09832.0259,W,0.41,106.99,010412,,,D*7E
$GPGGA,043624.000,3353.7518,N,09832.0258,W,2,06,1.9,336.0,M,-23.7,M,1.8,0000*4C
$GPGSA,A,3,08,11,28,07,17,01,,,,,,,4.1,1.9,3.6*38
$GPGSV,3,1,11,08,68,149,35,17,63,253,18,28,60,350,35,01,40,071,39*7C
$GPGSV,3,2,11,26,29,267,24,11,28,053,28,07,28,148,41,15,09,309,*76
$GPGSV,3,3,11,27,09,321,,04,04,193,,51,49,195,38*41
$GPRMC,043624.000,A,3353.7518,N,09832.0258,W,0.48,105.80,010412,,,D*7A
$GPGGA,043625.000,3353.7517,N,09832.0257,W,2,06,1.9,335.9,M,-23.7,M,0.8,0000*46
$GPGSA,A,3,08,11,28,07,17,01,,,,,,,4.1,1.9,3.6*38
$GPRMC,043625.000,A,3353.7517,N,09832.0257,W,0.50,106.03,010412,,,D*7A
$GPGGA,043626.000,3353.7517,N,09832.0256,W,2,05,2.5,335.9,M,-23.7,M,1.8,0000*49
$GPGSA,A,3,08,11,28,07,01,,,,,,,,4.6,2.5,3.9*39
$GPRMC,043626.000,A,3353.7517,N,09832.0256,W,0.28,114.05,010412,,,D*72
$GPGGA,043627.000,3353.7517,N,09832.0261,W,2,06,1.9,335.5,M,-23.7,M,0.8,0000*4D
$GPGSA,A,3,08,11,28,07,17,01,,,,,,,4.1,1.9,3.6*38
$GPRMC,043627.000,A,3353.7517,N,09832.0261,W,0.18,244.16,010412,,,D*70
$GPGGA,043628.000,3353.7517,N,09832.0261,W,2,05,2.5,335.5,M,-23.7,M,0.8,0000*4E
$GPGSA,A,3,08,11,28,07,01,,,,,,,,4.6,2.5,3.9*39
$GPRMC,043628.000,A,3353.7517,N,09832.0261,W,0.10,141.96,010412,,,D*79
$GPGGA,043629.000,3353.7517,N,09832.0264,W,2,06,1.9,335.1,M,-23.7,M,0.8,0000*42
$GPGSA,A,3,08,11,28,07,17,01,,,,,,,4.1,1.9,3.6*38
$GPGSV,3,1,11,08,68,149,35,17,63,253,17,28,60,350,35,01,40,071,39*73
$GPGSV,3,2,11,26,29,267,24,11,28,053,28,07,28,148,40,15,09,309,*77
$GPGSV,3,3,11,27,09,321,,04,04,193,,51,49,195,38*41
$GPRMC,043629.000,A,3353.7517,N,09832.0264,W,0.06,322.01,010412,,,D*73
$GPGGA,043630.000,3353.7518,N,09832.0269,W,2,06,1.9,334.6,M,-23.7,M,1.8,0000*4F
$GPGSA,A,3,08,11,28,07,17,01,,,,,,,4.1,1.9,3.6*38
$GPRMC,043630.000,A,3353.7518,N,09832.0269,W,0.28,282.32,010412,,,D*7E
$GPGGA,043631.000,3353.7518,N,09832.0270,W,2,05,2.6,334.5,M,-23.7,M,2.8,0000*49
$GPGSA,A,3,08,11,28,07,01,,,,,,,,4.6,2.6,3.9*3A
$GPRMC,043631.000,A,3353.7518,N,09832.0270,W,0.30,284.88,010412,,,D*79
$GPGGA,043632.000,3353.7519,N,09832.0271,W,2,05,2.6,334.3,M,-23.7,M,3.8,0000*4D
$GPGSA,A,3,08,11,28,07,01,,,,,,,,4.6,2.6,3.9*3A
$GPRMC,043632.000,A,3353.7519,N,09832.0271,W,0.32,285.75,010412,,,D*7B
$GPGGA,043633.000,3353.7519,N,09832.0276,W,2,06,1.9,333.8,M,-23.7,M,0.8,0000*4B
$GPGSA,A,3,08,11,28,07,17,01,,,,,,,4.1,1.9,3.6*38
$GPRMC,043633.000,A,3353.7519,N,09832.0276,W,0.27,286.55,010412,,,D*78
$GPGGA,043634.000,3353.7520,N,09832.0278,W,2,06,1.9,333.4,M,-23.7,M,0.8,0000*44
$GPGSA,A,3,08,11,28,07,17,01,,,,,,,4.1,1.9,3.6*38
$GPGSV,3,1,11,08,68,149,35,17,63,253,16,28,60,350,35,01,40,071,39*72
$GPGSV,3,2,11,26,29,267,24,11,28,053,28,07,28,148,40,15,09,309,*77
$GPGSV,3,3,11,27,09,321,,04,04,193,,51,49,195,38*41
$GPRMC,043634.000,A,3353.7520,N,09832.0278,W,0.17,296.91,010412,,,D*71
$GPGGA,043635.000,3353.7519,N,09832.0272,W,2,06,1.9,333.8,M,-23.7,M,0.8,0000*49
$GPGSA,A,3,08,11,28,07,17,01,,,,,,,4.1,1.9,3.6*38
$GPRMC,043635.000,A,3353.7519,N,09832.0272,W,0.24,107.64,010412,,,D*71
$GPGGA,043636.000,3353.7519,N,09832.0268,W,2,06,1.9,334.1,M,-23.7,M,1.8,0000*4E
$GPGSA,A,3,08,11,28,07,17,01,,,,,,,4.1,1.9,3.6*38
$GPRMC,043636.000,A,3353.7519,N,09832.0268,W,0.38,99.88,010412,,,D*40
$GPGGA,043637.000,3353.7518,N,09832.0261,W,2,06,1.9,334.4,M,-23.7,M,2.8,0000*41
$GPGSA,A,3,08,11,28,07,17,01,,,,,,,4.1,1.9,3.6*38
$GPRMC,043637.000,A,3353.7518,N,09832.0261,W,0.55,101.50,010412,,,D*77
$GPGGA,043638.000,3353.7518,N,09832.0256,W,2,06,1.9,334.8,M,-23.7,M,3.8,0000*47
$GPGSA,A,3,08,11,28,07,17,01,,,,,,,4.1,1.9,3.6*38
$GPRMC,043638.000,A,3353.7518,N,09832.0256,W,0.58,101.77,010412,,,D*74
$GPGGA,043639.000,3353.7517,N,09832.0252,W,2,06,1.9,335.1,M,-23.7,M,0.8,0000*46
$GPGSA,A,3,08,11,28,07,17,01,,,,,,,4.1,1.9,3.6*38
$GPGSV,3,1,11,08,68,149,35,17,63,253,18,28,60,350,34,01,40,071,39*7D
$GPGSV,3,2,11,26,29,267,23,11,28,053,29,07,28,148,40,15,09,309,*71
$GPGSV,3,3,11,27,09,321,,04,04,193,,51,49,195,38*41
$GPRMC,043639.000,A,3353.7517,N,09832.0252,W,0.17,119.14,010412,,,D*79
$GPGGA,043640.000,3353.7517,N,09832.0250,W,2,06,1.9,335.4,M,-23.7,M,0.8,0000*4F
$GPGSA,A,3,08,11,28,07,17,01,,,,,,,4.1,1.9,3.6*38
$GPRMC,043640.000,A,3353.7517,N,09832.0250,W,0.06,203.82,010412,,,D*72
$GPGGA,043641.000,3353.7517,N,09832.0251,W,2,06,1.9,335.3,M,-23.7,M,0.8,0000*48
$GPGSA,A,3,08,11,28,07,17,01,,,,,,,4.1,1.9,3.6*38
$GPRMC,043641.000,A,3353.7517,N,09832.0251,W,0.22,278.22,010412,,,D*72
$GPGGA,043642.000,3353.7517,N,09832.0247,W,2,06,1.9,335.6,M,-23.7,M,0.8,0000*49
$GPGSA,A,3,08,11,28,07,17,01,,,,,,,4.1,1.9,3.6*38
$GPRMC,043642.000,A,3353.7517,N,09832.0247,W,0.35,91.52,010412,,,D*42
$GPGGA,043643.000,3353.7517,N,09832.0246,W,2,06,1.9,335.7,M,-23.7,M,1.8,0000*49
$GPGSA,A,3,08,11,28,07,17,01,,,,,,,4.1,1.9,3.6*38
$GPRMC,043643.000,A,3353.7517,N,09832.0246,W,0.48,94.95,010412,,,D*46
$GPGGA,043644.000,3353.7518,N,09832.0249,W,2,06,1.9,335.4,M,-23.7,M,2.8,0000*4E
$GPGSA,A,3,08,11,28,07,17,01,,,,,,,4.1,1.9,3.6*38
$GPGSV,3,1,11,08,68,149,34,17,63,253,18,28,60,350,34,01,40,071,39*7C
$GPGSV,3,2,11,26,29,267,22,11,28,053,30,07,28,148,40,15,09,309,*78
$GPGSV,3,3,11,27,09,321,,04,04,193,,51,49,195,38*41
$GPRMC,043644.000,A,3353.7518,N,09832.0249,W,0.32,92.23,010412,,,D*47
$GPGGA,043645.000,3353.7518,N,09832.0249,W,2,06,1.9,335.2,M,-23.7,M,0.8,0000*4B
$GPGSA,A,3,08,11,28,07,17,01,,,,,,,4.1,1.9,3.6*38
$GPRMC,043645.000,A,3353.7518,N,09832.0249,W,0.23,92.07,010412,,,D*40
$GPGGA,043646.000,3353.7518,N,09832.0251,W,2,06,1.9,335.0,M,-23.7,M,0.8,0000*43
$GPGSA,A,3,08,11,28,07,17,01,,,,,,,4.1,1.9,3.6*38
$GPRMC,043646.000,A,3353.7518,N,09832.0251,W,0.39,95.34,010412,,,D*46
$GPGGA,043647.000,3353.7518,N,09832.0249,W,2,06,1.9,335.2,M,-23.7,M,0.8,0000*49
$GPGSA,A,3,08,11,28,07,17,01,,,,,,,4.1,1.9,3.6*38
$GPRMC,043647.000,A,3353.7518,N,09832.0249,W,0.12,113.89,010412,,,D*7E
$GPGGA,043648.000,3353.7518,N,09832.0250,W,2,06,1.9,335.1,M,-23.7,M,1.8,0000*4C
$GPGSA,A,3,08,11,28,07,17,01,,,,,,,4.1,1.9,3.6*38
$GPRMC,043648.000,A,3353.7518,N,09832.0250,W,0.07,223.16,010412,,,D*7B
$GPGGA,043649.000,3353.7518,N,09832.0248,W,2,06,1.9,335.3,M,-23.7,M,2.8,0000*45
$GPGSA,A,3,08,11,28,07,17,01,,,,,,,4.1,1.9,3.6*38
$GPGSV,3,1,11,08,68,149,34,17,63,253,19,28,60,350,34,01,40,071,39*7D
$GPGSV,3,2,11,26,29,267,22,11,28,053,30,07,28,148,40,15,09,309,*78
$GPGSV,3,3,11,27,09,321,,04,04,193,,51,49,195,38*41
$GPRMC,043649.000,A,3353.7518,N,09832.0248,W,0.08,249.36,010412,,,D*72
$GPGGA,043650.000,3353.7518,N,09832.0247,W,2,06,1.9,335.4,M,-23.7,M,0.8,0000*47
$GPGSA,A,3,08,11,28,07,17,01,,,,,,,4.1,1.9,3.6*38
$GPRMC,043650.000,A,3353.7518,N,09832.0247,W,0.09,125.61,010412,,,D*7F
$GPGGA,043651.000,3353.7517,N,09832.0245,W,2,06,1.9,335.6,M,-23.7,M,0.8,0000*49
$GPGSA,A,3,08,11,28,07,17,01,,,,,,,4.1,1.9,3.6*38
$GPRMC,043651.000,A,3353.7517,N,09832.0245,W,0.10,231.28,010412,,,D*70
$GPGGA,043652.000,3353.7517,N,09832.0245,W,2,06,1.9,335.6,M,-23.7,M,0.8,0000*4A
$GPGSA,A,3,08,11,28,07,17,01,,,,,,,4.1,1.9,3.6*38
$GPRMC,043652.000,A,3353.7517,N,09832.0245,W,0.29,102.93,010412,,,D*7A
$GPGGA,043653.000,3353.7517,N,09832.0243,W,2,06,1.9,335.8,M,-23.7,M,0.8,0000*43
$GPGSA,A,3,08,11,28,07,17,01,,,,,,,4.1,1.9,3.6*38
$GPRMC,043653.000,A,3353.7517,N,09832.0243,W,0.42,93.49,010412,,,D*4E
$GPGGA,043654.000,3353.7517,N,09832.0241,W,2,06,1.9,335.9,M,-23.7,M,1.8,0000*46
$GPGSA,A,3,08,11,28,07,17,01,,,,,,,4.1,1.9,3.6*38
$GPGSV,3,1,11,08,68,149,34,17,63,253,21,28,60,350,33,01,40,071,39*71
$GPGSV,3,2,11,26,29,267,21,11,28,053,30,07,28,148,41,15,09,309,*7A
$GPGSV,3,3,11,27,09,321,,04,04,193,,51,49,195,38*41
$GPRMC,043654.000,A,3353.7517,N,09832.0241,W,0.01,8.37,010412,,,D*77
$GPGGA,043655.000,3353.7518,N,09832.0241,W,2,06,1.9,336.1,M,-23.7,M,2.8,0000*40
$GPGSA,A,3,08,11,28,07,17,01,,,,,,,4.1,1.9,3.6*38
$GPRMC,043655.000,A,3353.7518,N,09832.0241,W,0.04,328.71,010412,,,D*7F
$GPGGA,043656.000,3353.7518,N,09832.0240,W,2,06,1.9,336.2,M,-23.7,M,0.8,0000*43
$GPGSA,A,3,08,11,28,07,17,01,,,,,,,4.0,1.9,3.6*39
$GPRMC,043656.000,A,3353.7518,N,09832.0240,W,0.26,95.77,010412,,,D*4E
$GPGGA,043657.000,3353.7518,N,09832.0240,W,2,06,1.9,336.3,M,-23.7,M,0.8,0000*43
$GPGSA,A,3,08,11,28,07,17,01,,,,,,,4.0,1.9,3.6*39
$GPRMC,043657.000,A,3353.7518,N,09832.0240,W,0.10,94.25,010412,,,D*4C
$GPGGA,043658.000,3353.7518,N,09832.0239,W,2,06,1.9,336.5,M,-23.7,M,0.8,0000*44
$GPGSA,A,3,08,11,28,07,17,01,,,,,,,4.0,1.9,3.6*39
$GPRMC,043658.000,A,3353.7518,N,09832.0239,W,0.10,96.43,010412,,,D*4F
$GPGGA,043659.000,3353.7518,N,09832.0237,W,2,06,1.9,336.7,M,-23.7,M,0.8,0000*49
$GPGSA,A,3,08,11,28,07,17,01,,,,,,,4.0,1.9,3.6*39
$GPGSV,3,1,11,08,68,149,33,17,63,253,22,28,60,350,32,01,40,071,40*7A
$GPGSV,3,2,11,26,29,267,20,11,28,053,30,07,28,148,41,15,09,309,*7B
$GPGSV,3,3,11,27,09,321,,04,04,193,,51,49,195,38*41
$GPRMC,043659.000,A,3353.7518,N,09832.0237,W,0.33,93.93,010412,,,D*49
$GPGGA,043700.000,3353.7518,N,09832.0234,W,2,06,1.9,337.0,M,-23.7,M,0.8,0000*41
$GPGSA,A,3,08,11,28,07,17,01,,,,,,,4.0,1.9,3.6*39
$GPRMC,043700.000,A,3353.7518,N,09832.0234,W,0.56,95.18,010412,,,D*41
$GPGGA,043701.000,3353.7518,N,09832.0232,W,2,06,1.9,337.1,M,-23.7,M,0.8,0000*47
$GPGSA,A,3,08,11,28,07,17,01,,,,,,,4.0,1.9,3.6*39
$GPRMC,043701.000,A,3353.7518,N,09832.0232,W,0.61,96.21,010412,,,D*4B
$GPGGA,043702.000,3353.7518,N,09832.0227,W,2,06,1.9,337.5,M,-23.7,M,1.8,0000*45
$GPGSA,A,3,08,11,28,07,17,01,,,,,,,4.0,1.9,3.6*39
$GPRMC,043702.000,A,3353.7518,N,09832.0227,W,0.20,91.50,010412,,,D*48
$GPGGA,043703.000,3353.7518,N,09832.0227,W,2,06,1.9,337.7,M,-23.7,M,0.8,0000*47
$GPGSA,A,3,08,11,28,07,17,01,,,,,,,4.0,1.9,3.6*39
$GPRMC,043703.000,A,3353.7518,N,09832.0227,W,0.05,90.63,010412,,,D*4F
$GPGGA,043704.000,3353.7518,N,09832.0226,W,2,06,1.9,337.9,M,-23.7,M,0.8,0000*4F
$GPGSA,A,3,08,11,28,07,17,01,,,,,,,4.0,1.9,3.6*39
$GPGSV,3,1,11,08,68,149,33,17,63,253,22,28,60,350,31,01,40,071,40*79
$GPGSV,3,2,11,26,29,267,19,11,28,053,30,07,28,148,41,15,09,309,*71
$GPGSV,3,3,11,27,09,321,,04,04,193,,51,49,195,38*41
$GPRMC,043704.000,A,3353.7518,N,09832.0226,W,0.29,94.50,010412,,,D*43
$GPGGA,043705.000,3353.7518,N,09832.0223,W,2,06,1.9,338.3,M,-23.7,M,0.8,0000*4E
$GPGSA,A,3,08,11,28,07,17,01,,,,,,,4.0,1.9,3.6*39
$GPRMC,043705.000,A,3353.7518,N,09832.0223,W,0.45,104.97,010412,,,D*7E
$GPGGA,043706.000,3353.7518,N,09832.0219,W,2,06,1.9,338.8,M,-23.7,M,1.8,0000*4E
$GPGSA,A,3,08,11,28,07,17,01,,,,,,,4.0,1.9,3.6*39
$GPRMC,043706.000,A,3353.7518,N,09832.0219,W,0.44,109.45,010412,,,D*77
$GPGGA,043707.000,3353.7518,N,09832.0217,W,2,06,1.9,339.1,M,-23.7,M,2.8,0000*4A
$GPGSA,A,3,08,11,28,07,17,01,,,,,,,4.0,1.9,3.6*39
$GPRMC,043707.000,A,3353.7518,N,09832.0217,W,0.33,111.64,010412,,,D*72
$GPGGA,043708.000,3353.7517,N,09832.0215,W,2,06,1.9,339.5,M,-23.7,M,0.8,0000*4E
$GPGSA,A,3,08,11,28,07,17,01,,,,,,,4.0,1.9,3.6*39
$GPRMC,043708.000,A,3353.7517,N,09832.0215,W,0.32,113.25,010412,,,D*76
$GPGGA,043709.000,3353.7518,N,09832.0218,W,2,06,1.9,339.5,M,-23.7,M,0.8,0000*4D
$GPGSA,A,3,08,11,28,07,17,01,,,,,,,4.0,1.9,3.6*39
$GPGSV,3,1,11,08,68,149,33,17,63,253,23,28,60,350,31,01,40,071,40*78
$GPGSV,3,2,11,26,29,267,18,11,28,053,31,07,28,148,41,15,09,309,*71
$GPGSV,3,3,11,27,09,321,,04,04,193,,51,49,195,38*41
$GPRMC,043709.000,A,3353.7518,N,09832.0218,W,0.16,129.62,010412,,,D*79
$GPGGA,043710.000,3353.7517,N,09832.0218,W,2,06,1.9,339.6,M,-23.7,M,0.8,0000*49
$GPGSA,A,3,08,11,28,07,17,01,,,,,,,4.0,1.9,3.6*39
$GPRMC,043710.000,A,3353.7517,N,09832.0218,W,0.28,121.14,010412,,,D*7A
$GPGGA,043711.000,3353.7517,N,09832.0214,W,2,06,1.9,339.9,M,-23.7,M,0.8,0000*4B
$GPGSA,A,3,08,11,28,07,17,01,,,,,,,4.0,1.9,3.6*39
$GPRMC,043711.000,A,3353.7517,N,09832.0214,W,0.33,108.54,010412,,,D*72
$GPGGA,043712.000,3353.7517,N,09832.0214,W,2,06,1.9,340.0,M,-23.7,M,1.8,0000*4E
$GPGSA,A,3,08,11,28,07,17,01,,,,,,,4.0,1.9,3.6*39
$GPRMC,043712.000,A,3353.7517,N,09832.0214,W,0.23,111.07,010412,,,D*7E
$GPGGA,043713.000,3353.7517,N,09832.0213,W,2,06,1.9,340.2,M,-23.7,M,0.8,0000*4B
$GPGSA,A,3,08,11,28,07,17,01,,,,,,,4.0,1.9,3.6*39
$GPRMC,043713.000,A,3353.7517,N,09832.0213,W,0.26,112.55,010412,,,D*79
$GPGGA,043714.000,3353.7517,N,09832.0212,W,2,06,1.9,340.3,M,-23.7,M,0.8,0000*4C
$GPGSA,A,3,08,11,28,07,17,01,,,,,,,4.0,1.9,3.6*39
$GPGSV,3,1,11,08,68,149,33,17,63,253,24,28,60,350,31,01,40,071,40*7F
$GPGSV,3,2,11,26,29,267,18,11,28,053,30,07,28,148,40,15,09,309,*71
$GPGSV,3,3,11,27,09,321,,04,04,193,,51,49,195,38*41
$GPRMC,043714.000,A,3353.7517,N,09832.0212,W,0.25,107.98,010412,,,D*79
$GPGGA,043715.000,3353.7517,N,09832.0211,W,2,06,1.9,340.4,M,-23.7,M,0.8,0000*49
$GPGSA,A,3,08,11,28,07,17,01,,,,,,,4.0,1.9,3.6*39
$GPRMC,043715.000,A,3353.7517,N,09832.0211,W,0.20,110.34,010412,,,D*7E
$GPGGA,043716.000,3353.7518,N,09832.0212,W,2,06,1.9,340.4,M,-23.7,M,0.8,0000*46
$GPGSA,A,3,08,11,28,07,17,01,,,,,,,4.0,1.9,3.6*39
$GPRMC,043716.000,A,3353.7518,N,09832.0212,W,0.16,114.47,010412,,,D*74
$GPGGA,043717.000,3353.7518,N,09832.0212,W,2,06,1.9,340.5,M,-23.7,M,0.8,0000*46
$GPGSA,A,3,08,11,28,07,17,01,,,,,,,4.0,1.9,3.6*39
$GPRMC,043717.000,A,3353.7518,N,09832.0212,W,0.15,127.37,010412,,,D*71
$GPGGA,043718.000,3353.7518,N,09832.0213,W,2,06,1.9,340.5,M,-23.7,M,1.8,0000*49
$GPGSA,A,3,08,11,28,07,17,01,,,,,,,4.0,1.9,3.6*39
$GPRMC,043718.000,A,3353.7518,N,09832.0213,W,0.13,133.99,010412,,,D*78
$GPGGA,043719.000,3353.7518,N,09832.0215,W,2,06,1.9,340.4,M,-23.7,M,2.8,0000*4C
$GPGSA,A,3,08,11,28,07,17,01,,,,,,,4.0,1.9,3.6*39
$GPGSV,3,1,11,08,68,149,33,17,63,253,24,28,60,350,30,01,40,071,40*7E
$GPGSV,3,2,11,26,29,267,17,11,28,053,30,07,28,148,40,15,09,309,*7E
$GPGSV,3,3,11,27,09,321,,04,04,193,,51,49,195,38*41
$GPRMC,043719.000,A,3353.7518,N,09832.0215,W,0.10,134.80,010412,,,D*73
$GPGGA,043720.000,3353.7518,N,09832.0217,W,2,06,1.9,340.3,M,-23.7,M,3.8,0000*42
$GPGSA,A,3,08,11,28,07,17,01,,,,,,,4.0,1.9,3.6*39
$GPRMC,043720.000,A,3353.7518,N,09832.0217,W,0.14,130.33,010412,,,D*73
$GPGGA,043721.000,3353.7519,N,09832.0218,W,2,06,1.9,340.2,M,-23.7,M,0.8,0000*4F
$GPGSA,A,3,08,11,28,07,17,01,,,,,,,4.0,1.9,3.6*39
$GPRMC,043721.000,A,3353.7519,N,09832.0218,W,0.12,122.35,010412,,,D*7F
$GPGGA,043722.000,3353.7519,N,09832.0219,W,2,06,1.9,340.1,M,-23.7,M,0.8,0000*4E
$GPGSA,A,3,08,11,28,07,17,01,,,,,,,4.0,1.9,3.6*39
$GPRMC,043722.000,A,3353.7519,N,09832.0219,W,0.16,132.24,010412,,,D*78
$GPGGA,043723.000,3353.7519,N,09832.0222,W,2,06,1.9,339.8,M,-23.7,M,0.8,0000*40
$GPGSA,A,3,08,11,28,07,17,01,,,,,,,4.0,1.9,3.6*39
$GPRMC,043723.000,A,3353.7519,N,09832.0222,W,0.24,93.75,010412,,,D*4E
$GPGGA,043724.000,3353.7520,N,09832.0224,W,2,06,1.9,339.4,M,-23.7,M,1.8,0000*46
$GPGSA,A,3,08,11,28,07,17,01,,,,,,,4.0,1.9,3.6*39
$GPGSV,3,1,11,08,68,149,34,17,63,253,25,28,60,350,30,01,40,071,40*78
$GPGSV,3,2,11,26,29,267,17,11,28,053,30,07,28,148,40,15,09,309,*7E
$GPGSV,3,3,11,27,09,321,,04,04,193,,51,49,195,38*41
$GPRMC,043724.000,A,3353.7520,N,09832.0224,W,0.13,98.47,010412,,,D*4B
$GPGGA,043725.000,3353.7520,N,09832.0226,W,2,06,1.9,339.1,M,-23.7,M,2.8,0000*43
$GPGSA,A,3,08,11,28,07,17,01,,,,,,,4.0,1.9,3.6*39
$GPRMC,043725.000,A,3353.7520,N,09832.0226,W,0.17,85.19,010412,,,D*4B
$GPGGA,043726.000,3353.7521,N,09832.0228,W,2,06,1.9,338.8,M,-23.7,M,3.8,0000*46
$GPGSA,A,3,08,11,28,07,17,01,,,,,,,4.0,1.9,3.6*39
$GPRMC,043726.000,A,3353.7521,N,09832.0228,W,0.11,87.98,010412,,,D*4A
$GPGGA,043727.000,3353.7521,N,09832.0229,W,2,06,1.9,338.5,M,-23.7,M,0.8,0000*48
$GPGSA,A,3,08,11,28,07,17,01,,,,,,,4.0,1.9,3.6*39
$GPRMC,043727.000,A,3353.7521,N,09832.0229,W,0.07,67.44,010412,,,D*42
$GPGGA,043728.000,3353.7522,N,09832.0231,W,2,06,1.9,338.1,M,-23.7,M,0.8,0000*49
$GPGSA,A,3,08,11,28,07,17,01,,,,,,,4.0,1.9,3.6*39
$GPRMC,043728.000,A,3353.7522,N,09832.0231,W,0.04,32.71,010412,,,D*42
$GPGGA,043729.000,3353.7522,N,09832.0233,W,2,06,1.9,337.9,M,-23.7,M,0.8,0000*4D
$GPGSA,A,3,08,11,28,07,17,01,,,,,,,4.0,1.9,3.6*39
$GPGSV,3,1,11,08,68,149,34,17,63,253,26,28,60,350,30,01,40,071,40*7B
$GPGSV,3,2,11,26,29,267,17,11,28,053,30,07,28,148,40,15,09,309,*7E
$GPGSV,3,3,11,27,09,321,,04,04,193,,51,49,195,38*41
$GPRMC,043729.000,A,3353.7522,N,09832.0233,W,0.03,120.95,010412,,,D*7E
$GPGGA,043730.000,3353.7522,N,09832.0234,W,2,06,1.9,337.6,M,-23.7,M,1.8,0000*4C
$GPGSA,A,3,08,11,28,07,17,01,,,,,,,4.0,1.9,3.6*39
$GPRMC,043730.000,A,3353.7522,N,09832.0234,W,0.03,167.76,010412,,,D*7F
$GPGGA,043731.000,3353.7523,N,09832.0236,W,2,06,1.9,337.3,M,-23.7,M,2.8,0000*48
$GPGSA,A,3,08,11,28,07,17,01,,,,,,,4.0,1.9,3.6*39
$GPRMC,043731.000,A,3353.7523,N,09832.0236,W,0.02,242.73,010412,,,D*7D
$GPGGA,043732.000,3353.7523,N,09832.0237,W,2,06,1.9,337.0,M,-23.7,M,0.8,0000*4B
$GPGSA,A,3,08,11,28,07,17,01,,,,,,,4.0,1.9,3.6*39
$GPRMC,043732.000,A,3353.7523,N,09832.0237,W,0.02,182.63,010412,,,D*71
$GPGGA,043733.000,3353.7523,N,09832.0238,W,2,06,1.9,336.7,M,-23.7,M,0.8,0000*43
$GPGSA,A,3,08,11,28,07,17,01,,,,,,,4.0,1.9,3.6*39
$GPRMC,043733.000,A,3353.7523,N,09832.0238,W,0.02,130.86,010412,,,D*7D
$GPGGA,043734.000,3353.7523,N,09832.0239,W,2,06,1.9,336.5,M,-23.7,M,0.8,0000*47
$GPGSA,A,3,08,11,28,07,17,01,,,,,,,4.0,1.9,3.6*39
$GPGSV,3,1,11,08,68,149,33,17,63,253,27,28,60,350,30,01,40,071,40*7D
$GPGSV,3,2,11,26,29,267,17,11,28,053,30,07,28,148,40,15,09,309,*7E
$GPGSV,3,3,11,27,09,321,,04,04,193,,51,49,195,38*41
$GPRMC,043734.000,A,3353.7523,N,09832.0239,W,0.07,126.75,010412,,,D*75
$GPGGA,043735.000,3353.7524,N,09832.0240,W,2,06,1.9,336.2,M,-23.7,M,0.8,0000*48
$GPGSA,A,3,08,11,28,07,17,01,,,,,,,4.0,1.9,3.6*39
$GPRMC,043735.000,A,3353.7524,N,09832.0240,W,0.08,47.09,010412,,,D*4F
$GPGGA,043736.000,3353.7524,N,09832.0241,W,2,06,1.9,335.9,M,-23.7,M,1.8,0000*43
$GPGSA,A,3,08,11,28,07,17,01,,,,,,,4.0,1.9,3.6*39
$GPRMC,043736.000,A,3353.7524,N,09832.0241,W,0.10,57.56,010412,,,D*4F
$GPGGA,043737.000,3353.7524,N,09832.0242,W,2,06,1.9,335.6,M,-23.7,M,2.8,0000*4D
$GPGSA,A,3,08,11,28,07,17,01,,,,,,,4.0,1.9,3.6*39
$GPRMC,043737.000,A,3353.7524,N,09832.0242,W,0.07,29.17,010412,,,D*47
$GPGGA,043738.000,3353.7525,N,09832.0243,W,2,06,1.9,335.4,M,-23.7,M,3.8,0000*41
$GPGSA,A,3,08,11,28,07,17,01,,,,,,,4.0,1.9,3.6*39
$GPRMC,043738.000,A,3353.7525,N,09832.0243,W,0.09,57.20,010412,,,D*4B
$GPGGA,043739.000,3353.7525,N,09832.0244,W,2,06,1.9,335.2,M,-23.7,M,0.8,0000*42
$GPGSA,A,3,08,11,28,07,17,01,,,,,,,4.0,1.9,3.6*39
$GPGSV,3,1,11,08,68,149,33,17,63,253,27,28,60,350,30,01,40,071,40*7D
$GPGSV,3,2,11,26,29,267,16,11,28,053,30,07,28,148,40,15,09,309,*7F
$GPGSV,3,3,11,27,09,321,,04,04,193,,51,49,195,38*41
$GPRMC,043739.000,A,3353.7525,N,09832.0244,W,0.05,9.98,010412,,,D*79
$GPGGA,043740.000,3353.7525,N,09832.0245,W,2,06,1.9,334.9,M,-23.7,M,0.8,0000*47
$GPGSA,A,3,08,11,28,07,17,01,,,,,,,4.0,1.9,3.6*39
$GPRMC,043740.000,A,3353.7525,N,09832.0245,W,0.09,353.87,010412,,,D*78
$GPGGA,043741.000,3353.7525,N,09832.0245,W,2,06,1.9,334.9,M,-23.7,M,0.8,0000*46
$GPGSA,A,3,08,11,28,07,17,01,,,,,,,4.0,1.9,3.6*39
$GPRMC,043741.000,A,3353.7525,N,09832.0245,W,0.02,18.93,010412,,,D*4B
$GPGGA,043742.000,3353.7525,N,09832.0245,W,2,06,1.9,334.9,M,-23.7,M,1.8,0000*44
$GPGSA,A,3,08,11,28,07,17,01,,,,,,,4.0,1.9,3.6*39
$GPRMC,043742.000,A,3353.7525,N,09832.0245,W,0.02,79.96,010412,,,D*4A
$GPGGA,043743.000,3353.7525,N,09832.0246,W,2,06,1.9,334.9,M,-23.7,M,2.8,0000*45
$GPGSA,A,3,08,11,28,07,17,01,,,,,,,4.0,1.9,3.6*39
$GPRMC,043743.000,A,3353.7525,N,09832.0246,W,0.02,83.63,010412,,,D*47
$GPGGA,043744.000,3353.7525,N,09832.0246,W,2,06,1.9,334.9,M,-23.7,M,3.8,0000*43
$GPGSA,A,3,08,11,28,07,17,01,,,,,,,4.0,1.9,3.6*39
$GPGSV,3,1,11,08,68,149,32,17,63,253,29,28,60,350,30,01,40,071,41*73
$GPGSV,3,2,11,26,29,267,16,11,28,053,30,07,28,148,40,15,09,309,*7F
$GPGSV,3,3,11,27,09,321,,04,04,193,,51,49,195,38*41
$GPRMC,043744.000,A,3353.7525,N,09832.0246,W,0.06,84.56,010412,,,D*45
$GPGGA,043745.000,3353.7525,N,09832.0245,W,2,06,1.9,335.0,M,-23.7,M,0.8,0000*4A
$GPGSA,A,3,08,11,28,07,17,01,,,,,,,4.0,1.9,3.6*39
$GPRMC,043745.000,A,3353.7525,N,09832.0245,W,0.10,87.50,010412,,,D*45
$GPGGA,043746.000,3353.7525,N,09832.0245,W,2,06,1.9,335.1,M,-23.7,M,0.8,0000*48
$GPGSA,A,3,08,11,28,07,17,01,,,,,,,4.0,1.9,3.6*39
$GPRMC,043746.000,A,3353.7525,N,09832.0245,W,0.15,99.47,010412,,,D*4A
$GPGGA,043747.000,3353.7525,N,09832.0244,W,2,06,1.9,335.1,M,-23.7,M,0.8,0000*48
$GPGSA,A,3,08,11,28,07,17,01,,,,,,,4.0,1.9,3.6*39
$GPRMC,043747.000,A,3353.7525,N,09832.0244,W,0.09,88.94,010412,,,D*49
$GPGGA,043748.000,3353.7525,N,09832.0244,W,2,06,1.9,335.1,M,-23.7,M,0.8,0000*47
$GPGSA,A,3,08,11,28,07,17,01,,,,,,,4.0,1.9,3.6*39
$GPRMC,043748.000,A,3353.7525,N,09832.0244,W,0.06,72.64,010412,,,D*43
$GPGGA,043749.000,3353.7525,N,09832.0244,W,2,06,1.9,335.1,M,-23.7,M,1.8,0000*47
$GPGSA,A,3,08,11,28,07,17,01,,,,,,,4.0,1.9,3.6*39
$GPGSV,3,1,11,08,68,149,31,17,63,253,30,28,60,350,30,01,40,071,41*78
$GPGSV,3,2,11,26,29,267,16,11,28,053,30,07,28,148,40,15,09,309,*7F
$GPGSV,3,3,11,27,09,321,,04,04,193,,51,49,195,38*41
$GPRMC,043749.000,A,3353.7525,N,09832.0244,W,0.08,84.61,010412,,,D*40
$GPGGA,043750.000,3353.7525,N,09832.0244,W,2,06,1.9,335.1,M,-23.7,M,0.8,0000*4E
$GPGSA,A,3,08,11,28,07,17,01,,,,,,,4.0,1.9,3.6*39
$GPRMC,043750.000,A,3353.7525,N,09832.0244,W,0.08,80.38,010412,,,D*40
$GPGGA,043751.000,3353.7524,N,09832.0243,W,2,06,1.9,335.2,M,-23.7,M,0.8,0000*4A
$GPGSA,A,3,08,11,28,07,17,01,,,,,,,4.0,1.9,3.6*39
$GPRMC,043751.000,A,3353.7524,N,09832.0243,W,0.05,87.94,010412,,,D*4B
$GPGGA,043752.000,3353.7524,N,09832.0242,W,2,06,1.9,335.3,M,-23.7,M,0.8,0000*49
$GPGSA,A,3,08,11,28,07,17,01,,,,,,,4.0,1.9,3.6*39
$GPRMC,043752.000,A,3353.7524,N,09832.0242,W,0.04,51.15,010412,,,D*4A
$GPGGA,043753.000,3353.7525,N,09832.0242,W,2,06,1.9,334.6,M,-23.7,M,0.8,0000*4D
$GPGSA,A,3,08,11,28,07,17,01,,,,,,,4.0,1.9,3.6*39
$GPRMC,043753.000,A,3353.7525,N,09832.0242,W,0.02,144.54,010412,,,D*7C
$GPGGA,043754.000,3353.7526,N,09832.0243,W,2,06,1.9,333.9,M,-23.7,M,1.8,0000*41
$GPGSA,A,3,08,11,28,07,17,01,,,,,,,4.0,1.9,3.6*39
$GPGSV,3,1,11,08,68,149,31,17,63,253,30,28,60,350,30,01,40,071,41*78
$GPGSV,3,2,11,26,29,267,15,11,28,053,30,07,28,148,40,15,09,309,*7C
$GPGSV,3,3,11,27,09,321,,04,04,193,,51,49,195,38*41
$GPRMC,043754.000,A,3353.7526,N,09832.0243,W,0.03,3.48,010412,,,D*77
$GPGGA,043755.000,3353.7527,N,09832.0244,W,2,06,1.9,333.2,M,-23.7,M,2.8,0000*4E
$GPGSA,A,3,08,11,28,07,17,01,,,,,,,4.0,1.9,3.6*39
$GPRMC,043755.000,A,3353.7527,N,09832.0244,W,0.03,321.53,010412,,,D*79
$GPGGA,043756.000,3353.7528,N,09832.0244,W,2,06,1.9,332.5,M,-23.7,M,3.8,0000*45
$GPGSA,A,3,08,11,28,07,17,01,,,,,,,4.0,1.9,3.6*39
$GPRMC,043756.000,A,3353.7528,N,09832.0244,W,0.05,309.07,010412,,,D*78
$GPGGA,043757.000,3353.7529,N,09832.0245,W,2,06,1.9,331.8,M,-23.7,M,0.8,0000*49
$GPGSA,A,3,08,11,28,07,17,01,,,,,,,4.0,1.9,3.6*39
$GPRMC,043757.000,A,3353.7529,N,09832.0245,W,0.04,331.70,010412,,,D*73
$GPGGA,043758.000,3353.7530,N,09832.0245,W,2,06,1.9,331.1,M,-23.7,M,0.8,0000*47
$GPGSA,A,3,08,11,28,07,17,01,,,,,,,4.0,1.9,3.5*3A
$GPRMC,043758.000,A,3353.7530,N,09832.0245,W,0.04,34.56,010412,,,D*46
$GPGGA,043759.000,3353.7531,N,09832.0246,W,2,06,1.9,330.4,M,-23.7,M,0.8,0000*40
$GPGSA,A,3,08,11,28,07,17,01,,,,,,,4.0,1.9,3.5*3A
$GPGSV,3,1,11,08,68,149,30,17,63,253,31,28,60,350,30,01,40,071,41*78
$GPGSV,3,2,11,26,29,267,15,11,28,053,25,07,28,148,40,15,09,309,*78
$GPGSV,3,3,11,27,09,321,,04,04,193,,51,49,195,38*41
$GPRMC,043759.000,A,3353.7531,N,09832.0246,W,0.14,348.81,010412,,,D*76
$GPGGA,043800.000,3353.7532,N,09832.0246,W,2,06,1.9,329.7,M,-23.7,M,1.8,0000*4A
$GPGSA,A,3,08,11,28,07,17,01,,,,,,,4.0,1.9,3.5*3A
$GPRMC,043800.000,A,3353.7532,N,09832.0246,W,0.14,347.17,010412,,,D*76
$GPGGA,043801.000,3353.7533,N,09832.0246,W,2,06,1.9,329.0,M,-23.7,M,0.8,0000*4C
$GPGSA,A,3,08,11,28,07,17,01,,,,,,,4.0,1.9,3.5*3A
$GPRMC,043801.000,A,3353.7533,N,09832.0246,W,0.15,351.66,010412,,,D*76
$GPGGA,043802.000,3353.7535,N,09832.0247,W,2,06,1.9,328.3,M,-23.7,M,1.8,0000*4B
$GPGSA,A,3,08,11,28,07,17,01,,,,,,,4.0,1.9,3.5*3A
$GPRMC,043802.000,A,3353.7535,N,09832.0247,W,0.17,346.17,010412,,,D*70
$GPGGA,043803.000,3353.7536,N,09832.0247,W,2,06,1.9,327.6,M,-23.7,M,0.8,0000*42
$GPGSA,A,3,08,11,28,07,17,01,,,,,,,4.0,1.9,3.5*3A
$GPRMC,043803.000,A,3353.7536,N,09832.0247,W,0.20,328.73,010412,,,D*7C
$GPGGA,043804.000,3353.7537,N,09832.0248,W,2,06,1.9,326.9,M,-23.7,M,0.8,0000*45
$GPGSA,A,3,08,11,28,07,17,01,,,,,,,4.0,1.9,3.5*3A
$GPGSV,3,1,11,08,68,149,30,17,63,253,32,28,60,350,30,01,40,071,40*7A
$GPGSV,3,2,11,26,29,267,15,11,28,053,25,07,28,148,40,15,09,309,*78
$GPGSV,3,3,11,27,09,321,,04,04,193,,51,49,195,38*41
$GPRMC,043804.000,A,3353.7537,N,09832.0248,W,0.22,323.63,010412,,,D*7D
$GPGGA,043805.000,3353.7538,N,09832.0249,W,2,06,1.9,326.3,M,-23.7,M,0.8,0000*40
$GPGSA,A,3,08,11,28,07,17,01,,,,,,,4.0,1.9,3.5*3A
$GPRMC,043805.000,A,3353.7538,N,09832.0249,W,0.16,299.18,010412,,,D*79
$GPGGA,043806.000,3353.7539,N,09832.0249,W,2,06,1.9,325.8,M,-23.7,M,1.8,0000*4B
$GPGSA,A,3,08,11,28,07,17,01,,,,,,,4.0,1.9,3.5*3A
$GPRMC,043806.000,A,3353.7539,N,09832.0249,W,0.15,300.24,010412,,,D*76
$GPGGA,043807.000,3353.7540,N,09832.0250,W,2,06,1.9,325.2,M,-23.7,M,2.8,0000*45
$GPGSA,A,3,08,11,28,07,17,01,,,,,,,4.0,1.9,3.5*3A
$GPRMC,043807.000,A,3353.7540,N,09832.0250,W,0.16,299.29,010412,,,D*7E
$GPGGA,043808.000,3353.7541,N,09832.0251,W,2,06,1.9,324.7,M,-23.7,M,3.8,0000*4F
$GPGSA,A,3,08,11,28,07,17,01,,,,,,,4.0,1.9,3.5*3A
$GPRMC,043808.000,A,3353.7541,N,09832.0251,W,0.16,303.80,010412,,,D*70
$GPGGA,043809.000,3353.7542,N,09832.0251,W,2,06,1.9,324.1,M,-23.7,M,0.8,0000*48
$GPGSA,A,3,08,11,28,07,17,01,,,,,,,4.0,1.9,3.5*3A
$GPGSV,3,1,11,08,68,149,30,17,63,253,32,28,60,350,29,01,40,071,40*72
$GPGSV,3,2,11,26,29,267,15,11,28,053,24,07,28,148,40,15,09,309,*79
$GPGSV,3,3,11,27,09,321,17,04,04,193,,51,49,195,38*47
$GPRMC,043809.000,A,3353.7542,N,09832.0251,W,0.13,313.63,010412,,,D*7B
$GPGGA,043810.000,3353.7542,N,09832.0251,W,2,06,1.9,323.8,M,-23.7,M,0.8,0000*4E
$GPGSA,A,3,08,11,28,07,17,01,,,,,,,4.0,1.9,3.5*3A
$GPRMC,043810.000,A,3353.7542,N,09832.0251,W,0.06,292.69,010412,,,D*75
$GPGGA,043811.000,3353.7543,N,09832.0251,W,2,06,1.9,323.4,M,-23.7,M,0.8,0000*42
$GPGSA,A,3,08,11,28,07,17,01,,,,,,,4.0,1.9,3.5*3A
$GPRMC,043811.000,A,3353.7543,N,09832.0251,W,0.12,322.90,010412,,,D*7C
$GPGGA,043812.000,3353.7543,N,09832.0251,W,2,06,1.9,323.1,M,-23.7,M,1.8,0000*45
$GPGSA,A,3,08,11,28,07,17,01,,,,,,,4.0,1.9,3.5*3A
$GPRMC,043812.000,A,3353.7543,N,09832.0251,W,0.10,309.96,010412,,,D*72
$GPGGA,043813.000,3353.7544,N,09832.0251,W,2,06,1.9,322.7,M,-23.7,M,2.8,0000*47
$GPGSA,A,3,08,11,28,07,17,01,,,,,,,4.0,1.9,3.5*3A
$GPRMC,043813.000,A,3353.7544,N,09832.0251,W,0.10,323.17,010412,,,D*75
$GPGGA,043814.000,3353.7545,N,09832.0251,W,2,06,1.9,322.4,M,-23.7,M,3.8,0000*43
$GPGSA,A,3,08,11,28,07,17,01,,,,,,,4.0,1.9,3.5*3A
$GPGSV,3,1,11,08,68,149,30,17,63,253,32,28,60,350,29,01,40,071,40*72
$GPGSV,3,2,11,26,29,267,15,11,28,053,24,07,28,148,40,15,09,309,*79
$GPGSV,3,3,11,27,09,321,16,04,04,193,,51,49,195,38*46
$GPRMC,043814.000,A,3353.7545,N,09832.0251,W,0.09,321.06,010412,,,D*79
$GPGGA,043815.000,3353.7545,N,09832.0252,W,2,06,1.9,322.0,M,-23.7,M,0.8,0000*46
$GPGSA,A,3,08,11,28,07,17,01,,,,,,,4.0,1.9,3.5*3A
$GPRMC,043815.000,A,3353.7545,N,09832.0252,W,0.15,316.01,010412,,,D*75
$GPGGA,043816.000,3353.7546,N,09832.0252,W,2,06,1.9,321.7,M,-23.7,M,0.8,0000*42
$GPGSA,A,3,08,11,28,07,17,01,,,,,,,4.0,1.9,3.5*3A
$GPRMC,043816.000,A,3353.7546,N,09832.0252,W,0.16,304.38,010412,,,D*7F
$GPGGA,043817.000,3353.7546,N,09832.0252,W,2,06,1.9,321.5,M,-23.7,M,0.8,0000*41
$GPGSA,A,3,08,11,28,07,17,01,,,,,,,4.0,1.9,3.5*3A
$GPRMC,043817.000,A,3353.7546,N,09832.0252,W,0.08,323.16,010412,,,D*78
$GPGGA,043818.000,3353.7547,N,09832.0253,W,2,06,1.9,321.1,M,-23.7,M,0.8,0000*4A
$GPGSA,A,3,08,11,28,07,17,01,,,,,,,4.0,1.9,3.5*3A
$GPRMC,043818.000,A,3353.7547,N,09832.0253,W,0.13,342.03,010412,,,D*7E
$GPGGA,043819.000,3353.7547,N,09832.0253,W,2,06,1.9,320.9,M,-23.7,M,0.8,0000*42
$GPGSA,A,3,08,11,28,07,17,01,,,,,,,4.0,1.9,3.5*3A
$GPGSV,3,1,12,08,66,150,30,17,64,256,33,28,61,352,29,01,40,069,40*7E
$GPGSV,3,2,12,26,28,265,14,11,28,052,24,07,27,148,40,27,10,321,17*73
$GPGSV,3,3,12,15,09,308,,04,06,193,,20,00,114,,51,49,195,38*7C
$GPRMC,043819.000,A,3353.7547,N,09832.0253,W,0.06,316.33,010412,,,D*79
$GPGGA,043820.000,3353.7548,N,09832.0252,W,2,06,1.9,320.7,M,-23.7,M,0.8,0000*48
$GPGSA,A,3,08,11,28,07,17,01,,,,,,,4.0,1.9,3.5*3A
$GPRMC,043820.000,A,3353.7548,N,09832.0252,W,0.05,340.71,010412,,,D*7B
$GPGGA,043821.000,3353.7548,N,09832.0252,W,2,06,1.9,320.5,M,-23.7,M,0.8,0000*4B
$GPGSA,A,3,08,11,28,07,17,01,,,,,,,4.0,1.9,3.5*3A
$GPRMC,043821.000,A,3353.7548,N,09832.0252,W,0.06,14.64,010412,,,D*4F
$GPGGA,043822.000,3353.7548,N,09832.0252,W,2,06,1.9,320.4,M,-23.7,M,0.8,0000*49
$GPGSA,A,3,08,11,28,07,17,01,,,,,,,4.0,1.9,3.5*3A
$GPRMC,043822.000,A,3353.7548,N,09832.0252,W,0.07,73.81,010412,,,D*47
$GPGGA,043823.000,3353.7549,N,09832.0251,W,2,06,1.9,320.3,M,-23.7,M,0.8,0000*4D
$GPGSA,A,3,08,11,28,07,17,01,,,,,,,4.0,1.9,3.5*3A
$GPRMC,043823.000,A,3353.7549,N,09832.0251,W,0.09,44.46,010412,,,D*45
$GPGGA,043824.000,3353.7549,N,09832.0251,W,2,06,1.9,320.2,M,-23.7,M,1.8,0000*4A
$GPGSA,A,3,08,11,28,07,17,01,,,,,,,4.0,1.9,3.5*3A
$GPGSV,3,1,12,08,66,150,30,17,64,256,33,28,61,352,29,01,40,069,40*7E
$GPGSV,3,2,12,26,28,265,13,11,28,052,24,07,27,148,40,27,10,321,16*75
$GPGSV,3,3,12,15,09,308,,04,06,193,,20,00,114,,51,49,195,38*7C
$GPRMC,043824.000,A,3353.7549,N,09832.0251,W,0.08,32.68,010412,,,D*4E
$GPGGA,043825.000,3353.7549,N,09832.0251,W,2,06,1.9,320.0,M,-23.7,M,2.8,0000*4A
$GPGSA,A,3,08,11,28,07,17,01,,,,,,,4.0,1.9,3.5*3A
$GPRMC,043825.000,A,3353.7549,N,09832.0251,W,0.08,35.36,010412,,,D*43
$GPGGA,043826.000,3353.7550,N,09832.0250,W,2,06,1.9,320.0,M,-23.7,M,0.8,0000*42
$GPGSA,A,3,08,11,28,07,17,01,,,,,,,4.0,1.9,3.5*3A
$GPRMC,043826.000,A,3353.7550,N,09832.0250,W,0.08,60.38,010412,,,D*47
$GPGGA,043827.000,3353.7550,N,09832.0250,W,2,06,1.9,319.9,M,-23.7,M,0.8,0000*40
$GPGSA,A,3,08,11,28,07,17,01,,,,,,,4.0,1.9,3.5*3A
$GPRMC,043827.000,A,3353.7550,N,09832.0250,W,0.06,7.15,010412,,,D*76
$GPGGA,043828.000,3353.7550,N,09832.0250,W,2,06,1.9,319.8,M,-23.7,M,0.8,0000*4E
$GPGSA,A,3,08,11,28,07,17,01,,,,,,,4.0,1.9,3.5*3A
$GPRMC,043828.000,A,3353.7550,N,09832.0250,W,0.10,357.87,010412,,,D*73
$GPGGA,043829.000,3353.7551,N,09832.0250,W,2,06,1.9,319.8,M,-23.7,M,0.8,0000*4E
$GPGSA,A,3,08,11,28,07,17,01,,,,,,,4.0,1.9,3.5*3A
$GPGSV,3,1,12,08,66,150,30,17,64,256,33,28,61,352,29,01,40,069,40*7E
$GPGSV,3,2,12,26,28,265,14,11,28,052,24,07,27,148,40,27,10,321,16*72
$GPGSV,3,3,12,15,09,308,,04,06,193,,20,00,114,,51,49,195,38*7C
$GPRMC,043829.000,A,3353.7551,N,09832.0250,W,0.03,194.25,010412,,,D*74
$GPGGA,043830.000,3353.7551,N,09832.0250,W,2,06,1.9,319.8,M,-23.7,M,1.8,0000*47
$GPGSA,A,3,08,11,28,07,17,01,,,,,,,4.0,1.9,3.5*3A
$GPRMC,043830.000,A,3353.7551,N,09832.0250,W,0.02,71.62,010412,,,D*44
$GPGGA,043831.000,3353.7551,N,09832.0250,W,2,06,1.9,319.9,M,-23.7,M,2.8,0000*44
$GPGSA,A,3,08,11,28,07,17,01,,,,,,,4.0,1.9,3.5*3A
$GPRMC,043831.000,A,3353.7551,N,09832.0250,W,0.06,160.05,010412,,,D*71
$GPGGA,043832.000,3353.7551,N,09832.0250,W,2,06,1.9,319.9,M,-23.7,M,3.8,0000*46
$GPGSA,A,3,08,11,28,07,17,01,,,,,,,4.0,1.9,3.5*3A
$GPRMC,043832.000,A,3353.7551,N,09832.0250,W,0.04,119.61,010412,,,D*7C
$GPGGA,043833.000,3353.7551,N,09832.0250,W,2,06,1.9,319.9,M,-23.7,M,0.8,0000*44
$GPGSA,A,3,08,11,28,07,17,01,,,,,,,4.0,1.9,3.5*3A
$GPRMC,043833.000,A,3353.7551,N,09832.0250,W,0.07,100.05,010412,,,D*74
$GPGGA,043834.000,3353.7550,N,09832.0249,W,2,06,1.9,319.9,M,-23.7,M,0.8,0000*4A
$GPGSA,A,3,08,11,28,07,17,01,,,,,,,4.0,1.9,3.5*3A
$GPGSV,3,1,12,08,66,150,31,17,64,256,33,28,61,352,29,01,40,069,40*7F
$GPGSV,3,2,12,26,28,265,16,11,28,052,24,07,27,148,40,27,10,321,15*73
$GPGSV,3,3,12,15,09,308,,04,06,193,,20,00,114,,51,49,195,38*7C
$GPRMC,043834.000,A,3353.7550,N,09832.0249,W,0.14,120.23,010412,,,D*7E
$GPGGA,043835.000,3353.7551,N,09832.0249,W,2,06,1.9,319.9,M,-23.7,M,0.8,0000*4A
$GPGSA,A,3,08,11,28,07,17,01,,,,,,,4.0,1.9,3.5*3A
$GPRMC,043835.000,A,3353.7551,N,09832.0249,W,0.13,73.85,010412,,,D*42
$GPGGA,043836.000,3353.7551,N,09832.0248,W,2,06,1.9,319.9,M,-23.7,M,0.8,0000*48
$GPGSA,A,3,08,11,28,07,17,01,,,,,,,4.0,1.9,3.5*3A
$GPRMC,043836.000,A,3353.7551,N,09832.0248,W,0.11,82.77,010412,,,D*41
$GPGGA,043837.000,3353.7551,N,09832.0248,W,2,06,1.9,319.9,M,-23.7,M,1.8,0000*48
$GPGSA,A,3,08,11,28,07,17,01,,,,,,,4.0,1.9,3.5*3A
$GPRMC,043837.000,A,3353.7551,N,09832.0248,W,0.14,80.13,010412,,,D*45
$GPGGA,043838.000,3353.7551,N,09832.0248,W,2,06,1.9,319.9,M,-23.7,M,2.8,0000*44
$GPGSA,A,3,08,11,28,07,17,01,,,,,,,4.0,1.9,3.5*3A
$GPRMC,043838.000,A,3353.7551,N,09832.0248,W,0.13,78.84,010412,,,D*44
$GPGGA,043839.000,3353.7551,N,09832.0248,W,2,06,1.9,319.8,M,-23.7,M,0.8,0000*46
$GPGSA,A,3,08,11,28,07,17,01,,,,,,,4.0,1.9,3.5*3A
$GPGSV,3,1,12,08,66,150,31,17,64,256,33,28,61,352,29,01,40,069,40*7F
$GPGSV,3,2,12,26,28,265,18,11,28,052,24,07,27,148,40,27,10,321,13*7B
$GPGSV,3,3,12,15,09,308,,04,06,193,,20,00,114,,51,49,195,38*7C
$GPRMC,043839.000,A,3353.7551,N,09832.0248,W,0.08,68.89,010412,,,D*43
$GPGGA,043840.000,3353.7552,N,09832.0248,W,2,06,1.9,319.8,M,-23.7,M,0.8,0000*4B
$GPGSA,A,3,08,11,28,07,17,01,,,,,,,4.0,1.9,3.5*3A
$GPRMC,043840.000,A,3353.7552,N,09832.0248,W,0.07,57.91,010412,,,D*44
$GPGGA,043841.000,3353.7552,N,09832.0248,W,2,06,1.9,319.7,M,-23.7,M,0.8,0000*45
