$GPGGA,032209.000,3353.7444,N,09832.0238,W,1,07,1.3,311.8,M,-23.7,M,,0000*6D
$GPGSA,A,3,13,11,07,17,08,19,01,,,,,,2.2,1.3,1.8*3B
$GPRMC,032209.000,A,3353.7444,N,09832.0238,W,0.07,148.38,020412,,,A*7E
$GPGGA,032210.000,3353.7444,N,09832.0237,W,1,07,1.3,311.7,M,-23.7,M,,0000*65
$GPGSA,A,3,13,11,07,17,08,19,01,,,,,,2.2,1.3,1.8*3B
$GPRMC,032210.000,A,3353.7444,N,09832.0237,W,0.11,64.99,020412,,,A*4A
$GPGGA,032211.000,3353.7445,N,09832.0237,W,1,07,1.3,311.6,M,-23.7,M,,0000*64
$GPGSA,A,3,13,11,07,17,08,19,01,,,,,,2.2,1.3,1.8*3B
$GPRMC,032211.000,A,3353.7445,N,09832.0237,W,0.16,79.74,020412,,,A*42
$GPGGA,032212.000,3353.7445,N,09832.0236,W,1,07,1.3,311.6,M,-23.7,M,,0000*66
$GPGSA,A,3,13,11,07,17,08,19,01,,,,,,2.2,1.3,1.8*3B
$GPGSV,3,1,09,08,74,352,33,07,59,122,36,28,47,302,,11,42,087,37*77
$GPGSV,3,2,09,17,36,219,22,01,34,112,37,26,28,304,,19,24,043,31*7A
$GPGSV,3,3,09,13,12,178,37*4B
$GPRMC,032212.000,A,3353.7445,N,09832.0236,W,0.17,79.30,020412,,,A*41
$GPGGA,032213.000,3353.7445,N,09832.0236,W,1,07,1.3,311.5,M,-23.7,M,,0000*64
$GPGSA,A,3,13,11,07,17,08,19,01,,,,,,2.2,1.3,1.8*3B
$GPRMC,032213.000,A,3353.7445,N,09832.0236,W,0.06,43.91,020412,,,A*42
$GPGGA,032214.000,3353.7446,N,09832.0237,W,1,07,1.3,311.4,M,-23.7,M,,0000*60
$GPGSA,A,3,13,11,07,17,08,19,01,,,,,,2.2,1.3,1.8*3B
$GPRMC,032214.000,A,3353.7446,N,09832.0237,W,0.16,279.22,020412,,,A*75
$GPGGA,032215.000,3353.7446,N,09832.0237,W,1,07,1.3,311.2,M,-23.7,M,,0000*67
$GPGSA,A,3,13,11,07,17,08,19,01,,,,,,2.2,1.3,1.8*3B
$GPRMC,032215.000,A,3353.7446,N,09832.0237,W,0.19,289.97,020412,,,A*7A
$GPGGA,032216.000,3353.7447,N,09832.0238,W,1,07,1.3,311.1,M,-23.7,M,,0000*69
$GPGSA,A,3,13,11,07,17,08,19,01,,,,,,2.2,1.3,1.8*3B
$GPRMC,032216.000,A,3353.7447,N,09832.0238,W,0.22,288.75,020412,,,A*72
$GPGGA,032217.000,3353.7447,N,09832.0239,W,1,07,1.3,311.0,M,-23.7,M,,0000*68
$GPGSA,A,3,13,11,07,17,08,19,01,,,,,,2.2,1.3,1.8*3B
$GPGSV,3,1,09,08,74,352,33,07,59,122,36,28,47,302,,11,42,087,36*76
$GPGSV,3,2,09,17,36,219,23,01,34,112,37,26,28,304,19,19,24,043,31*73
$GPGSV,3,3,09,13,12,178,37*4B
$GPRMC,032217.000,A,3353.7447,N,09832.0239,W,0.16,290.75,020412,,,A*7C
$GPGGA,032218.000,3353.7448,N,09832.0240,W,1,07,1.3,310.8,M,-23.7,M,,0000*6F
$GPGSA,A,3,13,11,07,17,08,19,01,,,,,,2.2,1.3,1.8*3B
$GPRMC,032218.000,A,3353.7448,N,09832.0240,W,0.12,310.78,020412,,,A*72
$GPGGA,032219.000,3353.7449,N,09832.0240,W,1,07,1.3,310.6,M,-23.7,M,,0000*61
$GPGSA,A,3,13,11,07,17,08,19,01,,,,,,2.2,1.3,1.8*3B
$GPRMC,032219.000,A,3353.7449,N,09832.0240,W,0.09,356.82,020412,,,A*7F
$GPGGA,032220.000,3353.7449,N,09832.0240,W,1,07,1.3,310.4,M,-23.7,M,,0000*69
$GPGSA,A,3,13,11,07,17,08,19,01,,,,,,2.2,1.3,1.8*3B
$GPRMC,032220.000,A,3353.7449,N,09832.0240,W,0.13,57.12,020412,,,A*45
$GPGGA,032221.000,3353.7450,N,09832.0241,W,1,07,1.3,310.2,M,-23.7,M,,0000*67
$GPGSA,A,3,13,11,07,17,08,19,01,,,,,,2.2,1.3,1.8*3B
$GPRMC,032221.000,A,3353.7450,N,09832.0241,W,0.14,291.14,020412,,,A*74
$GPGGA,032222.000,3353.7451,N,09832.0242,W,1,07,1.3,309.9,M,-23.7,M,,0000*65
$GPGSA,A,3,13,11,07,17,08,19,01,,,,,,2.2,1.3,1.8*3B
$GPGSV,3,1,09,08,74,352,33,07,59,122,36,28,47,302,,11,42,087,36*76
$GPGSV,3,2,09,17,36,219,23,01,34,112,37,26,28,304,19,19,24,043,31*73
$GPGSV,3,3,09,13,12,178,37*4B
$GPRMC,032222.000,A,3353.7451,N,09832.0242,W,0.22,292.64,020412,,,A*74
$GPGGA,032223.000,3353.7451,N,09832.0242,W,1,07,1.3,309.7,M,-23.7,M,,0000*6A
$GPGSA,A,3,13,11,07,17,08,19,01,,,,,,2.2,1.3,1.8*3B
$GPRMC,032223.000,A,3353.7451,N,09832.0242,W,0.09,3.26,020412,,,A*70
$GPGGA,032224.000,3353.7452,N,09832.0243,W,1,07,1.3,309.4,M,-23.7,M,,0000*6C
$GPGSA,A,3,13,11,07,17,08,19,01,,,,,,2.2,1.3,1.8*3B
$GPRMC,032224.000,A,3353.7452,N,09832.0243,W,0.16,297.70,020412,,,A*77
$GPGGA,032225.000,3353.7453,N,09832.0244,W,1,06,1.6,309.1,M,-23.7,M,,0000*6A
$GPGSA,A,3,13,11,07,08,19,01,,,,,,,2.4,1.6,1.8*3E
$GPRMC,032225.000,A,3353.7453,N,09832.0244,W,0.12,332.37,020412,,,A*79
$GPGGA,032226.000,3353.7454,N,09832.0244,W,1,07,1.2,308.8,M,-23.7,M,,0000*63
$GPGSA,A,3,13,11,07,08,19,01,28,,,,,,2.1,1.2,1.8*35
$GPRMC,032226.000,A,3353.7454,N,09832.0244,W,0.09,43.79,020412,,,A*48
$GPGGA,032227.000,3353.7455,N,09832.0245,W,1,07,1.2,308.4,M,-23.7,M,,0000*6E
$GPGSA,A,3,13,11,07,08,19,01,28,,,,,,2.1,1.2,1.8*35
$GPGSV,3,1,10,08,74,352,33,07,59,122,37,28,47,302,21,11,42,087,36*7C
$GPGSV,3,2,10,17,36,219,,01,34,112,37,26,28,304,18,19,24,043,30*7A
$GPGSV,3,3,10,13,12,178,37,48,36,230,24*7D
$GPRMC,032227.000,A,3353.7455,N,09832.0245,W,0.26,310.72,020412,,,A*7A
$GPGGA,032228.000,3353.7456,N,09832.0246,W,1,07,1.2,308.1,M,-23.7,M,,0000*64
$GPGSA,A,3,13,11,07,08,19,01,28,,,,,,2.1,1.2,1.8*35
$GPRMC,032228.000,A,3353.7456,N,09832.0246,W,0.13,339.68,020412,,,A*73
$GPGGA,032229.000,3353.7457,N,09832.0246,W,1,07,1.2,307.8,M,-23.7,M,,0000*62
$GPGSA,A,3,13,11,07,08,19,01,28,,,,,,2.1,1.2,1.8*35
$GPRMC,032229.000,A,3353.7457,N,09832.0246,W,0.16,327.14,020412,,,A*72
$GPGGA,032230.000,3353.7458,N,09832.0247,W,1,07,1.2,307.5,M,-23.7,M,,0000*69
$GPGSA,A,3,13,11,07,08,19,01,28,,,,,,2.1,1.2,1.8*35
$GPRMC,032230.000,A,3353.7458,N,09832.0247,W,0.20,316.20,020412,,,A*74
$GPGGA,032231.000,3353.7458,N,09832.0247,W,1,07,1.2,307.2,M,-23.7,M,,0000*6F
$GPGSA,A,3,13,11,07,08,19,01,28,,,,,,2.1,1.2,1.8*35
$GPRMC,032231.000,A,3353.7458,N,09832.0247,W,0.17,83.94,020412,,,A*41
$GPGGA,032232.000,3353.7459,N,09832.0248,W,1,07,1.2,307.0,M,-23.7,M,,0000*60
$GPGSA,A,3,13,11,07,08,19,01,28,,,,,,2.1,1.2,1.8*35
$GPGSV,3,1,10,08,74,352,33,07,59,122,36,28,47,302,22,11,42,087,36*7E
$GPGSV,3,2,10,17,36,219,,01,34,112,37,26,28,304,16,19,24,043,30*74
$GPGSV,3,3,10,13,12,178,36,48,36,230,25*7D
$GPRMC,032232.000,A,3353.7459,N,09832.0248,W,0.19,307.50,020412,,,A*75
$GPGGA,032233.000,3353.7460,N,09832.0248,W,1,07,1.2,306.7,M,-23.7,M,,0000*6D
$GPGSA,A,3,13,11,07,08,19,01,28,,,,,,2.1,1.2,1.8*35
$GPRMC,032233.000,A,3353.7460,N,09832.0248,W,0.08,4.28,020412,,,A*71
$GPGGA,032234.000,3353.7460,N,09832.0249,W,1,07,1.2,306.5,M,-23.7,M,,0000*69
$GPGSA,A,3,13,11,07,08,19,01,28,,,,,,2.1,1.2,1.8*35
$GPRMC,032234.000,A,3353.7460,N,09832.0249,W,0.18,311.23,020412,,,A*7A
$GPGGA,032235.000,3353.7461,N,09832.0250,W,1,07,1.2,306.2,M,-23.7,M,,0000*66
$GPGSA,A,3,13,11,07,08,19,01,28,,,,,,2.1,1.2,1.8*35
$GPRMC,032235.000,A,3353.7461,N,09832.0250,W,0.32,301.88,020412,,,A*7A
$GPGGA,032236.000,3353.7462,N,09832.0251,W,1,07,1.2,306.0,M,-23.7,M,,0000*65
$GPGSA,A,3,13,11,07,08,19,01,28,,,,,,2.1,1.2,1.8*35
$GPRMC,032236.000,A,3353.7462,N,09832.0251,W,0.13,314.32,020412,,,A*7D
$GPGGA,032237.000,3353.7462,N,09832.0251,W,1,07,1.2,305.9,M,-23.7,M,,0000*6E
$GPGSA,A,3,13,11,07,08,19,01,28,,,,,,2.1,1.2,1.8*35
$GPGSV,3,1,09,08,74,352,33,07,59,122,36,28,47,302,21,11,42,087,36*75
$GPGSV,3,2,09,17,36,219,,01,34,112,38,26,28,304,,19,24,043,30*74
$GPGSV,3,3,09,13,12,178,36*4A
$GPRMC,032237.000,A,3353.7462,N,09832.0251,W,0.16,312.75,020412,,,A*7C
$GPGGA,032238.000,3353.7463,N,09832.0251,W,1,07,1.2,305.7,M,-23.7,M,,0000*6E
$GPGSA,A,3,13,11,07,08,19,01,28,,,,,,2.1,1.2,1.8*35
$GPRMC,032238.000,A,3353.7463,N,09832.0251,W,0.06,2.66,020412,,,A*73
$GPGGA,032239.000,3353.7463,N,09832.0251,W,1,07,1.2,305.5,M,-23.7,M,,0000*6D
$GPGSA,A,3,13,11,07,08,19,01,28,,,,,,2.1,1.2,1.8*35
$GPRMC,032239.000,A,3353.7463,N,09832.0251,W,0.24,102.82,020412,,,A*79
$GPGGA,032240.000,3353.7464,N,09832.0251,W,1,07,1.2,305.4,M,-23.7,M,,0000*65
$GPGSA,A,3,13,11,07,08,19,01,28,,,,,,2.1,1.2,1.8*35
$GPRMC,032240.000,A,3353.7464,N,09832.0251,W,0.06,347.10,020412,,,A*78
$GPGGA,032241.000,3353.7464,N,09832.0251,W,1,07,1.2,305.3,M,-23.7,M,,0000*63
$GPGSA,A,3,13,11,07,08,19,01,28,,,,,,2.1,1.2,1.8*35
$GPRMC,032241.000,A,3353.7464,N,09832.0251,W,0.11,92.19,020412,,,A*4D
$GPGGA,032242.000,3353.7464,N,09832.0250,W,1,08,1.1,305.1,M,-23.7,M,,0000*6F
$GPGSA,A,3,13,11,17,07,08,19,01,28,,,,,2.1,1.1,1.8*30
$GPGSV,3,1,09,08,74,352,33,07,59,122,36,28,47,302,22,11,42,087,36*76
$GPGSV,3,2,09,17,36,219,24,01,34,112,38,26,28,304,,19,24,043,31*73
$GPGSV,3,3,09,13,12,178,36*4A
$GPRMC,032242.000,A,3353.7464,N,09832.0250,W,0.32,93.07,020412,,,A*40
$GPGGA,032243.000,3353.7464,N,09832.0249,W,1,08,1.1,305.0,M,-23.7,M,,0000*67
$GPGSA,A,3,13,11,17,07,08,19,01,28,,,,,2.1,1.1,1.8*30
$GPRMC,032243.000,A,3353.7464,N,09832.0249,W,0.29,98.00,020412,,,A*4F
$GPGGA,032244.000,3353.7464,N,09832.0249,W,1,08,1.1,304.9,M,-23.7,M,,0000*68
$GPGSA,A,3,13,11,17,07,08,19,01,28,,,,,2.1,1.1,1.8*30
$GPRMC,032244.000,A,3353.7464,N,09832.0249,W,0.19,106.58,020412,,,A*70
$GPGGA,032245.000,3353.7464,N,09832.0249,W,1,08,1.1,304.8,M,-23.7,M,,0000*68
$GPGSA,A,3,13,11,17,07,08,19,01,28,,,,,2.1,1.1,1.8*30
$GPRMC,032245.000,A,3353.7464,N,09832.0249,W,0.14,92.02,020412,,,A*4F
$GPGGA,032246.000,3353.7465,N,09832.0249,W,1,08,1.1,304.8,M,-23.7,M,,0000*6A
$GPGSA,A,3,13,11,17,07,08,19,01,28,,,,,2.1,1.1,1.8*30
$GPRMC,032246.000,A,3353.7465,N,09832.0249,W,0.08,281.00,020412,,,A*72
$GPGGA,032247.000,3353.7464,N,09832.0249,W,1,08,1.1,304.7,M,-23.7,M,,0000*65
$GPGSA,A,3,13,11,17,07,08,19,01,28,,,,,2.1,1.1,1.8*30
$GPGSV,3,1,09,08,74,353,33,07,58,123,36,28,48,302,23,11,42,087,36*79
$GPGSV,3,2,09,17,36,219,20,01,34,112,38,26,28,303,,19,23,043,31*77
$GPGSV,3,3,09,13,12,178,36*4A
$GPRMC,032247.000,A,3353.7464,N,09832.0249,W,0.09,152.68,020412,,,A*70
$GPGGA,032248.000,3353.7464,N,09832.0249,W,1,08,1.1,304.7,M,-23.7,M,,0000*6A
$GPGSA,A,3,13,11,17,07,08,19,01,28,,,,,2.1,1.1,1.8*30
$GPRMC,032248.000,A,3353.7464,N,09832.0249,W,0.13,150.70,020412,,,A*7F
$GPGGA,032249.000,3353.7465,N,09832.0250,W,1,08,1.1,304.7,M,-23.7,M,,0000*62
$GPGSA,A,3,13,11,17,07,08,19,01,28,,,,,2.1,1.1,1.8*30
$GPRMC,032249.000,A,3353.7465,N,09832.0250,W,0.15,281.11,020412,,,A*79
$GPGGA,032250.000,3353.7464,N,09832.0250,W,1,08,1.1,304.7,M,-23.7,M,,0000*6B
$GPGSA,A,3,13,11,17,07,08,19,01,28,,,,,2.1,1.1,1.8*30
$GPRMC,032250.000,A,3353.7464,N,09832.0250,W,0.11,198.21,020412,,,A*7C
$GPGGA,032251.000,3353.7464,N,09832.0250,W,1,08,1.1,304.7,M,-23.7,M,,0000*6A
$GPGSA,A,3,13,11,17,07,08,19,01,28,,,,,2.1,1.1,1.8*30
$GPRMC,032251.000,A,3353.7464,N,09832.0250,W,0.13,130.30,020412,,,A*7D
$GPGGA,032252.000,3353.7464,N,09832.0250,W,1,08,1.1,304.7,M,-23.7,M,,0000*69
$GPGSA,A,3,13,11,17,07,08,19,01,28,,,,,2.1,1.1,1.8*30
$GPGSV,3,1,09,08,74,353,33,07,58,123,36,28,48,302,23,11,42,087,36*79
$GPGSV,3,2,09,17,36,219,20,01,34,112,38,26,28,303,,19,23,043,31*77
$GPGSV,3,3,09,13,12,178,36*4A
$GPRMC,032252.000,A,3353.7464,N,09832.0250,W,0.09,156.31,020412,,,A*74
$GPGGA,032253.000,3353.7464,N,09832.0250,W,1,08,1.1,304.7,M,-23.7,M,,0000*68
$GPGSA,A,3,13,11,17,07,08,19,01,28,,,,,2.1,1.1,1.8*30
$GPRMC,032253.000,A,3353.7464,N,09832.0250,W,0.12,244.15,020412,,,A*79
$GPGGA,032254.000,3353.7464,N,09832.0250,W,1,08,1.1,304.6,M,-23.7,M,,0000*6E
$GPGSA,A,3,13,11,17,07,08,19,01,28,,,,,2.1,1.1,1.8*30
$GPRMC,032254.000,A,3353.7464,N,09832.0250,W,0.09,211.30,020412,,,A*73
$GPGGA,032255.000,3353.7464,N,09832.0250,W,1,08,1.1,304.6,M,-23.7,M,,0000*6F
$GPGSA,A,3,13,11,17,07,08,19,01,28,,,,,2.1,1.1,1.8*30
$GPRMC,032255.000,A,3353.7464,N,09832.0250,W,0.14,133.15,020412,,,A*7A
$GPGGA,032256.000,3353.7464,N,09832.0250,W,1,07,1.2,304.6,M,-23.7,M,,0000*60
$GPGSA,A,3,13,11,07,08,19,01,28,,,,,,2.1,1.2,1.8*35
$GPRMC,032256.000,A,3353.7464,N,09832.0250,W,0.09,92.90,020412,,,A*42
$GPGGA,032257.000,3353.7464,N,09832.0250,W,1,07,1.2,304.6,M,-23.7,M,,0000*61
$GPGSA,A,3,13,11,07,08,19,01,28,,,,,,2.1,1.2,1.8*35
$GPGSV,3,1,09,08,74,353,32,07,58,123,36,28,48,302,23,11,42,087,37*79
$GPGSV,3,2,09,17,36,219,,01,34,112,38,26,28,303,,19,23,043,31*75
$GPGSV,3,3,09,13,12,178,36*4A
$GPRMC,032257.000,A,3353.7464,N,09832.0250,W,0.11,302.85,020412,,,A*74
$GPGGA,032258.000,3353.7464,N,09832.0250,W,1,07,1.2,304.6,M,-23.7,M,,0000*6E
$GPGSA,A,3,13,11,07,08,19,01,28,,,,,,2.1,1.2,1.8*35
$GPRMC,032258.000,A,3353.7464,N,09832.0250,W,0.08,99.78,020412,,,A*40
$GPGGA,032259.000,3353.7464,N,09832.0250,W,1,07,1.2,304.6,M,-23.7,M,,0000*6F
$GPGSA,A,3,13,11,07,08,19,01,28,,,,,,2.1,1.2,1.8*35
$GPRMC,032259.000,A,3353.7464,N,09832.0250,W,0.10,101.91,020412,,,A*7F
$GPGGA,032300.000,3353.7464,N,09832.0250,W,1,07,1.2,304.6,M,-23.7,M,,0000*62
$GPGSA,A,3,13,11,07,08,19,01,28,,,,,,2.1,1.2,1.8*35
$GPRMC,032300.000,A,3353.7464,N,09832.0250,W,0.21,107.63,020412,,,A*7B
$GPGGA,032301.000,3353.7464,N,09832.0250,W,1,07,1.2,304.7,M,-23.7,M,,0000*62
$GPGSA,A,3,13,11,07,08,19,01,28,,,,,,2.1,1.2,1.8*35
$GPRMC,032301.000,A,3353.7464,N,09832.0250,W,0.04,292.24,020412,,,A*71
$GPGGA,032302.000,3353.7464,N,09832.0249,W,1,07,1.2,304.7,M,-23.7,M,,0000*69
$GPGSA,A,3,13,11,07,08,19,01,28,,,,,,2.1,1.2,1.8*35
$GPGSV,3,1,09,08,74,353,32,07,58,123,35,28,48,302,24,11,42,087,37*7D
$GPGSV,3,2,09,17,36,219,,01,34,112,37,26,28,303,,19,23,043,32*79
$GPGSV,3,3,09,13,12,178,35*49
$GPRMC,032302.000,A,3353.7464,N,09832.0249,W,0.19,113.87,020412,,,A*75
$GPGGA,032303.000,3353.7464,N,09832.0249,W,1,07,1.2,304.8,M,-23.7,M,,0000*67
$GPGSA,A,3,13,11,07,08,19,01,28,,,,,,2.1,1.2,1.8*35
$GPRMC,032303.000,A,3353.7464,N,09832.0249,W,0.12,119.01,020412,,,A*7B
$GPGGA,032304.000,3353.7464,N,09832.0249,W,1,07,1.2,304.9,M,-23.7,M,,0000*61
$GPGSA,A,3,13,11,07,08,19,01,28,,,,,,2.1,1.2,1.8*35
$GPRMC,032304.000,A,3353.7464,N,09832.0249,W,0.09,112.62,020412,,,A*78
$GPGGA,032305.000,3353.7463,N,09832.0249,W,1,07,1.2,305.0,M,-23.7,M,,0000*6F
$GPGSA,A,3,13,11,07,08,19,01,28,,,,,,2.1,1.2,1.8*35
$GPRMC,032305.000,A,3353.7463,N,09832.0249,W,0.08,124.29,020412,,,A*75
$GPGGA,032306.000,3353.7463,N,09832.0249,W,1,07,1.2,305.1,M,-23.7,M,,0000*6D
$GPGSA,A,3,13,11,07,08,19,01,28,,,,,,2.1,1.2,1.8*35
$GPRMC,032306.000,A,3353.7463,N,09832.0249,W,0.03,107.80,020412,,,A*7F
$GPGGA,032307.000,3353.7463,N,09832.0249,W,1,07,1.2,305.2,M,-23.7,M,,0000*6F
$GPGSA,A,3,13,11,07,08,19,01,28,,,,,,2.1,1.2,1.8*35
$GPGSV,3,1,09,08,74,353,32,07,58,123,35,28,48,302,25,11,42,087,37*7C
$GPGSV,3,2,09,17,36,219,,01,34,112,37,26,28,303,,19,23,043,32*79
$GPGSV,3,3,09,13,12,178,35*49
$GPRMC,032307.000,A,3353.7463,N,09832.0249,W,0.06,120.59,020412,,,A*7A
$GPGGA,032308.000,3353.7463,N,09832.0249,W,1,07,1.2,305.3,M,-23.7,M,,0000*61
$GPGSA,A,3,13,11,07,08,19,01,28,,,,,,2.1,1.2,1.8*35
$GPRMC,032308.000,A,3353.7463,N,09832.0249,W,0.07,111.14,020412,,,A*7F
$GPGGA,032309.000,3353.7463,N,09832.0249,W,1,07,1.2,305.4,M,-23.7,M,,0000*67
$GPGSA,A,3,13,11,07,08,19,01,28,,,,,,2.1,1.2,1.8*35
$GPRMC,032309.000,A,3353.7463,N,09832.0249,W,0.06,101.53,020412,,,A*7D
$GPGGA,032310.000,3353.7462,N,09832.0249,W,1,07,1.2,305.5,M,-23.7,M,,0000*6F
$GPGSA,A,3,13,11,07,08,19,01,28,,,,,,2.1,1.2,1.8*35
$GPRMC,032310.000,A,3353.7462,N,09832.0249,W,0.08,120.51,020412,,,A*7B
$GPGGA,032311.000,3353.7462,N,09832.0249,W,1,07,1.2,305.6,M,-23.7,M,,0000*6D
$GPGSA,A,3,13,11,07,08,19,01,28,,,,,,2.1,1.2,1.8*35
$GPRMC,032311.000,A,3353.7462,N,09832.0249,W,0.07,116.30,020412,,,A*77
$GPGGA,032312.000,3353.7462,N,09832.0249,W,1,07,1.2,305.7,M,-23.7,M,,0000*6F
$GPGSA,A,3,13,11,07,08,19,01,28,,,,,,2.1,1.2,1.8*35
$GPGSV,3,1,09,08,74,353,32,07,58,123,35,28,48,302,26,11,42,087,37*7F
$GPGSV,3,2,09,17,36,219,,01,34,112,37,26,28,303,,19,23,043,32*79
$GPGSV,3,3,09,13,12,178,35*49
$GPRMC,032312.000,A,3353.7462,N,09832.0249,W,0.06,113.38,020412,,,A*78
$GPGGA,032313.000,3353.7462,N,09832.0248,W,1,07,1.2,305.8,M,-23.7,M,,0000*60
$GPGSA,A,3,13,11,07,08,19,01,28,,,,,,2.1,1.2,1.8*35
$GPRMC,032313.000,A,3353.7462,N,09832.0248,W,0.06,112.18,020412,,,A*7B
$GPGGA,032314.000,3353.7462,N,09832.0248,W,1,07,1.2,305.9,M,-23.7,M,,0000*66
$GPGSA,A,3,13,11,07,08,19,01,28,,,,,,2.1,1.2,1.8*35
$GPRMC,032314.000,A,3353.7462,N,09832.0248,W,0.06,108.53,020412,,,A*78
$GPGGA,032315.000,3353.7461,N,09832.0248,W,1,07,1.2,306.0,M,-23.7,M,,0000*6E
$GPGSA,A,3,13,11,07,08,19,01,28,,,,,,2.1,1.2,1.8*35
$GPRMC,032315.000,A,3353.7461,N,09832.0248,W,0.06,109.67,020412,,,A*7C
$GPGGA,032316.000,3353.7461,N,09832.0248,W,1,07,1.2,306.1,M,-23.7,M,,0000*6C
$GPGSA,A,3,13,11,07,08,19,01,28,,,,,,2.1,1.2,1.8*35
$GPRMC,032316.000,A,3353.7461,N,09832.0248,W,0.06,103.29,020412,,,A*7F
$GPGGA,032317.000,3353.7461,N,09832.0248,W,1,07,1.2,306.2,M,-23.7,M,,0000*6E
$GPGSA,A,3,13,11,07,08,19,01,28,,,,,,2.1,1.2,1.8*35
$GPGSV,3,1,09,08,74,353,32,07,58,123,35,28,48,302,27,11,42,087,37*7E
$GPGSV,3,2,09,17,36,219,,01,34,112,37,26,28,303,,19,23,043,32*79
$GPGSV,3,3,09,13,12,178,35*49
$GPRMC,032317.000,A,3353.7461,N,09832.0248,W,0.06,106.32,020412,,,A*71
$GPGGA,032318.000,3353.7461,N,09832.0248,W,1,07,1.2,306.3,M,-23.7,M,,0000*60
$GPGSA,A,3,13,11,07,08,19,01,28,,,,,,2.1,1.2,1.8*35
$GPRMC,032318.000,A,3353.7461,N,09832.0248,W,0.07,97.80,020412,,,A*4F
$GPGGA,032319.000,3353.7461,N,09832.0248,W,1,07,1.2,306.4,M,-23.7,M,,0000*66
$GPGSA,A,3,13,11,07,08,19,01,28,,,,,,2.1,1.2,1.8*35
$GPRMC,032319.000,A,3353.7461,N,09832.0248,W,0.05,106.50,020412,,,A*78
$GPGGA,032320.000,3353.7461,N,09832.0248,W,1,07,1.2,306.4,M,-23.7,M,,0000*6C
$GPGSA,A,3,13,11,07,08,19,01,28,,,,,,2.1,1.2,1.8*35
$GPRMC,032320.000,A,3353.7461,N,09832.0248,W,0.07,100.34,020412,,,A*74
$GPGGA,032321.000,3353.7461,N,09832.0248,W,1,07,1.2,306.5,M,-23.7,M,,0000*6C
$GPGSA,A,3,13,11,07,08,19,01,28,,,,,,2.1,1.2,1.8*35
$GPRMC,032321.000,A,3353.7461,N,09832.0248,W,0.07,92.89,020412,,,A*49
$GPGGA,032322.000,3353.7460,N,09832.0248,W,1,07,1.2,306.6,M,-23.7,M,,0000*6D
$GPGSA,A,3,13,11,07,08,19,01,28,,,,,,2.1,1.2,1.8*35
$GPGSV,3,1,09,08,74,353,32,07,58,123,35,28,48,302,28,11,42,087,38*7E
$GPGSV,3,2,09,17,36,219,,01,34,112,37,26,28,303,,19,23,043,32*79
$GPGSV,3,3,09,13,12,178,35*49
$GPRMC,032322.000,A,3353.7460,N,09832.0248,W,0.07,104.44,020412,,,A*74
$GPGGA,032323.000,3353.7460,N,09832.0248,W,1,07,1.2,306.7,M,-23.7,M,,0000*6D
$GPGSA,A,3,13,11,07,08,19,01,28,,,,,,2.1,1.2,1.8*35
$GPRMC,032323.000,A,3353.7460,N,09832.0248,W,0.07,96.15,020412,,,A*4B
$GPGGA,032324.000,3353.7460,N,09832.0248,W,1,08,1.1,306.7,M,-23.7,M,,0000*66
$GPGSA,A,3,13,11,17,07,08,19,01,28,,,,,2.1,1.1,1.8*30
$GPRMC,032324.000,A,3353.7460,N,09832.0248,W,0.14,76.45,020412,,,A*45
$GPGGA,032325.000,3353.7460,N,09832.0248,W,1,08,1.1,306.8,M,-23.7,M,,0000*68
$GPGSA,A,3,13,11,17,07,08,19,01,28,,,,,2.1,1.1,1.8*30
$GPRMC,032325.000,A,3353.7460,N,09832.0248,W,0.09,184.16,020412,,,A*72
$GPGGA,032326.000,3353.7460,N,09832.0248,W,1,08,1.1,306.9,M,-23.7,M,,0000*6A
$GPGSA,A,3,13,11,17,07,08,19,01,28,,,,,2.1,1.1,1.8*30
$GPRMC,032326.000,A,3353.7460,N,09832.0248,W,0.11,215.50,020412,,,A*71
$GPGGA,032327.000,3353.7459,N,09832.0249,W,1,08,1.1,307.0,M,-23.7,M,,0000*68
$GPGSA,A,3,13,11,17,07,08,19,01,28,,,,,2.1,1.1,1.8*30
$GPGSV,3,1,09,08,74,353,31,07,58,123,35,28,48,302,28,11,42,087,38*7D
$GPGSV,3,2,09,17,36,219,20,01,34,112,37,26,28,303,,19,23,043,31*78
$GPGSV,3,3,09,13,12,178,35*49
$GPRMC,032327.000,A,3353.7459,N,09832.0249,W,0.14,217.09,020412,,,A*70
$GPGGA,032328.000,3353.7459,N,09832.0248,W,1,08,1.1,307.1,M,-23.7,M,,0000*67
$GPGSA,A,3,13,11,17,07,08,19,01,28,,,,,2.1,1.1,1.8*30
$GPRMC,032328.000,A,3353.7459,N,09832.0248,W,0.12,80.57,020412,,,A*4F
$GPGGA,032329.000,3353.7459,N,09832.0248,W,1,08,1.1,307.2,M,-23.7,M,,0000*65
$GPGSA,A,3,13,11,17,07,08,19,01,28,,,,,2.1,1.1,1.8*30
$GPRMC,032329.000,A,3353.7459,N,09832.0248,W,0.05,159.12,020412,,,A*7C
$GPGGA,032330.000,3353.7459,N,09832.0248,W,1,07,1.2,307.2,M,-23.7,M,,0000*61
$GPGSA,A,3,13,11,07,08,19,01,28,,,,,,2.1,1.2,1.8*35
$GPRMC,032330.000,A,3353.7459,N,09832.0248,W,0.06,100.38,020412,,,A*73
$GPGGA,032331.000,3353.7459,N,09832.0248,W,1,07,1.2,307.3,M,-23.7,M,,0000*61
$GPGSA,A,3,13,11,07,08,19,01,28,,,,,,2.1,1.2,1.8*35
$GPRMC,032331.000,A,3353.7459,N,09832.0248,W,0.08,102.26,020412,,,A*71
$GPGGA,032332.000,3353.7459,N,09832.0248,W,1,07,1.2,307.4,M,-23.7,M,,0000*65
$GPGSA,A,3,13,11,07,08,19,01,28,,,,,,2.1,1.2,1.8*35
$GPGSV,3,1,09,08,74,353,31,07,58,123,35,28,48,302,29,11,42,087,38*7C
$GPGSV,3,2,09,17,36,219,,01,34,112,37,26,28,303,21,19,23,043,31*79
$GPGSV,3,3,09,13,12,178,35*49
$GPRMC,032332.000,A,3353.7459,N,09832.0248,W,0.05,90.69,020412,,,A*4E
$GPGGA,032333.000,3353.7459,N,09832.0248,W,1,07,1.2,307.4,M,-23.7,M,,0000*64
$GPGSA,A,3,13,11,07,08,19,01,28,,,,,,2.1,1.2,1.8*35
$GPRMC,032333.000,A,3353.7459,N,09832.0248,W,0.07,103.67,020412,,,A*78
$GPGGA,032334.000,3353.7459,N,09832.0248,W,1,07,1.2,307.5,M,-23.7,M,,0000*62
$GPGSA,A,3,13,11,07,08,19,01,28,,,,,,2.1,1.2,1.8*35
$GPRMC,032334.000,A,3353.7459,N,09832.0248,W,0.07,88.51,020412,,,A*48
$GPGGA,032335.000,3353.7458,N,09832.0248,W,1,07,1.2,307.5,M,-23.7,M,,0000*62
$GPGSA,A,3,13,11,07,08,19,01,28,,,,,,2.1,1.2,1.8*35
$GPRMC,032335.000,A,3353.7458,N,09832.0248,W,0.07,103.92,020412,,,A*75
$GPGGA,032336.000,3353.7458,N,09832.0248,W,1,07,1.2,307.5,M,-23.7,M,,0000*61
$GPGSA,A,3,13,11,07,08,19,01,28,,,,,,2.1,1.2,1.8*35
$GPRMC,032336.000,A,3353.7458,N,09832.0248,W,0.06,84.05,020412,,,A*47
$GPGGA,032337.000,3353.7458,N,09832.0249,W,1,08,1.1,307.6,M,-23.7,M,,0000*6E
$GPGSA,A,3,13,11,17,07,08,19,01,28,,,,,2.1,1.1,1.8*30
$GPGSV,3,1,09,08,74,353,31,07,58,123,35,28,48,302,29,11,42,087,38*7C
$GPGSV,3,2,09,17,36,219,21,01,34,112,37,26,28,303,21,19,23,043,30*7B
$GPGSV,3,3,09,13,12,178,34*48
$GPRMC,032337.000,A,3353.7458,N,09832.0249,W,0.06,200.57,020412,,,A*7E
$GPGGA,032338.000,3353.7458,N,09832.0249,W,1,08,1.1,307.6,M,-23.7,M,,0000*61
$GPGSA,A,3,13,11,17,07,08,19,01,28,,,,,2.1,1.1,1.8*30
$GPRMC,032338.000,A,3353.7458,N,09832.0249,W,0.09,202.81,020412,,,A*77
$GPGGA,032339.000,3353.7458,N,09832.0249,W,1,08,1.1,307.6,M,-23.7,M,,0000*60
$GPGSA,A,3,13,11,17,07,08,19,01,28,,,,,2.1,1.1,1.8*30
$GPRMC,032339.000,A,3353.7458,N,09832.0249,W,0.16,70.93,020412,,,A*4C
$GPGGA,032340.000,3353.7458,N,09832.0249,W,1,08,1.1,307.7,M,-23.7,M,,0000*6F
$GPGSA,A,3,13,11,17,07,08,19,01,28,,,,,2.1,1.1,1.8*30
$GPRMC,032340.000,A,3353.7458,N,09832.0249,W,0.08,83.89,020412,,,A*4A
$GPGGA,032341.000,3353.7458,N,09832.0248,W,1,08,1.1,307.7,M,-23.7,M,,0000*6F
$GPGSA,A,3,13,11,17,07,08,19,01,28,,,,,2.1,1.1,1.8*30
$GPRMC,032341.000,A,3353.7458,N,09832.0248,W,0.20,66.65,020412,,,A*49
$GPGGA,032342.000,3353.7458,N,09832.0249,W,1,08,1.1,307.8,M,-23.7,M,,0000*62
$GPGSA,A,3,13,11,17,07,08,19,01,28,,,,,2.1,1.1,1.8*30
$GPGSV,3,1,09,08,74,353,31,07,58,123,35,28,48,302,29,11,42,087,38*7C
$GPGSV,3,2,09,17,36,219,21,01,34,112,37,26,28,303,22,19,23,043,30*78
$GPGSV,3,3,09,13,12,178,35*49
$GPRMC,032342.000,A,3353.7458,N,09832.0249,W,0.05,167.36,020412,,,A*7A
$GPGGA,032343.000,3353.7458,N,09832.0249,W,1,08,1.1,307.8,M,-23.7,M,,0000*63
$GPGSA,A,3,13,11,17,07,08,19,01,28,,,,,2.1,1.1,1.8*30
$GPRMC,032343.000,A,3353.7458,N,09832.0249,W,0.11,215.26,020412,,,A*79
$GPGGA,032344.000,3353.7458,N,09832.0249,W,1,08,1.1,307.9,M,-23.7,M,,0000*65
$GPGSA,A,3,13,11,17,07,08,19,01,28,,,,,2.1,1.1,1.8*30
$GPRMC,032344.000,A,3353.7458,N,09832.0249,W,0.13,74.11,020412,,,A*4D
$GPGGA,032345.000,3353.7457,N,09832.0249,W,1,08,1.1,307.9,M,-23.7,M,,0000*6B
$GPGSA,A,3,13,11,17,07,08,19,01,28,,,,,2.1,1.1,1.8*30
$GPRMC,032345.000,A,3353.7457,N,09832.0249,W,0.07,192.37,020412,,,A*7B
$GPGGA,032346.000,3353.7457,N,09832.0249,W,1,07,1.2,308.0,M,-23.7,M,,0000*62
$GPGSA,A,3,13,11,07,08,19,01,28,,,,,,2.1,1.2,1.7*3A
$GPRMC,032346.000,A,3353.7457,N,09832.0249,W,0.04,124.18,020412,,,A*7B
$GPGGA,032347.000,3353.7457,N,09832.0249,W,1,07,1.2,308.0,M,-23.7,M,,0000*63
$GPGSA,A,3,13,11,07,08,19,01,28,,,,,,2.1,1.2,1.7*3A
$GPGSV,3,1,09,08,74,353,31,07,58,123,35,28,48,302,29,11,42,087,38*7C
$GPGSV,3,2,09,17,36,219,,01,34,112,37,26,28,303,22,19,23,043,30*7B
$GPGSV,3,3,09,13,12,178,35*49
$GPRMC,032347.000,A,3353.7457,N,09832.0249,W,0.06,103.85,020412,,,A*79
$GPGGA,032348.000,3353.7457,N,09832.0249,W,1,07,1.2,308.1,M,-23.7,M,,0000*6D
$GPGSA,A,3,13,11,07,08,19,01,28,,,,,,2.1,1.2,1.7*3A
$GPRMC,032348.000,A,3353.7457,N,09832.0249,W,0.07,101.32,020412,,,A*79
$GPGGA,032349.000,3353.7457,N,09832.0249,W,1,07,1.2,308.1,M,-23.7,M,,0000*6C
$GPGSA,A,3,13,11,07,08,19,01,28,,,,,,2.1,1.2,1.7*3A
$GPRMC,032349.000,A,3353.7457,N,09832.0249,W,0.06,92.76,020412,,,A*42
$GPGGA,032350.000,3353.7457,N,09832.0249,W,1,07,1.2,308.1,M,-23.7,M,,0000*64
$GPGSA,A,3,13,11,07,08,19,01,28,,,,,,2.1,1.2,1.7*3A
$GPRMC,032350.000,A,3353.7457,N,09832.0249,W,0.07,109.04,020412,,,A*7D
$GPGGA,032351.000,3353.7457,N,09832.0250,W,1,07,1.2,308.2,M,-23.7,M,,0000*6E
$GPGSA,A,3,13,11,07,08,19,01,28,,,,,,2.1,1.2,1.7*3A
$GPRMC,032351.000,A,3353.7457,N,09832.0250,W,0.05,83.45,020412,,,A*40
$GPGGA,032352.000,3353.7457,N,09832.0250,W,1,07,1.2,308.2,M,-23.7,M,,0000*6D
$GPGSA,A,3,13,11,07,08,19,01,28,,,,,,2.1,1.2,1.7*3A
$GPGSV,3,1,09,08,74,353,31,07,58,123,34,28,48,302,29,11,42,087,38*7D
$GPGSV,3,2,09,17,36,219,,01,34,112,37,26,28,303,22,19,23,043,30*7B
$GPGSV,3,3,09,13,12,178,35*49
$GPRMC,032352.000,A,3353.7457,N,09832.0250,W,0.07,100.13,020412,,,A*78
$GPGGA,032353.000,3353.7457,N,09832.0250,W,1,07,1.2,308.3,M,-23.7,M,,0000*6D
$GPGSA,A,3,13,11,07,08,19,01,28,,,,,,2.1,1.2,1.7*3A
$GPRMC,032353.000,A,3353.7457,N,09832.0250,W,0.07,90.08,020412,,,A*4B
$GPGGA,032354.000,3353.7457,N,09832.0250,W,1,07,1.2,308.3,M,-23.7,M,,0000*6A
$GPGSA,A,3,13,11,07,08,19,01,28,,,,,,2.1,1.2,1.7*3A
$GPRMC,032354.000,A,3353.7457,N,09832.0250,W,0.08,91.28,020412,,,A*40
$GPGGA,032355.000,3353.7456,N,09832.0250,W,1,07,1.2,308.3,M,-23.7,M,,0000*6A
$GPGSA,A,3,13,11,07,08,19,01,28,,,,,,2.1,1.2,1.7*3A
$GPRMC,032355.000,A,3353.7456,N,09832.0250,W,0.06,80.43,020412,,,A*43
$GPGGA,032356.000,3353.7457,N,09832.0250,W,1,07,1.2,308.4,M,-23.7,M,,0000*6F
$GPGSA,A,3,13,11,07,08,19,01,28,,,,,,2.1,1.2,1.7*3A
$GPRMC,032356.000,A,3353.7457,N,09832.0250,W,0.08,303.88,020412,,,A*70
$GPGGA,032357.000,3353.7457,N,09832.0250,W,1,07,1.2,308.4,M,-23.7,M,,0000*6E
$GPGSA,A,3,13,11,07,08,19,01,28,,,,,,2.1,1.2,1.7*3A
$GPGSV,3,1,09,08,74,353,31,07,58,123,34,28,48,302,28,11,42,087,38*7C
$GPGSV,3,2,09,17,36,219,,01,34,112,37,26,28,303,22,19,23,043,29*73
$GPGSV,3,3,09,13,12,178,35*49
$GPRMC,032357.000,A,3353.7457,N,09832.0250,W,0.04,56.71,020412,,,A*48
$GPGGA,032358.000,3353.7456,N,09832.0251,W,1,07,1.2,308.4,M,-23.7,M,,0000*61
$GPGSA,A,3,13,11,07,08,19,01,28,,,,,,2.1,1.2,1.7*3A
$GPRMC,032358.000,A,3353.7456,N,09832.0251,W,0.05,112.21,020412,,,A*72
$GPGGA,032359.000,3353.7456,N,09832.0251,W,1,07,1.2,308.4,M,-23.7,M,,0000*60
$GPGSA,A,3,13,11,07,08,19,01,28,,,,,,2.1,1.2,1.7*3A
$GPRMC,032359.000,A,3353.7456,N,09832.0251,W,0.09,92.53,020412,,,A*43
$GPGGA,032400.000,3353.7456,N,09832.0251,W,1,07,1.2,308.4,M,-23.7,M,,0000*6B
$GPGSA,A,3,13,11,07,08,19,01,28,,,,,,2.1,1.2,1.7*3A
$GPRMC,032400.000,A,3353.7456,N,09832.0251,W,0.04,93.25,020412,,,A*45
$GPGGA,032401.000,3353.7456,N,09832.0251,W,1,07,1.2,308.4,M,-23.7,M,,0000*6A
$GPGSA,A,3,13,11,07,08,19,01,28,,,,,,2.1,1.2,1.7*3A
$GPRMC,032401.000,A,3353.7456,N,09832.0251,W,0.05,68.84,020412,,,A*4A
$GPGGA,032402.000,3353.7456,N,09832.0251,W,1,08,1.1,308.4,M,-23.7,M,,0000*65
$GPGSA,A,3,13,11,17,07,08,19,01,28,,,,,2.0,1.1,1.7*3E
$GPGSV,3,1,09,08,74,353,30,07,58,123,34,28,48,302,27,11,42,087,38*72
$GPGSV,3,2,09,17,36,219,23,01,34,112,36,26,28,303,23,19,23,043,29*72
$GPGSV,3,3,09,13,12,178,36*4A
$GPRMC,032402.000,A,3353.7456,N,09832.0251,W,0.05,226.16,020412,,,A*7A
$GPGGA,032403.000,3353.7456,N,09832.0251,W,1,08,1.1,308.4,M,-23.7,M,,0000*64
$GPGSA,A,3,13,11,17,07,08,19,01,28,,,,,2.0,1.1,1.7*3E
$GPRMC,032403.000,A,3353.7456,N,09832.0251,W,0.08,88.09,020412,,,A*4E
$GPGGA,032404.000,3353.7456,N,09832.0252,W,1,08,1.1,308.4,M,-23.7,M,,0000*60
$GPGSA,A,3,13,11,17,07,08,19,01,28,,,,,2.0,1.1,1.7*3E
$GPRMC,032404.000,A,3353.7456,N,09832.0252,W,0.01,100.93,020412,,,A*71
$GPGGA,032405.000,3353.7456,N,09832.0252,W,1,08,1.1,308.4,M,-23.7,M,,0000*61
$GPGSA,A,3,13,11,17,07,08,19,01,28,,,,,2.0,1.1,1.7*3E
$GPRMC,032405.000,A,3353.7456,N,09832.0252,W,0.09,83.76,020412,,,A*49
$GPGGA,032406.000,3353.7456,N,09832.0252,W,1,08,1.1,308.4,M,-23.7,M,,0000*62
$GPGSA,A,3,13,11,17,07,08,19,01,28,,,,,2.0,1.1,1.7*3E
$GPRMC,032406.000,A,3353.7456,N,09832.0252,W,0.17,76.09,020412,,,A*47
$GPGGA,032407.000,3353.7456,N,09832.0251,W,1,08,1.1,308.4,M,-23.7,M,,0000*60
$GPGSA,A,3,13,11,17,07,08,19,01,28,,,,,2.0,1.1,1.7*3E
$GPGSV,3,1,09,08,75,354,30,07,58,124,34,28,48,303,27,11,42,086,38*73
$GPGSV,3,2,09,17,37,219,24,01,35,111,36,26,28,303,22,19,23,043,28*76
$GPGSV,3,3,09,13,11,178,36*49
$GPRMC,032407.000,A,3353.7456,N,09832.0251,W,0.20,79.09,020412,,,A*4E
$GPGGA,032408.000,3353.7456,N,09832.0251,W,1,08,1.1,308.4,M,-23.7,M,,0000*6F
$GPGSA,A,3,13,11,17,07,08,19,01,28,,,,,2.0,1.1,1.7*3E
$GPRMC,032408.000,A,3353.7456,N,09832.0251,W,0.02,93.18,020412,,,A*45
$GPGGA,032409.000,3353.7456,N,09832.0252,W,1,08,1.1,308.4,M,-23.7,M,,0000*6D
$GPGSA,A,3,13,11,17,07,08,19,01,28,,,,,2.0,1.1,1.7*3E
$GPRMC,032409.000,A,3353.7456,N,09832.0252,W,0.04,69.89,020412,,,A*4C
$GPGGA,032410.000,3353.7456,N,09832.0252,W,1,08,1.1,308.4,M,-23.7,M,,0000*65
$GPGSA,A,3,13,11,17,07,08,19,01,28,,,,,2.0,1.1,1.7*3E
$GPRMC,032410.000,A,3353.7456,N,09832.0252,W,0.06,84.15,020412,,,A*40
$GPGGA,032411.000,3353.7456,N,09832.0252,W,1,08,1.1,308.4,M,-23.7,M,,0000*64
$GPGSA,A,3,13,11,17,07,08,19,01,28,,,,,2.0,1.1,1.7*3E
$GPRMC,032411.000,A,3353.7456,N,09832.0252,W,0.11,89.56,020412,,,A*4D
$GPGGA,032412.000,3353.7456,N,09832.0252,W,1,08,1.1,308.4,M,-23.7,M,,0000*67
$GPGSA,A,3,13,11,17,07,08,19,01,28,,,,,2.0,1.1,1.7*3E
$GPGSV,3,1,09,08,75,354,31,07,58,124,33,28,48,303,27,11,42,086,39*74
$GPGSV,3,2,09,17,37,219,24,01,35,111,35,26,28,303,23,19,23,043,28*74
$GPGSV,3,3,09,13,11,178,37*48
$GPRMC,032412.000,A,3353.7456,N,09832.0252,W,0.07,253.44,020412,,,A*7F
$GPGGA,032413.000,3353.7456,N,09832.0253,W,1,08,1.1,308.4,M,-23.7,M,,0000*67
$GPGSA,A,3,13,11,17,07,08,19,01,28,,,,,2.0,1.1,1.7*3E
$GPRMC,032413.000,A,3353.7456,N,09832.0253,W,0.07,239.27,020412,,,A*76
$GPGGA,032414.000,3353.7456,N,09832.0253,W,1,08,1.1,308.4,M,-23.7,M,,0000*60
$GPGSA,A,3,13,11,17,07,08,19,01,28,,,,,2.0,1.1,1.7*3E
$GPRMC,032414.000,A,3353.7456,N,09832.0253,W,0.06,226.60,020412,,,A*7D
$GPGGA,032415.000,3353.7456,N,09832.0253,W,1,08,1.1,308.4,M,-23.7,M,,0000*61
$GPGSA,A,3,13,11,17,07,08,19,01,28,,,,,2.0,1.1,1.7*3E
$GPRMC,032415.000,A,3353.7456,N,09832.0253,W,0.16,139.52,020412,,,A*71
$GPGGA,032416.000,3353.7455,N,09832.0253,W,1,08,1.1,308.4,M,-23.7,M,,0000*61
$GPGSA,A,3,13,11,17,07,08,19,01,28,,,,,2.0,1.1,1.7*3E
$GPRMC,032416.000,A,3353.7455,N,09832.0253,W,0.20,134.00,020412,,,A*7E
$GPGGA,032417.000,3353.7455,N,09832.0253,W,1,08,1.1,308.5,M,-23.7,M,,0000*61
$GPGSA,A,3,13,11,17,07,08,19,01,28,,,,,2.0,1.1,1.7*3E
$GPGSV,3,1,09,08,75,354,31,07,58,124,33,28,48,303,23,11,42,086,39*70
$GPGSV,3,2,09,17,37,219,16,01,35,111,35,26,28,303,23,19,23,043,28*75
$GPGSV,3,3,09,13,11,178,37*48
$GPRMC,032417.000,A,3353.7455,N,09832.0253,W,0.09,170.47,020412,,,A*77
$GPGGA,032418.000,3353.7455,N,09832.0253,W,1,08,1.1,308.5,M,-23.7,M,,0000*6E
$GPGSA,A,3,13,11,17,07,08,19,01,28,,,,,2.0,1.1,1.7*3E
$GPRMC,032418.000,A,3353.7455,N,09832.0253,W,0.02,128.52,020412,,,A*7A
$GPGGA,032419.000,3353.7455,N,09832.0252,W,1,08,1.1,308.5,M,-23.7,M,,0000*6E
$GPGSA,A,3,13,11,17,07,08,19,01,28,,,,,2.0,1.1,1.7*3E
$GPRMC,032419.000,A,3353.7455,N,09832.0252,W,0.35,102.15,020412,,,A*75
$GPGGA,032420.000,3353.7455,N,09832.0251,W,1,08,1.1,308.5,M,-23.7,M,,0000*67
$GPGSA,A,3,13,11,17,07,08,19,01,28,,,,,2.0,1.1,1.7*3E
$GPRMC,032420.000,A,3353.7455,N,09832.0251,W,0.31,93.92,020412,,,A*4E
$GPGGA,032421.000,3353.7455,N,09832.0250,W,1,08,1.1,308.5,M,-23.7,M,,0000*67
$GPGSA,A,3,13,11,17,07,08,19,01,28,,,,,2.0,1.1,1.7*3E
$GPRMC,032421.000,A,3353.7455,N,09832.0250,W,0.45,104.38,020412,,,A*72
$GPGGA,032422.000,3353.7455,N,09832.0250,W,1,08,1.1,308.4,M,-23.7,M,,0000*65
$GPGSA,A,3,13,11,17,07,08,19,01,28,,,,,2.0,1.1,1.7*3E
$GPGSV,3,1,09,08,75,354,30,07,58,124,33,28,48,303,23,11,42,086,39*71
$GPGSV,3,2,09,17,37,219,17,01,35,111,34,26,28,303,23,19,23,043,28*75
$GPGSV,3,3,09,13,11,178,37*48
$GPRMC,032422.000,A,3353.7455,N,09832.0250,W,0.06,44.52,020412,,,A*4F
$GPGGA,032423.000,3353.7455,N,09832.0250,W,1,08,1.1,308.4,M,-23.7,M,,0000*64
$GPGSA,A,3,13,11,17,07,08,19,01,28,,,,,2.0,1.1,1.7*3E
$GPRMC,032423.000,A,3353.7455,N,09832.0250,W,0.35,102.12,020412,,,A*79
$GPGGA,032424.000,3353.7454,N,09832.0249,W,1,08,1.1,308.4,M,-23.7,M,,0000*6A
$GPGSA,A,3,13,11,17,07,08,19,01,28,,,,,2.0,1.1,1.7*3E
$GPRMC,032424.000,A,3353.7454,N,09832.0249,W,0.43,104.80,020412,,,A*7B
$GPGGA,032425.000,3353.7454,N,09832.0248,W,1,08,1.1,308.4,M,-23.7,M,,0000*6A
$GPGSA,A,3,13,11,17,07,08,19,01,28,,,,,2.0,1.1,1.7*3E
$GPRMC,032425.000,A,3353.7454,N,09832.0248,W,0.20,81.61,020412,,,A*4D
$GPGGA,032426.000,3353.7455,N,09832.0249,W,1,08,1.1,308.4,M,-23.7,M,,0000*69
$GPGSA,A,3,13,11,17,07,08,19,01,28,,,,,2.0,1.1,1.7*3E
$GPRMC,032426.000,A,3353.7455,N,09832.0249,W,0.13,322.14,020412,,,A*76
$GPGGA,032427.000,3353.7455,N,09832.0249,W,1,08,1.1,308.4,M,-23.7,M,,0000*68
$GPGSA,A,3,13,11,17,07,08,19,01,28,,,,,2.0,1.1,1.7*3E
$GPGSV,3,1,09,08,75,354,30,07,58,124,32,28,48,303,22,11,42,086,40*7F
$GPGSV,3,2,09,17,37,219,20,01,35,111,29,26,28,303,23,19,23,043,27*72
$GPGSV,3,3,09,13,11,178,37*48
$GPRMC,032427.000,A,3353.7455,N,09832.0249,W,0.14,128.41,020412,,,A*78
$GPGGA,032428.000,3353.7455,N,09832.0249,W,1,08,1.1,308.4,M,-23.7,M,,0000*67
$GPGSA,A,3,13,11,17,07,08,19,01,28,,,,,2.0,1.1,1.7*3E
$GPRMC,032428.000,A,3353.7455,N,09832.0249,W,0.16,305.43,020412,,,A*7A
$GPGGA,032429.000,3353.7455,N,09832.0249,W,1,08,1.1,308.4,M,-23.7,M,,0000*66
$GPGSA,A,3,13,11,17,07,08,19,01,28,,,,,2.0,1.1,1.7*3E
$GPRMC,032429.000,A,3353.7455,N,09832.0249,W,0.18,103.86,020412,,,A*78
$GPGGA,032430.000,3353.7455,N,09832.0249,W,1,08,1.1,308.4,M,-23.7,M,,0000*6E
$GPGSA,A,3,13,11,17,07,08,19,01,28,,,,,2.0,1.1,1.7*3E
$GPRMC,032430.000,A,3353.7455,N,09832.0249,W,0.12,140.06,020412,,,A*75
$GPGGA,032431.000,3353.7454,N,09832.0250,W,1,08,1.1,308.4,M,-23.7,M,,0000*66
$GPGSA,A,3,13,11,17,07,08,19,01,28,,,,,2.0,1.1,1.7*3E
$GPRMC,032431.000,A,3353.7454,N,09832.0250,W,0.07,236.99,020412,,,A*7D
$GPGGA,032432.000,3353.7454,N,09832.0249,W,1,08,1.1,308.5,M,-23.7,M,,0000*6C
$GPGSA,A,3,13,11,17,07,08,19,01,28,,,,,2.0,1.1,1.7*3E
$GPGSV,3,1,09,08,75,354,30,07,58,124,32,28,48,303,22,11,42,086,40*7F
$GPGSV,3,2,09,17,37,219,21,01,35,111,29,26,28,303,23,19,23,043,26*72
$GPGSV,3,3,09,13,11,178,37*48
$GPRMC,032432.000,A,3353.7454,N,09832.0249,W,0.16,102.51,020412,,,A*76
$GPGGA,032433.000,3353.7454,N,09832.0250,W,1,08,1.1,308.5,M,-23.7,M,,0000*65
$GPGSA,A,3,13,11,17,07,08,19,01,28,,,,,2.0,1.1,1.7*3E
$GPRMC,032433.000,A,3353.7454,N,09832.0250,W,0.12,296.58,020412,,,A*7C
$GPGGA,032434.000,3353.7454,N,09832.0250,W,1,08,1.1,308.5,M,-23.7,M,,0000*62
$GPGSA,A,3,13,11,17,07,08,19,01,28,,,,,2.0,1.1,1.7*3E
$GPRMC,032434.000,A,3353.7454,N,09832.0250,W,0.08,243.45,020412,,,A*74
$GPGGA,032435.000,3353.7454,N,09832.0250,W,1,08,1.1,308.5,M,-23.7,M,,0000*63
$GPGSA,A,3,13,11,17,07,08,19,01,28,,,,,2.0,1.1,1.7*3E
$GPRMC,032435.000,A,3353.7454,N,09832.0250,W,0.18,138.78,020412,,,A*75
$GPGGA,032436.000,3353.7454,N,09832.0250,W,1,08,1.1,308.5,M,-23.7,M,,0000*60
$GPGSA,A,3,13,11,17,07,08,19,01,28,,,,,2.0,1.1,1.7*3E
$GPRMC,032436.000,A,3353.7454,N,09832.0250,W,0.06,109.01,020412,,,A*75
$GPGGA,032437.000,3353.7454,N,09832.0250,W,1,08,1.1,308.5,M,-23.7,M,,0000*61
$GPGSA,A,3,13,11,17,07,08,19,01,28,,,,,2.0,1.1,1.7*3E
$GPGSV,3,1,09,08,75,354,30,07,58,124,33,28,48,303,23,11,42,086,40*7F
$GPGSV,3,2,09,17,37,219,21,01,35,111,28,26,28,303,23,19,23,043,26*73
$GPGSV,3,3,09,13,11,178,38*47
$GPRMC,032437.000,A,3353.7454,N,09832.0250,W,0.13,53.65,020412,,,A*4C
$GPGGA,032438.000,3353.7454,N,09832.0250,W,1,08,1.1,308.5,M,-23.7,M,,0000*6E
$GPGSA,A,3,13,11,17,07,08,19,01,28,,,,,2.0,1.1,1.7*3E
$GPRMC,032438.000,A,3353.7454,N,09832.0250,W,0.14,63.89,020412,,,A*45
$GPGGA,032439.000,3353.7454,N,09832.0250,W,1,08,1.1,308.5,M,-23.7,M,,0000*6F
$GPGSA,A,3,13,11,17,07,08,19,01,28,,,,,2.0,1.1,1.7*3E
$GPRMC,032439.000,A,3353.7454,N,09832.0250,W,0.20,82.87,020412,,,A*42
$GPGGA,032440.000,3353.7454,N,09832.0249,W,1,08,1.1,308.5,M,-23.7,M,,0000*69
$GPGSA,A,3,13,11,17,07,08,19,01,28,,,,,2.0,1.1,1.7*3E
$GPRMC,032440.000,A,3353.7454,N,09832.0249,W,0.20,77.75,020412,,,A*43
$GPGGA,032441.000,3353.7454,N,09832.0249,W,1,08,1.1,308.5,M,-23.7,M,,0000*68
$GPGSA,A,3,13,11,17,07,08,19,01,28,,,,,2.0,1.1,1.7*3E
$GPRMC,032441.000,A,3353.7454,N,09832.0249,W,0.16,68.69,020412,,,A*44
$GPGGA,032442.000,3353.7454,N,09832.0248,W,1,08,1.1,308.6,M,-23.7,M,,0000*69
$GPGSA,A,3,13,11,17,07,08,19,01,28,,,,,2.0,1.1,1.7*3E
$GPGSV,3,1,10,08,75,354,30,07,58,124,32,28,48,303,23,11,42,086,40*76
$GPGSV,3,2,10,17,37,219,20,01,35,111,23,26,28,303,23,19,23,043,26*71
$GPGSV,3,3,10,13,11,178,38,48,36,230,25*70
$GPRMC,032442.000,A,3353.7454,N,09832.0248,W,0.22,85.88,020412,,,A*4D
$GPGGA,032443.000,3353.7454,N,09832.0248,W,1,08,1.1,308.6,M,-23.7,M,,0000*68
$GPGSA,A,3,13,11,17,07,08,19,01,28,,,,,2.0,1.1,1.7*3E
$GPRMC,032443.000,A,3353.7454,N,09832.0248,W,0.30,92.13,020412,,,A*4B
$GPGGA,032444.000,3353.7453,N,09832.0247,W,1,08,1.1,308.9,M,-23.7,M,,0000*68
$GPGSA,A,3,13,11,17,07,08,19,01,28,,,,,2.0,1.1,1.7*3E
$GPRMC,032444.000,A,3353.7453,N,09832.0247,W,0.49,138.99,020412,,,A*79
$GPGGA,032445.000,3353.7452,N,09832.0247,W,1,08,1.1,309.2,M,-23.7,M,,0000*62
$GPGSA,A,3,13,11,17,07,08,19,01,28,,,,,2.0,1.1,1.7*3E
$GPRMC,032445.000,A,3353.7452,N,09832.0247,W,0.29,137.35,020412,,,A*76
$GPGGA,032446.000,3353.7451,N,09832.0247,W,1,08,1.1,309.6,M,-23.7,M,,0000*66
$GPGSA,A,3,13,11,17,07,08,19,01,28,,,,,2.0,1.1,1.7*3E
$GPRMC,032446.000,A,3353.7451,N,09832.0247,W,0.15,203.50,020412,,,A*7E
$GPGGA,032447.000,3353.7450,N,09832.0247,W,1,08,1.1,309.9,M,-23.7,M,,0000*69
$GPGSA,A,3,13,11,17,07,08,19,01,28,,,,,2.0,1.1,1.7*3E
$GPGSV,3,1,09,08,75,354,31,07,58,124,32,28,48,303,24,11,42,086,40*78
$GPGSV,3,2,09,17,37,219,18,01,35,111,23,26,28,303,23,19,23,043,25*71
$GPGSV,3,3,09,13,11,178,38*47
$GPRMC,032447.000,A,3353.7450,N,09832.0247,W,0.05,162.29,020412,,,A*75
$GPGGA,032448.000,3353.7450,N,09832.0247,W,1,08,1.1,310.2,M,-23.7,M,,0000*65
$GPGSA,A,3,13,11,17,07,08,19,01,28,,,,,2.0,1.1,1.7*3E
$GPRMC,032448.000,A,3353.7450,N,09832.0247,W,0.20,83.59,020412,,,A*44
$GPGGA,032449.000,3353.7449,N,09832.0246,W,1,08,1.1,310.5,M,-23.7,M,,0000*6A
$GPGSA,A,3,13,11,17,07,08,19,01,28,,,,,2.0,1.1,1.7*3E
$GPRMC,032449.000,A,3353.7449,N,09832.0246,W,0.26,117.82,020412,,,A*70
$GPGGA,032450.000,3353.7449,N,09832.0245,W,1,08,1.1,310.7,M,-23.7,M,,0000*63
$GPGSA,A,3,13,11,17,07,08,19,01,28,,,,,2.0,1.1,1.7*3E
$GPRMC,032450.000,A,3353.7449,N,09832.0245,W,0.25,109.72,020412,,,A*78
$GPGGA,032451.000,3353.7449,N,09832.0244,W,1,08,1.1,310.8,M,-23.7,M,,0000*6C
$GPGSA,A,3,13,11,17,07,08,19,01,28,,,,,2.0,1.1,1.7*3E
$GPRMC,032451.000,A,3353.7449,N,09832.0244,W,0.17,56.84,020412,,,A*4B
$GPGGA,032452.000,3353.7449,N,09832.0243,W,1,08,1.1,310.8,M,-23.7,M,,0000*68
$GPGSA,A,3,13,11,17,07,08,19,01,28,,,,,2.0,1.1,1.7*3E
$GPGSV,3,1,09,08,75,354,30,07,58,124,33,28,48,303,25,11,42,086,40*79
$GPGSV,3,2,09,17,37,219,14,01,35,111,23,26,28,303,23,19,23,043,22*7A
$GPGSV,3,3,09,13,11,178,38*47
$GPRMC,032452.000,A,3353.7449,N,09832.0243,W,0.20,49.68,020412,,,A*47
$GPGGA,032453.000,3353.7449,N,09832.0243,W,1,08,1.1,310.8,M,-23.7,M,,0000*69
$GPGSA,A,3,13,11,17,07,08,19,01,28,,,,,2.0,1.1,1.7*3E
$GPRMC,032453.000,A,3353.7449,N,09832.0243,W,0.24,52.08,020412,,,A*4E
$GPGGA,032454.000,3353.7449,N,09832.0241,W,1,08,1.1,310.8,M,-23.7,M,,0000*6C
$GPGSA,A,3,13,11,17,07,08,19,01,28,,,,,2.0,1.1,1.7*3E
$GPRMC,032454.000,A,3353.7449,N,09832.0241,W,0.24,87.74,020412,,,A*48
$GPGGA,032455.000,3353.7449,N,09832.0240,W,1,08,1.1,310.8,M,-23.7,M,,0000*6C
$GPGSA,A,3,13,11,17,07,08,19,01,28,,,,,2.0,1.1,1.7*3E
$GPRMC,032455.000,A,3353.7449,N,09832.0240,W,0.21,80.82,020412,,,A*43
$GPGGA,032456.000,3353.7449,N,09832.0239,W,1,08,1.1,310.7,M,-23.7,M,,0000*6E
$GPGSA,A,3,13,11,17,07,08,19,01,28,,,,,2.0,1.1,1.7*3E
$GPRMC,032456.000,A,3353.7449,N,09832.0239,W,0.24,66.98,020412,,,A*48
$GPGGA,032457.000,3353.7450,N,09832.0238,W,1,08,1.1,310.6,M,-23.7,M,,0000*67
$GPGSA,A,3,13,11,17,07,08,19,01,28,,,,,2.0,1.1,1.7*3E
$GPGSV,3,1,09,08,75,354,30,07,58,124,33,28,48,303,26,11,42,086,40*7A
$GPGSV,3,2,09,17,37,219,14,01,35,111,23,26,28,303,22,19,23,043,21*78
$GPGSV,3,3,09,13,11,178,38*47
$GPRMC,032457.000,A,3353.7450,N,09832.0238,W,0.28,40.49,020412,,,A*44
$GPGGA,032458.000,3353.7450,N,09832.0237,W,1,08,1.1,310.5,M,-23.7,M,,0000*64
$GPGSA,A,3,13,11,17,07,08,19,01,28,,,,,2.0,1.1,1.7*3E
$GPRMC,032458.000,A,3353.7450,N,09832.0237,W,0.30,43.57,020412,,,A*41
$GPGGA,032459.000,3353.7450,N,09832.0236,W,1,08,1.1,310.3,M,-23.7,M,,0000*62
$GPGSA,A,3,13,11,17,07,08,19,01,28,,,,,2.0,1.1,1.7*3E
$GPRMC,032459.000,A,3353.7450,N,09832.0236,W,0.16,15.00,020412,,,A*44
$GPGGA,032500.000,3353.7450,N,09832.0236,W,1,08,1.1,310.2,M,-23.7,M,,0000*6E
$GPGSA,A,3,13,11,17,07,08,19,01,28,,,,,2.0,1.1,1.7*3E
$GPRMC,032500.000,A,3353.7450,N,09832.0236,W,0.03,13.04,020412,,,A*4F
$GPGGA,032501.000,3353.7450,N,09832.0235,W,1,08,1.1,310.1,M,-23.7,M,,0000*6F
$GPGSA,A,3,13,11,17,07,08,19,01,28,,,,,2.0,1.1,1.7*3E
$GPRMC,032501.000,A,3353.7450,N,09832.0235,W,0.08,191.86,020412,,,A*77
$GPGGA,032502.000,3353.7450,N,09832.0235,W,1,08,1.1,310.1,M,-23.7,M,,0000*6C
$GPGSA,A,3,13,11,17,07,08,19,01,28,,,,,2.0,1.1,1.7*3E
$GPGSV,3,1,09,08,75,354,30,07,58,124,33,28,48,303,26,11,42,086,41*7B
$GPGSV,3,2,09,17,37,219,22,01,35,111,17,26,28,303,23,19,23,043,15*7C
$GPGSV,3,3,09,13,11,178,38*47
$GPRMC,032502.000,A,3353.7450,N,09832.0235,W,0.13,182.85,020412,,,A*7F
$GPGGA,032503.000,3353.7449,N,09832.0234,W,1,08,1.1,310.1,M,-23.7,M,,0000*64
$GPGSA,A,3,13,11,17,07,08,19,01,28,,,,,2.0,1.1,1.7*3E
$GPRMC,032503.000,A,3353.7449,N,09832.0234,W,0.09,178.92,020412,,,A*7F
$GPGGA,032504.000,3353.7449,N,09832.0234,W,1,08,1.1,310.1,M,-23.7,M,,0000*63
$GPGSA,A,3,13,11,17,07,08,19,01,28,,,,,2.0,1.1,1.7*3E
$GPRMC,032504.000,A,3353.7449,N,09832.0234,W,0.19,144.19,020412,,,A*75
$GPGGA,032505.000,3353.7448,N,09832.0233,W,1,08,1.1,310.2,M,-23.7,M,,0000*67
$GPGSA,A,3,13,11,17,07,08,19,01,28,,,,,2.0,1.1,1.7*3E
$GPRMC,032505.000,A,3353.7448,N,09832.0233,W,0.24,135.14,020412,,,A*77
$GPGGA,032506.000,3353.7448,N,09832.0232,W,1,08,1.1,310.3,M,-23.7,M,,0000*64
$GPGSA,A,3,13,11,17,07,08,19,01,28,,,,,2.0,1.1,1.7*3E
$GPRMC,032506.000,A,3353.7448,N,09832.0232,W,0.11,123.02,020412,,,A*73
$GPGGA,032507.000,3353.7448,N,09832.0231,W,1,08,1.1,310.3,M,-23.7,M,,0000*66
$GPGSA,A,3,13,11,17,07,08,19,01,28,,,,,2.0,1.1,1.7*3E
$GPGSV,3,1,09,08,75,354,30,07,58,124,33,28,48,303,26,11,42,086,41*7B
$GPGSV,3,2,09,17,37,219,22,01,35,111,21,26,28,303,23,19,23,043,22*7D
$GPGSV,3,3,09,13,11,178,37*48
$GPRMC,032507.000,A,3353.7448,N,09832.0231,W,0.03,9.07,020412,,,A*7E
$GPGGA,032508.000,3353.7448,N,09832.0231,W,1,08,1.1,310.3,M,-23.7,M,,0000*69
$GPGSA,A,3,13,11,17,07,08,19,01,28,,,,,2.0,1.1,1.7*3E
$GPRMC,032508.000,A,3353.7448,N,09832.0231,W,0.09,176.96,020412,,,A*7A
$GPGGA,032509.000,3353.7448,N,09832.0230,W,1,08,1.1,310.3,M,-23.7,M,,0000*69
$GPGSA,A,3,13,11,17,07,08,19,01,28,,,,,2.0,1.1,1.7*3E
$GPRMC,032509.000,A,3353.7448,N,09832.0230,W,0.16,98.25,020412,,,A*4D
$GPGGA,032510.000,3353.7448,N,09832.0229,W,1,08,1.1,310.3,M,-23.7,M,,0000*69
$GPGSA,A,3,13,11,17,07,08,19,01,28,,,,,2.0,1.1,1.7*3E
$GPRMC,032510.000,A,3353.7448,N,09832.0229,W,0.23,66.63,020412,,,A*48
$GPGGA,032511.000,3353.7449,N,09832.0228,W,1,08,1.1,310.2,M,-23.7,M,,0000*69
$GPGSA,A,3,13,11,17,07,08,19,01,28,,,,,2.0,1.1,1.7*3E
$GPRMC,032511.000,A,3353.7449,N,09832.0228,W,0.31,32.10,020412,,,A*4F
$GPGGA,032512.000,3353.7449,N,09832.0227,W,1,08,1.1,310.1,M,-23.7,M,,0000*66
$GPGSA,A,3,13,11,17,07,08,19,01,28,,,,,2.0,1.1,1.7*3E
$GPGSV,3,1,09,08,75,354,29,07,58,124,34,28,48,303,27,11,42,086,41*75
$GPGSV,3,2,09,17,37,219,20,01,35,111,21,26,28,303,23,19,23,043,19*77
$GPGSV,3,3,09,13,11,178,37*48
$GPRMC,032512.000,A,3353.7449,N,09832.0227,W,0.22,82.34,020412,,,A*4C
$GPGGA,032513.000,3353.7450,N,09832.0227,W,1,08,1.1,309.9,M,-23.7,M,,0000*6F
$GPGSA,A,3,13,11,17,07,08,19,01,28,,,,,2.0,1.1,1.7*3E
$GPRMC,032513.000,A,3353.7450,N,09832.0227,W,0.11,16.44,020412,,,A*4F
$GPGGA,032514.000,3353.7450,N,09832.0227,W,1,08,1.1,309.8,M,-23.7,M,,0000*69
$GPGSA,A,3,13,11,17,07,08,19,01,28,,,,,2.0,1.1,1.7*3E
$GPRMC,032514.000,A,3353.7450,N,09832.0227,W,0.08,330.05,020412,,,A*72
$GPGGA,032515.000,3353.7450,N,09832.0227,W,1,08,1.1,309.7,M,-23.7,M,,0000*67
$GPGSA,A,3,13,11,17,07,08,19,01,28,,,,,2.0,1.1,1.7*3E
$GPRMC,032515.000,A,3353.7450,N,09832.0227,W,0.05,117.75,020412,,,A*7E
$GPGGA,032516.000,3353.7450,N,09832.0226,W,1,08,1.1,309.7,M,-23.7,M,,0000*65
$GPGSA,A,3,13,11,17,07,08,19,01,28,,,,,2.0,1.1,1.7*3E
$GPRMC,032516.000,A,3353.7450,N,09832.0226,W,0.12,138.51,020412,,,A*71
$GPGGA,032517.000,3353.7450,N,09832.0226,W,1,08,1.1,309.6,M,-23.7,M,,0000*65
$GPGSA,A,3,13,11,17,07,08,19,01,28,,,,,2.0,1.1,1.7*3E
$GPGSV,3,1,09,08,75,354,29,07,58,124,34,28,48,303,26,11,42,086,41*74
$GPGSV,3,2,09,17,37,219,21,01,35,111,21,26,28,303,23,19,23,043,19*76
$GPGSV,3,3,09,13,11,178,37*48
$GPRMC,032517.000,A,3353.7450,N,09832.0226,W,0.12,171.01,020412,,,A*78
$GPGGA,032518.000,3353.7449,N,09832.0225,W,1,08,1.1,309.6,M,-23.7,M,,0000*61
$GPGSA,A,3,13,11,17,07,08,19,01,28,,,,,2.0,1.1,1.7*3E
$GPRMC,032518.000,A,3353.7449,N,09832.0225,W,0.23,129.55,020412,,,A*72
$GPGGA,032519.000,3353.7449,N,09832.0224,W,1,08,1.1,309.7,M,-23.7,M,,0000*60
$GPGSA,A,3,13,11,17,07,08,19,01,28,,,,,2.0,1.1,1.7*3E
$GPRMC,032519.000,A,3353.7449,N,09832.0224,W,0.19,113.27,020412,,,A*77
$GPGGA,032520.000,3353.7449,N,09832.0224,W,1,08,1.1,309.7,M,-23.7,M,,0000*6A
$GPGSA,A,3,13,11,17,07,08,19,01,28,,,,,2.0,1.1,1.7*3E
$GPRMC,032520.000,A,3353.7449,N,09832.0224,W,0.07,128.33,020412,,,A*7F
$GPGGA,032521.000,3353.7449,N,09832.0224,W,1,08,1.1,309.7,M,-23.7,M,,0000*6B
$GPGSA,A,3,13,11,17,07,08,19,01,28,,,,,2.0,1.1,1.7*3E
$GPRMC,032521.000,A,3353.7449,N,09832.0224,W,0.21,142.32,020412,,,A*77
$GPGGA,032522.000,3353.7449,N,09832.0223,W,1,08,1.1,309.7,M,-23.7,M,,0000*6F
$GPGSA,A,3,13,11,17,07,08,19,01,28,,,,,2.0,1.1,1.7*3E
$GPGSV,3,1,09,08,75,354,29,07,58,124,34,28,48,303,26,11,42,086,41*74
$GPGSV,3,2,09,17,37,219,22,01,35,111,21,26,28,303,23,19,23,043,20*7F
$GPGSV,3,3,09,13,11,178,37*48
$GPRMC,032522.000,A,3353.7449,N,09832.0223,W,0.17,153.96,020412,,,A*78
$GPGGA,032523.000,3353.7448,N,09832.0223,W,1,08,1.1,309.8,M,-23.7,M,,0000*60
$GPGSA,A,3,13,11,17,07,08,19,01,28,,,,,2.0,1.1,1.7*3E
$GPRMC,032523.000,A,3353.7448,N,09832.0223,W,0.28,135.97,020412,,,A*75
$GPGGA,032524.000,3353.7448,N,09832.0223,W,1,08,1.1,309.9,M,-23.7,M,,0000*66
$GPGSA,A,3,13,11,17,07,08,19,01,28,,,,,2.0,1.1,1.7*3E
$GPRMC,032524.000,A,3353.7448,N,09832.0223,W,0.14,114.90,020412,,,A*79
$GPGGA,032525.000,3353.7449,N,09832.0223,W,1,08,1.1,309.9,M,-23.7,M,,0000*66
$GPGSA,A,3,13,11,17,07,08,19,01,28,,,,,2.0,1.1,1.7*3E
$GPRMC,032525.000,A,3353.7449,N,09832.0223,W,0.10,327.82,020412,,,A*7C
$GPGGA,032526.000,3353.7449,N,09832.0223,W,1,08,1.1,309.8,M,-23.7,M,,0000*64
$GPGSA,A,3,13,11,17,07,08,19,01,28,,,,,2.0,1.1,1.7*3E
$GPRMC,032526.000,A,3353.7449,N,09832.0223,W,0.12,51.12,020412,,,A*46
$GPGGA,032527.000,3353.7450,N,09832.0222,W,1,08,1.1,309.7,M,-23.7,M,,0000*63
$GPGSA,A,3,13,11,17,07,08,19,01,28,,,,,2.0,1.1,1.7*3E
$GPGSV,3,1,09,08,75,354,29,07,58,124,35,28,48,303,25,11,42,086,41*76
$GPGSV,3,2,09,17,37,219,23,01,35,111,22,26,28,303,23,19,23,043,19*77
$GPGSV,3,3,09,13,11,178,37*48
$GPRMC,032527.000,A,3353.7450,N,09832.0222,W,0.15,49.79,020412,,,A*4D
$GPGGA,032528.000,3353.7450,N,09832.0223,W,1,08,1.1,309.6,M,-23.7,M,,0000*6C
$GPGSA,A,3,13,11,17,07,08,19,01,28,,,,,2.0,1.1,1.7*3E
$GPRMC,032528.000,A,3353.7450,N,09832.0223,W,0.11,341.52,020412,,,A*75
$GPGGA,032529.000,3353.7450,N,09832.0223,W,1,08,1.1,309.5,M,-23.7,M,,0000*6E
$GPGSA,A,3,13,11,17,07,08,19,01,28,,,,,2.0,1.1,1.7*3E
$GPRMC,032529.000,A,3353.7450,N,09832.0223,W,0.09,147.79,020412,,,A*70
$GPGGA,032530.000,3353.7450,N,09832.0223,W,1,08,1.1,309.5,M,-23.7,M,,0000*66
$GPGSA,A,3,13,11,17,07,08,19,01,28,,,,,2.0,1.1,1.7*3E
$GPRMC,032530.000,A,3353.7450,N,09832.0223,W,0.14,159.89,020412,,,A*74
$GPGGA,032531.000,3353.7450,N,09832.0223,W,1,08,1.1,309.5,M,-23.7,M,,0000*67
$GPGSA,A,3,13,11,17,07,08,19,01,28,,,,,2.0,1.1,1.7*3E
$GPRMC,032531.000,A,3353.7450,N,09832.0223,W,0.13,169.40,020412,,,A*74
$GPGGA,032532.000,3353.7450,N,09832.0223,W,1,08,1.1,309.5,M,-23.7,M,,0000*64
$GPGSA,A,3,13,11,17,07,08,19,01,28,,,,,2.0,1.1,1.7*3E
$GPGSV,3,1,09,08,75,354,29,07,58,124,35,28,48,303,26,11,42,086,41*75
$GPGSV,3,2,09,17,37,219,25,01,35,111,22,26,28,303,24,19,23,043,18*77
$GPGSV,3,3,09,13,11,178,37*48
$GPRMC,032532.000,A,3353.7450,N,09832.0223,W,0.08,76.41,020412,,,A*43
$GPGGA,032533.000,3353.7451,N,09832.0223,W,1,08,1.1,309.4,M,-23.7,M,,0000*65
$GPGSA,A,3,13,11,17,07,08,19,01,28,,,,,2.0,1.1,1.7*3E
$GPRMC,032533.000,A,3353.7451,N,09832.0223,W,0.10,54.68,020412,,,A*41
$GPGGA,032534.000,3353.7452,N,09832.0223,W,1,08,1.1,309.3,M,-23.7,M,,0000*66
$GPGSA,A,3,13,11,17,07,08,19,01,28,,,,,2.0,1.1,1.7*3E
$GPRMC,032534.000,A,3353.7452,N,09832.0223,W,0.15,22.74,020412,,,A*4C
$GPGGA,032535.000,3353.7453,N,09832.0222,W,1,08,1.1,309.1,M,-23.7,M,,0000*65
$GPGSA,A,3,13,11,17,07,08,19,01,28,,,,,2.0,1.1,1.7*3E
$GPRMC,032535.000,A,3353.7453,N,09832.0222,W,0.17,48.69,020412,,,A*4F
$GPGGA,032536.000,3353.7454,N,09832.0222,W,1,07,1.6,309.0,M,-23.7,M,,0000*68
$GPGSA,A,3,13,11,17,07,08,01,28,,,,,,3.2,1.6,2.7*31
$GPRMC,032536.000,A,3353.7454,N,09832.0222,W,0.16,44.58,020412,,,A*44
$GPGGA,032537.000,3353.7455,N,09832.0221,W,1,07,1.6,308.7,M,-23.7,M,,0000*6D
$GPGSA,A,3,13,11,17,07,08,01,28,,,,,,3.2,1.6,2.7*31
$GPGSV,3,1,09,08,75,354,28,07,58,124,35,28,48,303,26,11,42,086,41*74
$GPGSV,3,2,09,17,37,219,26,01,35,111,23,26,28,303,23,19,23,043,*7B
$GPGSV,3,3,09,13,11,178,37*48
$GPRMC,032537.000,A,3353.7455,N,09832.0221,W,0.17,22.79,020412,,,A*45
$GPGGA,032538.000,3353.7457,N,09832.0221,W,1,07,1.6,308.5,M,-23.7,M,,0000*62
$GPGSA,A,3,13,11,17,07,08,01,28,,,,,,3.2,1.6,2.7*31
$GPRMC,032538.000,A,3353.7457,N,09832.0221,W,0.16,44.23,020412,,,A*46
$GPGGA,032539.000,3353.7458,N,09832.0220,W,1,07,1.6,308.3,M,-23.7,M,,0000*6B
$GPGSA,A,3,13,11,17,07,08,01,28,,,,,,3.2,1.6,2.7*31
$GPRMC,032539.000,A,3353.7458,N,09832.0220,W,0.15,61.05,020412,,,A*49
$GPGGA,032540.000,3353.7460,N,09832.0219,W,1,07,1.6,308.1,M,-23.7,M,,0000*66
$GPGSA,A,3,13,11,17,07,08,01,28,,,,,,3.2,1.6,2.7*31
$GPRMC,032540.000,A,3353.7460,N,09832.0219,W,0.15,26.94,020412,,,A*4D
$GPGGA,032541.000,3353.7462,N,09832.0218,W,1,07,1.6,307.8,M,-23.7,M,,0000*62
$GPGSA,A,3,13,11,17,07,08,01,28,,,,,,3.2,1.6,2.7*31
$GPRMC,032541.000,A,3353.7462,N,09832.0218,W,0.22,6.89,020412,,,A*75
$GPGGA,032542.000,3353.7465,N,09832.0218,W,1,07,1.6,307.4,M,-23.7,M,,0000*6A
$GPGSA,A,3,13,11,17,07,08,01,28,,,,,,3.2,1.6,2.7*31
$GPGSV,3,1,09,08,75,354,29,07,58,124,36,28,48,303,25,11,42,086,41*75
$GPGSV,3,2,09,17,37,219,26,01,35,111,23,26,28,303,24,19,23,043,*7C
$GPGSV,3,3,09,13,11,178,37*48
$GPRMC,032542.000,A,3353.7465,N,09832.0218,W,0.32,349.64,020412,,,A*7B
$GPGGA,032543.000,3353.7468,N,09832.0218,W,1,07,1.6,306.8,M,-23.7,M,,0000*6B
$GPGSA,A,3,13,11,17,07,08,01,28,,,,,,3.2,1.6,2.7*31
$GPRMC,032543.000,A,3353.7468,N,09832.0218,W,0.32,359.00,020412,,,A*74
$GPGGA,032544.000,3353.7471,N,09832.0218,W,1,07,1.6,306.3,M,-23.7,M,,0000*6F
$GPGSA,A,3,13,11,17,07,08,01,28,,,,,,3.2,1.6,2.7*31
$GPRMC,032544.000,A,3353.7471,N,09832.0218,W,0.26,7.12,020412,,,A*75
$GPGGA,032545.000,3353.7474,N,09832.0217,W,1,07,1.6,305.9,M,-23.7,M,,0000*6D
$GPGSA,A,3,13,11,17,07,08,01,28,,,,,,3.2,1.6,2.7*31
$GPRMC,032545.000,A,3353.7474,N,09832.0217,W,0.20,19.60,020412,,,A*42
$GPGGA,032546.000,3353.7476,N,09832.0216,W,1,08,1.1,305.5,M,-23.7,M,,0000*69
$GPGSA,A,3,13,11,17,07,08,19,01,28,,,,,2.0,1.1,1.7*3E
$GPRMC,032546.000,A,3353.7476,N,09832.0216,W,0.23,78.63,020412,,,A*45
$GPGGA,032547.000,3353.7477,N,09832.0216,W,1,08,1.1,305.2,M,-23.7,M,,0000*6E
$GPGSA,A,3,13,11,17,07,08,19,01,28,,,,,2.0,1.1,1.7*3E
$GPGSV,3,1,09,08,75,354,29,07,58,124,36,28,48,303,24,11,42,086,41*74
$GPGSV,3,2,09,17,37,219,26,01,35,111,28,26,28,303,24,19,23,043,16*70
$GPGSV,3,3,09,13,11,178,37*48
$GPRMC,032547.000,A,3353.7477,N,09832.0216,W,0.20,106.82,020412,,,A*71
$GPGGA,032548.000,3353.7479,N,09832.0214,W,1,08,1.1,305.0,M,-23.7,M,,0000*6F
$GPGSA,A,3,13,11,17,07,08,19,01,28,,,,,2.0,1.1,1.7*3E
$GPRMC,032548.000,A,3353.7479,N,09832.0214,W,0.26,96.67,020412,,,A*47
$GPGGA,032549.000,3353.7480,N,09832.0213,W,1,08,1.1,304.8,M,-23.7,M,,0000*66
$GPGSA,A,3,13,11,17,07,08,19,01,28,,,,,2.0,1.1,1.7*3E
$GPRMC,032549.000,A,3353.7480,N,09832.0213,W,0.23,99.09,020412,,,A*45
$GPGGA,032550.000,3353.7482,N,09832.0213,W,1,08,1.1,304.6,M,-23.7,M,,0000*62
$GPGSA,A,3,13,11,17,07,08,19,01,28,,,,,2.0,1.1,1.7*3E
$GPRMC,032550.000,A,3353.7482,N,09832.0213,W,0.19,348.12,020412,,,A*73
$GPGGA,032551.000,3353.7484,N,09832.0213,W,1,08,1.1,304.4,M,-23.7,M,,0000*67
$GPGSA,A,3,13,11,17,07,08,19,01,28,,,,,2.0,1.1,1.7*3E
$GPRMC,032551.000,A,3353.7484,N,09832.0213,W,0.27,325.72,020412,,,A*74
$GPGGA,032552.000,3353.7485,N,09832.0213,W,1,08,1.1,304.3,M,-23.7,M,,0000*62
$GPGSA,A,3,13,11,17,07,08,19,01,28,,,,,2.0,1.1,1.7*3E
$GPGSV,3,1,09,08,75,354,29,07,58,124,36,28,48,303,23,11,42,086,41*73
$GPGSV,3,2,09,17,37,219,27,01,35,111,27,26,28,303,24,19,23,043,23*78
$GPGSV,3,3,09,13,11,178,37*48
$GPRMC,032552.000,A,3353.7485,N,09832.0213,W,0.22,337.87,020412,,,A*7A
$GPGGA,032553.000,3353.7486,N,09832.0212,W,1,08,1.1,304.1,M,-23.7,M,,0000*63
$GPGSA,A,3,13,11,17,07,08,19,01,28,,,,,2.0,1.1,1.7*3E
$GPRMC,032553.000,A,3353.7486,N,09832.0212,W,0.16,55.82,020412,,,A*4C
$GPGGA,032554.000,3353.7487,N,09832.0211,W,1,08,1.1,304.0,M,-23.7,M,,0000*67
$GPGSA,A,3,13,11,17,07,08,19,01,28,,,,,2.0,1.1,1.7*3E
$GPRMC,032554.000,A,3353.7487,N,09832.0211,W,0.17,90.12,020412,,,A*48
$GPGGA,032555.000,3353.7488,N,09832.0210,W,1,08,1.1,303.9,M,-23.7,M,,0000*66
$GPGSA,A,3,13,11,17,07,08,19,01,28,,,,,2.0,1.1,1.7*3E
$GPRMC,032555.000,A,3353.7488,N,09832.0210,W,0.29,112.01,020412,,,A*73
$GPGGA,032556.000,3353.7488,N,09832.0209,W,1,08,1.1,303.8,M,-23.7,M,,0000*6C
$GPGSA,A,3,13,11,17,07,08,19,01,28,,,,,2.0,1.1,1.7*3E
$GPRMC,032556.000,A,3353.7488,N,09832.0209,W,0.14,54.72,020412,,,A*41
$GPGGA,032557.000,3353.7489,N,09832.0209,W,1,08,1.1,303.7,M,-23.7,M,,0000*63
$GPGSA,A,3,13,11,17,07,08,19,01,28,,,,,2.0,1.1,1.7*3E
$GPGSV,3,1,09,08,75,354,29,07,58,124,36,28,48,303,23,11,42,086,41*73
$GPGSV,3,2,09,17,37,219,27,01,35,111,26,26,28,303,24,19,23,043,23*79
$GPGSV,3,3,09,13,11,178,38*47
$GPRMC,032557.000,A,3353.7489,N,09832.0209,W,0.08,105.49,020412,,,A*71
$GPGGA,032558.000,3353.7489,N,09832.0208,W,1,08,1.1,303.6,M,-23.7,M,,0000*6C
$GPGSA,A,3,13,11,17,07,08,19,01,28,,,,,2.0,1.1,1.7*3E
$GPRMC,032558.000,A,3353.7489,N,09832.0208,W,0.19,87.17,020412,,,A*4F
$GPGGA,032559.000,3353.7489,N,09832.0206,W,1,08,1.1,303.6,M,-23.7,M,,0000*63
$GPGSA,A,3,13,11,17,07,08,19,01,28,,,,,2.0,1.1,1.7*3E
$GPRMC,032559.000,A,3353.7489,N,09832.0206,W,0.38,120.69,020412,,,A*76
$GPGGA,032600.000,3353.7489,N,09832.0206,W,1,08,1.1,303.6,M,-23.7,M,,0000*6C
$GPGSA,A,3,13,11,17,07,08,19,01,28,,,,,2.0,1.1,1.7*3E
$GPRMC,032600.000,A,3353.7489,N,09832.0206,W,0.20,133.57,020412,,,A*7F
$GPGGA,032601.000,3353.7489,N,09832.0205,W,1,08,1.1,303.6,M,-23.7,M,,0000*6E
$GPGSA,A,3,13,11,17,07,08,19,01,28,,,,,2.0,1.1,1.7*3E
$GPRMC,032601.000,A,3353.7489,N,09832.0205,W,0.04,83.03,020412,,,A*40
$GPGGA,032602.000,3353.7490,N,09832.0205,W,1,08,1.1,303.5,M,-23.7,M,,0000*66
$GPGSA,A,3,13,11,17,07,08,19,01,28,,,,,2.0,1.1,1.7*3E
$GPGSV,3,1,09,08,75,354,28,07,58,124,36,28,48,303,23,11,42,086,41*72
$GPGSV,3,2,09,17,37,219,27,01,35,111,26,26,28,303,24,19,23,043,23*79
$GPGSV,3,3,09,13,11,178,38*47
$GPRMC,032602.000,A,3353.7490,N,09832.0205,W,0.12,36.42,020412,,,A*47
$GPGGA,032603.000,3353.7490,N,09832.0204,W,1,08,1.1,303.5,M,-23.7,M,,0000*66
$GPGSA,A,3,13,11,17,07,08,19,01,28,,,,,2.0,1.1,1.7*3E
$GPRMC,032603.000,A,3353.7490,N,09832.0204,W,0.22,104.55,020412,,,A*72
$GPGGA,032604.000,3353.7490,N,09832.0203,W,1,08,1.1,303.4,M,-23.7,M,,0000*67
$GPGSA,A,3,13,11,17,07,08,19,01,28,,,,,2.0,1.1,1.7*3E
$GPRMC,032604.000,A,3353.7490,N,09832.0203,W,0.25,95.42,020412,,,A*4A
$GPGGA,032605.000,3353.7490,N,09832.0202,W,1,08,1.1,303.3,M,-23.7,M,,0000*60
$GPGSA,A,3,13,11,17,07,08,19,01,28,,,,,2.0,1.1,1.7*3E
$GPRMC,032605.000,A,3353.7490,N,09832.0202,W,0.12,11.75,020412,,,A*46
$GPGGA,032606.000,3353.7490,N,09832.0202,W,1,08,1.1,303.3,M,-23.7,M,,0000*63
$GPGSA,A,3,13,11,17,07,08,19,01,28,,,,,2.0,1.1,1.7*3E
$GPRMC,032606.000,A,3353.7490,N,09832.0202,W,0.08,68.16,020412,,,A*45
$GPGGA,032607.000,3353.7491,N,09832.0201,W,1,08,1.1,303.1,M,-23.7,M,,0000*62
$GPGSA,A,3,13,11,17,07,08,19,01,28,,,,,2.0,1.1,1.7*3E
$GPGSV,3,1,09,08,75,354,29,07,58,124,36,28,48,303,22,11,42,086,41*72
$GPGSV,3,2,09,17,37,219,27,01,35,111,25,26,28,303,24,19,23,043,23*7A
$GPGSV,3,3,09,13,11,178,38*47
$GPRMC,032607.000,A,3353.7491,N,09832.0201,W,0.14,25.69,020412,,,A*4A
$GPGGA,032608.000,3353.7491,N,09832.0201,W,1,08,1.1,302.9,M,-23.7,M,,0000*64
$GPGSA,A,3,13,11,17,07,08,19,01,28,,,,,2.0,1.1,1.7*3E
$GPRMC,032608.000,A,3353.7491,N,09832.0201,W,0.30,333.95,020412,,,A*74
$GPGGA,032609.000,3353.7491,N,09832.0200,W,1,08,1.1,302.7,M,-23.7,M,,0000*6A
$GPGSA,A,3,13,11,17,07,08,19,01,28,,,,,2.0,1.1,1.7*3E
$GPRMC,032609.000,A,3353.7491,N,09832.0200,W,0.13,38.43,020412,,,A*46
$GPGGA,032610.000,3353.7492,N,09832.0200,W,1,08,1.1,302.4,M,-23.7,M,,0000*62
$GPGSA,A,3,13,11,17,07,08,19,01,28,,,,,2.0,1.1,1.7*3E
$GPRMC,032610.000,A,3353.7492,N,09832.0200,W,0.27,337.33,020412,,,A*71
$GPGGA,032611.000,3353.7492,N,09832.0199,W,1,08,1.1,302.1,M,-23.7,M,,0000*65
$GPGSA,A,3,13,11,17,07,08,19,01,28,,,,,2.0,1.1,1.7*3E
$GPRMC,032611.000,A,3353.7492,N,09832.0199,W,0.18,14.86,020412,,,A*43
$GPGGA,032612.000,3353.7492,N,09832.0198,W,1,08,1.1,301.9,M,-23.7,M,,0000*6C
$GPGSA,A,3,13,11,17,07,08,19,01,28,,,,,2.0,1.1,1.7*3E
$GPGSV,3,1,09,08,75,354,29,07,58,124,36,28,48,303,22,11,42,086,41*72
$GPGSV,3,2,09,17,37,219,27,01,35,111,25,26,28,303,24,19,23,043,24*7D
$GPGSV,3,3,09,13,11,178,38*47
$GPRMC,032612.000,A,3353.7492,N,09832.0198,W,0.17,42.20,020412,,,A*41
$GPGGA,032613.000,3353.7491,N,09832.0197,W,1,08,1.1,301.7,M,-23.7,M,,0000*6F
$GPGSA,A,3,13,11,17,07,08,19,01,28,,,,,2.0,1.1,1.7*3E
$GPRMC,032613.000,A,3353.7491,N,09832.0197,W,0.17,102.16,020412,,,A*7C
$GPGGA,032614.000,3353.7491,N,09832.0196,W,1,08,1.1,301.5,M,-23.7,M,,0000*6B
$GPGSA,A,3,13,11,17,07,08,19,01,28,,,,,2.0,1.1,1.7*3E
$GPRMC,032614.000,A,3353.7491,N,09832.0196,W,0.09,55.52,020412,,,A*46
$GPGGA,032615.000,3353.7491,N,09832.0196,W,1,08,1.1,301.3,M,-23.7,M,,0000*6C
$GPGSA,A,3,13,11,17,07,08,19,01,28,,,,,2.0,1.1,1.7*3E
$GPRMC,032615.000,A,3353.7491,N,09832.0196,W,0.25,332.97,020412,,,A*72
$GPGGA,032616.000,3353.7490,N,09832.0195,W,1,08,1.1,301.2,M,-23.7,M,,0000*6C
$GPGSA,A,3,13,11,17,07,08,19,01,28,,,,,2.0,1.1,1.7*3E
$GPRMC,032616.000,A,3353.7490,N,09832.0195,W,0.18,106.90,020412,,,A*7F
$GPGGA,032617.000,3353.7490,N,09832.0194,W,1,08,1.1,301.1,M,-23.7,M,,0000*6F
$GPGSA,A,3,13,11,17,07,08,19,01,28,,,,,2.0,1.1,1.7*3E
$GPGSV,3,1,09,08,75,354,29,07,58,124,36,28,48,303,22,11,42,086,41*72
$GPGSV,3,2,09,17,37,219,27,01,35,111,25,26,28,303,23,19,23,043,24*7A
$GPGSV,3,3,09,13,11,178,38*47
$GPRMC,032617.000,A,3353.7490,N,09832.0194,W,0.12,109.09,020412,,,A*7A
$GPGGA,032618.000,3353.7489,N,09832.0194,W,1,08,1.1,301.0,M,-23.7,M,,0000*69
$GPGSA,A,3,13,11,17,07,08,19,01,28,,,,,2.0,1.1,1.7*3E
$GPRMC,032618.000,A,3353.7489,N,09832.0194,W,0.15,76.72,020412,,,A*4F
$GPGGA,032619.000,3353.7489,N,09832.0193,W,1,08,1.1,300.9,M,-23.7,M,,0000*67
$GPGSA,A,3,13,11,17,07,08,19,01,28,,,,,2.0,1.1,1.7*3E
$GPRMC,032619.000,A,3353.7489,N,09832.0193,W,0.08,333.60,020412,,,A*74
$GPGGA,032620.000,3353.7488,N,09832.0192,W,1,08,1.1,300.9,M,-23.7,M,,0000*6D
$GPGSA,A,3,13,11,17,07,08,19,01,28,,,,,2.0,1.1,1.7*3E
$GPRMC,032620.000,A,3353.7488,N,09832.0192,W,0.25,122.60,020412,,,A*73
$GPGGA,032621.000,3353.7487,N,09832.0192,W,1,08,1.1,300.9,M,-23.7,M,,0000*63
