$GPGGA,123715.000,3353.7466,N,09832.0215,W,2,04,3.3,335.2,M,-23.7,M,0.8,0000*43
$GPGSA,A,3,29,05,26,15,,,,,,,,,7.0,3.3,6.1*3C
$GPRMC,123715.000,A,3353.7466,N,09832.0215,W,0.19,71.93,030412,,,D*49
$GPGGA,123716.000,3353.7465,N,09832.0215,W,2,04,3.3,334.9,M,-23.7,M,0.8,0000*49
$GPGSA,A,3,29,05,26,15,,,,,,,,,7.0,3.3,6.1*3C
$GPRMC,123716.000,A,3353.7465,N,09832.0215,W,0.16,65.66,030412,,,D*49
$GPGGA,123717.000,3353.7465,N,09832.0216,W,2,04,3.3,334.5,M,-23.7,M,1.8,0000*46
$GPGSA,A,3,29,05,26,15,,,,,,,,,7.0,3.3,6.1*3C
$GPRMC,123717.000,A,3353.7465,N,09832.0216,W,0.12,75.49,030412,,,D*43
$GPGGA,123718.000,3353.7465,N,09832.0217,W,2,04,3.3,334.0,M,-23.7,M,0.8,0000*4C
$GPGSA,A,3,29,05,26,15,,,,,,,,,7.0,3.3,6.1*3C
$GPRMC,123718.000,A,3353.7465,N,09832.0217,W,0.10,11.27,030412,,,D*45
$GPGGA,123719.000,3353.7464,N,09832.0219,W,2,04,3.3,333.5,M,-23.7,M,0.8,0000*40
$GPGSA,A,3,29,05,26,15,,,,,,,,,7.0,3.3,6.1*3C
$GPGSV,3,1,11,29,80,236,32,15,47,151,36,26,44,084,39,21,36,303,*7D
$GPGSV,3,2,11,18,34,243,,05,29,046,36,25,14,213,,30,10,300,*79
$GPGSV,3,3,11,02,09,096,24,16,02,324,,51,49,195,35*49
$GPRMC,123719.000,A,3353.7464,N,09832.0219,W,0.16,314.18,030412,,,D*77
$GPGGA,123720.000,3353.7464,N,09832.0221,W,2,04,3.3,332.9,M,-23.7,M,0.8,0000*4C
$GPGSA,A,3,29,05,26,15,,,,,,,,,7.0,3.3,6.1*3C
$GPRMC,123720.000,A,3353.7464,N,09832.0221,W,0.19,292.45,030412,,,D*7E
$GPGGA,123721.000,3353.7464,N,09832.0223,W,2,04,3.3,332.3,M,-23.7,M,1.8,0000*44
$GPGSA,A,3,29,05,26,15,,,,,,,,,7.0,3.3,6.1*3C
$GPRMC,123721.000,A,3353.7464,N,09832.0223,W,0.16,282.46,030412,,,D*70
$GPGGA,123722.000,3353.7463,N,09832.0225,W,2,04,3.3,331.6,M,-23.7,M,0.8,0000*41
$GPGSA,A,3,29,05,26,15,,,,,,,,,7.0,3.3,6.1*3C
$GPRMC,123722.000,A,3353.7463,N,09832.0225,W,0.22,282.53,030412,,,D*71
$GPGGA,123723.000,3353.7463,N,09832.0228,W,2,04,3.3,330.9,M,-23.7,M,0.8,0000*43
$GPGSA,A,3,29,05,26,15,,,,,,,,,7.0,3.3,6.1*3C
$GPRMC,123723.000,A,3353.7463,N,09832.0228,W,0.23,275.97,030412,,,D*7C
$GPGGA,123724.000,3353.7462,N,09832.0230,W,2,04,3.3,330.1,M,-23.7,M,0.8,0000*44
$GPGSA,A,3,29,05,26,15,,,,,,,,,7.0,3.3,6.1*3C
$GPGSV,3,1,11,29,80,236,32,15,47,151,36,26,44,084,39,21,36,303,*7D
$GPGSV,3,2,11,18,34,243,,05,29,046,35,25,14,213,,30,10,300,*7A
$GPGSV,3,3,11,02,09,096,24,16,02,324,,51,49,195,35*49
$GPRMC,123724.000,A,3353.7462,N,09832.0230,W,0.17,243.86,030412,,,D*71
$GPGGA,123725.000,3353.7461,N,09832.0232,W,2,04,3.3,329.3,M,-23.7,M,0.8,0000*4E
$GPGSA,A,3,29,05,26,15,,,,,,,,,7.0,3.3,6.1*3C
$GPRMC,123725.000,A,3353.7461,N,09832.0232,W,0.15,221.04,030412,,,D*7D
$GPGGA,123726.000,3353.7460,N,09832.0234,W,2,04,3.3,328.3,M,-23.7,M,0.8,0000*4B
$GPGSA,A,3,29,05,26,15,,,,,,,,,7.0,3.3,6.1*3C
$GPRMC,123726.000,A,3353.7460,N,09832.0234,W,0.09,208.56,030412,,,D*78
$GPGGA,123727.000,3353.7459,N,09832.0236,W,2,04,3.3,327.3,M,-23.7,M,1.8,0000*4C
$GPGSA,A,3,29,05,26,15,,,,,,,,,7.0,3.3,6.1*3C
$GPRMC,123727.000,A,3353.7459,N,09832.0236,W,0.14,230.92,030412,,,D*7E
$GPGGA,123728.000,3353.7458,N,09832.0238,W,2,04,3.3,326.3,M,-23.7,M,2.8,0000*4E
$GPGSA,A,3,29,05,26,15,,,,,,,,,7.0,3.3,6.1*3C
$GPRMC,123728.000,A,3353.7458,N,09832.0238,W,0.16,236.49,030412,,,D*7C
$GPGGA,123729.000,3353.7457,N,09832.0241,W,2,04,3.3,325.3,M,-23.7,M,0.8,0000*4F
$GPGSA,A,3,29,05,26,15,,,,,,,,,7.0,3.3,6.1*3C
$GPGSV,3,1,11,29,80,236,32,15,47,151,36,26,44,084,38,21,36,303,17*7A
$GPGSV,3,2,11,18,34,243,,05,29,046,35,25,14,213,,30,10,300,*7A
$GPGSV,3,3,11,02,09,096,12,16,02,324,,51,49,195,35*4C
$GPRMC,123729.000,A,3353.7457,N,09832.0241,W,0.20,240.13,030412,,,D*77
$GPGGA,123730.000,3353.7457,N,09832.0244,W,2,04,3.3,324.2,M,-23.7,M,0.8,0000*42
$GPGSA,A,3,29,05,26,15,,,,,,,,,7.0,3.3,6.1*3C
$GPRMC,123730.000,A,3353.7457,N,09832.0244,W,0.27,264.68,030412,,,D*77
$GPGGA,123731.000,3353.7457,N,09832.0247,W,2,04,3.3,323.2,M,-23.7,M,0.8,0000*47
$GPGSA,A,3,29,05,26,15,,,,,,,,,7.0,3.3,6.1*3C
$GPRMC,123731.000,A,3353.7457,N,09832.0247,W,0.36,267.95,030412,,,D*74
$GPGGA,123732.000,3353.7456,N,09832.0250,W,2,04,3.3,322.2,M,-23.7,M,0.8,0000*42
$GPGSA,A,3,29,05,26,15,,,,,,,,,7.0,3.3,6.1*3C
$GPRMC,123732.000,A,3353.7456,N,09832.0250,W,0.40,270.24,030412,,,D*7D
$GPGGA,123733.000,3353.7456,N,09832.0254,W,2,04,3.3,321.2,M,-23.7,M,0.8,0000*44
$GPGSA,A,3,29,05,26,15,,,,,,,,,7.0,3.3,6.1*3C
$GPRMC,123733.000,A,3353.7456,N,09832.0254,W,0.46,272.98,030412,,,D*7B
$GPGGA,123734.000,3353.7454,N,09832.0262,W,2,05,1.9,318.7,M,-23.7,M,1.8,0000*43
$GPGSA,A,3,25,29,05,26,15,,,,,,,,2.7,1.9,1.8*3F
$GPGSV,3,1,11,29,80,236,32,15,47,151,36,26,44,084,39,21,36,303,16*7A
$GPGSV,3,2,11,18,34,243,,05,29,046,35,25,14,213,17,30,10,300,*7C
$GPGSV,3,3,11,02,09,096,15,16,02,324,,51,49,195,35*4B
$GPRMC,123734.000,A,3353.7454,N,09832.0262,W,0.72,263.66,030412,,,D*7D
$GPGGA,123735.000,3353.7453,N,09832.0270,W,2,05,1.9,316.2,M,-23.7,M,2.8,0000*4E
$GPGSA,A,3,25,29,05,26,15,,,,,,,,2.7,1.9,1.8*3F
$GPRMC,123735.000,A,3353.7453,N,09832.0270,W,0.53,273.30,030412,,,D*79
$GPGGA,123736.000,3353.7453,N,09832.0271,W,2,05,1.9,315.6,M,-23.7,M,0.8,0000*49
$GPGSA,A,3,25,29,05,26,15,,,,,,,,2.7,1.9,1.8*3F
$GPRMC,123736.000,A,3353.7453,N,09832.0271,W,0.44,261.12,030412,,,D*7E
$GPGGA,123737.000,3353.7453,N,09832.0269,W,2,05,1.9,316.2,M,-23.7,M,0.8,0000*46
$GPGSA,A,3,25,29,05,26,15,,,,,,,,2.7,1.9,1.8*3F
$GPRMC,123737.000,A,3353.7453,N,09832.0269,W,0.58,249.85,030412,,,D*7F
$GPGGA,123738.000,3353.7454,N,09832.0265,W,2,05,1.9,317.6,M,-23.7,M,0.8,0000*47
$GPGSA,A,3,25,29,05,26,15,,,,,,,,2.7,1.9,1.8*3F
$GPRMC,123738.000,A,3353.7454,N,09832.0265,W,0.58,256.07,030412,,,D*7F
$GPGGA,123739.000,3353.7453,N,09832.0266,W,2,04,3.3,317.0,M,-23.7,M,1.8,0000*4C
$GPGSA,A,3,29,05,26,15,,,,,,,,,7.0,3.3,6.1*3C
$GPGSV,3,1,11,29,80,236,33,15,47,151,36,26,44,084,39,21,36,303,15*78
$GPGSV,3,2,11,18,34,243,,05,29,046,35,25,14,213,17,30,10,300,*7C
$GPGSV,3,3,11,02,09,096,17,16,02,324,,51,49,195,35*49
$GPRMC,123739.000,A,3353.7453,N,09832.0266,W,0.17,266.07,030412,,,D*72
$GPGGA,123740.000,3353.7453,N,09832.0266,W,2,04,3.3,316.6,M,-23.7,M,2.8,0000*46
$GPGSA,A,3,29,05,26,15,,,,,,,,,7.0,3.3,6.1*3C
$GPRMC,123740.000,A,3353.7453,N,09832.0266,W,0.03,92.62,030412,,,D*43
$GPGGA,123741.000,3353.7454,N,09832.0261,W,2,05,1.9,318.2,M,-23.7,M,3.8,0000*45
$GPGSA,A,3,25,29,05,26,15,,,,,,,,2.7,1.9,1.8*3F
$GPRMC,123741.000,A,3353.7454,N,09832.0261,W,0.09,75.30,030412,,,D*46
$GPGGA,123742.000,3353.7456,N,09832.0254,W,2,05,1.9,320.4,M,-23.7,M,0.8,0000*4C
$GPGSA,A,3,25,29,05,26,15,,,,,,,,2.7,1.9,1.8*3F
$GPRMC,123742.000,A,3353.7456,N,09832.0254,W,0.06,316.70,030412,,,D*7C
$GPGGA,123743.000,3353.7456,N,09832.0253,W,2,05,1.9,321.1,M,-23.7,M,0.8,0000*4E
$GPGSA,A,3,25,29,05,26,15,,,,,,,,2.7,1.9,1.8*3F
$GPRMC,123743.000,A,3353.7456,N,09832.0253,W,0.16,1.61,030412,,,D*7E
$GPGGA,123744.000,3353.7457,N,09832.0252,W,2,05,1.9,321.5,M,-23.7,M,0.8,0000*4D
$GPGSA,A,3,25,29,05,26,15,,,,,,,,2.7,1.9,1.8*3F
$GPGSV,3,1,11,29,80,236,33,15,47,151,36,26,44,084,39,21,36,303,14*79
$GPGSV,3,2,11,18,34,243,,05,29,046,34,25,14,213,24,30,10,300,*7D
$GPGSV,3,3,11,02,09,096,20,16,02,324,,51,49,195,35*4D
$GPRMC,123744.000,A,3353.7457,N,09832.0252,W,0.16,301.09,030412,,,D*74
$GPGGA,123745.000,3353.7457,N,09832.0251,W,2,05,1.9,322.2,M,-23.7,M,1.8,0000*4A
$GPGSA,A,3,25,29,05,26,15,,,,,,,,2.7,1.9,1.8*3F
$GPRMC,123745.000,A,3353.7457,N,09832.0251,W,0.15,26.51,030412,,,D*4E
$GPGGA,123746.000,3353.7458,N,09832.0251,W,2,05,1.9,322.3,M,-23.7,M,0.8,0000*46
$GPGSA,A,3,25,29,05,26,15,,,,,,,,2.7,1.9,1.8*3F
$GPRMC,123746.000,A,3353.7458,N,09832.0251,W,0.32,274.62,030412,,,D*72
$GPGGA,123747.000,3353.7458,N,09832.0251,W,2,05,1.9,322.5,M,-23.7,M,0.8,0000*41
$GPGSA,A,3,25,29,05,26,15,,,,,,,,2.7,1.9,1.8*3F
$GPRMC,123747.000,A,3353.7458,N,09832.0251,W,0.15,359.56,030412,,,D*7F
$GPGGA,123748.000,3353.7458,N,09832.0251,W,2,05,1.9,322.8,M,-23.7,M,0.8,0000*43
$GPGSA,A,3,25,29,05,26,15,,,,,,,,2.7,1.9,1.8*3F
$GPRMC,123748.000,A,3353.7458,N,09832.0251,W,0.11,252.45,030412,,,D*7C
$GPGGA,123749.000,3353.7458,N,09832.0250,W,2,05,1.9,323.2,M,-23.7,M,0.8,0000*48
$GPGSA,A,3,25,29,05,26,15,,,,,,,,2.7,1.9,1.8*3F
$GPGSV,3,1,11,29,80,236,33,15,47,151,36,26,44,084,39,21,36,303,14*79
$GPGSV,3,2,11,18,34,243,,05,29,046,34,25,14,213,22,30,10,300,*7B
$GPGSV,3,3,11,02,09,096,21,16,02,324,,51,49,195,35*4C
$GPRMC,123749.000,A,3353.7458,N,09832.0250,W,0.27,81.86,030412,,,D*4A
$GPGGA,123750.000,3353.7458,N,09832.0248,W,2,05,1.9,323.6,M,-23.7,M,1.8,0000*4C
$GPGSA,A,3,25,29,05,26,15,,,,,,,,2.7,1.9,1.8*3F
$GPRMC,123750.000,A,3353.7458,N,09832.0248,W,0.16,98.47,030412,,,D*4C
$GPGGA,123751.000,3353.7458,N,09832.0246,W,2,05,1.9,324.2,M,-23.7,M,2.8,0000*43
$GPGSA,A,3,25,29,05,26,15,,,,,,,,2.7,1.9,1.8*3F
$GPRMC,123751.000,A,3353.7458,N,09832.0246,W,0.38,84.83,030412,,,D*4A
$GPGGA,123752.000,3353.7457,N,09832.0245,W,2,04,3.3,324.1,M,-23.7,M,3.8,0000*47
$GPGSA,A,3,29,05,26,15,,,,,,,,,7.0,3.3,6.1*3C
$GPRMC,123752.000,A,3353.7457,N,09832.0245,W,0.38,86.27,030412,,,D*49
$GPGGA,123753.000,3353.7457,N,09832.0245,W,2,04,3.3,324.2,M,-23.7,M,4.8,0000*42
$GPGSA,A,3,29,05,26,15,,,,,,,,,7.0,3.3,6.1*3C
$GPRMC,123753.000,A,3353.7457,N,09832.0245,W,0.45,82.34,030412,,,D*44
$GPGGA,123754.000,3353.7457,N,09832.0244,W,2,04,3.3,324.3,M,-23.7,M,5.8,0000*44
$GPGSA,A,3,29,05,26,15,,,,,,,,,7.0,3.3,6.1*3C
$GPGSV,3,1,11,29,80,236,33,15,47,151,36,26,44,084,38,21,36,303,12*7E
$GPGSV,3,2,11,18,34,243,,05,29,046,34,25,14,213,15,30,10,300,*7F
$GPGSV,3,3,11,02,09,096,22,16,02,324,,51,49,195,35*4F
$GPRMC,123754.000,A,3353.7457,N,09832.0244,W,0.58,84.67,030412,,,D*4E
$GPGGA,123755.000,3353.7457,N,09832.0243,W,2,04,3.3,324.6,M,-23.7,M,0.8,0000*42
$GPGSA,A,3,29,05,26,15,,,,,,,,,7.0,3.3,6.1*3C
$GPRMC,123755.000,A,3353.7457,N,09832.0243,W,0.53,78.95,030412,,,D*4D
$GPGGA,123756.000,3353.7457,N,09832.0239,W,2,05,1.9,325.8,M,-23.7,M,1.8,0000*4B
$GPGSA,A,3,25,29,05,26,15,,,,,,,,2.7,1.9,1.8*3F
$GPRMC,123756.000,A,3353.7457,N,09832.0239,W,0.28,84.96,030412,,,D*4F
$GPGGA,123757.000,3353.7457,N,09832.0240,W,2,04,3.3,325.7,M,-23.7,M,2.8,0000*41
$GPGSA,A,3,29,05,26,15,,,,,,,,,7.0,3.3,6.1*3C
$GPRMC,123757.000,A,3353.7457,N,09832.0240,W,0.20,84.43,030412,,,D*40
$GPGGA,123758.000,3353.7457,N,09832.0241,W,2,04,3.3,325.6,M,-23.7,M,3.8,0000*4F
$GPGSA,A,3,29,05,26,15,,,,,,,,,7.0,3.3,6.1*3C
$GPRMC,123758.000,A,3353.7457,N,09832.0241,W,0.15,75.28,030412,,,D*4B
$GPGGA,123759.000,3353.7456,N,09832.0242,W,2,04,3.3,325.4,M,-23.7,M,4.8,0000*49
$GPGSA,A,3,29,05,26,15,,,,,,,,,7.0,3.3,6.1*3C
$GPGSV,3,1,11,29,80,236,33,15,47,151,37,26,44,084,38,21,36,303,13*7E
$GPGSV,3,2,11,18,34,243,,05,29,046,34,25,14,213,,30,10,300,*7B
$GPGSV,3,3,11,02,09,096,23,16,02,324,,51,49,195,35*4E
$GPRMC,123759.000,A,3353.7456,N,09832.0242,W,0.11,69.29,030412,,,D*40
$GPGGA,123800.000,3353.7456,N,09832.0243,W,2,04,3.3,325.2,M,-23.7,M,5.8,0000*4C
$GPGSA,A,3,29,05,26,15,,,,,,,,,7.0,3.3,6.1*3C
$GPRMC,123800.000,A,3353.7456,N,09832.0243,W,0.13,59.58,030412,,,D*45
$GPGGA,123801.000,3353.7455,N,09832.0243,W,2,04,3.3,324.9,M,-23.7,M,0.8,0000*41
$GPGSA,A,3,29,05,26,15,,,,,,,,,7.0,3.3,6.1*3C
$GPRMC,123801.000,A,3353.7455,N,09832.0243,W,0.16,92.06,030412,,,D*4E
$GPGGA,123802.000,3353.7455,N,09832.0244,W,2,04,3.4,324.4,M,-23.7,M,0.8,0000*4F
$GPGSA,A,3,29,05,26,15,,,,,,,,,7.0,3.4,6.1*3B
$GPRMC,123802.000,A,3353.7455,N,09832.0244,W,0.16,85.32,030412,,,D*4B
$GPGGA,123803.000,3353.7455,N,09832.0245,W,2,04,3.4,324.0,M,-23.7,M,0.8,0000*4B
$GPGSA,A,3,29,05,26,15,,,,,,,,,7.0,3.4,6.1*3B
$GPRMC,123803.000,A,3353.7455,N,09832.0245,W,0.11,75.06,030412,,,D*44
$GPGGA,123804.000,3353.7454,N,09832.0246,W,2,04,3.4,323.4,M,-23.7,M,1.8,0000*4C
$GPGSA,A,3,29,05,26,15,,,,,,,,,7.0,3.4,6.1*3B
$GPGSV,3,1,11,29,80,236,33,15,47,151,37,26,44,084,38,21,36,303,14*79
$GPGSV,3,2,11,18,34,243,,05,29,046,33,25,14,213,,30,10,300,*7C
$GPGSV,3,3,11,02,09,096,23,16,02,324,,51,49,195,35*4E
$GPRMC,123804.000,A,3353.7454,N,09832.0246,W,0.11,73.59,030412,,,D*4D
$GPGGA,123805.000,3353.7454,N,09832.0248,W,2,04,3.4,322.8,M,-23.7,M,0.8,0000*4F
$GPGSA,A,3,29,05,26,15,,,,,,,,,7.0,3.4,6.1*3B
$GPRMC,123805.000,A,3353.7454,N,09832.0248,W,0.06,70.73,030412,,,D*4F
$GPGGA,123806.000,3353.7454,N,09832.0250,W,2,04,3.4,322.2,M,-23.7,M,0.8,0000*4F
$GPGSA,A,3,29,05,26,15,,,,,,,,,7.0,3.4,6.1*3B
$GPRMC,123806.000,A,3353.7454,N,09832.0250,W,0.06,338.09,030412,,,D*77
$GPGGA,123807.000,3353.7454,N,09832.0252,W,2,04,3.4,321.5,M,-23.7,M,0.8,0000*48
$GPGSA,A,3,29,05,26,15,,,,,,,,,7.0,3.4,6.1*3B
$GPRMC,123807.000,A,3353.7454,N,09832.0252,W,0.14,302.01,030412,,,D*76
$GPGGA,123808.000,3353.7454,N,09832.0255,W,2,04,3.4,320.8,M,-23.7,M,0.8,0000*4C
$GPGSA,A,3,29,05,26,15,,,,,,,,,7.0,3.4,6.2*38
$GPRMC,123808.000,A,3353.7454,N,09832.0255,W,0.19,281.94,030412,,,D*75
$GPGGA,123809.000,3353.7454,N,09832.0258,W,2,04,3.4,320.1,M,-23.7,M,1.8,0000*48
$GPGSA,A,3,29,05,26,15,,,,,,,,,7.0,3.4,6.2*38
$GPGSV,3,1,11,29,80,236,32,15,47,151,37,26,44,084,38,21,36,303,14*78
$GPGSV,3,2,11,18,34,243,,05,29,046,33,25,14,213,,30,10,300,*7C
$GPGSV,3,3,11,02,09,096,23,16,02,324,,51,49,195,35*4E
$GPRMC,123809.000,A,3353.7454,N,09832.0258,W,0.19,285.79,030412,,,D*7E
$GPGGA,123810.000,3353.7454,N,09832.0260,W,2,04,3.4,319.4,M,-23.7,M,2.8,0000*47
$GPGSA,A,3,29,05,26,15,,,,,,,,,7.0,3.4,6.2*38
$GPRMC,123810.000,A,3353.7454,N,09832.0260,W,0.20,273.27,030412,,,D*75
$GPGGA,123811.000,3353.7454,N,09832.0263,W,2,04,3.4,318.7,M,-23.7,M,0.8,0000*45
$GPGSA,A,3,29,05,26,15,,,,,,,,,7.0,3.4,6.2*38
$GPRMC,123811.000,A,3353.7454,N,09832.0263,W,0.22,279.69,030412,,,D*75
$GPGGA,123812.000,3353.7453,N,09832.0265,W,2,04,3.4,318.0,M,-23.7,M,0.8,0000*40
$GPGSA,A,3,29,05,26,15,,,,,,,,,7.0,3.4,6.2*38
$GPRMC,123812.000,A,3353.7453,N,09832.0265,W,0.19,256.82,030412,,,D*77
$GPGGA,123813.000,3353.7453,N,09832.0267,W,2,04,3.4,317.3,M,-23.7,M,0.8,0000*4F
$GPGSA,A,3,29,05,26,15,,,,,,,,,7.0,3.4,6.2*38
$GPRMC,123813.000,A,3353.7453,N,09832.0267,W,0.19,261.40,030412,,,D*7E
$GPGGA,123814.000,3353.7453,N,09832.0270,W,2,04,3.4,316.5,M,-23.7,M,0.8,0000*49
$GPGSA,A,3,29,05,26,15,,,,,,,,,7.0,3.4,6.2*38
$GPGSV,3,1,11,29,80,236,32,15,47,151,37,26,44,084,37,21,36,303,14*77
$GPGSV,3,2,11,18,34,243,,05,29,046,33,25,14,213,,30,10,300,*7C
$GPGSV,3,3,11,02,09,096,23,16,02,324,,51,49,195,35*4E
$GPRMC,123814.000,A,3353.7453,N,09832.0270,W,0.22,269.79,030412,,,D*75
$GPGGA,123815.000,3353.7452,N,09832.0272,W,2,04,3.4,315.7,M,-23.7,M,1.8,0000*4B
$GPGSA,A,3,29,05,26,15,,,,,,,,,7.0,3.4,6.2*38
$GPRMC,123815.000,A,3353.7452,N,09832.0272,W,0.20,267.93,030412,,,D*7F
$GPGGA,123816.000,3353.7452,N,09832.0274,W,2,04,3.4,315.0,M,-23.7,M,2.8,0000*4A
$GPGSA,A,3,29,05,26,15,,,,,,,,,7.0,3.4,6.2*38
$GPRMC,123816.000,A,3353.7452,N,09832.0274,W,0.24,269.50,030412,,,D*7F
$GPGGA,123817.000,3353.7452,N,09832.0276,W,2,04,3.4,314.2,M,-23.7,M,0.8,0000*48
$GPGSA,A,3,29,05,26,15,,,,,,,,,7.0,3.4,6.2*38
$GPRMC,123817.000,A,3353.7452,N,09832.0276,W,0.25,269.98,030412,,,D*79
$GPGGA,123818.000,3353.7452,N,09832.0278,W,2,04,3.4,313.5,M,-23.7,M,0.8,0000*49
$GPGSA,A,3,29,05,26,15,,,,,,,,,7.0,3.4,6.2*38
$GPRMC,123818.000,A,3353.7452,N,09832.0278,W,0.33,280.77,030412,,,D*79
$GPGGA,123819.000,3353.7452,N,09832.0281,W,2,04,3.4,312.7,M,-23.7,M,0.8,0000*4D
$GPGSA,A,3,29,05,26,15,,,,,,,,,7.0,3.4,6.2*38
$GPGSV,3,1,11,29,79,228,32,15,48,150,37,26,44,082,37,21,37,304,15*71
$GPGSV,3,2,11,18,35,245,,05,28,047,32,25,13,212,,30,10,298,*7C
$GPGSV,3,3,11,02,08,097,23,16,02,323,,51,49,195,35*49
$GPRMC,123819.000,A,3353.7452,N,09832.0281,W,0.42,282.02,030412,,,D*78
$GPGGA,123820.000,3353.7453,N,09832.0284,W,2,04,3.4,312.1,M,-23.7,M,0.8,0000*45
$GPGSA,A,3,29,05,26,15,,,,,,,,,7.0,3.4,6.2*38
$GPRMC,123820.000,A,3353.7453,N,09832.0284,W,0.44,273.69,030412,,,D*73
$GPGGA,123821.000,3353.7453,N,09832.0286,W,2,04,3.4,311.5,M,-23.7,M,1.8,0000*40
$GPGSA,A,3,29,05,26,15,,,,,,,,,7.0,3.4,6.2*38
$GPRMC,123821.000,A,3353.7453,N,09832.0286,W,0.44,274.66,030412,,,D*78
$GPGGA,123822.000,3353.7453,N,09832.0289,W,2,04,3.4,310.9,M,-23.7,M,2.8,0000*42
$GPGSA,A,3,29,05,26,15,,,,,,,,,7.0,3.4,6.2*38
$GPRMC,123822.000,A,3353.7453,N,09832.0289,W,0.43,278.51,030412,,,D*7B
$GPGGA,123823.000,3353.7453,N,09832.0291,W,2,04,3.4,310.4,M,-23.7,M,3.8,0000*46
$GPGSA,A,3,29,05,26,15,,,,,,,,,7.0,3.4,6.2*38
$GPRMC,123823.000,A,3353.7453,N,09832.0291,W,0.46,275.70,030412,,,D*78
$GPGGA,123824.000,3353.7453,N,09832.0293,W,2,04,3.4,309.9,M,-23.7,M,0.8,0000*45
$GPGSA,A,3,29,05,26,15,,,,,,,,,7.0,3.4,6.2*38
$GPGSV,3,1,11,29,79,228,32,15,48,150,37,26,44,082,38,21,37,304,14*7F
$GPGSV,3,2,11,18,35,245,,05,28,047,31,25,13,212,,30,10,298,*7F
$GPGSV,3,3,11,02,08,097,24,16,02,323,,51,49,195,35*4E
$GPRMC,123824.000,A,3353.7453,N,09832.0293,W,0.35,267.40,030412,,,D*79
$GPGGA,123825.000,3353.7453,N,09832.0293,W,2,04,3.4,309.5,M,-23.7,M,0.8,0000*48
$GPGSA,A,3,29,05,26,15,,,,,,,,,7.0,3.4,6.2*38
$GPRMC,123825.000,A,3353.7453,N,09832.0293,W,0.23,264.71,030412,,,D*7E
$GPGGA,123826.000,3353.7453,N,09832.0294,W,2,04,3.4,309.1,M,-23.7,M,0.8,0000*48
$GPGSA,A,3,29,05,26,15,,,,,,,,,7.0,3.4,6.2*38
$GPRMC,123826.000,A,3353.7453,N,09832.0294,W,0.19,261.73,030412,,,D*74
$GPGGA,123827.000,3353.7453,N,09832.0295,W,2,04,3.4,308.6,M,-23.7,M,0.8,0000*4E
$GPGSA,A,3,29,05,26,15,,,,,,,,,7.0,3.4,6.2*38
$GPRMC,123827.000,A,3353.7453,N,09832.0295,W,0.20,277.00,030412,,,D*7D
$GPGGA,123828.000,3353.7453,N,09832.0296,W,2,04,3.4,308.2,M,-23.7,M,1.8,0000*47
$GPGSA,A,3,29,05,26,15,,,,,,,,,7.0,3.4,6.2*38
$GPRMC,123828.000,A,3353.7453,N,09832.0296,W,0.19,269.15,030412,,,D*70
$GPGGA,123829.000,3353.7453,N,09832.0297,W,2,04,3.4,307.8,M,-23.7,M,2.8,0000*41
$GPGSA,A,3,29,05,26,15,,,,,,,,,7.0,3.4,6.2*38
$GPGSV,3,1,11,29,79,228,32,15,48,150,37,26,44,082,38,21,37,304,14*7F
$GPGSV,3,2,11,18,35,245,21,05,28,047,31,25,13,212,,30,10,298,*7C
$GPGSV,3,3,11,02,08,097,26,16,02,323,,51,49,195,35*4C
$GPRMC,123829.000,A,3353.7453,N,09832.0297,W,0.20,275.97,030412,,,D*7D
$GPGGA,123830.000,3353.7453,N,09832.0298,W,2,04,3.4,307.2,M,-23.7,M,0.8,0000*4E
$GPGSA,A,3,29,05,26,15,,,,,,,,,7.0,3.4,6.2*38
$GPRMC,123830.000,A,3353.7453,N,09832.0298,W,0.26,272.13,030412,,,D*77
$GPGGA,123831.000,3353.7453,N,09832.0300,W,2,04,3.4,306.7,M,-23.7,M,0.8,0000*4B
$GPGSA,A,3,29,05,26,15,,,,,,,,,7.0,3.4,6.2*38
$GPRMC,123831.000,A,3353.7453,N,09832.0300,W,0.31,275.10,030412,,,D*74
$GPGGA,123832.000,3353.7453,N,09832.0301,W,2,04,3.4,306.3,M,-23.7,M,0.8,0000*4D
$GPGSA,A,3,29,05,26,15,,,,,,,,,7.0,3.4,6.2*38
$GPRMC,123832.000,A,3353.7453,N,09832.0301,W,0.33,267.67,030412,,,D*77
$GPGGA,123833.000,3353.7453,N,09832.0303,W,2,04,3.4,306.0,M,-23.7,M,1.8,0000*4C
$GPGSA,A,3,29,05,26,15,,,,,,,,,7.0,3.4,6.2*38
$GPRMC,123833.000,A,3353.7453,N,09832.0303,W,0.34,263.17,030412,,,D*70
$GPGGA,123834.000,3353.7453,N,09832.0304,W,2,04,3.4,305.6,M,-23.7,M,2.8,0000*4A
$GPGSA,A,3,29,05,26,15,,,,,,,,,7.0,3.4,6.2*38
$GPGSV,3,1,11,29,79,228,31,15,48,150,37,26,44,082,38,21,37,304,13*7B
$GPGSV,3,2,11,18,35,245,21,05,28,047,30,25,13,212,,30,10,298,*7D
$GPGSV,3,3,11,02,08,097,26,16,02,323,,51,49,195,35*4C
$GPRMC,123834.000,A,3353.7453,N,09832.0304,W,0.33,269.11,030412,,,D*7B
$GPGGA,123835.000,3353.7453,N,09832.0306,W,2,04,3.4,305.3,M,-23.7,M,0.8,0000*4E
$GPGSA,A,3,29,05,26,15,,,,,,,,,7.0,3.4,6.2*38
$GPRMC,123835.000,A,3353.7453,N,09832.0306,W,0.34,263.12,030412,,,D*76
$GPGGA,123836.000,3353.7453,N,09832.0306,W,2,04,3.4,305.3,M,-23.7,M,0.8,0000*4D
$GPGSA,A,3,29,05,26,15,,,,,,,,,7.0,3.4,6.2*38
$GPRMC,123836.000,A,3353.7453,N,09832.0306,W,0.14,280.77,030412,,,D*79
$GPGGA,123837.000,3353.7453,N,09832.0306,W,2,04,3.4,305.2,M,-23.7,M,0.8,0000*4D
$GPGSA,A,3,29,05,26,15,,,,,,,,,7.0,3.4,6.2*38
$GPRMC,123837.000,A,3353.7453,N,09832.0306,W,0.08,276.36,030412,,,D*79
$GPGGA,123838.000,3353.7453,N,09832.0306,W,2,04,3.4,305.1,M,-23.7,M,0.8,0000*41
$GPGSA,A,3,29,05,26,15,,,,,,,,,7.0,3.4,6.2*38
$GPRMC,123838.000,A,3353.7453,N,09832.0306,W,0.07,309.76,030412,,,D*74
$GPGGA,123839.000,3353.7453,N,09832.0306,W,2,04,3.4,305.0,M,-23.7,M,1.8,0000*40
$GPGSA,A,3,29,05,26,15,,,,,,,,,7.0,3.4,6.2*38
$GPGSV,3,1,11,29,79,228,31,15,48,150,37,26,44,082,38,21,37,304,*79
$GPGSV,3,2,11,18,35,245,22,05,28,047,30,25,13,212,,30,10,298,*7E
$GPGSV,3,3,11,02,08,097,27,16,02,323,,51,49,195,35*4D
$GPRMC,123839.000,A,3353.7453,N,09832.0306,W,0.12,320.29,030412,,,D*70
$GPGGA,123840.000,3353.7454,N,09832.0306,W,2,04,3.4,305.0,M,-23.7,M,2.8,0000*4A
$GPGSA,A,3,29,05,26,15,,,,,,,,,7.0,3.4,6.2*38
$GPRMC,123840.000,A,3353.7454,N,09832.0306,W,0.08,320.55,030412,,,D*79
$GPGGA,123841.000,3353.7454,N,09832.0306,W,2,04,3.4,304.9,M,-23.7,M,3.8,0000*42
$GPGSA,A,3,29,05,26,15,,,,,,,,,7.0,3.4,6.2*38
$GPRMC,123841.000,A,3353.7454,N,09832.0306,W,0.10,323.37,030412,,,D*76
$GPGGA,123842.000,3353.7454,N,09832.0307,W,2,04,3.4,304.6,M,-23.7,M,0.8,0000*4C
$GPGSA,A,3,29,05,26,15,,,,,,,,,7.0,3.4,6.2*38
$GPRMC,123842.000,A,3353.7454,N,09832.0307,W,0.12,273.69,030412,,,D*79
$GPGGA,123843.000,3353.7454,N,09832.0308,W,2,04,3.4,304.4,M,-23.7,M,0.8,0000*40
$GPGSA,A,3,29,05,26,15,,,,,,,,,7.0,3.4,6.2*38
$GPRMC,123843.000,A,3353.7454,N,09832.0308,W,0.20,271.33,030412,,,D*7B
$GPGGA,123844.000,3353.7454,N,09832.0310,W,2,04,3.4,304.2,M,-23.7,M,0.8,0000*48
$GPGSA,A,3,29,05,26,15,,,,,,,,,7.0,3.4,6.2*38
$GPGSV,3,1,11,29,79,228,31,15,48,150,37,26,44,082,39,21,37,304,*78
$GPGSV,3,2,11,18,35,245,11,05,28,047,30,25,13,212,,30,10,298,*7E
$GPGSV,3,3,11,02,08,097,27,16,02,323,,51,49,195,35*4D
$GPRMC,123844.000,A,3353.7454,N,09832.0310,W,0.23,263.08,030412,,,D*7D
$GPGGA,123845.000,3353.7454,N,09832.0311,W,2,04,3.4,304.1,M,-23.7,M,0.8,0000*4B
$GPGSA,A,3,29,05,26,15,,,,,,,,,7.0,3.4,6.2*38
$GPRMC,123845.000,A,3353.7454,N,09832.0311,W,0.22,264.27,030412,,,D*76
$GPGGA,123846.000,3353.7454,N,09832.0312,W,2,04,3.4,304.0,M,-23.7,M,1.8,0000*4B
$GPGSA,A,3,29,05,26,15,,,,,,,,,7.0,3.4,6.2*38
$GPRMC,123846.000,A,3353.7454,N,09832.0312,W,0.23,268.42,030412,,,D*78
$GPGGA,123847.000,3353.7453,N,09832.0313,W,2,04,3.4,303.9,M,-23.7,M,2.8,0000*41
$GPGSA,A,3,29,05,26,15,,,,,,,,,7.0,3.4,6.2*38
$GPRMC,123847.000,A,3353.7453,N,09832.0313,W,0.22,259.59,030412,,,D*76
$GPGGA,123848.000,3353.7453,N,09832.0313,W,2,04,3.4,304.0,M,-23.7,M,0.8,0000*42
$GPGSA,A,3,29,05,26,15,,,,,,,,,7.0,3.4,6.2*38
$GPRMC,123848.000,A,3353.7453,N,09832.0313,W,0.12,303.33,030412,,,D*78
$GPGGA,123849.000,3353.7454,N,09832.0313,W,2,04,3.4,304.0,M,-23.7,M,0.8,0000*44
$GPGSA,A,3,29,05,26,15,,,,,,,,,7.0,3.4,6.2*38
$GPGSV,3,1,11,29,79,228,31,15,48,150,37,26,44,082,39,21,37,304,*78
$GPGSV,3,2,11,18,35,245,,05,28,047,29,25,13,212,,30,10,298,*76
$GPGSV,3,3,11,02,08,097,27,16,02,323,,51,49,195,35*4D
$GPRMC,123849.000,A,3353.7454,N,09832.0313,W,0.06,340.42,030412,,,D*7A
$GPGGA,123850.000,3353.7454,N,09832.0313,W,2,04,3.4,304.0,M,-23.7,M,0.8,0000*4C
$GPGSA,A,3,29,05,26,15,,,,,,,,,7.0,3.4,6.2*38
$GPRMC,123850.000,A,3353.7454,N,09832.0313,W,0.08,9.89,030412,,,D*75
$GPGGA,123851.000,3353.7454,N,09832.0313,W,2,04,3.4,303.9,M,-23.7,M,0.8,0000*43
$GPGSA,A,3,29,05,26,15,,,,,,,,,7.0,3.4,6.2*38
$GPRMC,123851.000,A,3353.7454,N,09832.0313,W,0.10,355.27,030412,,,D*73
$GPGGA,123852.000,3353.7454,N,09832.0313,W,2,04,3.4,303.9,M,-23.7,M,1.8,0000*41
$GPGSA,A,3,29,05,26,15,,,,,,,,,7.0,3.4,6.2*38
$GPRMC,123852.000,A,3353.7454,N,09832.0313,W,0.08,17.38,030412,,,D*42
$GPGGA,123853.000,3353.7455,N,09832.0313,W,2,04,3.4,303.8,M,-23.7,M,2.8,0000*43
$GPGSA,A,3,29,05,26,15,,,,,,,,,7.0,3.4,6.2*38
$GPRMC,123853.000,A,3353.7455,N,09832.0313,W,0.10,9.64,030412,,,D*7D
$GPGGA,123854.000,3353.7455,N,09832.0314,W,2,04,3.4,303.6,M,-23.7,M,0.8,0000*4F
$GPGSA,A,3,29,05,26,15,,,,,,,,,7.0,3.4,6.2*38
$GPGSV,3,1,11,29,79,228,31,15,48,150,37,26,44,082,39,21,37,304,*78
$GPGSV,3,2,11,18,35,245,,05,28,047,29,25,13,212,,30,10,298,*76
$GPGSV,3,3,11,02,08,097,26,16,02,323,,51,49,195,35*4C
$GPRMC,123854.000,A,3353.7455,N,09832.0314,W,0.05,281.93,030412,,,D*73
$GPGGA,123855.000,3353.7456,N,09832.0308,W,2,05,2.0,305.9,M,-23.7,M,0.8,0000*4D
$GPGSA,A,3,29,05,26,25,15,,,,,,,,2.7,2.0,1.8*35
$GPRMC,123855.000,A,3353.7456,N,09832.0308,W,0.10,23.45,030412,,,D*49
$GPGGA,123856.000,3353.7456,N,09832.0308,W,2,04,3.4,306.1,M,-23.7,M,0.8,0000*41
$GPGSA,A,3,29,05,26,15,,,,,,,,,7.0,3.4,6.2*38
$GPRMC,123856.000,A,3353.7456,N,09832.0308,W,0.14,65.71,030412,,,D*4B
$GPGGA,123857.000,3353.7459,N,09832.0296,W,2,05,2.0,310.5,M,-23.7,M,1.8,0000*4F
$GPGSA,A,3,29,05,26,25,15,,,,,,,,2.7,2.0,1.8*35
$GPRMC,123857.000,A,3353.7459,N,09832.0296,W,0.14,271.14,030412,,,D*77
$GPGGA,123858.000,3353.7458,N,09832.0298,W,2,04,3.4,310.1,M,-23.7,M,0.8,0000*4E
$GPGSA,A,3,29,05,26,15,,,,,,,,,7.0,3.4,6.2*38
$GPRMC,123858.000,A,3353.7458,N,09832.0298,W,0.25,259.40,030412,,,D*7E
$GPGGA,123859.000,3353.7458,N,09832.0300,W,2,04,3.4,310.0,M,-23.7,M,1.8,0000*4F
$GPGSA,A,3,29,05,26,15,,,,,,,,,7.0,3.4,6.2*38
$GPGSV,3,1,11,29,79,228,31,15,48,150,37,26,44,082,39,21,37,304,*78
$GPGSV,3,2,11,18,35,245,,05,28,047,28,25,13,212,19,30,10,298,*7F
$GPGSV,3,3,11,02,08,097,24,16,02,323,,51,49,195,35*4E
$GPRMC,123859.000,A,3353.7458,N,09832.0300,W,0.16,280.02,030412,,,D*7D
$GPGGA,123900.000,3353.7458,N,09832.0301,W,2,04,3.4,309.7,M,-23.7,M,0.8,0000*4D
$GPGSA,A,3,29,05,26,15,,,,,,,,,7.0,3.4,6.2*38
$GPRMC,123900.000,A,3353.7458,N,09832.0301,W,0.19,282.18,030412,,,D*77
$GPGGA,123901.000,3353.7458,N,09832.0301,W,2,04,3.4,309.8,M,-23.7,M,0.8,0000*43
$GPGSA,A,3,29,05,26,15,,,,,,,,,7.0,3.4,6.2*38
$GPRMC,123901.000,A,3353.7458,N,09832.0301,W,0.19,36.76,030412,,,D*43
$GPGGA,123902.000,3353.7459,N,09832.0297,W,2,05,2.0,311.2,M,-23.7,M,0.8,0000*48
$GPGSA,A,3,29,05,26,25,15,,,,,,,,2.7,2.0,1.8*35
$GPRMC,123902.000,A,3353.7459,N,09832.0297,W,0.33,57.88,030412,,,D*41
$GPGGA,123903.000,3353.7461,N,09832.0293,W,2,05,2.0,312.8,M,-23.7,M,1.8,0000*4E
$GPGSA,A,3,29,05,26,25,15,,,,,,,,2.7,2.0,1.8*35
$GPRMC,123903.000,A,3353.7461,N,09832.0293,W,0.23,44.25,030412,,,D*4B
$GPGGA,123904.000,3353.7462,N,09832.0289,W,2,05,2.0,313.9,M,-23.7,M,2.8,0000*42
$GPGSA,A,3,29,05,26,25,15,,,,,,,,2.7,2.0,1.8*35
$GPGSV,3,1,11,29,79,228,31,15,48,150,37,26,44,082,39,21,37,304,*78
$GPGSV,3,2,11,18,35,245,,05,28,047,27,25,13,212,19,30,10,298,*70
$GPGSV,3,3,11,02,08,097,24,16,02,323,,51,49,195,35*4E
$GPRMC,123904.000,A,3353.7462,N,09832.0289,W,0.37,60.88,030412,,,D*40
$GPGGA,123905.000,3353.7462,N,09832.0287,W,2,05,2.0,314.8,M,-23.7,M,0.8,0000*49
$GPGSA,A,3,29,05,26,25,15,,,,,,,,2.7,2.0,1.8*35
$GPRMC,123905.000,A,3353.7462,N,09832.0287,W,0.08,21.56,030412,,,D*45
$GPGGA,123906.000,3353.7463,N,09832.0285,W,2,05,2.0,315.7,M,-23.7,M,0.8,0000*47
$GPGSA,A,3,29,05,26,25,15,,,,,,,,2.7,2.0,1.8*35
$GPRMC,123906.000,A,3353.7463,N,09832.0285,W,0.09,276.27,030412,,,D*72
$GPGGA,123907.000,3353.7463,N,09832.0282,W,2,05,2.0,316.7,M,-23.7,M,0.8,0000*42
$GPGSA,A,3,29,05,26,25,15,,,,,,,,2.7,2.0,1.8*35
$GPRMC,123907.000,A,3353.7463,N,09832.0282,W,0.07,297.39,030412,,,D*7A
$GPGGA,123908.000,3353.7464,N,09832.0281,W,2,05,2.0,317.7,M,-23.7,M,0.8,0000*48
$GPGSA,A,3,29,05,26,25,15,,,,,,,,2.7,2.0,1.8*35
$GPRMC,123908.000,A,3353.7464,N,09832.0281,W,0.18,270.87,030412,,,D*73
$GPGGA,123909.000,3353.7464,N,09832.0279,W,2,05,2.0,318.5,M,-23.7,M,0.8,0000*43
$GPGSA,A,3,29,05,26,25,15,,,,,,,,2.7,2.0,1.8*35
$GPGSV,3,1,11,29,79,228,31,15,48,150,37,26,44,082,39,21,37,304,*78
$GPGSV,3,2,11,18,35,245,,05,28,047,27,25,13,212,20,30,10,298,*7A
$GPGSV,3,3,11,02,08,097,23,16,02,323,,51,49,195,35*49
$GPRMC,123909.000,A,3353.7464,N,09832.0279,W,0.07,277.63,030412,,,D*76
$GPGGA,123910.000,3353.7465,N,09832.0276,W,2,05,2.0,319.7,M,-23.7,M,1.8,0000*47
$GPGSA,A,3,29,05,26,25,15,,,,,,,,2.7,2.0,1.8*35
$GPRMC,123910.000,A,3353.7465,N,09832.0276,W,0.17,268.38,030412,,,D*71
$GPGGA,123911.000,3353.7465,N,09832.0274,W,2,05,2.0,320.8,M,-23.7,M,0.8,0000*40
$GPGSA,A,3,29,05,26,25,15,,,,,,,,2.7,2.0,1.8*35
$GPRMC,123911.000,A,3353.7465,N,09832.0274,W,0.19,259.65,030412,,,D*76
$GPGGA,123912.000,3353.7465,N,09832.0273,W,2,05,2.0,321.5,M,-23.7,M,0.8,0000*48
$GPGSA,A,3,29,05,26,25,15,,,,,,,,2.7,2.0,1.8*35
$GPRMC,123912.000,A,3353.7465,N,09832.0273,W,0.23,284.92,030412,,,D*73
$GPGGA,123913.000,3353.7466,N,09832.0270,W,2,05,2.0,322.6,M,-23.7,M,0.8,0000*49
$GPGSA,A,3,29,05,26,25,15,,,,,,,,2.7,2.0,1.8*35
$GPRMC,123913.000,A,3353.7466,N,09832.0270,W,0.12,316.29,030412,,,D*7A
$GPGGA,123914.000,3353.7468,N,09832.0265,W,2,05,2.0,324.5,M,-23.7,M,0.8,0000*41
$GPGSA,A,3,29,05,26,25,15,,,,,,,,2.7,2.0,1.8*35
$GPGSV,3,1,11,29,79,228,31,15,48,150,37,26,44,082,39,21,37,304,*78
$GPGSV,3,2,11,18,35,245,,05,28,047,27,25,13,212,21,30,10,298,*7B
$GPGSV,3,3,11,02,08,097,24,16,02,323,,51,49,195,34*4F
$GPRMC,123914.000,A,3353.7468,N,09832.0265,W,0.24,37.63,030412,,,D*4C
$GPGGA,123915.000,3353.7469,N,09832.0261,W,2,05,2.0,325.8,M,-23.7,M,1.8,0000*48
$GPGSA,A,3,29,05,26,25,15,,,,,,,,2.7,2.0,1.8*35
$GPRMC,123915.000,A,3353.7469,N,09832.0261,W,0.18,38.32,030412,,,D*4C
$GPGGA,123916.000,3353.7473,N,09832.0262,W,2,05,2.0,324.9,M,-23.7,M,2.8,0000*40
$GPGSA,A,3,29,05,26,25,15,,,,,,,,2.7,2.0,1.8*35
$GPRMC,123916.000,A,3353.7473,N,09832.0262,W,0.28,5.92,030412,,,D*70
$GPGGA,123917.000,3353.7476,N,09832.0261,W,2,05,2.0,324.5,M,-23.7,M,3.8,0000*4A
$GPGSA,A,3,29,05,26,25,15,,,,,,,,2.7,2.0,1.8*35
$GPRMC,123917.000,A,3353.7476,N,09832.0261,W,0.46,49.18,030412,,,D*45
$GPGGA,123918.000,3353.7478,N,09832.0261,W,2,05,2.0,324.2,M,-23.7,M,0.8,0000*4F
$GPGSA,A,3,29,05,26,25,15,,,,,,,,2.7,2.0,1.8*35
$GPRMC,123918.000,A,3353.7478,N,09832.0261,W,0.11,294.11,030412,,,D*7D
$GPGGA,123919.000,3353.7477,N,09832.0261,W,2,05,2.0,324.5,M,-23.7,M,0.8,0000*46
$GPGSA,A,3,29,05,26,25,15,,,,,,,,2.7,2.0,1.8*35
$GPGSV,3,1,11,29,79,228,31,15,48,150,37,26,44,082,38,21,37,304,*79
$GPGSV,3,2,11,18,35,245,,05,28,047,26,25,13,212,20,30,10,298,*7B
$GPGSV,3,3,11,02,08,097,25,16,02,323,,51,49,195,34*4E
$GPRMC,123919.000,A,3353.7477,N,09832.0261,W,0.39,287.73,030412,,,D*7F
$GPGGA,123920.000,3353.7475,N,09832.0260,W,2,05,2.0,325.4,M,-23.7,M,0.8,0000*4F
$GPGSA,A,3,29,05,26,25,15,,,,,,,,2.7,2.0,1.8*35
$GPRMC,123920.000,A,3353.7475,N,09832.0260,W,0.04,17.83,030412,,,D*4C
$GPGGA,123921.000,3353.7474,N,09832.0261,W,2,05,2.0,325.6,M,-23.7,M,0.8,0000*4C
$GPGSA,A,3,29,05,26,25,15,,,,,,,,2.7,2.0,1.8*35
$GPRMC,123921.000,A,3353.7474,N,09832.0261,W,0.25,273.40,030412,,,D*71
$GPGGA,123922.000,3353.7472,N,09832.0261,W,2,05,2.0,325.9,M,-23.7,M,1.8,0000*47
$GPGSA,A,3,29,05,26,25,15,,,,,,,,2.7,2.0,1.8*35
$GPRMC,123922.000,A,3353.7472,N,09832.0261,W,0.36,252.78,030412,,,D*7E
$GPGGA,123923.000,3353.7470,N,09832.0260,W,2,05,2.0,326.8,M,-23.7,M,2.8,0000*44
$GPGSA,A,3,29,05,26,25,15,,,,,,,,2.7,2.0,1.8*35
$GPRMC,123923.000,A,3353.7470,N,09832.0260,W,0.03,69.02,030412,,,D*4D
$GPGGA,123924.000,3353.7468,N,09832.0259,W,2,04,3.4,327.3,M,-23.7,M,0.8,0000*4C
$GPGSA,A,3,29,05,26,15,,,,,,,,,7.0,3.4,6.2*38
$GPGSV,3,1,11,29,79,228,31,15,48,150,37,26,44,082,38,21,37,304,*79
$GPGSV,3,2,11,18,35,245,22,05,28,047,26,25,13,212,19,30,10,298,*71
$GPGSV,3,3,11,02,08,097,26,16,02,323,,51,49,195,35*4C
$GPRMC,123924.000,A,3353.7468,N,09832.0259,W,0.29,61.43,030412,,,D*4C
$GPGGA,123925.000,3353.7467,N,09832.0259,W,2,04,3.4,327.6,M,-23.7,M,0.8,0000*47
$GPGSA,A,3,29,05,26,15,,,,,,,,,7.0,3.4,6.2*38
$GPRMC,123925.000,A,3353.7467,N,09832.0259,W,0.24,77.08,030412,,,D*47
$GPGGA,123926.000,3353.7466,N,09832.0258,W,2,04,3.4,327.8,M,-23.7,M,0.8,0000*4A
$GPGSA,A,3,29,05,26,15,,,,,,,,,7.0,3.4,6.2*38
$GPRMC,123926.000,A,3353.7466,N,09832.0258,W,0.23,61.62,030412,,,D*48
$GPGGA,123927.000,3353.7465,N,09832.0257,W,2,04,3.4,328.1,M,-23.7,M,1.8,0000*40
$GPGSA,A,3,29,05,26,15,,,,,,,,,7.0,3.4,6.2*38
$GPRMC,123927.000,A,3353.7465,N,09832.0257,W,0.23,66.28,030412,,,D*4C
$GPGGA,123928.000,3353.7463,N,09832.0257,W,2,04,3.4,328.5,M,-23.7,M,2.8,0000*4E
$GPGSA,A,3,29,05,26,15,,,,,,,,,7.0,3.4,6.2*38
$GPRMC,123928.000,A,3353.7463,N,09832.0257,W,0.22,66.84,030412,,,D*42
$GPGGA,123929.000,3353.7462,N,09832.0256,W,2,04,3.4,328.9,M,-23.7,M,3.8,0000*42
$GPGSA,A,3,29,05,26,15,,,,,,,,,7.0,3.4,6.2*38
$GPGSV,3,1,11,29,79,228,31,15,48,150,37,26,44,082,38,21,37,304,*79
$GPGSV,3,2,11,18,35,245,21,05,28,047,27,25,13,212,,30,10,298,*7B
$GPGSV,3,3,11,02,08,097,27,16,02,323,,51,49,195,35*4D
$GPRMC,123929.000,A,3353.7462,N,09832.0256,W,0.24,62.74,030412,,,D*4E
$GPGGA,123930.000,3353.7460,N,09832.0256,W,2,04,3.4,329.2,M,-23.7,M,0.8,0000*41
$GPGSA,A,3,29,05,26,15,,,,,,,,,7.1,3.4,6.2*39
$GPRMC,123930.000,A,3353.7460,N,09832.0256,W,0.18,81.18,030412,,,D*4C
$GPGGA,123931.000,3353.7459,N,09832.0256,W,2,04,3.4,329.5,M,-23.7,M,0.8,0000*4D
$GPGSA,A,3,29,05,26,15,,,,,,,,,7.1,3.4,6.2*39
$GPRMC,123931.000,A,3353.7459,N,09832.0256,W,0.07,77.59,030412,,,D*45
$GPGGA,123932.000,3353.7458,N,09832.0256,W,2,04,3.4,329.8,M,-23.7,M,0.8,0000*42
$GPGSA,A,3,29,05,26,15,,,,,,,,,7.1,3.4,6.2*39
$GPRMC,123932.000,A,3353.7458,N,09832.0256,W,0.07,75.74,030412,,,D*4A
$GPGGA,123933.000,3353.7456,N,09832.0256,W,2,04,3.4,330.1,M,-23.7,M,1.8,0000*4D
$GPGSA,A,3,29,05,26,15,,,,,,,,,7.1,3.4,6.2*39
$GPRMC,123933.000,A,3353.7456,N,09832.0256,W,0.09,104.68,030412,,,D*71
$GPGGA,123934.000,3353.7455,N,09832.0256,W,2,04,3.4,330.3,M,-23.7,M,2.8,0000*48
$GPGSA,A,3,29,05,26,15,,,,,,,,,7.1,3.4,6.2*39
$GPGSV,3,1,11,29,79,228,31,15,48,150,37,26,44,082,38,21,37,304,*79
$GPGSV,3,2,11,18,35,245,15,05,28,047,27,25,13,212,,30,10,298,*7C
$GPGSV,3,3,11,02,08,097,28,16,02,323,,51,49,195,35*42
$GPRMC,123934.000,A,3353.7455,N,09832.0256,W,0.07,83.77,030412,,,D*4B
$GPGGA,123935.000,3353.7454,N,09832.0257,W,2,04,3.4,330.6,M,-23.7,M,3.8,0000*4D
$GPGSA,A,3,29,05,26,15,,,,,,,,,7.1,3.4,6.2*39
$GPRMC,123935.000,A,3353.7454,N,09832.0257,W,0.07,95.95,030412,,,D*41
$GPGGA,123936.000,3353.7453,N,09832.0257,W,2,04,3.4,331.0,M,-23.7,M,0.8,0000*4D
$GPGSA,A,3,29,05,26,15,,,,,,,,,7.1,3.4,6.2*39
$GPRMC,123936.000,A,3353.7453,N,09832.0257,W,0.17,43.70,030412,,,D*44
$GPGGA,123937.000,3353.7452,N,09832.0256,W,2,04,3.4,331.3,M,-23.7,M,0.8,0000*4F
$GPGSA,A,3,29,05,26,15,,,,,,,,,7.1,3.4,6.2*39
$GPRMC,123937.000,A,3353.7452,N,09832.0256,W,0.24,68.09,030412,,,D*42
$GPGGA,123938.000,3353.7451,N,09832.0255,W,2,04,3.4,331.5,M,-23.7,M,0.8,0000*46
$GPGSA,A,3,29,05,26,15,,,,,,,,,7.1,3.4,6.2*39
$GPRMC,123938.000,A,3353.7451,N,09832.0255,W,0.27,61.84,030412,,,D*42
$GPGGA,123939.000,3353.7451,N,09832.0255,W,2,04,3.4,331.7,M,-23.7,M,0.8,0000*45
$GPGSA,A,3,29,05,26,15,,,,,,,,,7.1,3.4,6.2*39
$GPGSV,3,1,11,29,79,228,31,15,48,150,37,26,44,082,38,21,37,304,*79
$GPGSV,3,2,11,18,35,245,14,05,28,047,28,25,13,212,,30,10,298,*72
$GPGSV,3,3,11,02,08,097,28,16,02,323,,51,49,195,35*42
$GPRMC,123939.000,A,3353.7451,N,09832.0255,W,0.30,67.72,030412,,,D*4A
$GPGGA,123940.000,3353.7450,N,09832.0254,W,2,04,3.4,331.9,M,-23.7,M,1.8,0000*44
$GPGSA,A,3,29,05,26,15,,,,,,,,,7.1,3.4,6.2*39
$GPRMC,123940.000,A,3353.7450,N,09832.0254,W,0.29,63.64,030412,,,D*4F
$GPGGA,123941.000,3353.7450,N,09832.0254,W,2,04,3.4,332.1,M,-23.7,M,2.8,0000*4D
$GPGSA,A,3,29,05,26,15,,,,,,,,,7.1,3.4,6.2*39
$GPRMC,123941.000,A,3353.7450,N,09832.0254,W,0.27,57.29,030412,,,D*4E
$GPGGA,123942.000,3353.7449,N,09832.0253,W,2,04,3.4,332.3,M,-23.7,M,0.8,0000*41
$GPGSA,A,3,29,05,26,15,,,,,,,,,7.1,3.4,6.2*39
$GPRMC,123942.000,A,3353.7449,N,09832.0253,W,0.24,82.26,030412,,,D*46
$GPGGA,123943.000,3353.7448,N,09832.0254,W,2,05,2.0,332.1,M,-23.7,M,0.8,0000*40
$GPGSA,A,3,29,05,26,25,15,,,,,,,,2.7,2.0,1.8*35
$GPRMC,123943.000,A,3353.7448,N,09832.0254,W,0.09,278.62,030412,,,D*79
$GPGGA,123944.000,3353.7449,N,09832.0246,W,2,05,2.0,335.1,M,-23.7,M,0.8,0000*42
$GPGSA,A,3,29,05,26,25,15,,,,,,,,2.7,2.0,1.8*35
$GPGSV,3,1,11,29,79,228,31,15,48,150,38,26,44,082,37,21,37,304,*79
$GPGSV,3,2,11,18,35,245,16,05,28,047,28,25,13,212,19,30,10,298,*78
$GPGSV,3,3,11,02,08,097,29,16,02,323,,51,49,195,35*43
$GPRMC,123944.000,A,3353.7449,N,09832.0246,W,0.09,255.09,030412,,,D*7E
$GPGGA,123945.000,3353.7451,N,09832.0233,W,2,05,2.0,339.9,M,-23.7,M,1.8,0000*4D
$GPGSA,A,3,29,05,26,25,15,,,,,,,,2.7,2.0,1.8*35
$GPRMC,123945.000,A,3353.7451,N,09832.0233,W,0.37,75.41,030412,,,D*45
$GPGGA,123946.000,3353.7452,N,09832.0224,W,2,05,2.0,343.2,M,-23.7,M,0.8,0000*4C
$GPGSA,A,3,29,05,26,25,15,,,,,,,,2.7,2.0,1.8*35
$GPRMC,123946.000,A,3353.7452,N,09832.0224,W,0.17,88.18,030412,,,D*4F
$GPGGA,123947.000,3353.7452,N,09832.0216,W,2,05,2.0,346.4,M,-23.7,M,1.8,0000*4E
$GPGSA,A,3,29,05,26,25,15,,,,,,,,2.7,2.0,1.8*35
$GPRMC,123947.000,A,3353.7452,N,09832.0216,W,0.12,93.87,030412,,,D*46
$GPGGA,123948.000,3353.7453,N,09832.0210,W,2,05,2.0,349.1,M,-23.7,M,0.8,0000*4D
$GPGSA,A,3,29,05,26,25,15,,,,,,,,2.7,2.0,1.8*35
$GPRMC,123948.000,A,3353.7453,N,09832.0210,W,0.15,0.81,030412,,,D*75
$GPGGA,123949.000,3353.7454,N,09832.0206,W,2,05,2.0,350.9,M,-23.7,M,0.8,0000*4C
$GPGSA,A,3,29,05,26,25,15,,,,,,,,2.7,2.0,1.8*35
$GPGSV,3,1,11,29,79,228,31,15,48,150,38,26,44,082,37,21,37,304,*79
$GPGSV,3,2,11,18,35,245,21,05,28,047,28,25,13,212,19,30,10,298,*7C
$GPGSV,3,3,11,02,08,097,30,16,02,323,,51,49,195,35*4B
$GPRMC,123949.000,A,3353.7454,N,09832.0206,W,0.25,42.04,030412,,,D*4C
$GPGGA,123950.000,3353.7454,N,09832.0205,W,2,05,2.0,351.6,M,-23.7,M,0.8,0000*49
$GPGSA,A,3,29,05,26,25,15,,,,,,,,2.7,2.0,1.8*35
$GPRMC,123950.000,A,3353.7454,N,09832.0205,W,0.23,41.36,030412,,,D*43
$GPGGA,123951.000,3353.7454,N,09832.0202,W,2,05,2.0,352.9,M,-23.7,M,1.8,0000*42
$GPGSA,A,3,29,05,26,25,15,,,,,,,,2.7,2.0,1.8*35
$GPRMC,123951.000,A,3353.7454,N,09832.0202,W,0.19,25.77,030412,,,D*4B
$GPGGA,123952.000,3353.7455,N,09832.0200,W,2,05,2.0,353.8,M,-23.7,M,2.8,0000*41
$GPGSA,A,3,29,05,26,25,15,,,,,,,,2.7,2.0,1.8*35
$GPRMC,123952.000,A,3353.7455,N,09832.0200,W,0.19,7.77,030412,,,D*7B
$GPGGA,123953.000,3353.7455,N,09832.0196,W,2,05,2.0,355.2,M,-23.7,M,3.8,0000*41
$GPGSA,A,3,29,05,26,25,15,,,,,,,,2.7,2.0,1.8*35
$GPRMC,123953.000,A,3353.7455,N,09832.0196,W,0.28,47.29,030412,,,D*4B
$GPGGA,123954.000,3353.7455,N,09832.0194,W,2,05,2.0,355.9,M,-23.7,M,0.8,0000*4C
$GPGSA,A,3,29,05,26,25,15,,,,,,,,2.7,2.0,1.8*35
$GPGSV,3,1,11,29,79,228,30,15,48,150,38,26,44,082,37,21,37,304,*78
$GPGSV,3,2,11,18,35,245,20,05,28,047,29,25,13,212,20,30,10,298,*76
$GPGSV,3,3,11,02,08,097,30,16,02,323,,51,49,195,35*4B
$GPRMC,123954.000,A,3353.7455,N,09832.0194,W,0.27,58.37,030412,,,D*40
$GPGGA,123955.000,3353.7454,N,09832.0196,W,2,05,2.0,355.4,M,-23.7,M,0.8,0000*43
$GPGSA,A,3,29,05,26,25,15,,,,,,,,2.7,2.0,1.8*35
$GPRMC,123955.000,A,3353.7454,N,09832.0196,W,0.08,356.80,030412,,,D*7E
$GPGGA,123956.000,3353.7453,N,09832.0199,W,2,05,2.0,354.8,M,-23.7,M,0.8,0000*45
$GPGSA,A,3,29,05,26,25,15,,,,,,,,2.7,2.0,1.8*35
$GPRMC,123956.000,A,3353.7453,N,09832.0199,W,0.15,271.80,030412,,,D*7D
$GPGGA,123957.000,3353.7452,N,09832.0200,W,2,05,2.0,354.5,M,-23.7,M,0.8,0000*4B
$GPGSA,A,3,29,05,26,25,15,,,,,,,,2.7,2.0,1.8*35
$GPRMC,123957.000,A,3353.7452,N,09832.0200,W,0.27,61.80,030412,,,D*4C
$GPGGA,123958.000,3353.7452,N,09832.0200,W,2,04,3.4,354.7,M,-23.7,M,0.8,0000*42
$GPGSA,A,3,29,05,26,15,,,,,,,,,7.1,3.4,6.2*39
$GPRMC,123958.000,A,3353.7452,N,09832.0200,W,0.20,66.93,030412,,,D*41
$GPGGA,123959.000,3353.7451,N,09832.0200,W,2,04,3.4,354.8,M,-23.7,M,1.8,0000*4E
$GPGSA,A,3,29,05,26,15,,,,,,,,,7.1,3.4,6.2*39
$GPGSV,3,1,11,29,79,228,30,15,48,150,38,26,44,082,38,21,37,304,*77
$GPGSV,3,2,11,18,35,245,19,05,28,047,29,25,13,212,,30,10,298,*7E
$GPGSV,3,3,11,02,08,097,30,16,02,323,,51,49,195,36*48
$GPRMC,123959.000,A,3353.7451,N,09832.0200,W,0.15,76.40,030412,,,D*4A
$GPGGA,124000.000,3353.7451,N,09832.0200,W,2,04,3.4,354.9,M,-23.7,M,0.8,0000*4C
$GPGSA,A,3,29,05,26,15,,,,,,,,,7.1,3.4,6.2*39
$GPRMC,124000.000,A,3353.7451,N,09832.0200,W,0.21,42.86,030412,,,D*42
$GPGGA,124001.000,3353.7451,N,09832.0200,W,2,04,3.4,354.9,M,-23.7,M,0.8,0000*4D
$GPGSA,A,3,29,05,26,15,,,,,,,,,7.1,3.4,6.2*39
$GPRMC,124001.000,A,3353.7451,N,09832.0200,W,0.24,55.55,030412,,,D*4E
$GPGGA,124002.000,3353.7451,N,09832.0200,W,2,04,3.4,354.8,M,-23.7,M,0.8,0000*4F
$GPGSA,A,3,29,05,26,15,,,,,,,,,7.1,3.4,6.2*39
$GPRMC,124002.000,A,3353.7451,N,09832.0200,W,0.26,50.23,030412,,,D*4B
$GPGGA,124003.000,3353.7451,N,09832.0200,W,2,04,3.4,354.7,M,-23.7,M,1.8,0000*40
$GPGSA,A,3,29,05,26,15,,,,,,,,,7.1,3.4,6.2*39
$GPRMC,124003.000,A,3353.7451,N,09832.0200,W,0.25,53.00,030412,,,D*4B
$GPGGA,124004.000,3353.7451,N,09832.0200,W,2,04,3.4,354.5,M,-23.7,M,0.8,0000*44
$GPGSA,A,3,29,05,26,15,,,,,,,,,7.1,3.4,6.2*39
$GPGSV,3,1,11,29,79,228,30,15,48,150,37,26,44,082,38,21,37,304,16*7F
$GPGSV,3,2,11,18,35,245,19,05,28,047,29,25,13,212,,30,10,298,*7E
$GPGSV,3,3,11,02,08,097,31,16,02,323,,51,49,195,36*49
$GPRMC,124004.000,A,3353.7451,N,09832.0200,W,0.21,46.39,030412,,,D*46
$GPGGA,124005.000,3353.7451,N,09832.0200,W,2,04,3.4,354.2,M,-23.7,M,1.8,0000*43
$GPGSA,A,3,29,05,26,15,,,,,,,,,7.1,3.4,6.2*39
$GPRMC,124005.000,A,3353.7451,N,09832.0200,W,0.18,40.98,030412,,,D*40
$GPGGA,124006.000,3353.7450,N,09832.0201,W,2,04,3.4,353.8,M,-23.7,M,0.8,0000*4C
$GPGSA,A,3,29,05,26,15,,,,,,,,,7.1,3.4,6.2*39
$GPRMC,124006.000,A,3353.7450,N,09832.0201,W,0.07,50.49,030412,,,D*40
$GPGGA,124007.000,3353.7449,N,09832.0203,W,2,04,3.4,353.3,M,-23.7,M,0.8,0000*4C
$GPGSA,A,3,29,05,26,15,,,,,,,,,7.1,3.4,6.2*39
$GPRMC,124007.000,A,3353.7449,N,09832.0203,W,0.10,316.51,030412,,,D*75
$GPGGA,124008.000,3353.7449,N,09832.0205,W,2,04,3.4,352.8,M,-23.7,M,0.8,0000*4F
$GPGSA,A,3,29,05,26,15,,,,,,,,,7.1,3.4,6.2*39
$GPRMC,124008.000,A,3353.7449,N,09832.0205,W,0.10,263.45,030412,,,D*7A
$GPGGA,124009.000,3353.7448,N,09832.0206,W,2,04,3.4,352.3,M,-23.7,M,0.8,0000*47
$GPGSA,A,3,29,05,26,15,,,,,,,,,7.1,3.4,6.2*39
$GPGSV,3,1,11,29,79,228,30,15,48,150,37,26,44,082,38,21,37,304,16*7F
$GPGSV,3,2,11,18,35,245,19,05,28,047,30,25,13,212,,30,10,298,*76
$GPGSV,3,3,11,02,08,097,31,16,02,323,,51,49,195,35*4A
$GPRMC,124009.000,A,3353.7448,N,09832.0206,W,0.12,257.45,030412,,,D*7C
$GPGGA,124010.000,3353.7447,N,09832.0208,W,2,04,3.4,351.7,M,-23.7,M,1.8,0000*48
$GPGSA,A,3,29,05,26,15,,,,,,,,,7.1,3.4,6.2*39
$GPRMC,124010.000,A,3353.7447,N,09832.0208,W,0.15,268.59,030412,,,D*73
$GPGGA,124011.000,3353.7446,N,09832.0210,W,2,04,3.4,351.1,M,-23.7,M,2.8,0000*44
$GPGSA,A,3,29,05,26,15,,,,,,,,,7.1,3.4,6.2*39
$GPRMC,124011.000,A,3353.7446,N,09832.0210,W,0.19,265.21,030412,,,D*74
$GPGGA,124012.000,3353.7445,N,09832.0212,W,2,04,3.4,350.6,M,-23.7,M,0.8,0000*42
$GPGSA,A,3,29,05,26,15,,,,,,,,,7.1,3.4,6.2*39
$GPRMC,124012.000,A,3353.7445,N,09832.0212,W,0.19,286.75,030412,,,D*7A
$GPGGA,124013.000,3353.7445,N,09832.0214,W,2,04,3.4,350.0,M,-23.7,M,0.8,0000*43
$GPGSA,A,3,29,05,26,15,,,,,,,,,7.1,3.4,6.2*39
$GPRMC,124013.000,A,3353.7445,N,09832.0214,W,0.09,296.57,030412,,,D*7D
$GPGGA,124014.000,3353.7444,N,09832.0215,W,2,04,3.4,349.4,M,-23.7,M,0.8,0000*48
$GPGSA,A,3,29,05,26,15,,,,,,,,,7.1,3.4,6.2*39
$GPGSV,3,1,11,29,79,228,29,15,48,150,37,26,44,082,38,21,37,304,15*74
$GPGSV,3,2,11,18,35,245,15,05,28,047,30,25,13,212,,30,10,298,*7A
$GPGSV,3,3,11,02,08,097,31,16,02,323,,51,49,195,35*4A
$GPRMC,124014.000,A,3353.7444,N,09832.0215,W,0.10,306.63,030412,,,D*7D
$GPGGA,124015.000,3353.7444,N,09832.0217,W,2,04,3.4,348.7,M,-23.7,M,1.8,0000*48
$GPGSA,A,3,29,05,26,15,,,,,,,,,7.1,3.4,6.2*39
$GPRMC,124015.000,A,3353.7444,N,09832.0217,W,0.11,308.32,030412,,,D*75
$GPGGA,124016.000,3353.7444,N,09832.0218,W,2,04,3.4,348.0,M,-23.7,M,2.8,0000*40
$GPGSA,A,3,29,05,26,15,,,,,,,,,7.1,3.4,6.2*39
$GPRMC,124016.000,A,3353.7444,N,09832.0218,W,0.16,293.63,030412,,,D*79
$GPGGA,124017.000,3353.7443,N,09832.0220,W,2,04,3.4,347.4,M,-23.7,M,0.8,0000*44
$GPGSA,A,3,29,05,26,15,,,,,,,,,7.1,3.4,6.2*39
$GPRMC,124017.000,A,3353.7443,N,09832.0220,W,0.14,296.91,030412,,,D*7E
$GPGGA,124018.000,3353.7443,N,09832.0222,W,2,04,3.4,346.6,M,-23.7,M,0.8,0000*4A
$GPGSA,A,3,29,05,26,15,,,,,,,,,7.1,3.4,6.2*39
$GPRMC,124018.000,A,3353.7443,N,09832.0222,W,0.14,265.59,030412,,,D*7B
$GPGGA,124019.000,3353.7442,N,09832.0224,W,2,04,3.4,345.9,M,-23.7,M,0.8,0000*40
$GPGSA,A,3,29,05,26,15,,,,,,,,,7.1,3.4,6.2*39
$GPGSV,3,1,11,29,79,223,29,15,49,149,37,26,44,080,38,21,37,305,16*76
$GPGSV,3,2,11,18,35,245,14,05,27,047,31,25,12,212,,30,10,298,*74
$GPGSV,3,3,11,02,08,097,31,16,03,323,,51,49,195,36*48
$GPRMC,124019.000,A,3353.7442,N,09832.0224,W,0.23,265.31,030412,,,D*77
$GPGGA,124020.000,3353.7442,N,09832.0225,W,2,04,3.4,345.3,M,-23.7,M,0.8,0000*41
$GPGSA,A,3,29,05,26,15,,,,,,,,,7.1,3.4,6.2*39
$GPRMC,124020.000,A,3353.7442,N,09832.0225,W,0.26,254.89,030412,,,D*78
$GPGGA,124021.000,3353.7441,N,09832.0227,W,2,04,3.4,344.8,M,-23.7,M,1.8,0000*4A
$GPGSA,A,3,29,05,26,15,,,,,,,,,7.1,3.4,6.2*39
$GPRMC,124021.000,A,3353.7441,N,09832.0227,W,0.24,259.03,030412,,,D*75
$GPGGA,124022.000,3353.7440,N,09832.0229,W,2,04,3.4,344.2,M,-23.7,M,2.8,0000*4F
$GPGSA,A,3,29,05,26,15,,,,,,,,,7.1,3.4,6.2*39
$GPRMC,124022.000,A,3353.7440,N,09832.0229,W,0.32,255.51,030412,,,D*75
$GPGGA,124023.000,3353.7440,N,09832.0231,W,2,04,3.4,343.7,M,-23.7,M,3.8,0000*44
$GPGSA,A,3,29,05,26,15,,,,,,,,,7.1,3.4,6.2*39
$GPRMC,124023.000,A,3353.7440,N,09832.0231,W,0.30,257.48,030412,,,D*75
$GPGGA,124024.000,3353.7439,N,09832.0232,W,2,04,3.4,343.3,M,-23.7,M,0.8,0000*49
$GPGSA,A,3,29,05,26,15,,,,,,,,,7.1,3.4,6.2*39
$GPGSV,3,1,11,29,79,223,29,15,49,149,37,26,44,080,38,21,37,305,17*77
$GPGSV,3,2,11,18,35,245,16,05,27,047,30,25,12,212,,30,10,298,*77
$GPGSV,3,3,11,02,08,097,31,16,03,323,,51,49,195,37*49
$GPRMC,124024.000,A,3353.7439,N,09832.0232,W,0.32,270.65,030412,,,D*77
$GPGGA,124025.000,3353.7439,N,09832.0234,W,2,04,3.4,342.8,M,-23.7,M,0.8,0000*44
$GPGSA,A,3,29,05,26,15,,,,,,,,,7.1,3.4,6.2*39
$GPRMC,124025.000,A,3353.7439,N,09832.0234,W,0.25,272.47,030412,,,D*74
$GPGGA,124026.000,3353.7439,N,09832.0235,W,2,04,3.4,342.3,M,-23.7,M,0.8,0000*4D
$GPGSA,A,3,29,05,26,15,,,,,,,,,7.1,3.4,6.2*39
$GPRMC,124026.000,A,3353.7439,N,09832.0235,W,0.25,284.12,030412,,,D*7F
$GPGGA,124027.000,3353.7439,N,09832.0236,W,2,04,3.4,341.9,M,-23.7,M,1.8,0000*47
$GPGSA,A,3,29,05,26,15,,,,,,,,,7.1,3.4,6.2*39
$GPRMC,124027.000,A,3353.7439,N,09832.0236,W,0.24,283.74,030412,,,D*7B
$GPGGA,124028.000,3353.7439,N,09832.0237,W,2,04,3.4,341.5,M,-23.7,M,0.8,0000*44
$GPGSA,A,3,29,05,26,15,,,,,,,,,7.1,3.4,6.2*39
$GPRMC,124028.000,A,3353.7439,N,09832.0237,W,0.24,280.98,030412,,,D*74
$GPGGA,124029.000,3353.7439,N,09832.0238,W,2,04,3.4,341.1,M,-23.7,M,1.8,0000*4F
$GPGSA,A,3,29,05,26,15,,,,,,,,,7.1,3.4,6.2*39
$GPGSV,3,1,11,29,79,223,29,15,49,149,37,26,44,080,37,21,37,305,18*77
$GPGSV,3,2,11,18,35,245,21,05,27,047,30,25,12,212,,30,10,298,*73
$GPGSV,3,3,11,02,08,097,31,16,03,323,,51,49,195,39*47
$GPRMC,124029.000,A,3353.7439,N,09832.0238,W,0.25,287.31,030412,,,D*7F
$GPGGA,124030.000,3353.7438,N,09832.0239,W,2,04,3.4,340.7,M,-23.7,M,0.8,0000*41
$GPGSA,A,3,29,05,26,15,,,,,,,,,7.1,3.4,6.2*39
$GPRMC,124030.000,A,3353.7438,N,09832.0239,W,0.19,261.34,030412,,,D*75
$GPGGA,124031.000,3353.7438,N,09832.0240,W,2,04,3.4,340.4,M,-23.7,M,0.8,0000*4D
$GPGSA,A,3,29,05,26,15,,,,,,,,,7.1,3.4,6.2*39
$GPRMC,124031.000,A,3353.7438,N,09832.0240,W,0.27,265.06,030412,,,D*72
$GPGGA,124032.000,3353.7438,N,09832.0241,W,2,04,3.4,340.1,M,-23.7,M,0.8,0000*4A
$GPGSA,A,3,29,05,26,15,,,,,,,,,7.1,3.4,6.2*39
$GPRMC,124032.000,A,3353.7438,N,09832.0241,W,0.31,267.51,030412,,,D*77
$GPGGA,124033.000,3353.7437,N,09832.0242,W,2,04,3.4,340.0,M,-23.7,M,1.8,0000*47
$GPGSA,A,3,29,05,26,15,,,,,,,,,7.1,3.4,6.2*39
$GPRMC,124033.000,A,3353.7437,N,09832.0242,W,0.30,257.35,030412,,,D*7A
$GPGGA,124034.000,3353.7437,N,09832.0243,W,2,04,3.4,339.8,M,-23.7,M,2.8,0000*44
$GPGSA,A,3,29,05,26,15,,,,,,,,,7.1,3.4,6.2*39
$GPGSV,3,1,11,29,79,223,29,15,49,149,37,26,44,080,37,21,37,305,17*78
$GPGSV,3,2,11,18,35,245,22,05,27,047,30,25,12,212,,30,10,298,*70
$GPGSV,3,3,11,02,08,097,30,16,03,323,,51,49,195,36*49
$GPRMC,124034.000,A,3353.7437,N,09832.0243,W,0.30,263.68,030412,,,D*73
$GPGGA,124035.000,3353.7437,N,09832.0244,W,2,04,3.4,339.7,M,-23.7,M,3.8,0000*4C
$GPGSA,A,3,29,05,26,15,,,,,,,,,7.1,3.4,6.2*39
$GPRMC,124035.000,A,3353.7437,N,09832.0244,W,0.27,261.14,030412,,,D*7A
$GPGGA,124036.000,3353.7437,N,09832.0245,W,2,04,3.4,339.6,M,-23.7,M,0.8,0000*4C
$GPGSA,A,3,29,05,26,15,,,,,,,,,7.1,3.4,6.2*39
$GPRMC,124036.000,A,3353.7437,N,09832.0245,W,0.30,278.83,030412,,,D*78
$GPGGA,124037.000,3353.7437,N,09832.0245,W,2,04,3.4,339.6,M,-23.7,M,0.8,0000*4D
$GPGSA,A,3,29,05,26,15,,,,,,,,,7.1,3.4,6.2*39
$GPRMC,124037.000,A,3353.7437,N,09832.0245,W,0.17,279.01,030412,,,D*77
$GPGGA,124038.000,3353.7437,N,09832.0246,W,2,04,3.4,339.4,M,-23.7,M,0.8,0000*43
$GPGSA,A,3,29,05,26,15,,,,,,,,,7.1,3.4,6.2*39
$GPRMC,124038.000,A,3353.7437,N,09832.0246,W,0.19,294.03,030412,,,D*74
$GPGGA,124039.000,3353.7437,N,09832.0246,W,2,04,3.4,339.3,M,-23.7,M,1.8,0000*44
$GPGSA,A,3,29,05,26,15,,,,,,,,,7.1,3.4,6.2*39
$GPGSV,3,1,11,29,79,223,29,15,49,149,37,26,44,080,37,21,37,305,17*78
$GPGSV,3,2,11,18,35,245,22,05,27,047,29,25,12,212,,30,10,298,*78
$GPGSV,3,3,11,02,08,097,30,16,03,323,,51,49,195,36*49
$GPRMC,124039.000,A,3353.7437,N,09832.0246,W,0.15,302.41,030412,,,D*71
$GPGGA,124040.000,3353.7437,N,09832.0246,W,2,04,3.4,339.3,M,-23.7,M,2.8,0000*49
$GPGSA,A,3,29,05,26,15,,,,,,,,,7.1,3.4,6.2*39
$GPRMC,124040.000,A,3353.7437,N,09832.0246,W,0.16,306.42,030412,,,D*7B
$GPGGA,124041.000,3353.7437,N,09832.0246,W,2,04,3.4,339.2,M,-23.7,M,0.8,0000*4B
$GPGSA,A,3,29,05,26,15,,,,,,,,,7.1,3.4,6.2*39
$GPRMC,124041.000,A,3353.7437,N,09832.0246,W,0.16,295.47,030412,,,D*74
$GPGGA,124042.000,3353.7437,N,09832.0246,W,2,04,3.4,339.1,M,-23.7,M,0.8,0000*4B
$GPGSA,A,3,29,05,26,15,,,,,,,,,7.1,3.4,6.2*39
$GPRMC,124042.000,A,3353.7437,N,09832.0246,W,0.07,272.11,030412,,,D*7D
$GPGGA,124043.000,3353.7437,N,09832.0247,W,2,04,3.4,339.1,M,-23.7,M,0.8,0000*4B
$GPGSA,A,3,29,05,26,15,,,,,,,,,7.1,3.4,6.2*39
$GPRMC,124043.000,A,3353.7437,N,09832.0247,W,0.15,281.47,030412,,,D*71
$GPGGA,124044.000,3353.7434,N,09832.0242,W,2,04,3.4,341.4,M,-23.7,M,0.8,0000*40
$GPGSA,A,3,29,05,26,15,,,,,,,,,7.1,3.4,6.2*39
$GPGSV,3,1,11,29,79,223,29,15,49,149,37,26,44,080,37,21,37,305,16*79
$GPGSV,3,2,11,18,35,245,22,05,27,047,24,25,12,212,,30,10,298,*75
$GPGSV,3,3,11,02,08,097,30,16,03,323,,51,49,195,35*4A
$GPRMC,124044.000,A,3353.7434,N,09832.0242,W,0.33,201.69,030412,,,D*70
$GPGGA,124045.000,3353.7432,N,09832.0240,W,2,04,3.4,342.7,M,-23.7,M,0.8,0000*45
$GPGSA,A,3,29,05,26,15,,,,,,,,,7.1,3.4,6.2*39
$GPRMC,124045.000,A,3353.7432,N,09832.0240,W,0.40,190.70,030412,,,D*72
$GPGGA,124046.000,3353.7430,N,09832.0237,W,2,04,3.4,343.8,M,-23.7,M,1.8,0000*4B
$GPGSA,A,3,29,05,26,15,,,,,,,,,7.1,3.4,6.2*39
$GPRMC,124046.000,A,3353.7430,N,09832.0237,W,0.23,170.31,030412,,,D*7D
$GPGGA,124047.000,3353.7430,N,09832.0237,W,2,04,3.4,344.3,M,-23.7,M,2.8,0000*45
$GPGSA,A,3,29,05,26,15,,,,,,,,,7.1,3.4,6.2*39
$GPRMC,124047.000,A,3353.7430,N,09832.0237,W,0.13,153.60,030412,,,D*7A
$GPGGA,124048.000,3353.7433,N,09832.0229,W,2,05,2.0,347.2,M,-23.7,M,0.8,0000*42
$GPGSA,A,3,29,05,26,25,15,,,,,,,,2.7,2.0,1.8*35
$GPRMC,124048.000,A,3353.7433,N,09832.0229,W,0.14,313.28,030412,,,D*74
$GPGGA,124049.000,3353.7433,N,09832.0231,W,2,04,3.4,346.7,M,-23.7,M,0.8,0000*4A
$GPGSA,A,3,29,05,26,15,,,,,,,,,7.1,3.4,6.2*39
$GPGSV,3,1,11,29,79,222,30,15,49,149,37,26,44,080,37,21,38,305,15*7C
$GPGSV,3,2,11,18,36,245,22,05,27,047,29,25,12,212,15,30,10,297,*70
$GPGSV,3,3,11,02,07,098,31,16,03,322,,51,49,195,35*4A
$GPRMC,124049.000,A,3353.7433,N,09832.0231,W,0.24,273.48,030412,,,D*7E
$GPGGA,124050.000,3353.7432,N,09832.0233,W,2,04,3.4,346.5,M,-23.7,M,0.8,0000*43
$GPGSA,A,3,29,05,26,15,,,,,,,,,7.1,3.4,6.2*39
$GPRMC,124050.000,A,3353.7432,N,09832.0233,W,0.34,278.02,030412,,,D*71
$GPGGA,124051.000,3353.7433,N,09832.0228,W,2,05,2.0,348.6,M,-23.7,M,0.8,0000*40
$GPGSA,A,3,29,05,26,25,15,,,,,,,,2.7,2.0,1.8*35
$GPRMC,124051.000,A,3353.7433,N,09832.0228,W,0.31,287.26,030412,,,D*78
$GPGGA,124052.000,3353.7434,N,09832.0223,W,2,05,2.0,350.4,M,-23.7,M,1.8,0000*45
$GPGSA,A,3,29,05,26,25,15,,,,,,,,2.7,2.0,1.8*35
$GPRMC,124052.000,A,3353.7434,N,09832.0223,W,0.18,325.13,030412,,,D*73
$GPGGA,124053.000,3353.7435,N,09832.0219,W,2,05,2.0,352.1,M,-23.7,M,2.8,0000*48
$GPGSA,A,3,29,05,26,25,15,,,,,,,,2.7,2.0,1.8*35
$GPRMC,124053.000,A,3353.7435,N,09832.0219,W,0.26,294.03,030412,,,D*7D
$GPGGA,124054.000,3353.7435,N,09832.0218,W,2,04,3.4,352.3,M,-23.7,M,0.8,0000*4A
$GPGSA,A,3,29,05,26,15,,,,,,,,,7.1,3.4,6.2*39
$GPGSV,3,1,11,29,79,222,30,15,49,149,36,26,44,080,37,21,38,305,14*7C
$GPGSV,3,2,11,18,36,245,17,05,27,047,28,25,12,212,14,30,10,297,*76
$GPGSV,3,3,11,02,07,098,32,16,03,322,,51,49,195,35*49
$GPRMC,124054.000,A,3353.7435,N,09832.0218,W,0.15,55.97,030412,,,D*49
$GPGGA,124055.000,3353.7436,N,09832.0210,W,2,05,2.0,355.2,M,-23.7,M,0.8,0000*42
$GPGSA,A,3,29,05,26,25,15,,,,,,,,2.7,2.0,1.8*35
$GPRMC,124055.000,A,3353.7436,N,09832.0210,W,0.38,64.42,030412,,,D*46
$GPGGA,124056.000,3353.7436,N,09832.0208,W,2,04,3.4,355.9,M,-23.7,M,0.8,0000*47
$GPGSA,A,3,29,05,26,15,,,,,,,,,7.1,3.4,6.2*39
$GPRMC,124056.000,A,3353.7436,N,09832.0208,W,0.46,75.12,030412,,,D*40
$GPGGA,124057.000,3353.7437,N,09832.0199,W,2,05,2.0,359.3,M,-23.7,M,0.8,0000*4E
$GPGSA,A,3,29,05,26,25,15,,,,,,,,2.7,2.0,1.8*35
$GPRMC,124057.000,A,3353.7437,N,09832.0199,W,0.56,78.76,030412,,,D*45
$GPGGA,124058.000,3353.7436,N,09832.0197,W,2,04,3.4,359.9,M,-23.7,M,0.8,0000*40
$GPGSA,A,3,29,05,26,15,,,,,,,,,7.1,3.4,6.2*39
$GPRMC,124058.000,A,3353.7436,N,09832.0197,W,0.56,77.98,030412,,,D*4A
$GPGGA,124059.000,3353.7437,N,09832.0191,W,2,05,2.0,362.1,M,-23.7,M,1.8,0000*43
$GPGSA,A,3,29,05,26,25,15,,,,,,,,2.7,2.0,1.8*35
$GPGSV,3,1,11,29,79,222,31,15,49,149,36,26,44,080,37,21,38,305,14*7D
$GPGSV,3,2,11,18,36,245,16,05,27,047,27,25,12,212,13,30,10,297,*7F
$GPGSV,3,3,11,02,07,098,33,16,03,322,,51,49,195,35*48
$GPRMC,124059.000,A,3353.7437,N,09832.0191,W,0.63,76.47,030412,,,D*49
$GPGGA,124100.000,3353.7437,N,09832.0190,W,2,04,3.4,362.6,M,-23.7,M,0.8,0000*4D
$GPGSA,A,3,29,05,26,15,,,,,,,,,7.1,3.4,6.2*39
$GPRMC,124100.000,A,3353.7437,N,09832.0190,W,0.46,70.47,030412,,,D*44
$GPGGA,124101.000,3353.7436,N,09832.0189,W,2,04,3.4,363.1,M,-23.7,M,0.8,0000*43
$GPGSA,A,3,29,05,26,15,,,,,,,,,7.1,3.4,6.2*39
$GPRMC,124101.000,A,3353.7436,N,09832.0189,W,0.41,62.91,030412,,,D*43
$GPGGA,124102.000,3353.7436,N,09832.0188,W,2,04,3.4,363.6,M,-23.7,M,0.8,0000*46
$GPGSA,A,3,29,05,26,15,,,,,,,,,7.1,3.4,6.2*39
$GPRMC,124102.000,A,3353.7436,N,09832.0188,W,0.36,61.75,030412,,,D*48
$GPGGA,124103.000,3353.7436,N,09832.0187,W,2,04,3.4,364.1,M,-23.7,M,1.8,0000*49
$GPGSA,A,3,29,05,26,15,,,,,,,,,7.1,3.4,6.2*39
$GPRMC,124103.000,A,3353.7436,N,09832.0187,W,0.44,52.69,030412,,,D*4E
$GPGGA,124104.000,3353.7436,N,09832.0186,W,2,04,3.4,364.5,M,-23.7,M,2.8,0000*48
$GPGSA,A,3,29,05,26,15,,,,,,,,,7.1,3.4,6.2*39
$GPGSV,3,1,11,29,79,222,31,15,49,149,36,26,44,080,37,21,38,305,15*7C
$GPGSV,3,2,11,18,36,245,18,05,27,047,27,25,12,212,,30,10,297,*73
$GPGSV,3,3,11,02,07,098,33,16,03,322,,51,49,195,34*49
$GPRMC,124104.000,A,3353.7436,N,09832.0186,W,0.41,56.67,030412,,,D*47
$GPGGA,124105.000,3353.7436,N,09832.0185,W,2,04,3.4,365.0,M,-23.7,M,3.8,0000*4F
$GPGSA,A,3,29,05,26,15,,,,,,,,,7.1,3.4,6.2*39
$GPRMC,124105.000,A,3353.7436,N,09832.0185,W,0.41,59.75,030412,,,D*49
$GPGGA,124106.000,3353.7434,N,09832.0183,W,2,04,3.4,366.2,M,-23.7,M,0.8,0000*4A
$GPGSA,A,3,29,05,26,15,,,,,,,,,7.1,3.4,6.2*39
$GPRMC,124106.000,A,3353.7434,N,09832.0183,W,0.29,74.38,030412,,,D*46
$GPGGA,124107.000,3353.7431,N,09832.0180,W,2,04,3.4,367.5,M,-23.7,M,0.8,0000*4B
$GPGSA,A,3,29,05,26,15,,,,,,,,,7.1,3.4,6.2*39
$GPRMC,124107.000,A,3353.7431,N,09832.0180,W,0.41,94.87,030412,,,D*45
$GPGGA,124108.000,3353.7428,N,09832.0176,W,2,04,3.4,368.9,M,-23.7,M,0.8,0000*46
$GPGSA,A,3,29,05,26,15,,,,,,,,,7.1,3.4,6.2*39
$GPRMC,124108.000,A,3353.7428,N,09832.0176,W,0.46,94.28,030412,,,D*49
$GPGGA,124109.000,3353.7425,N,09832.0173,W,2,04,3.4,370.1,M,-23.7,M,1.8,0000*4F
$GPGSA,A,3,29,05,26,15,,,,,,,,,7.1,3.4,6.2*39
$GPGSV,3,1,11,29,79,222,31,15,49,149,35,26,44,080,36,21,38,305,16*7D
$GPGSV,3,2,11,18,36,245,19,05,27,047,26,25,12,212,,30,10,297,*73
$GPGSV,3,3,11,02,07,098,33,16,03,322,,51,49,195,35*48
$GPRMC,124109.000,A,3353.7425,N,09832.0173,W,0.48,96.19,030412,,,D*4E
$GPGGA,124110.000,3353.7423,N,09832.0170,W,2,04,3.4,371.3,M,-23.7,M,2.8,0000*42
$GPGSA,A,3,29,05,26,15,,,,,,,,,7.1,3.4,6.2*39
$GPRMC,124110.000,A,3353.7423,N,09832.0170,W,0.51,93.93,030412,,,D*4C
$GPGGA,124111.000,3353.7420,N,09832.0167,W,2,04,3.4,372.5,M,-23.7,M,3.8,0000*42
$GPGSA,A,3,29,05,26,15,,,,,,,,,7.1,3.4,6.2*39
$GPRMC,124111.000,A,3353.7420,N,09832.0167,W,0.53,93.71,030412,,,D*46
$GPGGA,124112.000,3353.7417,N,09832.0161,W,2,04,3.4,374.9,M,-23.7,M,0.8,0000*4A
$GPGSA,A,3,29,05,26,15,,,,,,,,,7.1,3.4,6.2*39
$GPRMC,124112.000,A,3353.7417,N,09832.0161,W,0.60,90.63,030412,,,D*47
$GPGGA,124113.000,3353.7414,N,09832.0156,W,2,04,3.4,377.0,M,-23.7,M,0.8,0000*46
$GPGSA,A,3,29,05,26,15,,,,,,,,,7.1,3.4,6.2*39
$GPRMC,124113.000,A,3353.7414,N,09832.0156,W,0.59,80.73,030412,,,D*4B
$GPGGA,124114.000,3353.7413,N,09832.0152,W,2,04,3.4,378.7,M,-23.7,M,0.8,0000*4A
$GPGSA,A,3,29,05,26,15,,,,,,,,,7.1,3.4,6.2*39
$GPGSV,3,1,11,29,79,221,31,15,49,149,36,26,44,080,36,21,38,305,16*7D
$GPGSV,3,2,11,18,36,246,20,05,27,047,23,25,12,212,,30,10,297,*7F
$GPGSV,3,3,11,02,07,098,32,16,03,322,,51,49,195,36*4A
$GPRMC,124114.000,A,3353.7413,N,09832.0152,W,0.65,62.97,030412,,,D*46
$GPGGA,124115.000,3353.7412,N,09832.0154,W,2,05,2.0,378.6,M,-23.7,M,1.8,0000*48
$GPGSA,A,3,29,05,26,25,15,,,,,,,,2.7,2.0,1.8*35
$GPRMC,124115.000,A,3353.7412,N,09832.0154,W,0.43,33.87,030412,,,D*41
$GPGGA,124116.000,3353.7409,N,09832.0160,W,2,05,2.0,376.7,M,-23.7,M,0.8,0000*48
$GPGSA,A,3,29,05,26,25,15,,,,,,,,2.7,2.0,1.8*35
$GPRMC,124116.000,A,3353.7409,N,09832.0160,W,0.27,70.90,030412,,,D*4C
$GPGGA,124117.000,3353.7408,N,09832.0158,W,2,05,2.0,377.5,M,-23.7,M,1.8,0000*41
$GPGSA,A,3,29,05,26,25,15,,,,,,,,2.7,2.0,1.8*35
$GPRMC,124117.000,A,3353.7408,N,09832.0158,W,0.28,140.32,030412,,,D*72
$GPGGA,124118.000,3353.7405,N,09832.0157,W,2,05,2.0,378.3,M,-23.7,M,0.8,0000*44
$GPGSA,A,3,29,05,26,25,15,,,,,,,,2.7,2.0,1.8*35
$GPRMC,124118.000,A,3353.7405,N,09832.0157,W,0.58,165.08,030412,,,D*76
$GPGGA,124119.000,3353.7402,N,09832.0156,W,2,05,2.0,378.7,M,-23.7,M,0.8,0000*47
$GPGSA,A,3,29,05,26,25,15,,,,,,,,2.7,2.0,1.8*35
$GPGSV,3,1,11,29,79,221,31,15,49,149,36,26,44,080,36,21,38,305,17*7C
$GPGSV,3,2,11,18,36,246,20,05,27,047,21,25,12,212,15,30,10,297,*79
$GPGSV,3,3,11,02,07,098,32,16,03,322,,51,49,195,35*49
$GPRMC,124119.000,A,3353.7402,N,09832.0156,W,0.80,143.39,030412,,,D*72
$GPGGA,124120.000,3353.7402,N,09832.0154,W,2,05,2.0,379.1,M,-23.7,M,0.8,0000*48
$GPGSA,A,3,29,05,26,25,15,,,,,,,,2.7,2.0,1.8*35
$GPRMC,124120.000,A,3353.7402,N,09832.0154,W,0.37,133.60,030412,,,D*7D
$GPGGA,124121.000,3353.7402,N,09832.0150,W,2,05,2.0,380.3,M,-23.7,M,1.8,0000*48
$GPGSA,A,3,29,05,26,25,15,,,,,,,,2.7,2.0,1.8*35
$GPRMC,124121.000,A,3353.7402,N,09832.0150,W,0.66,70.99,030412,,,D*4C
$GPGGA,124122.000,3353.7399,N,09832.0150,W,2,05,2.0,380.0,M,-23.7,M,2.8,0000*4E
$GPGSA,A,3,29,05,26,25,15,,,,,,,,2.7,2.0,1.8*35
$GPRMC,124122.000,A,3353.7399,N,09832.0150,W,0.44,117.91,030412,,,D*72
$GPGGA,124123.000,3353.7394,N,09832.0150,W,2,05,2.0,380.4,M,-23.7,M,3.8,0000*47
$GPGSA,A,3,29,05,26,25,15,,,,,,,,2.7,2.0,1.8*35
$GPRMC,124123.000,A,3353.7394,N,09832.0150,W,0.73,162.68,030412,,,D*7E
$GPGGA,124124.000,3353.7394,N,09832.0148,W,2,05,2.0,381.3,M,-23.7,M,0.8,0000*4C
$GPGSA,A,3,29,05,26,25,15,,,,,,,,2.7,2.0,1.8*35
$GPGSV,3,1,11,29,79,221,31,15,49,149,36,26,44,080,36,21,38,305,17*7C
$GPGSV,3,2,11,18,36,246,20,05,27,047,21,25,12,212,16,30,10,297,*7A
$GPGSV,3,3,11,02,07,098,32,16,03,322,,51,49,195,38*44
$GPRMC,124124.000,A,3353.7394,N,09832.0148,W,0.05,160.56,030412,,,D*7E
$GPGGA,124125.000,3353.7396,N,09832.0146,W,2,05,2.1,382.0,M,-23.7,M,0.8,0000*40
$GPGSA,A,3,29,05,26,25,15,,,,,,,,2.7,2.1,1.8*34
$GPRMC,124125.000,A,3353.7396,N,09832.0146,W,0.16,325.02,030412,,,D*73
$GPGGA,124126.000,3353.7396,N,09832.0148,W,2,05,2.1,381.8,M,-23.7,M,0.8,0000*46
$GPGSA,A,3,29,05,26,25,15,,,,,,,,2.7,2.1,1.8*34
$GPRMC,124126.000,A,3353.7396,N,09832.0148,W,0.22,356.13,030412,,,D*7D
