$GPGGA,022510.000,3353.7529,N,09832.0278,W,1,08,1.2,321.7,M,-23.7,M,18.8,0000*70
$GPGSA,A,3,23,01,11,07,13,08,19,03,,,,,2.1,1.2,1.7*32
$GPRMC,022510.000,A,3353.7529,N,09832.0278,W,0.04,321.41,310312,,,A*79
$GPGGA,022511.000,3353.7529,N,09832.0278,W,1,08,1.2,321.8,M,-23.7,M,18.8,0000*7E
$GPGSA,A,3,23,01,11,07,13,08,19,03,,,,,2.1,1.2,1.7*32
$GPGSV,3,1,12,07,72,034,30,19,49,059,41,08,45,323,33,13,43,184,39*7B
$GPGSV,3,2,12,28,31,268,,11,31,125,39,03,16,043,31,23,15,168,32*7B
$GPGSV,3,3,12,01,14,138,27,17,08,207,17,26,07,324,,06,05,040,*7D
$GPRMC,022511.000,A,3353.7529,N,09832.0278,W,0.01,5.78,310312,,,A*72
$GPGGA,022512.000,3353.7529,N,09832.0278,W,1,08,1.2,321.8,M,-23.7,M,18.8,0000*7D
$GPGSA,A,3,23,01,11,07,13,08,19,03,,,,,2.1,1.2,1.7*32
$GPRMC,022512.000,A,3353.7529,N,09832.0278,W,0.04,22.71,310312,,,A*48
$GPGGA,022513.000,3353.7529,N,09832.0278,W,1,08,1.2,321.9,M,-23.7,M,18.8,0000*7D
$GPGSA,A,3,23,01,11,07,13,08,19,03,,,,,2.1,1.2,1.7*32
$GPRMC,022513.000,A,3353.7529,N,09832.0278,W,0.01,350.90,310312,,,A*75
$GPGGA,022514.000,3353.7529,N,09832.0278,W,1,08,1.2,322.1,M,-23.7,M,18.8,0000*71
$GPGSA,A,3,23,01,11,07,13,08,19,03,,,,,2.1,1.2,1.7*32
$GPRMC,022514.000,A,3353.7529,N,09832.0278,W,0.03,37.88,310312,,,A*4B
$GPGGA,022515.000,3353.7526,N,09832.0276,W,2,08,1.2,322.6,M,-23.7,M,0.8,0000*4C
$GPGSA,A,3,23,01,11,07,13,08,19,03,,,,,2.1,1.2,1.7*32
$GPRMC,022515.000,A,3353.7526,N,09832.0276,W,0.03,68.82,310312,,,D*4E
$GPGGA,022516.000,3353.7526,N,09832.0276,W,2,08,1.2,322.6,M,-23.7,M,0.8,0000*4F
$GPGSA,A,3,23,01,11,07,13,08,19,03,,,,,2.1,1.2,1.7*32
$GPGSV,3,1,12,07,72,034,29,19,49,059,40,08,45,323,33,13,43,184,40*7C
$GPGSV,3,2,12,28,31,268,,11,31,125,39,03,16,043,31,23,15,168,32*7B
$GPGSV,3,3,12,01,14,138,28,17,08,207,16,26,07,324,,06,05,040,*73
$GPRMC,022516.000,A,3353.7526,N,09832.0276,W,0.03,359.52,310312,,,D*71
$GPGGA,022517.000,3353.7526,N,09832.0276,W,2,08,1.2,322.5,M,-23.7,M,0.8,0000*4D
$GPGSA,A,3,23,01,11,07,13,08,19,03,,,,,2.1,1.2,1.7*32
$GPRMC,022517.000,A,3353.7526,N,09832.0276,W,0.04,69.18,310312,,,D*49
$GPGGA,022518.000,3353.7526,N,09832.0276,W,2,08,1.2,322.5,M,-23.7,M,1.8,0000*43
$GPGSA,A,3,23,01,11,07,13,08,19,03,,,,,2.1,1.2,1.7*32
$GPRMC,022518.000,A,3353.7526,N,09832.0276,W,0.04,340.58,310312,,,D*7A
$GPGGA,022519.000,3353.7527,N,09832.0277,W,2,08,1.2,322.6,M,-23.7,M,2.8,0000*42
$GPGSA,A,3,23,01,11,07,13,08,19,03,,,,,2.1,1.2,1.7*32
$GPRMC,022519.000,A,3353.7527,N,09832.0277,W,0.02,18.06,310312,,,D*48
$GPGGA,022520.000,3353.7527,N,09832.0277,W,2,08,1.2,322.6,M,-23.7,M,3.8,0000*49
$GPGSA,A,3,23,01,11,07,13,08,19,03,,,,,2.1,1.2,1.7*32
$GPRMC,022520.000,A,3353.7527,N,09832.0277,W,0.03,349.52,310312,,,D*75
$GPGGA,022521.000,3353.7527,N,09832.0277,W,2,09,0.9,322.6,M,-23.7,M,0.8,0000*40
$GPGSA,A,3,23,01,11,07,13,08,19,03,28,,,,1.8,0.9,1.6*39
$GPGSV,3,1,12,07,72,034,29,19,49,059,40,08,45,323,33,13,43,184,40*7C
$GPGSV,3,2,12,28,31,268,19,11,31,125,39,03,16,043,31,23,15,168,32*73
$GPGSV,3,3,12,01,14,138,27,17,08,207,15,26,07,324,,06,05,040,*7F
$GPRMC,022521.000,A,3353.7527,N,09832.0277,W,0.10,280.88,310312,,,D*75
$GPGGA,022522.000,3353.7527,N,09832.0278,W,2,09,0.9,322.6,M,-23.7,M,0.8,0000*4C
$GPGSA,A,3,23,01,11,07,13,08,19,03,28,,,,1.8,0.9,1.6*39
$GPRMC,022522.000,A,3353.7527,N,09832.0278,W,0.07,273.70,310312,,,D*74
$GPGGA,022523.000,3353.7527,N,09832.0278,W,2,09,0.9,322.8,M,-23.7,M,0.8,0000*43
$GPGSA,A,3,23,01,11,07,13,08,19,03,28,,,,1.8,0.9,1.6*39
$GPRMC,022523.000,A,3353.7527,N,09832.0278,W,0.05,214.97,310312,,,D*7F
$GPGGA,022524.000,3353.7527,N,09832.0279,W,2,09,0.9,322.5,M,-23.7,M,1.8,0000*49
$GPGSA,A,3,23,01,11,07,13,08,19,03,28,,,,1.8,0.9,1.6*39
$GPRMC,022524.000,A,3353.7527,N,09832.0279,W,0.11,260.06,310312,,,D*77
$GPGGA,022525.000,3353.7527,N,09832.0280,W,2,09,0.9,322.3,M,-23.7,M,2.8,0000*4B
$GPGSA,A,3,23,01,11,07,13,08,19,03,28,,,,1.8,0.9,1.6*39
$GPRMC,022525.000,A,3353.7527,N,09832.0280,W,0.16,275.92,310312,,,D*7E
$GPGGA,022526.000,3353.7527,N,09832.0281,W,2,09,0.9,322.1,M,-23.7,M,3.8,0000*4A
$GPGSA,A,3,23,01,11,07,13,08,19,03,28,,,,1.8,0.9,1.6*39
$GPGSV,3,1,12,07,72,034,29,19,49,059,40,08,45,323,33,13,43,184,40*7C
$GPGSV,3,2,12,28,31,268,19,11,31,125,39,03,16,043,31,23,15,168,33*72
$GPGSV,3,3,12,01,14,138,27,17,08,207,13,26,07,324,,06,05,040,*79
$GPRMC,022526.000,A,3353.7527,N,09832.0281,W,0.20,277.88,310312,,,D*70
$GPGGA,022527.000,3353.7527,N,09832.0282,W,2,09,0.9,322.0,M,-23.7,M,0.8,0000*4A
$GPGSA,A,3,23,01,11,07,13,08,19,03,28,,,,1.8,0.9,1.6*39
$GPRMC,022527.000,A,3353.7527,N,09832.0282,W,0.06,228.19,310312,,,D*74
$GPGGA,022528.000,3353.7527,N,09832.0282,W,2,09,0.9,321.8,M,-23.7,M,0.8,0000*4E
$GPGSA,A,3,23,01,11,07,13,08,19,03,28,,,,1.8,0.9,1.6*39
$GPRMC,022528.000,A,3353.7527,N,09832.0282,W,0.06,171.95,310312,,,D*70
$GPGGA,022529.000,3353.7527,N,09832.0282,W,2,09,0.9,321.6,M,-23.7,M,0.8,0000*41
$GPGSA,A,3,23,01,11,07,13,08,19,03,28,,,,1.8,0.9,1.6*39
$GPRMC,022529.000,A,3353.7527,N,09832.0282,W,0.13,116.22,310312,,,D*78
$GPGGA,022530.000,3353.7527,N,09832.0282,W,2,09,0.9,321.4,M,-23.7,M,0.8,0000*4B
$GPGSA,A,3,23,01,11,07,13,08,19,03,28,,,,1.8,0.9,1.6*39
$GPRMC,022530.000,A,3353.7527,N,09832.0282,W,0.01,119.14,310312,,,D*79
$GPGGA,022531.000,3353.7527,N,09832.0282,W,2,09,0.9,321.1,M,-23.7,M,0.8,0000*4F
$GPGSA,A,3,23,01,11,07,13,08,19,03,28,,,,1.8,0.9,1.6*39
$GPGSV,3,1,12,07,72,034,29,19,49,059,40,08,45,323,33,13,43,184,41*7D
$GPGSV,3,2,12,28,31,268,19,11,31,125,38,03,16,043,30,23,15,168,33*72
$GPGSV,3,3,12,01,14,138,27,17,08,207,,26,07,324,,06,05,040,*7B
$GPRMC,022531.000,A,3353.7527,N,09832.0282,W,0.05,284.05,310312,,,D*7B
$GPGGA,022532.000,3353.7528,N,09832.0283,W,2,09,0.9,320.9,M,-23.7,M,1.8,0000*4A
$GPGSA,A,3,23,01,11,07,13,08,19,03,28,,,,1.8,0.9,1.6*39
$GPRMC,022532.000,A,3353.7528,N,09832.0283,W,0.11,291.43,310312,,,D*75
$GPGGA,022533.000,3353.7528,N,09832.0282,W,2,09,0.9,320.8,M,-23.7,M,0.8,0000*4A
$GPGSA,A,3,23,01,11,07,13,08,19,03,28,,,,1.8,0.9,1.6*39
$GPRMC,022533.000,A,3353.7528,N,09832.0282,W,0.13,106.00,310312,,,D*7D
$GPGGA,022534.000,3353.7528,N,09832.0282,W,2,09,0.9,320.8,M,-23.7,M,0.8,0000*4D
$GPGSA,A,3,23,01,11,07,13,08,19,03,28,,,,1.8,0.9,1.6*39
$GPRMC,022534.000,A,3353.7528,N,09832.0282,W,0.02,23.81,310312,,,D*45
$GPGGA,022535.000,3353.7528,N,09832.0283,W,2,09,0.9,320.7,M,-23.7,M,0.8,0000*42
$GPGSA,A,3,23,01,11,07,13,08,19,03,28,,,,1.8,0.9,1.6*39
$GPRMC,022535.000,A,3353.7528,N,09832.0283,W,0.10,278.19,310312,,,D*7B
$GPGGA,022536.000,3353.7528,N,09832.0283,W,2,09,0.9,320.6,M,-23.7,M,1.8,0000*41
$GPGSA,A,3,23,01,11,07,13,08,19,03,28,,,,1.8,0.9,1.6*39
$GPGSV,3,1,12,07,72,034,29,19,49,059,39,08,45,323,33,13,43,184,41*73
$GPGSV,3,2,12,28,31,268,20,11,31,125,38,03,16,043,30,23,15,168,33*78
$GPGSV,3,3,12,01,14,138,26,17,08,207,,26,07,324,,06,05,040,*7A
$GPRMC,022536.000,A,3353.7528,N,09832.0283,W,0.10,277.16,310312,,,D*78
$GPGGA,022537.000,3353.7528,N,09832.0283,W,2,09,0.9,320.6,M,-23.7,M,2.8,0000*43
$GPGSA,A,3,23,01,11,07,13,08,19,03,28,,,,1.8,0.9,1.6*39
$GPRMC,022537.000,A,3353.7528,N,09832.0283,W,0.15,123.62,310312,,,D*7D
$GPGGA,022538.000,3353.7528,N,09832.0283,W,2,09,0.9,320.6,M,-23.7,M,0.8,0000*4E
$GPGSA,A,3,23,01,11,07,13,08,19,03,28,,,,1.8,0.9,1.6*39
$GPRMC,022538.000,A,3353.7528,N,09832.0283,W,0.06,280.05,310312,,,D*7B
$GPGGA,022539.000,3353.7528,N,09832.0283,W,2,09,0.9,320.6,M,-23.7,M,0.8,0000*4F
$GPGSA,A,3,23,01,11,07,13,08,19,03,28,,,,1.8,0.9,1.6*39
$GPRMC,022539.000,A,3353.7528,N,09832.0283,W,0.07,195.76,310312,,,D*78
$GPGGA,022540.000,3353.7528,N,09832.0283,W,2,09,0.9,320.6,M,-23.7,M,0.8,0000*41
$GPGSA,A,3,23,01,11,07,13,08,19,03,28,,,,1.8,0.9,1.6*39
$GPRMC,022540.000,A,3353.7528,N,09832.0283,W,0.07,166.95,310312,,,D*77
$GPGGA,022541.000,3353.7528,N,09832.0284,W,2,09,0.9,320.5,M,-23.7,M,0.8,0000*44
$GPGSA,A,3,23,01,11,07,13,08,19,03,28,,,,1.8,0.9,1.6*39
$GPGSV,3,1,12,07,72,034,29,19,49,059,39,08,45,323,32,13,43,184,41*72
$GPGSV,3,2,12,28,31,268,21,11,31,125,38,03,16,043,29,23,15,168,33*71
$GPGSV,3,3,12,01,14,138,17,17,08,207,,26,07,324,,06,05,040,*78
$GPRMC,022541.000,A,3353.7528,N,09832.0284,W,0.15,268.39,310312,,,D*79
$GPGGA,022542.000,3353.7528,N,09832.0284,W,2,09,0.9,320.3,M,-23.7,M,1.8,0000*40
$GPGSA,A,3,23,01,11,07,13,08,19,03,28,,,,1.8,0.9,1.6*39
$GPRMC,022542.000,A,3353.7528,N,09832.0284,W,0.19,276.34,310312,,,D*74
$GPGGA,022543.000,3353.7528,N,09832.0284,W,2,09,0.9,320.5,M,-23.7,M,2.8,0000*44
$GPGSA,A,3,23,01,11,07,13,08,19,03,28,,,,1.8,0.9,1.6*39
$GPRMC,022543.000,A,3353.7528,N,09832.0284,W,0.17,129.87,310312,,,D*7A
$GPGGA,022544.000,3353.7527,N,09832.0283,W,2,09,0.9,320.6,M,-23.7,M,0.8,0000*4A
$GPGSA,A,3,23,01,11,07,13,08,19,03,28,,,,1.8,0.9,1.6*39
$GPRMC,022544.000,A,3353.7527,N,09832.0283,W,0.29,124.05,310312,,,D*7F
$GPGGA,022545.000,3353.7527,N,09832.0282,W,2,09,0.9,320.7,M,-23.7,M,0.8,0000*4B
$GPGSA,A,3,23,01,11,07,13,08,19,03,28,,,,1.8,0.9,1.6*39
$GPRMC,022545.000,A,3353.7527,N,09832.0282,W,0.34,117.20,310312,,,D*74
$GPGGA,022546.000,3353.7527,N,09832.0282,W,2,09,0.9,320.7,M,-23.7,M,0.8,0000*48
$GPGSA,A,3,23,01,11,07,13,08,19,03,28,,,,1.8,0.9,1.6*39
$GPGSV,3,1,12,07,72,034,28,19,49,059,39,08,45,323,33,13,43,184,42*71
$GPGSV,3,2,12,28,31,268,22,11,31,125,38,03,16,043,29,23,15,168,32*73
$GPGSV,3,3,12,01,14,138,15,17,08,207,,26,07,324,,06,05,040,*7A
$GPRMC,022546.000,A,3353.7527,N,09832.0282,W,0.11,115.48,310312,,,D*7C
$GPGGA,022547.000,3353.7527,N,09832.0281,W,2,09,0.9,320.9,M,-23.7,M,0.8,0000*44
$GPGSA,A,3,23,01,11,07,13,08,19,03,28,,,,1.8,0.9,1.6*39
$GPRMC,022547.000,A,3353.7527,N,09832.0281,W,0.23,113.44,310312,,,D*75
$GPGGA,022548.000,3353.7527,N,09832.0281,W,2,09,0.9,320.9,M,-23.7,M,1.8,0000*4A
$GPGSA,A,3,23,01,11,07,13,08,19,03,28,,,,1.8,0.9,1.6*39
$GPRMC,022548.000,A,3353.7527,N,09832.0281,W,0.04,109.51,310312,,,D*70
$GPGGA,022549.000,3353.7527,N,09832.0281,W,2,09,0.9,321.0,M,-23.7,M,2.8,0000*40
$GPGSA,A,3,23,01,11,07,13,08,19,03,28,,,,1.8,0.9,1.6*39
$GPRMC,022549.000,A,3353.7527,N,09832.0281,W,0.05,309.74,310312,,,D*75
$GPGGA,022550.000,3353.7527,N,09832.0281,W,2,09,0.9,321.2,M,-23.7,M,0.8,0000*48
$GPGSA,A,3,23,01,11,07,13,08,19,03,28,,,,1.8,0.9,1.6*39
$GPRMC,022550.000,A,3353.7527,N,09832.0281,W,0.04,95.80,310312,,,D*41
$GPGGA,022551.000,3353.7527,N,09832.0281,W,2,09,0.9,321.4,M,-23.7,M,0.8,0000*4F
$GPGSA,A,3,23,01,11,07,13,08,19,03,28,,,,1.8,0.9,1.6*39
$GPGSV,3,1,12,07,72,034,27,19,49,059,39,08,45,323,33,13,43,184,42*7E
$GPGSV,3,2,12,28,31,268,21,11,31,125,38,03,16,043,29,23,15,168,32*70
$GPGSV,3,3,12,01,14,138,16,17,08,207,,26,07,324,,06,05,040,*79
$GPRMC,022551.000,A,3353.7527,N,09832.0281,W,0.09,135.23,310312,,,D*7F
$GPGGA,022552.000,3353.7527,N,09832.0281,W,2,09,0.9,321.7,M,-23.7,M,0.8,0000*4F
$GPGSA,A,3,23,01,11,07,13,08,19,03,28,,,,1.8,0.9,1.6*39
$GPRMC,022552.000,A,3353.7527,N,09832.0281,W,0.12,132.55,310312,,,D*70
$GPGGA,022553.000,3353.7527,N,09832.0280,W,2,09,0.9,321.9,M,-23.7,M,0.8,0000*41
$GPGSA,A,3,23,01,11,07,13,08,19,03,28,,,,1.8,0.9,1.6*39
$GPRMC,022553.000,A,3353.7527,N,09832.0280,W,0.20,129.44,310312,,,D*7B
$GPGGA,022554.000,3353.7527,N,09832.0279,W,2,09,0.9,322.1,M,-23.7,M,0.8,0000*4B
$GPGSA,A,3,23,01,11,07,13,08,19,03,28,,,,1.8,0.9,1.6*39
$GPRMC,022554.000,A,3353.7527,N,09832.0279,W,0.37,121.72,310312,,,D*71
$GPGGA,022555.000,3353.7526,N,09832.0279,W,2,09,0.9,322.3,M,-23.7,M,1.8,0000*48
$GPGSA,A,3,23,01,11,07,13,08,19,03,28,,,,1.8,0.9,1.6*39
$GPRMC,022555.000,A,3353.7526,N,09832.0279,W,0.10,150.89,310312,,,D*76
$GPGGA,022556.000,3353.7526,N,09832.0279,W,2,09,0.9,322.3,M,-23.7,M,2.8,0000*48
$GPGSA,A,3,23,01,11,07,13,08,19,03,28,,,,1.8,0.9,1.6*39
$GPGSV,3,1,12,07,73,039,27,19,48,057,38,08,46,324,34,13,42,184,42*7E
$GPGSV,3,2,12,28,32,269,21,11,32,124,38,03,15,043,28,01,14,137,18*71
$GPGSV,3,3,12,23,14,168,31,17,09,208,,26,08,323,,06,04,040,*7E
$GPRMC,022556.000,A,3353.7526,N,09832.0279,W,0.06,156.87,310312,,,D*7A
$GPGGA,022557.000,3353.7526,N,09832.0279,W,2,09,0.9,322.5,M,-23.7,M,0.8,0000*4D
$GPGSA,A,3,23,01,11,07,13,08,19,03,28,,,,1.8,0.9,1.6*39
$GPRMC,022557.000,A,3353.7526,N,09832.0279,W,0.12,282.70,310312,,,D*7C
$GPGGA,022558.000,3353.7526,N,09832.0279,W,2,09,0.9,322.7,M,-23.7,M,0.8,0000*40
$GPGSA,A,3,23,01,11,07,13,08,19,03,28,,,,1.8,0.9,1.6*39
$GPRMC,022558.000,A,3353.7526,N,09832.0279,W,0.19,118.37,310312,,,D*7B
$GPGGA,022559.000,3353.7526,N,09832.0278,W,2,09,0.9,323.0,M,-23.7,M,0.8,0000*46
$GPGSA,A,3,23,01,11,07,13,08,19,03,28,,,,1.8,0.9,1.6*39
$GPRMC,022559.000,A,3353.7526,N,09832.0278,W,0.06,304.62,310312,,,D*7A
$GPGGA,022600.000,3353.7527,N,09832.0278,W,2,09,0.9,323.3,M,-23.7,M,1.8,0000*4A
$GPGSA,A,3,23,01,11,07,13,08,19,03,28,,,,1.8,0.9,1.6*39
$GPRMC,022600.000,A,3353.7527,N,09832.0278,W,0.09,294.42,310312,,,D*71
$GPGGA,022601.000,3353.7527,N,09832.0278,W,2,09,0.9,323.6,M,-23.7,M,2.8,0000*4D
$GPGSA,A,3,23,01,11,07,13,08,19,03,28,,,,1.8,0.9,1.6*39
$GPGSV,3,1,12,07,73,039,26,19,48,057,38,08,46,324,34,13,42,184,42*7F
$GPGSV,3,2,12,28,32,269,20,11,32,124,38,03,15,043,28,01,14,137,20*7B
$GPGSV,3,3,12,23,14,168,30,17,09,208,,26,08,323,,06,04,040,*7F
$GPRMC,022601.000,A,3353.7527,N,09832.0278,W,0.14,107.94,310312,,,D*7E
$GPGGA,022602.000,3353.7527,N,09832.0278,W,2,09,0.9,324.0,M,-23.7,M,3.8,0000*4E
$GPGSA,A,3,23,01,11,07,13,08,19,03,28,,,,1.8,0.9,1.6*39
$GPRMC,022602.000,A,3353.7527,N,09832.0278,W,0.12,119.17,310312,,,D*7F
$GPGGA,022603.000,3353.7527,N,09832.0278,W,2,09,0.9,324.1,M,-23.7,M,0.8,0000*4D
$GPGSA,A,3,23,01,11,07,13,08,19,03,28,,,,1.8,0.9,1.6*39
$GPRMC,022603.000,A,3353.7527,N,09832.0278,W,0.13,278.52,310312,,,D*7A
$GPGGA,022604.000,3353.7527,N,09832.0278,W,2,09,0.9,324.4,M,-23.7,M,0.8,0000*4F
$GPGSA,A,3,23,01,11,07,13,08,19,03,28,,,,1.8,0.9,1.6*39
$GPRMC,022604.000,A,3353.7527,N,09832.0278,W,0.08,157.54,310312,,,D*7F
$GPGGA,022605.000,3353.7527,N,09832.0278,W,2,09,0.9,324.6,M,-23.7,M,0.8,0000*4C
$GPGSA,A,3,23,01,11,07,13,08,19,03,28,,,,1.8,0.9,1.6*39
$GPRMC,022605.000,A,3353.7527,N,09832.0278,W,0.07,174.24,310312,,,D*77
$GPGGA,022606.000,3353.7526,N,09832.0277,W,2,09,0.9,325.0,M,-23.7,M,1.8,0000*47
$GPGSA,A,3,23,01,11,07,13,08,19,03,28,,,,1.8,0.9,1.6*39
$GPGSV,3,1,12,07,73,039,25,19,48,057,38,08,46,324,35,13,42,184,42*7D
$GPGSV,3,2,12,28,32,269,20,11,32,124,38,03,15,043,27,01,14,137,22*76
$GPGSV,3,3,12,23,14,168,30,17,09,208,,26,08,323,,06,04,040,*7F
$GPRMC,022606.000,A,3353.7526,N,09832.0277,W,0.16,138.15,310312,,,D*70
$GPGGA,022607.000,3353.7526,N,09832.0277,W,2,09,0.9,325.1,M,-23.7,M,2.8,0000*44
$GPGSA,A,3,23,01,11,07,13,08,19,03,28,,,,1.8,0.9,1.6*39
$GPRMC,022607.000,A,3353.7526,N,09832.0277,W,0.08,197.94,310312,,,D*72
$GPGGA,022608.000,3353.7526,N,09832.0277,W,2,09,0.9,325.3,M,-23.7,M,3.8,0000*48
$GPGSA,A,3,23,01,11,07,13,08,19,03,28,,,,1.8,0.9,1.6*39
$GPRMC,022608.000,A,3353.7526,N,09832.0277,W,0.14,142.73,310312,,,D*71
$GPGGA,022609.000,3353.7526,N,09832.0276,W,2,09,0.9,325.7,M,-23.7,M,0.8,0000*4F
$GPGSA,A,3,23,01,11,07,13,08,19,03,28,,,,1.8,0.9,1.6*39
$GPRMC,022609.000,A,3353.7526,N,09832.0276,W,0.18,128.48,310312,,,D*79
$GPGGA,022610.000,3353.7525,N,09832.0276,W,2,09,0.9,325.8,M,-23.7,M,0.8,0000*4B
$GPGSA,A,3,23,01,11,07,13,08,19,03,28,,,,1.8,0.9,1.6*39
$GPRMC,022610.000,A,3353.7525,N,09832.0276,W,0.11,134.91,310312,,,D*72
$GPGGA,022611.000,3353.7525,N,09832.0275,W,2,09,0.9,326.3,M,-23.7,M,0.8,0000*41
$GPGSA,A,3,23,01,11,07,13,08,19,03,28,,,,1.8,0.9,1.6*39
$GPGSV,3,1,12,07,73,039,24,19,48,057,38,08,46,324,35,13,42,184,42*7C
$GPGSV,3,2,12,28,32,269,20,11,32,124,38,03,15,043,27,01,14,137,22*76
$GPGSV,3,3,12,23,14,168,29,17,09,208,,26,08,323,,06,04,040,*77
$GPRMC,022611.000,A,3353.7525,N,09832.0275,W,0.09,107.67,310312,,,D*70
$GPGGA,022612.000,3353.7525,N,09832.0275,W,2,09,0.9,326.6,M,-23.7,M,1.8,0000*46
$GPGSA,A,3,23,01,11,07,13,08,19,03,28,,,,1.8,0.9,1.6*39
$GPRMC,022612.000,A,3353.7525,N,09832.0275,W,0.07,256.09,310312,,,D*72
$GPGGA,022613.000,3353.7525,N,09832.0275,W,2,09,0.9,326.7,M,-23.7,M,2.8,0000*45
$GPGSA,A,3,23,01,11,07,13,08,19,03,28,,,,1.8,0.9,1.6*39
$GPRMC,022613.000,A,3353.7525,N,09832.0275,W,0.03,235.21,310312,,,D*78
$GPGGA,022614.000,3353.7525,N,09832.0274,W,2,09,0.9,327.1,M,-23.7,M,3.8,0000*45
$GPGSA,A,3,23,01,11,07,13,08,19,03,28,,,,1.8,0.9,1.6*39
$GPRMC,022614.000,A,3353.7525,N,09832.0274,W,0.15,115.75,310312,,,D*79
$GPGGA,022615.000,3353.7525,N,09832.0274,W,2,09,0.9,327.5,M,-23.7,M,0.8,0000*43
$GPGSA,A,3,23,01,11,07,13,08,19,03,28,,,,1.8,0.9,1.6*39
$GPRMC,022615.000,A,3353.7525,N,09832.0274,W,0.07,240.98,310312,,,D*7B
$GPGGA,022616.000,3353.7525,N,09832.0274,W,2,09,0.9,327.8,M,-23.7,M,0.8,0000*4D
$GPGSA,A,3,23,01,11,07,13,08,19,03,28,,,,1.8,0.9,1.6*39
$GPGSV,3,1,12,07,73,039,24,19,48,057,38,08,46,324,35,13,42,184,42*7C
$GPGSV,3,2,12,28,32,269,21,11,32,124,38,03,15,043,27,01,14,137,22*77
$GPGSV,3,3,12,23,14,168,30,17,09,208,,26,08,323,,06,04,040,*7F
$GPRMC,022616.000,A,3353.7525,N,09832.0274,W,0.07,184.79,310312,,,D*7C
$GPGGA,022617.000,3353.7525,N,09832.0274,W,2,09,0.9,328.0,M,-23.7,M,0.8,0000*4B
$GPGSA,A,3,23,01,11,07,13,08,19,03,28,,,,1.8,0.9,1.6*39
$GPRMC,022617.000,A,3353.7525,N,09832.0274,W,0.14,158.31,310312,,,D*72
$GPGGA,022618.000,3353.7524,N,09832.0274,W,2,09,0.9,328.2,M,-23.7,M,0.8,0000*47
$GPGSA,A,3,23,01,11,07,13,08,19,03,28,,,,1.8,0.9,1.6*39
$GPRMC,022618.000,A,3353.7524,N,09832.0274,W,0.12,207.06,310312,,,D*77
$GPGGA,022619.000,3353.7524,N,09832.0274,W,2,09,0.9,328.3,M,-23.7,M,0.8,0000*47
$GPGSA,A,3,23,01,11,07,13,08,19,03,28,,,,1.8,0.9,1.6*39
$GPRMC,022619.000,A,3353.7524,N,09832.0274,W,0.15,158.67,310312,,,D*7F
$GPGGA,022620.000,3353.7524,N,09832.0274,W,2,09,0.9,328.5,M,-23.7,M,1.8,0000*4A
$GPGSA,A,3,23,01,11,07,13,08,19,03,28,,,,1.8,0.9,1.6*39
$GPRMC,022620.000,A,3353.7524,N,09832.0274,W,0.11,187.28,310312,,,D*78
$GPGGA,022621.000,3353.7524,N,09832.0274,W,2,09,0.9,329.0,M,-23.7,M,0.8,0000*4E
$GPGSA,A,3,23,01,11,07,13,08,19,03,28,,,,1.8,0.9,1.6*39
$GPGSV,3,1,12,07,73,039,24,19,48,057,38,08,46,324,35,13,42,184,42*7C
$GPGSV,3,2,12,28,32,269,22,11,32,124,38,03,15,043,27,01,14,137,22*74
$GPGSV,3,3,12,23,14,168,30,17,09,208,,26,08,323,,06,04,040,*7F
$GPRMC,022621.000,A,3353.7524,N,09832.0274,W,0.12,122.28,310312,,,D*75
$GPGGA,022622.000,3353.7523,N,09832.0273,W,2,09,0.9,329.5,M,-23.7,M,0.8,0000*48
$GPGSA,A,3,23,01,11,07,13,08,19,03,28,,,,1.8,0.9,1.6*39
$GPRMC,022622.000,A,3353.7523,N,09832.0273,W,0.10,132.25,310312,,,D*78
$GPGGA,022623.000,3353.7523,N,09832.0272,W,2,09,0.9,329.9,M,-23.7,M,0.8,0000*44
$GPGSA,A,3,23,01,11,07,13,08,19,03,28,,,,1.8,0.9,1.6*39
$GPRMC,022623.000,A,3353.7523,N,09832.0272,W,0.22,105.25,310312,,,D*7D
$GPGGA,022624.000,3353.7523,N,09832.0272,W,2,09,0.9,330.1,M,-23.7,M,1.8,0000*42
$GPGSA,A,3,23,01,11,07,13,08,19,03,28,,,,1.8,0.9,1.6*39
$GPRMC,022624.000,A,3353.7523,N,09832.0272,W,0.12,110.52,310312,,,D*7D
$GPGGA,022625.000,3353.7523,N,09832.0271,W,2,09,0.9,330.4,M,-23.7,M,2.8,0000*46
$GPGSA,A,3,23,01,11,07,13,08,19,03,28,,,,1.8,0.9,1.6*39
$GPRMC,022625.000,A,3353.7523,N,09832.0271,W,0.13,110.40,310312,,,D*7D
$GPGGA,022626.000,3353.7523,N,09832.0271,W,2,09,0.9,330.7,M,-23.7,M,0.8,0000*44
$GPGSA,A,3,23,01,11,07,13,08,19,03,28,,,,1.8,0.9,1.6*39
$GPGSV,3,1,12,07,73,039,24,19,48,057,38,08,46,324,35,13,42,184,42*7C
$GPGSV,3,2,12,28,32,269,23,11,32,124,38,03,15,043,27,01,14,137,22*75
$GPGSV,3,3,12,23,14,168,31,17,09,208,,26,08,323,,06,04,040,*7E
$GPRMC,022626.000,A,3353.7523,N,09832.0271,W,0.19,103.09,310312,,,D*7B
$GPGGA,022627.000,3353.7523,N,09832.0270,W,2,09,0.9,330.9,M,-23.7,M,1.8,0000*4B
$GPGSA,A,3,23,01,11,07,13,08,19,03,28,,,,1.8,0.9,1.6*39
$GPRMC,022627.000,A,3353.7523,N,09832.0270,W,0.31,106.63,310312,,,D*78
$GPGGA,022628.000,3353.7523,N,09832.0269,W,2,09,0.9,330.9,M,-23.7,M,0.8,0000*4D
$GPGSA,A,3,23,01,11,07,13,08,19,03,28,,,,1.8,0.9,1.6*39
$GPRMC,022628.000,A,3353.7523,N,09832.0269,W,0.13,116.92,310312,,,D*70
$GPGGA,022629.000,3353.7523,N,09832.0269,W,2,09,0.9,331.2,M,-23.7,M,0.8,0000*46
$GPGSA,A,3,23,01,11,07,13,08,19,03,28,,,,1.8,0.9,1.6*39
$GPRMC,022629.000,A,3353.7523,N,09832.0269,W,0.18,109.18,310312,,,D*76
$GPGGA,022630.000,3353.7523,N,09832.0268,W,2,09,0.9,331.6,M,-23.7,M,1.8,0000*4A
$GPGSA,A,3,23,01,11,07,13,08,19,03,28,,,,1.8,0.9,1.6*39
$GPRMC,022630.000,A,3353.7523,N,09832.0268,W,0.20,109.88,310312,,,D*7D
$GPGGA,022631.000,3353.7523,N,09832.0268,W,2,09,0.9,331.6,M,-23.7,M,2.8,0000*48
$GPGSA,A,3,23,01,11,07,13,08,19,03,28,,,,1.8,0.9,1.6*39
$GPGSV,3,1,12,07,73,039,24,19,48,057,38,08,46,324,35,13,42,184,42*7C
$GPGSV,3,2,12,28,32,269,23,11,32,124,38,03,15,043,26,01,14,137,23*75
$GPGSV,3,3,12,23,14,168,31,17,09,208,,26,08,323,,06,04,040,*7E
$GPRMC,022631.000,A,3353.7523,N,09832.0268,W,0.12,123.03,310312,,,D*76
$GPGGA,022632.000,3353.7523,N,09832.0268,W,2,09,0.9,331.9,M,-23.7,M,3.8,0000*45
$GPGSA,A,3,23,01,11,07,13,08,19,03,28,,,,1.8,0.9,1.6*39
$GPRMC,022632.000,A,3353.7523,N,09832.0268,W,0.06,157.11,310312,,,D*70
$GPGGA,022633.000,3353.7523,N,09832.0268,W,2,09,0.9,332.0,M,-23.7,M,0.8,0000*4D
$GPGSA,A,3,23,01,11,07,13,08,19,03,28,,,,1.8,0.9,1.6*39
$GPRMC,022633.000,A,3353.7523,N,09832.0268,W,0.15,258.00,310312,,,D*7F
$GPGGA,022634.000,3353.7523,N,09832.0268,W,2,09,0.9,332.2,M,-23.7,M,0.8,0000*48
$GPGSA,A,3,23,01,11,07,13,08,19,03,28,,,,1.8,0.9,1.6*39
$GPRMC,022634.000,A,3353.7523,N,09832.0268,W,0.13,146.09,310312,,,D*7B
$GPGGA,022635.000,3353.7523,N,09832.0269,W,2,09,0.9,332.5,M,-23.7,M,0.8,0000*4F
$GPGSA,A,3,23,01,11,07,13,08,19,03,28,,,,1.8,0.9,1.6*39
$GPRMC,022635.000,A,3353.7523,N,09832.0269,W,0.08,222.93,310312,,,D*73
$GPGGA,022636.000,3353.7522,N,09832.0268,W,2,09,0.9,332.7,M,-23.7,M,0.8,0000*4E
$GPGSA,A,3,23,01,11,07,13,08,19,03,28,,,,1.8,0.9,1.6*39
$GPGSV,3,1,12,07,73,039,25,19,48,057,38,08,46,324,36,13,42,184,42*7E
$GPGSV,3,2,12,28,32,269,24,11,32,124,38,03,15,043,26,01,14,137,23*72
$GPGSV,3,3,12,23,14,168,32,17,09,208,16,26,08,323,,06,04,040,*7A
$GPRMC,022636.000,A,3353.7522,N,09832.0268,W,0.26,119.99,310312,,,D*7D
$GPGGA,022637.000,3353.7522,N,09832.0268,W,2,09,0.9,332.8,M,-23.7,M,0.8,0000*40
$GPGSA,A,3,23,01,11,07,13,08,19,03,28,,,,1.8,0.9,1.6*39
$GPRMC,022637.000,A,3353.7522,N,09832.0268,W,0.11,138.23,310312,,,D*7A
$GPGGA,022638.000,3353.7522,N,09832.0268,W,2,09,0.9,332.9,M,-23.7,M,1.8,0000*4F
$GPGSA,A,3,23,01,11,07,13,08,19,03,28,,,,1.8,0.9,1.6*39
$GPRMC,022638.000,A,3353.7522,N,09832.0268,W,0.08,219.15,310312,,,D*78
$GPGGA,022639.000,3353.7522,N,09832.0268,W,2,09,0.9,333.0,M,-23.7,M,0.8,0000*47
$GPGSA,A,3,23,01,11,07,13,08,19,03,28,,,,1.8,0.9,1.6*39
$GPRMC,022639.000,A,3353.7522,N,09832.0268,W,0.12,151.94,310312,,,D*74
$GPGGA,022640.000,3353.7522,N,09832.0268,W,2,09,0.9,333.0,M,-23.7,M,0.8,0000*49
$GPGSA,A,3,23,01,11,07,13,08,19,03,28,,,,1.8,0.9,1.6*39
$GPRMC,022640.000,A,3353.7522,N,09832.0268,W,0.10,215.09,310312,,,D*7F
$GPGGA,022641.000,3353.7522,N,09832.0269,W,2,09,0.9,333.1,M,-23.7,M,0.8,0000*48
$GPGSA,A,3,23,01,11,07,13,08,19,03,28,,,,1.8,0.9,1.6*39
$GPGSV,3,1,12,07,73,039,25,19,48,057,37,08,46,324,36,13,42,184,43*70
$GPGSV,3,2,12,28,32,269,25,11,32,124,38,03,15,043,26,01,14,137,24*74
$GPGSV,3,3,12,23,14,168,32,17,09,208,17,26,08,323,,06,04,040,*7B
$GPRMC,022641.000,A,3353.7522,N,09832.0269,W,0.08,153.99,310312,,,D*7E
$GPGGA,022642.000,3353.7522,N,09832.0269,W,2,09,0.9,333.2,M,-23.7,M,1.8,0000*49
$GPGSA,A,3,23,01,11,07,13,08,19,03,28,,,,1.8,0.9,1.6*39
$GPRMC,022642.000,A,3353.7522,N,09832.0269,W,0.06,216.53,310312,,,D*77
$GPGGA,022643.000,3353.7522,N,09832.0269,W,2,09,0.9,333.3,M,-23.7,M,0.8,0000*48
$GPGSA,A,3,23,01,11,07,13,08,19,03,28,,,,1.8,0.9,1.6*39
$GPRMC,022643.000,A,3353.7522,N,09832.0269,W,0.08,178.30,310312,,,D*76
$GPGGA,022644.000,3353.7521,N,09832.0269,W,2,09,0.9,333.4,M,-23.7,M,1.8,0000*4A
$GPGSA,A,3,23,01,11,07,13,08,19,03,28,,,,1.8,0.9,1.6*39
$GPRMC,022644.000,A,3353.7521,N,09832.0269,W,0.14,136.17,310312,,,D*70
$GPGGA,022645.000,3353.7521,N,09832.0268,W,2,09,0.9,333.6,M,-23.7,M,0.8,0000*49
$GPGSA,A,3,23,01,11,07,13,08,19,03,28,,,,1.8,0.9,1.6*39
$GPRMC,022645.000,A,3353.7521,N,09832.0268,W,0.07,132.31,310312,,,D*72
$GPGGA,022646.000,3353.7521,N,09832.0268,W,2,09,0.9,333.9,M,-23.7,M,0.8,0000*45
$GPGSA,A,3,23,01,11,07,13,08,19,03,28,,,,1.8,0.9,1.6*39
$GPGSV,3,1,12,07,73,039,26,19,48,057,37,08,46,324,36,13,42,184,43*73
$GPGSV,3,2,12,28,32,269,25,11,32,124,38,03,15,043,26,01,14,137,25*75
$GPGSV,3,3,12,23,14,168,32,17,09,208,18,26,08,323,,06,04,040,*74
$GPRMC,022646.000,A,3353.7521,N,09832.0268,W,0.13,123.91,310312,,,D*7E
$GPGGA,022647.000,3353.7521,N,09832.0268,W,2,09,0.9,334.1,M,-23.7,M,0.8,0000*4B
$GPGSA,A,3,23,01,11,07,13,08,19,03,28,,,,1.8,0.9,1.6*39
$GPRMC,022647.000,A,3353.7521,N,09832.0268,W,0.12,127.78,310312,,,D*7D
$GPGGA,022648.000,3353.7521,N,09832.0268,W,2,09,0.9,334.2,M,-23.7,M,0.8,0000*47
$GPGSA,A,3,23,01,11,07,13,08,19,03,28,,,,1.8,0.9,1.6*39
$GPRMC,022648.000,A,3353.7521,N,09832.0268,W,0.05,201.88,310312,,,D*7C
$GPGGA,022649.000,3353.7521,N,09832.0268,W,2,09,0.9,334.4,M,-23.7,M,0.8,0000*40
$GPGSA,A,3,23,01,11,07,13,08,19,03,28,,,,1.8,0.9,1.6*39
$GPRMC,022649.000,A,3353.7521,N,09832.0268,W,0.06,175.53,310312,,,D*78
$GPGGA,022650.000,3353.7521,N,09832.0267,W,2,09,0.9,334.5,M,-23.7,M,0.8,0000*46
$GPGSA,A,3,23,01,11,07,13,08,19,03,28,,,,1.8,0.9,1.6*39
$GPRMC,022650.000,A,3353.7521,N,09832.0267,W,0.06,214.43,310312,,,D*7A
$GPGGA,022651.000,3353.7521,N,09832.0267,W,2,09,0.9,334.6,M,-23.7,M,0.8,0000*44
$GPGSA,A,3,23,01,11,07,13,08,19,03,28,,,,1.8,0.9,1.6*39
$GPGSV,3,1,12,07,73,039,26,19,48,057,37,08,46,324,35,13,42,184,43*70
$GPGSV,3,2,12,28,32,269,25,11,32,124,38,03,15,043,26,01,14,137,27*77
$GPGSV,3,3,12,23,14,168,32,17,09,208,19,26,08,323,,06,04,040,*75
$GPRMC,022651.000,A,3353.7521,N,09832.0267,W,0.12,140.20,310312,,,D*79
$GPGGA,022652.000,3353.7521,N,09832.0267,W,2,09,0.9,334.8,M,-23.7,M,0.8,0000*49
$GPGSA,A,3,23,01,11,07,13,08,19,03,28,,,,1.8,0.9,1.6*39
$GPRMC,022652.000,A,3353.7521,N,09832.0267,W,0.16,138.39,310312,,,D*79
$GPGGA,022653.000,3353.7521,N,09832.0267,W,2,09,0.9,335.0,M,-23.7,M,0.8,0000*41
$GPGSA,A,3,23,01,11,07,13,08,19,03,28,,,,1.8,0.9,1.6*39
$GPRMC,022653.000,A,3353.7521,N,09832.0267,W,0.10,149.70,310312,,,D*75
$GPGGA,022654.000,3353.7520,N,09832.0267,W,2,09,0.9,335.1,M,-23.7,M,1.8,0000*47
$GPGSA,A,3,23,01,11,07,13,08,19,03,28,,,,1.8,0.9,1.6*39
$GPRMC,022654.000,A,3353.7520,N,09832.0267,W,0.06,191.33,310312,,,D*76
$GPGGA,022655.000,3353.7520,N,09832.0267,W,2,09,0.9,335.2,M,-23.7,M,2.8,0000*46
$GPGSA,A,3,23,01,11,07,13,08,19,03,28,,,,1.8,0.9,1.6*39
$GPRMC,022655.000,A,3353.7520,N,09832.0267,W,0.08,154.60,310312,,,D*76
$GPGGA,022656.000,3353.7520,N,09832.0267,W,2,09,0.9,335.4,M,-23.7,M,3.8,0000*42
$GPGSA,A,3,23,01,11,07,13,08,19,03,28,,,,1.8,0.9,1.6*39
$GPGSV,3,1,12,07,73,039,27,19,48,057,36,08,46,324,35,13,42,184,43*70
$GPGSV,3,2,12,28,32,269,24,11,32,124,38,03,15,043,26,01,14,137,28*79
$GPGSV,3,3,12,23,14,168,31,17,09,208,20,26,08,323,,06,04,040,*7C
$GPRMC,022656.000,A,3353.7520,N,09832.0267,W,0.12,141.89,310312,,,D*7D
$GPGGA,022657.000,3353.7520,N,09832.0267,W,2,09,0.9,335.5,M,-23.7,M,0.8,0000*41
$GPGSA,A,3,23,01,11,07,13,08,19,03,28,,,,1.8,0.9,1.6*39
$GPRMC,022657.000,A,3353.7520,N,09832.0267,W,0.06,259.44,310312,,,D*72
$GPGGA,022658.000,3353.7520,N,09832.0267,W,2,09,0.9,335.6,M,-23.7,M,0.8,0000*4D
$GPGSA,A,3,23,01,11,07,13,08,19,03,28,,,,1.8,0.9,1.6*39
$GPRMC,022658.000,A,3353.7520,N,09832.0267,W,0.16,274.89,310312,,,D*72
$GPGGA,022659.000,3353.7521,N,09832.0267,W,2,09,0.9,335.7,M,-23.7,M,0.8,0000*4C
$GPGSA,A,3,23,01,11,07,13,08,19,03,28,,,,1.8,0.9,1.6*39
$GPRMC,022659.000,A,3353.7521,N,09832.0267,W,0.09,246.10,310312,,,D*7D
$GPGGA,022700.000,3353.7521,N,09832.0267,W,2,09,0.9,335.8,M,-23.7,M,1.8,0000*4F
$GPGSA,A,3,23,01,11,07,13,08,19,03,28,,,,1.8,0.9,1.6*39
$GPRMC,022700.000,A,3353.7521,N,09832.0267,W,0.13,256.17,310312,,,D*7D
$GPGGA,022701.000,3353.7521,N,09832.0267,W,2,09,0.9,335.9,M,-23.7,M,2.8,0000*4C
$GPGSA,A,3,23,01,11,07,13,08,19,03,28,,,,1.8,0.9,1.6*39
$GPGSV,3,1,12,07,73,039,27,19,48,057,36,08,46,324,36,13,42,184,43*73
$GPGSV,3,2,12,28,32,269,23,11,32,124,37,03,15,043,26,01,14,137,29*70
$GPGSV,3,3,12,23,14,168,31,17,09,208,19,26,08,323,,06,04,040,*76
$GPRMC,022701.000,A,3353.7521,N,09832.0267,W,0.15,254.57,310312,,,D*7C
$GPGGA,022702.000,3353.7521,N,09832.0268,W,2,09,0.9,336.0,M,-23.7,M,3.8,0000*4B
$GPGSA,A,3,23,01,11,07,13,08,19,03,28,,,,1.8,0.9,1.6*39
$GPRMC,022702.000,A,3353.7521,N,09832.0268,W,0.12,259.18,310312,,,D*71
$GPGGA,022703.000,3353.7520,N,09832.0267,W,2,09,0.9,336.2,M,-23.7,M,0.8,0000*45
$GPGSA,A,3,23,01,11,07,13,08,19,03,28,,,,1.8,0.9,1.6*39
$GPRMC,022703.000,A,3353.7520,N,09832.0267,W,0.14,154.80,310312,,,D*77
$GPGGA,022704.000,3353.7520,N,09832.0267,W,2,09,0.9,336.4,M,-23.7,M,0.8,0000*44
$GPGSA,A,3,23,01,11,07,13,08,19,03,28,,,,1.8,0.9,1.6*39
$GPRMC,022704.000,A,3353.7520,N,09832.0267,W,0.09,187.93,310312,,,D*70
$GPGGA,022705.000,3353.7520,N,09832.0267,W,2,09,0.9,336.6,M,-23.7,M,0.8,0000*47
$GPGSA,A,3,23,01,11,07,13,08,19,03,28,,,,1.8,0.9,1.6*39
$GPRMC,022705.000,A,3353.7520,N,09832.0267,W,0.12,133.32,310312,,,D*7F
$GPGGA,022706.000,3353.7520,N,09832.0266,W,2,09,0.9,336.8,M,-23.7,M,1.8,0000*4A
$GPGSA,A,3,23,01,11,07,13,08,19,03,28,,,,1.8,0.9,1.6*39
$GPGSV,3,1,12,07,73,039,27,19,48,057,35,08,46,324,36,13,42,184,43*70
$GPGSV,3,2,12,28,32,269,22,11,32,124,37,03,15,043,26,01,14,137,29*71
$GPGSV,3,3,12,23,14,168,30,17,09,208,18,26,08,323,,06,04,040,*76
$GPRMC,022706.000,A,3353.7520,N,09832.0266,W,0.05,228.28,310312,,,D*79
$GPGGA,022707.000,3353.7520,N,09832.0266,W,2,09,0.9,336.9,M,-23.7,M,2.8,0000*49
$GPGSA,A,3,23,01,11,07,13,08,19,03,28,,,,1.8,0.9,1.6*39
$GPRMC,022707.000,A,3353.7520,N,09832.0266,W,0.07,250.06,310312,,,D*79
$GPGGA,022708.000,3353.7520,N,09832.0266,W,2,09,0.9,337.3,M,-23.7,M,0.8,0000*4F
$GPGSA,A,3,23,01,11,07,13,08,19,03,28,,,,1.8,0.9,1.6*39
$GPRMC,022708.000,A,3353.7520,N,09832.0266,W,0.12,131.35,310312,,,D*76
$GPGGA,022709.000,3353.7519,N,09832.0265,W,2,09,0.9,337.6,M,-23.7,M,0.8,0000*42
$GPGSA,A,3,23,01,11,07,13,08,19,03,28,,,,1.8,0.9,1.6*39
$GPRMC,022709.000,A,3353.7519,N,09832.0265,W,0.12,123.10,310312,,,D*7A
$GPGGA,022710.000,3353.7519,N,09832.0264,W,2,09,0.9,337.9,M,-23.7,M,0.8,0000*44
$GPGSA,A,3,23,01,11,07,13,08,19,03,28,,,,1.8,0.9,1.6*39
$GPRMC,022710.000,A,3353.7519,N,09832.0264,W,0.05,156.05,310312,,,D*73
$GPGGA,022711.000,3353.7519,N,09832.0264,W,2,09,0.9,338.2,M,-23.7,M,0.8,0000*41
$GPGSA,A,3,23,01,11,07,13,08,19,03,28,,,,1.8,0.9,1.6*39
$GPGSV,3,1,12,07,73,039,28,19,48,057,35,08,46,324,36,13,42,184,43*7F
$GPGSV,3,2,12,28,32,269,22,11,32,124,37,03,15,043,27,01,14,137,29*70
$GPGSV,3,3,12,23,14,168,29,17,09,208,16,26,08,323,,06,04,040,*70
$GPRMC,022711.000,A,3353.7519,N,09832.0264,W,0.09,236.29,310312,,,D*75
$GPGGA,022712.000,3353.7519,N,09832.0264,W,2,09,0.9,338.4,M,-23.7,M,1.8,0000*45
$GPGSA,A,3,23,01,11,07,13,08,19,03,28,,,,1.8,0.9,1.6*39
$GPRMC,022712.000,A,3353.7519,N,09832.0264,W,0.12,244.10,310312,,,D*73
$GPGGA,022713.000,3353.7519,N,09832.0263,W,2,09,0.9,338.8,M,-23.7,M,2.8,0000*4C
$GPGSA,A,3,23,01,11,07,13,08,19,03,28,,,,1.8,0.9,1.6*39
$GPRMC,022713.000,A,3353.7519,N,09832.0263,W,0.14,141.09,310312,,,D*7D
$GPGGA,022714.000,3353.7519,N,09832.0262,W,2,09,0.9,339.3,M,-23.7,M,3.8,0000*41
$GPGSA,A,3,23,01,11,07,13,08,19,03,28,,,,1.8,0.9,1.6*39
$GPRMC,022714.000,A,3353.7519,N,09832.0262,W,0.24,124.80,310312,,,D*7A
$GPGGA,022715.000,3353.7518,N,09832.0262,W,2,09,0.9,339.5,M,-23.7,M,0.8,0000*44
$GPGSA,A,3,23,01,11,07,13,08,19,03,28,,,,1.8,0.9,1.6*39
$GPRMC,022715.000,A,3353.7518,N,09832.0262,W,0.10,189.72,310312,,,D*77
$GPGGA,022716.000,3353.7518,N,09832.0261,W,2,09,0.9,339.9,M,-23.7,M,0.8,0000*48
$GPGSA,A,3,23,01,11,07,13,08,19,03,28,,,,1.8,0.9,1.6*39
$GPGSV,3,1,12,07,73,039,28,19,48,057,34,08,46,324,35,13,42,184,43*7D
$GPGSV,3,2,12,28,32,269,21,11,32,124,37,03,15,043,27,01,14,137,28*72
$GPGSV,3,3,12,23,14,168,28,17,09,208,,26,08,323,,06,04,040,*76
$GPRMC,022716.000,A,3353.7518,N,09832.0261,W,0.20,137.42,310312,,,D*72
$GPGGA,022717.000,3353.7518,N,09832.0260,W,2,09,0.9,340.3,M,-23.7,M,0.8,0000*4C
$GPGSA,A,3,23,01,11,07,13,08,19,03,28,,,,1.8,0.9,1.6*39
$GPRMC,022717.000,A,3353.7518,N,09832.0260,W,0.22,118.55,310312,,,D*7B
$GPGGA,022718.000,3353.7518,N,09832.0260,W,2,09,0.9,340.5,M,-23.7,M,1.8,0000*44
$GPGSA,A,3,23,01,11,07,13,08,19,03,28,,,,1.8,0.9,1.6*39
$GPRMC,022718.000,A,3353.7518,N,09832.0260,W,0.05,200.80,310312,,,D*73
$GPGGA,022719.000,3353.7518,N,09832.0260,W,2,09,0.9,340.7,M,-23.7,M,2.8,0000*44
$GPGSA,A,3,23,01,11,07,13,08,19,03,28,,,,1.8,0.9,1.6*39
$GPRMC,022719.000,A,3353.7518,N,09832.0260,W,0.09,260.99,310312,,,D*70
$GPGGA,022720.000,3353.7518,N,09832.0259,W,2,09,0.9,341.0,M,-23.7,M,3.8,0000*43
$GPGSA,A,3,23,01,11,07,13,08,19,03,28,,,,1.8,0.9,1.6*39
$GPRMC,022720.000,A,3353.7518,N,09832.0259,W,0.05,194.97,310312,,,D*7A
$GPGGA,022721.000,3353.7518,N,09832.0259,W,2,09,0.9,341.2,M,-23.7,M,0.8,0000*43
$GPGSA,A,3,23,01,11,07,13,08,19,03,28,,,,1.8,0.9,1.6*39
$GPGSV,3,1,12,07,73,039,27,19,48,057,33,08,46,324,35,13,42,184,43*75
$GPGSV,3,2,12,28,32,269,20,11,32,124,36,03,15,043,28,01,14,137,27*72
$GPGSV,3,3,12,23,14,168,28,17,09,208,,26,08,323,,06,04,040,*76
$GPRMC,022721.000,A,3353.7518,N,09832.0259,W,0.07,293.85,310312,,,D*7E
$GPGGA,022722.000,3353.7518,N,09832.0259,W,2,08,1.2,341.4,M,-23.7,M,0.8,0000*4D
$GPGSA,A,3,23,01,11,07,13,08,19,03,,,,,2.1,1.2,1.7*32
$GPRMC,022722.000,A,3353.7518,N,09832.0259,W,0.02,191.62,310312,,,D*70
$GPGGA,022723.000,3353.7518,N,09832.0258,W,2,08,1.2,341.7,M,-23.7,M,0.8,0000*4E
$GPGSA,A,3,23,01,11,07,13,08,19,03,,,,,2.1,1.2,1.7*32
$GPRMC,022723.000,A,3353.7518,N,09832.0258,W,0.09,203.53,310312,,,D*71
$GPGGA,022724.000,3353.7518,N,09832.0258,W,2,08,1.2,342.0,M,-23.7,M,1.8,0000*4C
$GPGSA,A,3,23,01,11,07,13,08,19,03,,,,,2.1,1.2,1.7*32
$GPRMC,022724.000,A,3353.7518,N,09832.0258,W,0.09,192.64,310312,,,D*79
$GPGGA,022725.000,3353.7518,N,09832.0258,W,2,08,1.2,342.3,M,-23.7,M,2.8,0000*4D
$GPGSA,A,3,23,01,11,07,13,08,19,03,,,,,2.1,1.2,1.7*32
$GPRMC,022725.000,A,3353.7518,N,09832.0258,W,0.07,182.37,310312,,,D*71
$GPGGA,022726.000,3353.7518,N,09832.0257,W,2,08,1.2,342.6,M,-23.7,M,0.8,0000*46
$GPGSA,A,3,23,01,11,07,13,08,19,03,,,,,2.1,1.2,1.7*32
$GPGSV,3,1,12,07,73,039,27,19,48,057,33,08,46,324,35,13,42,184,43*75
$GPGSV,3,2,12,28,32,269,,11,32,124,36,03,15,043,28,01,14,137,26*71
$GPGSV,3,3,12,23,14,168,27,17,09,208,,26,08,323,,06,04,040,*79
$GPRMC,022726.000,A,3353.7518,N,09832.0257,W,0.07,181.59,310312,,,D*76
$GPGGA,022727.000,3353.7518,N,09832.0257,W,2,08,1.2,342.8,M,-23.7,M,0.8,0000*49
$GPGSA,A,3,23,01,11,07,13,08,19,03,,,,,2.1,1.2,1.7*32
$GPRMC,022727.000,A,3353.7518,N,09832.0257,W,0.10,196.96,310312,,,D*74
$GPGGA,022728.000,3353.7518,N,09832.0257,W,2,08,1.2,343.0,M,-23.7,M,0.8,0000*4F
$GPGSA,A,3,23,01,11,07,13,08,19,03,,,,,2.1,1.2,1.7*32
$GPRMC,022728.000,A,3353.7518,N,09832.0257,W,0.09,189.17,310312,,,D*74
$GPGGA,022729.000,3353.7518,N,09832.0257,W,2,08,1.2,343.3,M,-23.7,M,0.8,0000*4D
$GPGSA,A,3,23,01,11,07,13,08,19,03,,,,,2.1,1.2,1.7*32
$GPRMC,022729.000,A,3353.7518,N,09832.0257,W,0.02,196.30,310312,,,D*75
$GPGGA,022730.000,3353.7518,N,09832.0256,W,2,08,1.2,343.5,M,-23.7,M,1.8,0000*43
$GPGSA,A,3,23,01,11,07,13,08,19,03,,,,,2.1,1.2,1.7*32
$GPRMC,022730.000,A,3353.7518,N,09832.0256,W,0.04,130.93,310312,,,D*7F
$GPGGA,022731.000,3353.7518,N,09832.0256,W,2,08,1.2,343.7,M,-23.7,M,0.8,0000*41
$GPGSA,A,3,23,01,11,07,13,08,19,03,,,,,2.1,1.2,1.7*32
$GPGSV,3,1,12,07,73,039,27,19,48,057,33,08,46,324,34,13,42,184,43*74
$GPGSV,3,2,12,28,32,269,,11,32,124,36,03,15,043,29,01,14,137,25*73
$GPGSV,3,3,12,23,14,168,26,17,09,208,,26,08,323,,06,04,040,*78
$GPRMC,022731.000,A,3353.7518,N,09832.0256,W,0.02,148.80,310312,,,D*75
$GPGGA,022732.000,3353.7518,N,09832.0255,W,2,08,1.2,343.8,M,-23.7,M,1.8,0000*4F
$GPGSA,A,3,23,01,11,07,13,08,19,03,,,,,2.1,1.2,1.7*32
$GPRMC,022732.000,A,3353.7518,N,09832.0255,W,0.05,114.72,310312,,,D*76
$GPGGA,022733.000,3353.7518,N,09832.0255,W,2,08,1.2,344.1,M,-23.7,M,0.8,0000*41
$GPGSA,A,3,23,01,11,07,13,08,19,03,,,,,2.1,1.2,1.7*32
$GPRMC,022733.000,A,3353.7518,N,09832.0255,W,0.01,221.90,310312,,,D*7A
$GPGGA,022734.000,3353.7519,N,09832.0255,W,2,08,1.2,344.4,M,-23.7,M,0.8,0000*42
$GPGSA,A,3,23,01,11,07,13,08,19,03,,,,,2.1,1.2,1.7*32
$GPRMC,022734.000,A,3353.7519,N,09832.0255,W,0.05,299.44,310312,,,D*72
$GPGGA,022735.000,3353.7519,N,09832.0254,W,2,08,1.2,344.7,M,-23.7,M,0.8,0000*41
$GPGSA,A,3,23,01,11,07,13,08,19,03,,,,,2.1,1.2,1.7*32
$GPRMC,022735.000,A,3353.7519,N,09832.0254,W,0.06,206.46,310312,,,D*75
$GPGGA,022736.000,3353.7519,N,09832.0254,W,2,08,1.2,345.0,M,-23.7,M,1.8,0000*45
$GPGSA,A,3,23,01,11,07,13,08,19,03,,,,,2.1,1.2,1.7*32
$GPGSV,3,1,12,07,73,039,27,19,48,057,33,08,46,324,34,13,42,184,43*74
$GPGSV,3,2,12,28,32,269,,11,32,124,36,03,15,043,30,01,14,137,24*7A
$GPGSV,3,3,12,23,14,168,26,17,09,208,,26,08,323,,06,04,040,*78
$GPRMC,022736.000,A,3353.7519,N,09832.0254,W,0.07,189.31,310312,,,D*73
$GPGGA,022737.000,3353.7519,N,09832.0254,W,2,08,1.2,345.3,M,-23.7,M,0.8,0000*46
$GPGSA,A,3,23,01,11,07,13,08,19,03,,,,,2.1,1.2,1.7*32
$GPRMC,022737.000,A,3353.7519,N,09832.0254,W,0.06,215.70,310312,,,D*70
$GPGGA,022738.000,3353.7519,N,09832.0253,W,2,08,1.2,345.6,M,-23.7,M,1.8,0000*4A
$GPGSA,A,3,23,01,11,07,13,08,19,03,,,,,2.1,1.2,1.7*32
$GPRMC,022738.000,A,3353.7519,N,09832.0253,W,0.06,185.76,310312,,,D*74
$GPGGA,022739.000,3353.7519,N,09832.0254,W,2,09,0.9,345.7,M,-23.7,M,0.8,0000*47
$GPGSA,A,3,23,01,11,07,13,08,19,03,28,,,,1.8,0.9,1.6*39
$GPRMC,022739.000,A,3353.7519,N,09832.0254,W,0.13,252.37,310312,,,D*7A
$GPGGA,022740.000,3353.7518,N,09832.0253,W,2,09,0.9,345.9,M,-23.7,M,0.8,0000*41
$GPGSA,A,3,23,01,11,07,13,08,19,03,28,,,,1.8,0.9,1.6*39
$GPRMC,022740.000,A,3353.7518,N,09832.0253,W,0.21,136.31,310312,,,D*74
$GPGGA,022741.000,3353.7518,N,09832.0252,W,2,09,0.9,346.2,M,-23.7,M,0.8,0000*49
$GPGSA,A,3,23,01,11,07,13,08,19,03,28,,,,1.8,0.9,1.6*39
$GPRMC,022741.000,A,3353.7518,N,09832.0252,W,0.30,113.06,310312,,,D*77
$GPGGA,022742.000,3353.7518,N,09832.0251,W,2,09,0.9,346.5,M,-23.7,M,1.8,0000*4F
$GPGSA,A,3,23,01,11,07,13,08,19,03,28,,,,1.8,0.9,1.6*39
$GPRMC,022742.000,A,3353.7518,N,09832.0251,W,0.07,123.26,310312,,,D*72
$GPGGA,022743.000,3353.7518,N,09832.0251,W,2,09,0.9,346.7,M,-23.7,M,2.8,0000*4F
$GPGSA,A,3,23,01,11,07,13,08,19,03,28,,,,1.8,0.9,1.6*39
$GPRMC,022743.000,A,3353.7518,N,09832.0251,W,0.19,280.36,310312,,,D*77
$GPGGA,022744.000,3353.7519,N,09832.0252,W,2,09,0.9,346.8,M,-23.7,M,0.8,0000*47
$GPGSA,A,3,23,01,11,07,13,08,19,03,28,,,,1.8,0.9,1.6*39
$GPRMC,022744.000,A,3353.7519,N,09832.0252,W,0.18,286.36,310312,,,D*75
$GPGGA,022745.000,3353.7519,N,09832.0252,W,2,09,0.9,347.1,M,-23.7,M,0.8,0000*4E
$GPGSA,A,3,23,01,11,07,13,08,19,03,28,,,,1.8,0.9,1.6*39
$GPRMC,022745.000,A,3353.7519,N,09832.0252,W,0.15,289.91,310312,,,D*7B
$GPGGA,022746.000,3353.7519,N,09832.0252,W,2,09,0.9,347.2,M,-23.7,M,0.8,0000*4E
$GPGSA,A,3,23,01,11,07,13,08,19,03,28,,,,1.8,0.9,1.6*39
$GPGSV,3,1,12,07,73,039,29,19,48,057,33,08,46,324,33,13,42,184,43*7D
$GPGSV,3,2,12,28,32,269,16,11,32,124,36,03,15,043,31,01,14,137,23*7B
$GPGSV,3,3,12,23,14,168,25,17,09,208,,26,08,323,,06,04,040,*7B
$GPRMC,022746.000,A,3353.7519,N,09832.0252,W,0.07,116.53,310312,,,D*70
$GPGGA,022747.000,3353.7519,N,09832.0251,W,2,09,0.9,347.7,M,-23.7,M,0.8,0000*49
$GPGSA,A,3,23,01,11,07,13,08,19,03,28,,,,1.8,0.9,1.6*39
$GPRMC,022747.000,A,3353.7519,N,09832.0251,W,0.14,145.83,310312,,,D*7B
$GPGGA,022748.000,3353.7519,N,09832.0251,W,2,09,0.9,347.9,M,-23.7,M,1.8,0000*49
$GPGSA,A,3,23,01,11,07,13,08,19,03,28,,,,1.8,0.9,1.6*39
$GPRMC,022748.000,A,3353.7519,N,09832.0251,W,0.11,242.11,310312,,,D*7E
$GPGGA,022749.000,3353.7519,N,09832.0251,W,2,09,0.9,348.2,M,-23.7,M,2.8,0000*4F
$GPGSA,A,3,23,01,11,07,13,08,19,03,28,,,,1.8,0.9,1.6*39
$GPRMC,022749.000,A,3353.7519,N,09832.0251,W,0.16,259.92,310312,,,D*79
$GPGGA,022750.000,3353.7519,N,09832.0252,W,2,09,0.9,348.5,M,-23.7,M,3.8,0000*42
$GPGSA,A,3,23,01,11,07,13,08,19,03,28,,,,1.8,0.9,1.6*39
$GPRMC,022750.000,A,3353.7519,N,09832.0252,W,0.13,255.19,310312,,,D*78
$GPGGA,022751.000,3353.7519,N,09832.0252,W,2,09,0.9,348.6,M,-23.7,M,0.8,0000*43
$GPGSA,A,3,23,01,11,07,13,08,19,03,28,,,,1.8,0.9,1.6*39
$GPGSV,3,1,12,07,73,039,29,19,48,057,33,08,46,324,33,13,42,184,43*7D
$GPGSV,3,2,12,28,32,269,17,11,32,124,36,03,15,043,31,01,14,137,23*7A
$GPGSV,3,3,12,23,14,168,25,17,09,208,,26,08,323,,06,04,040,*7B
$GPRMC,022751.000,A,3353.7519,N,09832.0252,W,0.11,218.88,310312,,,D*7A
$GPGGA,022752.000,3353.7519,N,09832.0252,W,2,09,0.9,348.8,M,-23.7,M,0.8,0000*4E
$GPGSA,A,3,23,01,11,07,13,08,19,03,28,,,,1.8,0.9,1.6*39
$GPRMC,022752.000,A,3353.7519,N,09832.0252,W,0.12,161.01,310312,,,D*76
$GPGGA,022753.000,3353.7519,N,09832.0252,W,2,09,0.9,348.9,M,-23.7,M,0.8,0000*4E
$GPGSA,A,3,23,01,11,07,13,08,19,03,28,,,,1.8,0.9,1.6*39
$GPRMC,022753.000,A,3353.7519,N,09832.0252,W,0.04,263.58,310312,,,D*7D
$GPGGA,022754.000,3353.7519,N,09832.0251,W,2,09,0.9,349.2,M,-23.7,M,0.8,0000*40
$GPGSA,A,3,23,01,11,07,13,08,19,03,28,,,,1.8,0.9,1.6*39
$GPRMC,022754.000,A,3353.7519,N,09832.0251,W,0.13,122.47,310312,,,D*77
$GPGGA,022755.000,3353.7519,N,09832.0250,W,2,09,0.9,349.4,M,-23.7,M,1.8,0000*47
$GPGSA,A,3,23,01,11,07,13,08,19,03,28,,,,1.8,0.9,1.6*39
$GPRMC,022755.000,A,3353.7519,N,09832.0250,W,0.35,111.24,310312,,,D*76
$GPGGA,022756.000,3353.7519,N,09832.0250,W,2,09,0.9,349.5,M,-23.7,M,0.8,0000*44
$GPGSA,A,3,23,01,11,07,13,08,19,03,28,,,,1.8,0.9,1.6*39
$GPGSV,3,1,12,07,73,039,30,19,48,057,33,08,46,324,33,13,42,184,43*75
$GPGSV,3,2,12,28,32,269,17,11,32,124,35,03,15,043,32,01,14,137,24*7D
$GPGSV,3,3,12,23,14,168,24,17,09,208,,26,08,323,,06,04,040,*7A
$GPRMC,022756.000,A,3353.7519,N,09832.0250,W,0.10,277.99,310312,,,D*77
$GPGGA,022757.000,3353.7519,N,09832.0250,W,2,09,0.9,349.8,M,-23.7,M,0.8,0000*48
$GPGSA,A,3,23,01,11,07,13,08,19,03,28,,,,1.8,0.9,1.6*39
$GPRMC,022757.000,A,3353.7519,N,09832.0250,W,0.01,147.48,310312,,,D*7A
$GPGGA,022758.000,3353.7519,N,09832.0249,W,2,09,0.9,350.1,M,-23.7,M,0.8,0000*4E
$GPGSA,A,3,23,01,11,07,13,08,19,03,28,,,,1.8,0.9,1.6*39
$GPRMC,022758.000,A,3353.7519,N,09832.0249,W,0.20,107.63,310312,,,D*73
$GPGGA,022759.000,3353.7519,N,09832.0248,W,2,09,0.9,350.5,M,-23.7,M,0.8,0000*4A
$GPGSA,A,3,23,01,11,07,13,08,19,03,28,,,,1.8,0.9,1.6*39
$GPRMC,022759.000,A,3353.7519,N,09832.0248,W,0.28,124.51,310312,,,D*7B
$GPGGA,022800.000,3353.7519,N,09832.0248,W,2,09,0.9,350.7,M,-23.7,M,1.8,0000*4A
$GPGSA,A,3,23,01,11,07,13,08,19,03,28,,,,1.8,0.9,1.6*39
$GPRMC,022800.000,A,3353.7519,N,09832.0248,W,0.12,141.51,310312,,,D*72
$GPGGA,022801.000,3353.7521,N,09832.0248,W,2,09,0.9,348.5,M,-23.7,M,2.8,0000*48
$GPGSA,A,3,23,01,11,07,13,08,19,03,28,,,,1.8,0.9,1.6*39
$GPGSV,3,1,12,07,73,039,30,19,48,057,32,08,46,324,33,13,42,184,43*74
$GPGSV,3,2,12,28,32,269,18,11,32,124,34,03,15,043,32,01,14,137,25*72
$GPGSV,3,3,12,23,14,168,24,17,09,208,,26,08,323,,06,04,040,*7A
$GPRMC,022801.000,A,3353.7521,N,09832.0248,W,0.11,257.48,310312,,,D*77
$GPGGA,022802.000,3353.7522,N,09832.0249,W,2,09,0.9,346.7,M,-23.7,M,0.8,0000*47
$GPGSA,A,3,23,01,11,07,13,08,19,03,28,,,,1.8,0.9,1.6*39
$GPRMC,022802.000,A,3353.7522,N,09832.0249,W,0.13,137.13,310312,,,D*7F
$GPGGA,022803.000,3353.7523,N,09832.0249,W,2,09,0.9,345.0,M,-23.7,M,0.8,0000*43
$GPGSA,A,3,23,01,11,07,13,08,19,03,28,,,,1.8,0.9,1.6*39
$GPRMC,022803.000,A,3353.7523,N,09832.0249,W,0.12,153.98,310312,,,D*7F
$GPGGA,022804.000,3353.7524,N,09832.0249,W,2,09,0.9,343.6,M,-23.7,M,0.8,0000*43
$GPGSA,A,3,23,01,11,07,13,08,19,03,28,,,,1.8,0.9,1.6*39
$GPRMC,022804.000,A,3353.7524,N,09832.0249,W,0.07,219.85,310312,,,D*7A
$GPGGA,022805.000,3353.7526,N,09832.0250,W,2,09,0.9,342.2,M,-23.7,M,0.8,0000*4D
$GPGSA,A,3,23,01,11,07,13,08,19,03,28,,,,1.8,0.9,1.6*39
$GPRMC,022805.000,A,3353.7526,N,09832.0250,W,0.19,287.25,310312,,,D*73
$GPGGA,022806.000,3353.7527,N,09832.0250,W,2,09,0.9,341.1,M,-23.7,M,1.8,0000*4E
$GPGSA,A,3,23,01,11,07,13,08,19,03,28,,,,1.8,0.9,1.6*39
$GPGSV,3,1,12,07,73,039,31,19,48,057,31,08,46,324,33,13,42,184,43*76
$GPGSV,3,2,12,28,32,269,20,11,32,124,33,03,15,043,33,01,14,137,26*7C
$GPGSV,3,3,12,23,14,168,24,17,09,208,,26,08,323,,06,04,040,*7A
$GPRMC,022806.000,A,3353.7527,N,09832.0250,W,0.07,117.38,310312,,,D*78
$GPGGA,022807.000,3353.7527,N,09832.0249,W,2,09,0.9,340.0,M,-23.7,M,2.8,0000*44
$GPGSA,A,3,23,01,11,07,13,08,19,03,28,,,,1.8,0.9,1.6*39
$GPRMC,022807.000,A,3353.7527,N,09832.0249,W,0.05,119.77,310312,,,D*76
$GPGGA,022808.000,3353.7528,N,09832.0252,W,2,09,0.9,335.5,M,-23.7,M,3.8,0000*48
$GPGSA,A,3,23,01,11,07,13,08,19,03,28,,,,1.8,0.9,1.6*39
$GPRMC,022808.000,A,3353.7528,N,09832.0252,W,0.19,272.99,310312,,,D*7F
$GPGGA,022809.000,3353.7529,N,09832.0255,W,2,09,0.9,332.1,M,-23.7,M,0.8,0000*4F
$GPGSA,A,3,23,01,11,07,13,08,19,03,28,,,,1.8,0.9,1.6*39
$GPRMC,022809.000,A,3353.7529,N,09832.0255,W,0.21,284.61,310312,,,D*7D
$GPGGA,022810.000,3353.7530,N,09832.0258,W,2,09,0.9,329.3,M,-23.7,M,0.8,0000*4A
$GPGSA,A,3,23,01,11,07,13,08,19,03,28,,,,1.8,0.9,1.6*39
$GPRMC,022810.000,A,3353.7530,N,09832.0258,W,0.10,266.59,310312,,,D*75
$GPGGA,022811.000,3353.7530,N,09832.0260,W,2,09,0.9,326.7,M,-23.7,M,0.8,0000*4B
$GPGSA,A,3,23,01,11,07,13,08,19,03,28,,,,1.8,0.9,1.6*39
$GPGSV,3,1,12,07,73,039,32,19,48,057,31,08,46,324,33,13,42,184,43*75
$GPGSV,3,2,12,28,32,269,21,11,32,124,28,03,15,043,33,01,14,137,27*76
$GPGSV,3,3,12,23,14,168,24,17,09,208,,26,08,323,,06,04,040,*7A
$GPRMC,022811.000,A,3353.7530,N,09832.0260,W,0.31,273.41,310312,,,D*71
$GPGGA,022812.000,3353.7531,N,09832.0263,W,2,09,0.9,324.6,M,-23.7,M,0.8,0000*49
$GPGSA,A,3,23,01,11,07,13,08,19,03,28,,,,1.8,0.9,1.6*39
$GPRMC,022812.000,A,3353.7531,N,09832.0263,W,0.28,270.24,310312,,,D*78
$GPGGA,022813.000,3353.7531,N,09832.0265,W,2,09,0.9,322.7,M,-23.7,M,0.8,0000*49
$GPGSA,A,3,23,01,11,07,13,08,19,03,28,,,,1.8,0.9,1.6*39
$GPRMC,022813.000,A,3353.7531,N,09832.0265,W,0.12,220.98,310312,,,D*74
$GPGGA,022814.000,3353.7530,N,09832.0266,W,2,09,0.9,321.1,M,-23.7,M,1.8,0000*48
$GPGSA,A,3,23,01,11,07,13,08,19,03,28,,,,1.8,0.9,1.6*39
$GPRMC,022814.000,A,3353.7530,N,09832.0266,W,0.12,172.79,310312,,,D*7A
$GPGGA,022815.000,3353.7530,N,09832.0267,W,2,09,0.9,319.6,M,-23.7,M,0.8,0000*45
$GPGSA,A,3,23,01,11,07,13,08,19,03,28,,,,1.8,0.9,1.6*39
$GPRMC,022815.000,A,3353.7530,N,09832.0267,W,0.11,205.24,310312,,,D*72
$GPGGA,022816.000,3353.7530,N,09832.0268,W,2,09,0.9,318.3,M,-23.7,M,1.8,0000*4C
$GPGSA,A,3,23,01,11,07,13,08,19,03,28,,,,1.8,0.9,1.6*39
$GPGSV,3,1,12,07,73,039,32,19,48,057,31,08,46,324,33,13,42,184,43*75
$GPGSV,3,2,12,28,32,269,22,11,32,124,27,03,15,043,33,01,14,137,27*7A
$GPGSV,3,3,12,23,14,168,24,17,09,208,,26,08,323,,06,04,040,*7A
$GPRMC,022816.000,A,3353.7530,N,09832.0268,W,0.14,173.82,310312,,,D*75
$GPGGA,022817.000,3353.7530,N,09832.0268,W,2,09,0.9,317.1,M,-23.7,M,0.8,0000*41
$GPGSA,A,3,23,01,11,07,13,08,19,03,28,,,,1.8,0.9,1.6*39
$GPRMC,022817.000,A,3353.7530,N,09832.0268,W,0.13,139.99,310312,,,D*77
$GPGGA,022818.000,3353.7530,N,09832.0269,W,2,09,0.9,316.1,M,-23.7,M,1.8,0000*4F
$GPGSA,A,3,23,01,11,07,13,08,19,03,28,,,,1.8,0.9,1.6*39
$GPRMC,022818.000,A,3353.7530,N,09832.0269,W,0.21,277.86,310312,,,D*7F
$GPGGA,022819.000,3353.7530,N,09832.0270,W,2,09,0.9,315.2,M,-23.7,M,0.8,0000*47
$GPGSA,A,3,23,01,11,07,13,08,19,03,28,,,,1.8,0.9,1.6*39
$GPRMC,022819.000,A,3353.7530,N,09832.0270,W,0.06,232.32,310312,,,D*7D
$GPGGA,022820.000,3353.7530,N,09832.0271,W,2,09,0.9,314.4,M,-23.7,M,1.8,0000*4A
$GPGSA,A,3,23,01,11,07,13,08,19,03,28,,,,1.8,0.9,1.6*39
$GPRMC,022820.000,A,3353.7530,N,09832.0271,W,0.12,273.63,310312,,,D*72
$GPGGA,022821.000,3353.7530,N,09832.0272,W,2,09,0.9,313.6,M,-23.7,M,0.8,0000*4C
$GPGSA,A,3,23,01,11,07,13,08,19,03,28,,,,1.8,0.9,1.6*39
$GPGSV,3,1,12,07,73,039,33,19,48,057,31,08,46,324,33,13,42,184,43*74
$GPGSV,3,2,12,28,32,269,22,11,32,124,26,03,15,043,33,01,14,137,28*74
$GPGSV,3,3,12,23,14,168,24,17,09,208,,26,08,323,,06,04,040,*7A
$GPRMC,022821.000,A,3353.7530,N,09832.0272,W,0.15,277.92,310312,,,D*7D
$GPGGA,022822.000,3353.7530,N,09832.0273,W,2,09,0.9,313.0,M,-23.7,M,0.8,0000*48
$GPGSA,A,3,23,01,11,07,13,08,19,03,28,,,,1.8,0.9,1.6*39
$GPRMC,022822.000,A,3353.7530,N,09832.0273,W,0.06,272.36,310312,,,D*76
$GPGGA,022823.000,3353.7530,N,09832.0274,W,2,09,0.9,312.3,M,-23.7,M,0.8,0000*4C
$GPGSA,A,3,23,01,11,07,13,08,19,03,28,,,,1.8,0.9,1.6*39
$GPRMC,022823.000,A,3353.7530,N,09832.0274,W,0.15,255.75,310312,,,D*70
$GPGGA,022824.000,3353.7529,N,09832.0275,W,2,09,0.9,311.6,M,-23.7,M,1.8,0000*45
$GPGSA,A,3,23,01,11,07,13,08,19,03,28,,,,1.8,0.9,1.6*39
$GPRMC,022824.000,A,3353.7529,N,09832.0275,W,0.33,273.90,310312,,,D*75
$GPGGA,022825.000,3353.7529,N,09832.0276,W,2,09,0.9,311.1,M,-23.7,M,0.8,0000*41
$GPGSA,A,3,23,01,11,07,13,08,19,03,28,,,,1.8,0.9,1.6*39
$GPRMC,022825.000,A,3353.7529,N,09832.0276,W,0.08,224.17,310312,,,D*72
$GPGGA,022826.000,3353.7529,N,09832.0276,W,2,09,0.9,310.7,M,-23.7,M,0.8,0000*45
$GPGSA,A,3,23,01,11,07,13,08,19,03,28,,,,1.8,0.9,1.6*39
$GPGSV,3,1,12,07,73,039,33,19,48,057,32,08,46,324,33,13,42,184,43*77
$GPGSV,3,2,12,28,32,269,23,11,32,124,26,03,15,043,33,01,14,137,28*75
$GPGSV,3,3,12,23,14,168,24,17,09,208,18,26,08,323,,06,04,040,*73
$GPRMC,022826.000,A,3353.7529,N,09832.0276,W,0.14,151.71,310312,,,D*7D
$GPGGA,022827.000,3353.7529,N,09832.0276,W,2,09,0.9,310.2,M,-23.7,M,0.8,0000*41
$GPGSA,A,3,23,01,11,07,13,08,19,03,28,,,,1.8,0.9,1.6*39
$GPRMC,022827.000,A,3353.7529,N,09832.0276,W,0.12,191.03,310312,,,D*73
$GPGGA,022828.000,3353.7528,N,09832.0277,W,2,09,0.9,309.6,M,-23.7,M,0.8,0000*42
$GPGSA,A,3,23,01,11,07,13,08,19,03,28,,,,1.8,0.9,1.6*39
$GPRMC,022828.000,A,3353.7528,N,09832.0277,W,0.17,157.09,310312,,,D*79
$GPGGA,022829.000,3353.7528,N,09832.0277,W,2,09,0.9,309.2,M,-23.7,M,0.8,0000*47
$GPGSA,A,3,23,01,11,07,13,08,19,03,28,,,,1.8,0.9,1.6*39
$GPRMC,022829.000,A,3353.7528,N,09832.0277,W,0.22,280.15,310312,,,D*7A
$GPGGA,022830.000,3353.7528,N,09832.0278,W,2,09,0.9,308.8,M,-23.7,M,1.8,0000*4A
$GPGSA,A,3,23,01,11,07,13,08,19,03,28,,,,1.8,0.9,1.6*39
$GPRMC,022830.000,A,3353.7528,N,09832.0278,W,0.17,273.79,310312,,,D*7D
$GPGGA,022831.000,3353.7528,N,09832.0279,W,2,09,0.9,308.5,M,-23.7,M,2.8,0000*44
$GPGSA,A,3,23,01,11,07,13,08,19,03,28,,,,1.8,0.9,1.6*39
$GPGSV,3,1,12,07,73,039,33,19,48,057,32,08,46,324,33,13,42,184,43*77
$GPGSV,3,2,12,28,32,269,23,11,32,124,26,03,15,043,33,01,14,137,28*75
$GPGSV,3,3,12,23,14,168,23,17,09,208,18,26,08,323,,06,04,040,*74
$GPRMC,022831.000,A,3353.7528,N,09832.0279,W,0.19,284.62,310312,,,D*71
$GPGGA,022832.000,3353.7528,N,09832.0280,W,2,09,0.9,308.2,M,-23.7,M,3.8,0000*47
$GPGSA,A,3,23,01,11,07,13,08,19,03,28,,,,1.8,0.9,1.6*39
$GPRMC,022832.000,A,3353.7528,N,09832.0280,W,0.27,282.84,310312,,,D*77
$GPGGA,022833.000,3353.7529,N,09832.0281,W,2,09,0.9,307.9,M,-23.7,M,0.8,0000*41
$GPGSA,A,3,23,01,11,07,13,08,19,03,28,,,,1.8,0.9,1.6*39
$GPRMC,022833.000,A,3353.7529,N,09832.0281,W,0.39,291.63,310312,,,D*72
$GPGGA,022834.000,3353.7529,N,09832.0281,W,2,09,0.9,307.8,M,-23.7,M,0.8,0000*47
$GPGSA,A,3,23,01,11,07,13,08,19,03,28,,,,1.8,0.9,1.6*39
$GPRMC,022834.000,A,3353.7529,N,09832.0281,W,0.04,286.64,310312,,,D*7A
$GPGGA,022835.000,3353.7528,N,09832.0281,W,2,09,0.9,307.7,M,-23.7,M,0.8,0000*48
$GPGSA,A,3,23,01,11,07,13,08,19,03,28,,,,1.8,0.9,1.6*39
$GPRMC,022835.000,A,3353.7528,N,09832.0281,W,0.17,135.73,310312,,,D*75
$GPGGA,022836.000,3353.7528,N,09832.0281,W,2,09,0.9,307.5,M,-23.7,M,1.8,0000*48
$GPGSA,A,3,23,01,11,07,13,08,19,03,28,,,,1.8,0.9,1.6*39
$GPGSV,3,1,12,07,73,039,33,19,48,057,32,08,46,324,33,13,42,184,43*77
$GPGSV,3,2,12,28,32,269,22,11,32,124,27,03,15,043,33,01,14,137,27*7A
$GPGSV,3,3,12,23,14,168,22,17,09,208,18,26,08,323,,06,04,040,*75
$GPRMC,022836.000,A,3353.7528,N,09832.0281,W,0.07,214.18,310312,,,D*7A
$GPGGA,022837.000,3353.7528,N,09832.0281,W,2,09,0.9,307.4,M,-23.7,M,2.8,0000*4B
$GPGSA,A,3,23,01,11,07,13,08,19,03,28,,,,1.8,0.9,1.6*39
$GPRMC,022837.000,A,3353.7528,N,09832.0281,W,0.21,131.56,310312,,,D*71
$GPGGA,022838.000,3353.7528,N,09832.0281,W,2,09,0.9,307.3,M,-23.7,M,3.8,0000*42
$GPGSA,A,3,23,01,11,07,13,08,19,03,28,,,,1.8,0.9,1.6*39
$GPRMC,022838.000,A,3353.7528,N,09832.0281,W,0.05,187.55,310312,,,D*76
$GPGGA,022839.000,3353.7527,N,09832.0281,W,2,09,0.9,307.2,M,-23.7,M,0.8,0000*4E
$GPGSA,A,3,23,01,11,07,13,08,19,03,28,,,,1.8,0.9,1.6*39
$GPRMC,022839.000,A,3353.7527,N,09832.0281,W,0.14,144.84,310312,,,D*7B
$GPGGA,022840.000,3353.7527,N,09832.0281,W,2,09,0.9,307.1,M,-23.7,M,0.8,0000*43
$GPGSA,A,3,23,01,11,07,13,08,19,03,28,,,,1.8,0.9,1.6*39
$GPRMC,022840.000,A,3353.7527,N,09832.0281,W,0.17,264.56,310312,,,D*78
$GPGGA,022841.000,3353.7527,N,09832.0282,W,2,09,0.9,306.9,M,-23.7,M,0.8,0000*48
$GPGSA,A,3,23,01,11,07,13,08,19,03,28,,,,1.8,0.9,1.6*39
$GPGSV,3,1,12,07,73,039,33,19,48,057,31,08,46,324,33,13,42,184,43*74
$GPGSV,3,2,12,28,32,269,22,11,32,124,27,03,15,043,33,01,14,137,27*7A
$GPGSV,3,3,12,23,14,168,21,17,09,208,19,26,08,323,,06,04,040,*77
$GPRMC,022841.000,A,3353.7527,N,09832.0282,W,0.22,283.70,310312,,,D*71
$GPGGA,022842.000,3353.7527,N,09832.0283,W,2,09,0.9,306.7,M,-23.7,M,0.8,0000*44
$GPGSA,A,3,23,01,11,07,13,08,19,03,28,,,,1.8,0.9,1.6*39
$GPRMC,022842.000,A,3353.7527,N,09832.0283,W,0.29,282.38,310312,,,D*75
$GPGGA,022843.000,3353.7528,N,09832.0284,W,2,09,0.9,306.7,M,-23.7,M,1.8,0000*4C
$GPGSA,A,3,23,01,11,07,13,08,19,03,28,,,,1.8,0.9,1.6*39
$GPRMC,022843.000,A,3353.7528,N,09832.0284,W,0.24,289.67,310312,,,D*70
$GPGGA,022844.000,3353.7528,N,09832.0284,W,2,09,0.9,306.8,M,-23.7,M,2.8,0000*47
$GPGSA,A,3,23,01,11,07,13,08,19,03,28,,,,1.8,0.9,1.6*39
$GPRMC,022844.000,A,3353.7528,N,09832.0284,W,0.01,191.42,310312,,,D*7D
$GPGGA,022845.000,3353.7528,N,09832.0284,W,2,09,0.9,306.8,M,-23.7,M,0.8,0000*44
$GPGSA,A,3,23,01,11,07,13,08,19,03,28,,,,1.8,0.9,1.6*39
$GPRMC,022845.000,A,3353.7528,N,09832.0284,W,0.23,295.09,310312,,,D*74
$GPGGA,022846.000,3353.7528,N,09832.0285,W,2,09,0.9,306.6,M,-23.7,M,0.8,0000*48
$GPGSA,A,3,23,01,11,07,13,08,19,03,28,,,,1.8,0.9,1.6*39
$GPGSV,3,1,12,07,73,039,33,19,48,057,31,08,46,324,33,13,42,184,43*74
$GPGSV,3,2,12,28,32,269,22,11,32,124,27,03,15,043,33,01,14,137,26*7B
$GPGSV,3,3,12,23,14,168,22,17,09,208,19,26,08,323,,06,04,040,*74
$GPRMC,022846.000,A,3353.7528,N,09832.0285,W,0.24,283.55,310312,,,D*7F
$GPGGA,022847.000,3353.7528,N,09832.0284,W,2,09,0.9,306.7,M,-23.7,M,0.8,0000*49
$GPGSA,A,3,23,01,11,07,13,08,19,03,28,,,,1.8,0.9,1.6*39
$GPRMC,022847.000,A,3353.7528,N,09832.0284,W,0.15,135.06,310312,,,D*75
$GPGGA,022848.000,3353.7528,N,09832.0284,W,2,09,0.9,306.7,M,-23.7,M,1.8,0000*47
$GPGSA,A,3,23,01,11,07,13,08,19,03,28,,,,1.8,0.9,1.6*39
$GPRMC,022848.000,A,3353.7528,N,09832.0284,W,0.08,166.54,310312,,,D*77
$GPGGA,022849.000,3353.7527,N,09832.0284,W,2,09,0.9,306.6,M,-23.7,M,2.8,0000*4B
$GPGSA,A,3,23,01,11,07,13,08,19,03,28,,,,1.8,0.9,1.6*39
$GPRMC,022849.000,A,3353.7527,N,09832.0284,W,0.21,135.38,310312,,,D*7E
$GPGGA,022850.000,3353.7527,N,09832.0284,W,2,09,0.9,306.4,M,-23.7,M,3.8,0000*40
$GPGSA,A,3,23,01,11,07,13,08,19,03,28,,,,1.8,0.9,1.6*39
$GPRMC,022850.000,A,3353.7527,N,09832.0284,W,0.15,251.09,310312,,,D*72
$GPGGA,022851.000,3353.7527,N,09832.0285,W,2,09,0.9,306.2,M,-23.7,M,0.8,0000*45
$GPGSA,A,3,23,01,11,07,13,08,19,03,28,,,,1.8,0.9,1.6*39
$GPGSV,3,1,12,07,73,039,34,19,48,057,31,08,46,324,33,13,42,184,43*73
$GPGSV,3,2,12,28,32,269,22,11,32,124,28,03,15,043,33,01,14,137,25*77
$GPGSV,3,3,12,23,14,168,23,17,09,208,18,26,08,323,,06,04,040,*74
$GPRMC,022851.000,A,3353.7527,N,09832.0285,W,0.24,267.65,310312,,,D*7F
$GPGGA,022852.000,3353.7527,N,09832.0285,W,2,09,0.9,306.1,M,-23.7,M,0.8,0000*45
$GPGSA,A,3,23,01,11,07,13,08,19,03,28,,,,1.8,0.9,1.6*39
$GPRMC,022852.000,A,3353.7527,N,09832.0285,W,0.18,151.53,310312,,,D*70
$GPGGA,022853.000,3353.7526,N,09832.0284,W,2,09,0.9,306.1,M,-23.7,M,0.8,0000*44
$GPGSA,A,3,23,01,11,07,13,08,19,03,28,,,,1.8,0.9,1.6*39
$GPRMC,022853.000,A,3353.7526,N,09832.0284,W,0.34,113.20,310312,,,D*7D
$GPGGA,022854.000,3353.7526,N,09832.0283,W,2,09,0.9,306.2,M,-23.7,M,1.8,0000*46
$GPGSA,A,3,23,01,11,07,13,08,19,03,28,,,,1.8,0.9,1.6*39
$GPRMC,022854.000,A,3353.7526,N,09832.0283,W,0.02,191.53,310312,,,D*76
$GPGGA,022855.000,3353.7526,N,09832.0283,W,2,09,0.9,306.4,M,-23.7,M,2.8,0000*42
$GPGSA,A,3,23,01,11,07,13,08,19,03,28,,,,1.8,0.9,1.6*39
$GPRMC,022855.000,A,3353.7526,N,09832.0283,W,0.09,109.29,310312,,,D*70
$GPGGA,022856.000,3353.7526,N,09832.0283,W,2,09,0.9,306.4,M,-23.7,M,3.8,0000*40
$GPGSA,A,3,23,01,11,07,13,08,19,03,28,,,,1.8,0.9,1.6*39
$GPGSV,3,1,12,07,73,044,34,08,48,325,32,19,47,056,31,13,40,183,43*7C
$GPGSV,3,2,12,28,33,271,21,11,32,122,29,01,15,136,24,03,14,043,33*7B
$GPGSV,3,3,12,23,13,168,24,17,10,208,19,26,09,323,,06,03,040,*7B
$GPRMC,022856.000,A,3353.7526,N,09832.0283,W,0.16,107.76,310312,,,D*79
$GPGGA,022857.000,3353.7526,N,09832.0282,W,2,09,0.9,306.5,M,-23.7,M,0.8,0000*42
$GPGSA,A,3,23,01,11,07,13,08,19,03,28,,,,1.8,0.9,1.6*39
$GPRMC,022857.000,A,3353.7526,N,09832.0282,W,0.21,110.88,310312,,,D*7A
$GPGGA,022858.000,3353.7526,N,09832.0282,W,2,09,0.9,306.6,M,-23.7,M,0.8,0000*4E
$GPGSA,A,3,23,01,11,07,13,08,19,03,28,,,,1.8,0.9,1.6*39
$GPRMC,022858.000,A,3353.7526,N,09832.0282,W,0.09,290.85,310312,,,D*79
$GPGGA,022859.000,3353.7526,N,09832.0282,W,2,09,0.9,306.5,M,-23.7,M,0.8,0000*4C
$GPGSA,A,3,23,01,11,07,13,08,19,03,28,,,,1.8,0.9,1.6*39
$GPRMC,022859.000,A,3353.7526,N,09832.0282,W,0.30,121.43,310312,,,D*71
$GPGGA,022900.000,3353.7526,N,09832.0282,W,2,09,0.9,306.6,M,-23.7,M,0.8,0000*42
$GPGSA,A,3,23,01,11,07,13,08,19,03,28,,,,1.8,0.9,1.6*39
$GPRMC,022900.000,A,3353.7526,N,09832.0282,W,0.07,207.28,310312,,,D*72
$GPGGA,022901.000,3353.7526,N,09832.0282,W,2,09,0.9,306.5,M,-23.7,M,1.8,0000*41
$GPGSA,A,3,23,01,11,07,13,08,19,03,28,,,,1.8,0.9,1.6*39
$GPGSV,3,1,12,07,73,044,34,08,48,325,32,19,47,056,31,13,40,183,43*7C
$GPGSV,3,2,12,28,33,271,21,11,32,122,29,01,15,136,20,03,14,043,33*7F
$GPGSV,3,3,12,23,13,168,25,17,10,208,19,26,09,323,,06,03,040,*7A
$GPRMC,022901.000,A,3353.7526,N,09832.0282,W,0.14,259.20,310312,,,D*72
$GPGGA,022902.000,3353.7526,N,09832.0282,W,2,09,0.9,306.5,M,-23.7,M,2.8,0000*41
$GPGSA,A,3,23,01,11,07,13,08,19,03,28,,,,1.8,0.9,1.6*39
$GPRMC,022902.000,A,3353.7526,N,09832.0282,W,0.25,124.63,310312,,,D*7D
$GPGGA,022903.000,3353.7525,N,09832.0281,W,2,09,0.9,306.6,M,-23.7,M,0.8,0000*41
$GPGSA,A,3,23,01,11,07,13,08,19,03,28,,,,1.8,0.9,1.6*39
$GPRMC,022903.000,A,3353.7525,N,09832.0281,W,0.31,125.67,310312,,,D*7C
$GPGGA,022904.000,3353.7525,N,09832.0281,W,2,09,0.9,306.6,M,-23.7,M,0.8,0000*46
$GPGSA,A,3,23,01,11,07,13,08,19,03,28,,,,1.8,0.9,1.6*39
$GPRMC,022904.000,A,3353.7525,N,09832.0281,W,0.13,247.29,310312,,,D*76
$GPGGA,022905.000,3353.7525,N,09832.0281,W,2,09,0.9,306.7,M,-23.7,M,0.8,0000*46
$GPGSA,A,3,23,01,11,07,13,08,19,03,28,,,,1.8,0.9,1.6*39
$GPRMC,022905.000,A,3353.7525,N,09832.0281,W,0.23,109.44,310312,,,D*76
$GPGGA,022906.000,3353.7525,N,09832.0280,W,2,09,0.9,306.9,M,-23.7,M,1.8,0000*4B
$GPGSA,A,3,23,01,11,07,13,08,19,03,28,,,,1.8,0.9,1.6*39
$GPGSV,3,1,12,07,73,044,34,08,48,325,33,19,47,056,31,13,40,183,43*7D
$GPGSV,3,2,12,28,33,271,21,11,32,122,28,01,15,136,21,03,14,043,33*7F
$GPGSV,3,3,12,23,13,168,27,17,10,208,19,26,09,323,,06,03,040,*78
$GPRMC,022906.000,A,3353.7525,N,09832.0280,W,0.11,116.57,310312,,,D*79
$GPGGA,022907.000,3353.7525,N,09832.0280,W,2,09,0.9,307.0,M,-23.7,M,0.8,0000*43
$GPGSA,A,3,23,01,11,07,13,08,19,03,28,,,,1.8,0.9,1.6*39
$GPRMC,022907.000,A,3353.7525,N,09832.0280,W,0.08,116.89,310312,,,D*73
$GPGGA,022908.000,3353.7525,N,09832.0280,W,2,09,0.9,307.2,M,-23.7,M,1.8,0000*4F
$GPGSA,A,3,23,01,11,07,13,08,19,03,28,,,,1.8,0.9,1.6*39
$GPRMC,022908.000,A,3353.7525,N,09832.0280,W,0.19,109.00,310312,,,D*73
$GPGGA,022909.000,3353.7526,N,09832.0280,W,2,09,0.9,307.3,M,-23.7,M,0.8,0000*4D
$GPGSA,A,3,23,01,11,07,13,08,19,03,28,,,,1.8,0.9,1.6*39
$GPRMC,022909.000,A,3353.7526,N,09832.0280,W,0.10,294.07,310312,,,D*78
