$GPGGA,034147.000,3353.7533,N,09832.0237,W,2,08,1.0,315.7,M,-23.7,M,0.8,0000*4E
$GPGSA,A,3,07,19,01,17,13,28,26,08,,,,,1.8,1.0,1.5*32
$GPRMC,034147.000,A,3353.7533,N,09832.0237,W,0.03,127.93,300312,,,D*70
$GPGGA,034148.000,3353.7534,N,09832.0235,W,2,07,1.1,316.2,M,-23.7,M,0.8,0000*4C
$GPGSA,A,3,07,19,01,17,28,26,08,,,,,,2.4,1.1,2.1*39
$GPGSV,3,1,10,08,77,358,36,07,56,127,32,28,49,306,34,11,42,083,*70
$GPGSV,3,2,10,17,39,221,20,01,36,109,30,26,29,300,26,19,21,043,36*78
$GPGSV,3,3,10,13,09,178,35,51,49,195,40*7B
$GPRMC,034148.000,A,3353.7534,N,09832.0235,W,0.20,66.70,300312,,,D*42
$GPGGA,034149.000,3353.7535,N,09832.0233,W,2,07,1.1,316.4,M,-23.7,M,0.8,0000*4C
$GPGSA,A,3,07,19,01,17,28,26,08,,,,,,2.4,1.1,2.1*39
$GPRMC,034149.000,A,3353.7535,N,09832.0233,W,0.05,196.38,300312,,,D*71
$GPGGA,034150.000,3353.7536,N,09832.0232,W,2,07,1.1,316.7,M,-23.7,M,1.8,0000*44
$GPGSA,A,3,07,19,01,17,28,26,08,,,,,,2.4,1.1,2.1*39
$GPRMC,034150.000,A,3353.7536,N,09832.0232,W,0.13,196.30,300312,,,D*74
$GPGGA,034151.000,3353.7537,N,09832.0232,W,2,08,1.1,317.1,M,-23.7,M,0.8,0000*4D
$GPGSA,A,3,07,11,19,01,17,28,26,08,,,,,2.4,1.1,2.1*39
$GPRMC,034151.000,A,3353.7537,N,09832.0232,W,0.29,45.85,300312,,,D*4C
$GPGGA,034152.000,3353.7539,N,09832.0231,W,2,08,1.1,317.4,M,-23.7,M,0.8,0000*46
$GPGSA,A,3,07,11,19,01,17,28,26,08,,,,,2.4,1.1,2.1*39
$GPRMC,034152.000,A,3353.7539,N,09832.0231,W,0.35,44.88,300312,,,D*43
$GPGGA,034153.000,3353.7541,N,09832.0231,W,2,08,1.1,317.7,M,-23.7,M,0.8,0000*4B
$GPGSA,A,3,07,11,19,01,17,28,26,08,,,,,2.4,1.1,2.1*39
$GPGSV,3,1,10,08,77,358,36,07,56,127,32,28,49,306,34,11,42,083,19*78
$GPGSV,3,2,10,17,39,221,20,01,36,109,30,26,29,300,25,19,21,043,36*7B
$GPGSV,3,3,10,13,09,178,35,51,49,195,39*75
$GPRMC,034153.000,A,3353.7541,N,09832.0231,W,0.44,45.51,300312,,,D*4E
$GPGGA,034154.000,3353.7543,N,09832.0230,W,2,08,1.1,318.1,M,-23.7,M,1.8,0000*47
$GPGSA,A,3,07,11,19,01,17,28,26,08,,,,,2.4,1.1,2.1*39
$GPRMC,034154.000,A,3353.7543,N,09832.0230,W,0.43,38.89,300312,,,D*42
$GPGGA,034155.000,3353.7545,N,09832.0229,W,2,08,1.1,318.6,M,-23.7,M,0.8,0000*4E
$GPGSA,A,3,07,11,19,01,17,28,26,08,,,,,2.4,1.1,2.1*39
$GPRMC,034155.000,A,3353.7545,N,09832.0229,W,0.11,60.18,300312,,,D*4F
$GPGGA,034156.000,3353.7546,N,09832.0228,W,2,08,1.1,319.2,M,-23.7,M,1.8,0000*4B
$GPGSA,A,3,07,11,19,01,17,28,26,08,,,,,2.4,1.1,2.1*39
$GPRMC,034156.000,A,3353.7546,N,09832.0228,W,0.02,85.91,300312,,,D*46
$GPGGA,034157.000,3353.7547,N,09832.0227,W,2,08,1.1,319.9,M,-23.7,M,0.8,0000*4E
$GPGSA,A,3,07,11,19,01,17,28,26,08,,,,,2.4,1.1,2.1*39
$GPRMC,034157.000,A,3353.7547,N,09832.0227,W,0.29,35.28,300312,,,D*49
$GPGGA,034158.000,3353.7549,N,09832.0225,W,2,08,1.1,320.7,M,-23.7,M,0.8,0000*49
$GPGSA,A,3,07,11,19,01,17,28,26,08,,,,,2.4,1.1,2.1*39
$GPGSV,3,1,10,08,77,358,36,07,56,127,32,28,49,306,34,11,42,083,20*72
$GPGSV,3,2,10,17,39,221,24,01,36,109,31,26,29,300,25,19,21,043,37*7F
$GPGSV,3,3,10,13,09,178,34,51,49,195,40*7A
$GPRMC,034158.000,A,3353.7549,N,09832.0225,W,0.42,48.87,300312,,,D*48
$GPGGA,034159.000,3353.7552,N,09832.0223,W,2,08,1.1,321.6,M,-23.7,M,0.8,0000*44
$GPGSA,A,3,07,11,19,01,17,28,26,08,,,,,2.4,1.1,2.1*39
$GPRMC,034159.000,A,3353.7552,N,09832.0223,W,0.40,28.30,300312,,,D*4D
$GPGGA,034200.000,3353.7554,N,09832.0222,W,2,08,1.1,322.3,M,-23.7,M,1.8,0000*4B
$GPGSA,A,3,07,11,19,01,17,28,26,08,,,,,2.4,1.1,2.1*39
$GPRMC,034200.000,A,3353.7554,N,09832.0222,W,0.19,27.32,300312,,,D*44
$GPGGA,034201.000,3353.7555,N,09832.0222,W,2,08,1.1,322.7,M,-23.7,M,2.8,0000*4C
$GPGSA,A,3,07,11,19,01,17,28,26,08,,,,,2.4,1.1,2.1*39
$GPRMC,034201.000,A,3353.7555,N,09832.0222,W,0.19,16.87,300312,,,D*48
$GPGGA,034202.000,3353.7557,N,09832.0223,W,2,08,1.1,322.7,M,-23.7,M,3.8,0000*4D
$GPGSA,A,3,07,11,19,01,17,28,26,08,,,,,2.4,1.1,2.1*39
$GPRMC,034202.000,A,3353.7557,N,09832.0223,W,0.18,351.18,300312,,,D*7F
$GPGGA,034203.000,3353.7554,N,09832.0226,W,2,08,1.1,322.4,M,-23.7,M,0.8,0000*4A
$GPGSA,A,3,07,11,19,01,17,28,26,08,,,,,2.4,1.1,2.1*39
$GPGSV,3,1,10,08,77,358,36,07,56,127,31,28,49,306,33,11,42,083,20*76
$GPGSV,3,2,10,17,39,221,27,01,36,109,31,26,29,300,25,19,21,043,37*7C
$GPGSV,3,3,10,13,09,178,34,51,49,195,39*74
$GPRMC,034203.000,A,3353.7554,N,09832.0226,W,0.12,46.78,300312,,,D*41
$GPGGA,034204.000,3353.7552,N,09832.0228,W,2,08,1.1,322.2,M,-23.7,M,0.8,0000*43
$GPGSA,A,3,07,11,19,01,17,28,26,08,,,,,2.4,1.1,2.1*39
$GPRMC,034204.000,A,3353.7552,N,09832.0228,W,0.23,94.59,300312,,,D*40
$GPGGA,034205.000,3353.7551,N,09832.0229,W,2,08,1.1,322.0,M,-23.7,M,0.8,0000*42
$GPGSA,A,3,07,11,19,01,17,28,26,08,,,,,2.4,1.1,2.1*39
$GPRMC,034205.000,A,3353.7551,N,09832.0229,W,0.10,50.97,300312,,,D*49
$GPGGA,034206.000,3353.7550,N,09832.0230,W,2,08,1.1,322.0,M,-23.7,M,0.8,0000*48
$GPGSA,A,3,07,11,19,01,17,28,26,08,,,,,2.4,1.1,2.1*39
$GPRMC,034206.000,A,3353.7550,N,09832.0230,W,0.12,85.21,300312,,,D*44
$GPGGA,034207.000,3353.7549,N,09832.0231,W,2,08,1.1,321.9,M,-23.7,M,1.8,0000*4B
$GPGSA,A,3,07,11,19,01,17,28,26,08,,,,,2.4,1.1,2.1*39
$GPRMC,034207.000,A,3353.7549,N,09832.0231,W,0.18,92.87,300312,,,D*4C
$GPGGA,034208.000,3353.7549,N,09832.0231,W,2,08,1.1,321.8,M,-23.7,M,2.8,0000*46
$GPGSA,A,3,07,11,19,01,17,28,26,08,,,,,2.4,1.1,2.1*39
$GPGSV,3,1,10,08,77,358,36,07,56,127,31,28,49,306,33,11,42,083,19*7C
$GPGSV,3,2,10,17,39,221,29,01,36,109,31,26,29,300,20,19,21,043,37*77
$GPGSV,3,3,10,13,09,178,33,51,49,195,39*73
$GPRMC,034208.000,A,3353.7549,N,09832.0231,W,0.06,47.06,300312,,,D*4D
$GPGGA,034209.000,3353.7549,N,09832.0232,W,2,08,1.1,321.8,M,-23.7,M,0.8,0000*46
$GPGSA,A,3,07,11,19,01,17,28,26,08,,,,,2.4,1.1,2.1*39
$GPRMC,034209.000,A,3353.7549,N,09832.0232,W,0.04,315.62,300312,,,D*7B
$GPGGA,034210.000,3353.7549,N,09832.0233,W,2,08,1.1,321.9,M,-23.7,M,0.8,0000*4E
$GPGSA,A,3,07,11,19,01,17,28,26,08,,,,,2.4,1.1,2.1*39
$GPRMC,034210.000,A,3353.7549,N,09832.0233,W,0.13,305.19,300312,,,D*79
$GPGGA,034211.000,3353.7549,N,09832.0234,W,2,08,1.1,321.9,M,-23.7,M,0.8,0000*48
$GPGSA,A,3,07,11,19,01,17,28,26,08,,,,,2.4,1.1,2.1*39
$GPRMC,034211.000,A,3353.7549,N,09832.0234,W,0.14,99.88,300312,,,D*46
$GPGGA,034212.000,3353.7549,N,09832.0234,W,2,08,1.1,321.9,M,-23.7,M,1.8,0000*4A
$GPGSA,A,3,07,11,19,01,17,28,26,08,,,,,2.4,1.1,2.1*39
$GPRMC,034212.000,A,3353.7549,N,09832.0234,W,0.07,22.55,300312,,,D*47
$GPGGA,034213.000,3353.7549,N,09832.0234,W,2,08,1.1,321.9,M,-23.7,M,2.8,0000*48
$GPGSA,A,3,07,11,19,01,17,28,26,08,,,,,2.4,1.1,2.1*39
$GPGSV,3,1,10,08,77,358,37,07,56,127,32,28,49,306,34,11,42,083,20*73
$GPGSV,3,2,10,17,39,221,29,01,36,109,31,26,29,300,20,19,21,043,37*77
$GPGSV,3,3,10,13,09,178,33,51,49,195,39*73
$GPRMC,034213.000,A,3353.7549,N,09832.0234,W,0.13,83.16,300312,,,D*4F
$GPGGA,034214.000,3353.7549,N,09832.0235,W,2,08,1.1,322.0,M,-23.7,M,3.8,0000*45
$GPGSA,A,3,07,11,19,01,17,28,26,08,,,,,2.4,1.1,2.1*39
$GPRMC,034214.000,A,3353.7549,N,09832.0235,W,0.15,316.43,300312,,,D*70
$GPGGA,034215.000,3353.7550,N,09832.0235,W,2,08,1.1,321.9,M,-23.7,M,0.8,0000*45
$GPGSA,A,3,07,11,19,01,17,28,26,08,,,,,2.4,1.1,2.1*39
$GPRMC,034215.000,A,3353.7550,N,09832.0235,W,0.03,6.58,300312,,,D*76
$GPGGA,034216.000,3353.7550,N,09832.0235,W,2,08,1.1,321.9,M,-23.7,M,0.8,0000*46
$GPGSA,A,3,07,11,19,01,17,28,26,08,,,,,2.4,1.1,2.1*39
$GPRMC,034216.000,A,3353.7550,N,09832.0235,W,0.21,106.97,300312,,,D*77
$GPGGA,034217.000,3353.7549,N,09832.0235,W,2,08,1.1,322.0,M,-23.7,M,0.8,0000*45
$GPGSA,A,3,07,11,19,01,17,28,26,08,,,,,2.4,1.1,2.1*39
$GPRMC,034217.000,A,3353.7549,N,09832.0235,W,0.35,111.62,300312,,,D*77
$GPGGA,034218.000,3353.7549,N,09832.0234,W,2,08,1.1,322.1,M,-23.7,M,0.8,0000*4A
$GPGSA,A,3,07,11,19,01,17,28,26,08,,,,,2.4,1.1,2.1*39
$GPGSV,3,1,10,08,77,358,37,07,56,127,32,28,49,306,34,11,42,083,20*73
$GPGSV,3,2,10,17,39,221,28,01,36,109,31,26,29,300,21,19,21,043,37*77
$GPGSV,3,3,10,13,09,178,33,51,49,195,39*73
$GPRMC,034218.000,A,3353.7549,N,09832.0234,W,0.32,101.22,300312,,,D*7B
$GPGGA,034219.000,3353.7549,N,09832.0234,W,2,08,1.1,321.9,M,-23.7,M,1.8,0000*41
$GPGSA,A,3,07,11,19,01,17,28,26,08,,,,,2.4,1.1,2.1*39
$GPRMC,034219.000,A,3353.7549,N,09832.0234,W,0.06,331.99,300312,,,D*7C
$GPGGA,034220.000,3353.7549,N,09832.0235,W,2,08,1.1,321.8,M,-23.7,M,2.8,0000*48
$GPGSA,A,3,07,11,19,01,17,28,26,08,,,,,2.4,1.1,2.1*39
$GPRMC,034220.000,A,3353.7549,N,09832.0235,W,0.07,308.11,300312,,,D*7C
$GPGGA,034221.000,3353.7549,N,09832.0235,W,2,08,1.1,321.8,M,-23.7,M,0.8,0000*4B
$GPGSA,A,3,07,11,19,01,17,28,26,08,,,,,2.4,1.1,2.1*39
$GPRMC,034221.000,A,3353.7549,N,09832.0235,W,0.05,89.23,300312,,,D*44
$GPGGA,034222.000,3353.7549,N,09832.0236,W,2,08,1.1,321.7,M,-23.7,M,0.8,0000*44
$GPGSA,A,3,07,11,19,01,17,28,26,08,,,,,2.4,1.1,2.1*39
$GPRMC,034222.000,A,3353.7549,N,09832.0236,W,0.14,296.48,300312,,,D*75
$GPGGA,034223.000,3353.7549,N,09832.0236,W,2,08,1.1,321.7,M,-23.7,M,0.8,0000*45
$GPGSA,A,3,07,11,19,01,17,28,26,08,,,,,2.4,1.1,2.1*39
$GPGSV,3,1,10,08,77,358,37,07,56,127,33,28,49,306,34,11,42,083,22*70
$GPGSV,3,2,10,17,39,221,27,01,36,109,32,26,29,300,20,19,21,043,37*7A
$GPGSV,3,3,10,13,09,178,33,51,49,195,39*73
$GPRMC,034223.000,A,3353.7549,N,09832.0236,W,0.16,108.48,300312,,,D*72
$GPGGA,034224.000,3353.7549,N,09832.0237,W,2,08,1.1,321.6,M,-23.7,M,1.8,0000*43
$GPGSA,A,3,07,11,19,01,17,28,26,08,,,,,2.4,1.1,2.1*39
$GPRMC,034224.000,A,3353.7549,N,09832.0237,W,0.07,310.20,300312,,,D*71
$GPGGA,034225.000,3353.7549,N,09832.0238,W,2,08,1.1,321.5,M,-23.7,M,2.8,0000*4D
$GPGSA,A,3,07,11,19,01,17,28,26,08,,,,,2.4,1.1,2.1*39
$GPRMC,034225.000,A,3353.7549,N,09832.0238,W,0.12,295.76,300312,,,D*74
$GPGGA,034226.000,3353.7549,N,09832.0239,W,2,08,1.1,321.4,M,-23.7,M,0.8,0000*4C
$GPGSA,A,3,07,11,19,01,17,28,26,08,,,,,2.4,1.1,2.1*39
$GPRMC,034226.000,A,3353.7549,N,09832.0239,W,0.03,318.26,300312,,,D*77
$GPGGA,034227.000,3353.7549,N,09832.0239,W,2,08,1.1,321.3,M,-23.7,M,0.8,0000*4A
$GPGSA,A,3,07,11,19,01,17,28,26,08,,,,,2.4,1.1,2.1*39
$GPRMC,034227.000,A,3353.7549,N,09832.0239,W,0.20,106.53,300312,,,D*78
$GPGGA,034228.000,3353.7548,N,09832.0239,W,2,08,1.1,321.2,M,-23.7,M,0.8,0000*45
$GPGSA,A,3,07,11,19,01,17,28,26,08,,,,,2.4,1.1,2.1*39
$GPGSV,3,1,10,08,77,358,37,07,56,127,33,28,49,306,34,11,42,083,24*76
$GPGSV,3,2,10,17,39,221,27,01,36,109,33,26,29,300,20,19,21,043,36*7A
$GPGSV,3,3,10,13,09,178,33,51,49,195,39*73
$GPRMC,034228.000,A,3353.7548,N,09832.0239,W,0.28,116.54,300312,,,D*78
$GPGGA,034229.000,3353.7548,N,09832.0239,W,2,08,1.1,321.1,M,-23.7,M,0.8,0000*47
$GPGSA,A,3,07,11,19,01,17,28,26,08,,,,,2.4,1.1,2.1*39
$GPRMC,034229.000,A,3353.7548,N,09832.0239,W,0.06,61.11,300312,,,D*45
$GPGGA,034230.000,3353.7548,N,09832.0240,W,2,08,1.1,320.9,M,-23.7,M,1.8,0000*49
$GPGSA,A,3,07,11,19,01,17,28,26,08,,,,,2.4,1.1,2.1*39
$GPRMC,034230.000,A,3353.7548,N,09832.0240,W,0.06,307.55,300312,,,D*70
$GPGGA,034231.000,3353.7548,N,09832.0241,W,2,08,1.1,320.7,M,-23.7,M,2.8,0000*44
$GPGSA,A,3,07,11,19,01,17,28,26,08,,,,,2.4,1.1,2.1*39
$GPRMC,034231.000,A,3353.7548,N,09832.0241,W,0.12,306.15,300312,,,D*70
$GPGGA,034232.000,3353.7548,N,09832.0242,W,2,08,1.1,320.5,M,-23.7,M,3.8,0000*47
$GPGSA,A,3,07,11,19,01,17,28,26,08,,,,,2.4,1.1,2.1*39
$GPRMC,034232.000,A,3353.7548,N,09832.0242,W,0.11,281.34,300312,,,D*7E
$GPGGA,034233.000,3353.7546,N,09832.0244,W,2,08,1.1,319.9,M,-23.7,M,0.8,0000*4B
$GPGSA,A,3,07,11,19,01,17,28,26,08,,,,,2.4,1.1,2.1*39
$GPGSV,3,1,10,08,77,358,37,07,56,127,34,28,49,306,34,11,42,083,25*70
$GPGSV,3,2,10,17,39,221,26,01,36,109,33,26,29,300,20,19,21,043,36*7B
$GPGSV,3,3,10,13,09,178,33,51,49,195,39*73
$GPRMC,034233.000,A,3353.7546,N,09832.0244,W,0.11,244.09,300312,,,D*70
$GPGGA,034234.000,3353.7545,N,09832.0246,W,2,08,1.1,319.5,M,-23.7,M,0.8,0000*41
$GPGSA,A,3,07,11,19,01,17,28,26,08,,,,,2.4,1.1,2.1*39
$GPRMC,034234.000,A,3353.7545,N,09832.0246,W,0.10,226.84,300312,,,D*76
$GPGGA,034235.000,3353.7544,N,09832.0247,W,2,08,1.1,319.1,M,-23.7,M,0.8,0000*44
$GPGSA,A,3,07,11,19,01,17,28,26,08,,,,,2.4,1.1,2.1*39
$GPRMC,034235.000,A,3353.7544,N,09832.0247,W,0.09,240.90,300312,,,D*7A
$GPGGA,034236.000,3353.7544,N,09832.0248,W,2,08,1.1,319.0,M,-23.7,M,0.8,0000*49
$GPGSA,A,3,07,11,19,01,17,28,26,08,,,,,2.4,1.1,2.1*39
$GPRMC,034236.000,A,3353.7544,N,09832.0248,W,0.08,193.40,300312,,,D*77
$GPGGA,034237.000,3353.7544,N,09832.0249,W,2,08,1.1,318.8,M,-23.7,M,1.8,0000*41
$GPGSA,A,3,07,11,19,01,17,28,26,08,,,,,2.4,1.1,2.1*39
$GPRMC,034237.000,A,3353.7544,N,09832.0249,W,0.13,283.59,300312,,,D*77
$GPGGA,034238.000,3353.7544,N,09832.0249,W,2,08,1.1,318.7,M,-23.7,M,0.8,0000*40
$GPGSA,A,3,07,11,19,01,17,28,26,08,,,,,2.4,1.1,2.1*39
$GPGSV,3,1,10,08,77,358,37,07,56,127,34,28,49,306,34,11,42,083,26*73
$GPGSV,3,2,10,17,39,221,27,01,36,109,34,26,29,300,21,19,21,043,36*7C
$GPGSV,3,3,10,13,09,178,33,51,49,195,39*73
$GPRMC,034238.000,A,3353.7544,N,09832.0249,W,0.05,144.44,300312,,,D*7B
$GPGGA,034239.000,3353.7544,N,09832.0249,W,2,08,1.1,318.7,M,-23.7,M,0.8,0000*41
$GPGSA,A,3,07,11,19,01,17,28,26,08,,,,,2.4,1.1,2.1*39
$GPRMC,034239.000,A,3353.7544,N,09832.0249,W,0.12,119.10,300312,,,D*75
$GPGGA,034240.000,3353.7544,N,09832.0249,W,2,08,1.1,318.8,M,-23.7,M,0.8,0000*40
$GPGSA,A,3,07,11,19,01,17,28,26,08,,,,,2.4,1.1,2.1*39
$GPRMC,034240.000,A,3353.7544,N,09832.0249,W,0.22,108.77,300312,,,D*79
$GPGGA,034241.000,3353.7545,N,09832.0248,W,2,08,1.1,319.0,M,-23.7,M,0.8,0000*48
$GPGSA,A,3,07,11,19,01,17,28,26,08,,,,,2.4,1.1,2.1*39
$GPRMC,034241.000,A,3353.7545,N,09832.0248,W,0.20,98.21,300312,,,D*41
$GPGGA,034242.000,3353.7546,N,09832.0247,W,2,08,1.1,319.2,M,-23.7,M,0.8,0000*45
$GPGSA,A,3,07,11,19,01,17,28,26,08,,,,,2.4,1.1,2.1*39
$GPRMC,034242.000,A,3353.7546,N,09832.0247,W,0.18,93.14,300312,,,D*48
$GPGGA,034243.000,3353.7546,N,09832.0246,W,2,08,1.1,319.3,M,-23.7,M,1.8,0000*45
$GPGSA,A,3,07,11,19,01,17,28,26,08,,,,,2.4,1.1,2.1*39
$GPGSV,3,1,10,08,77,358,37,07,56,127,34,28,49,306,34,11,42,083,26*73
$GPGSV,3,2,10,17,39,221,28,01,36,109,34,26,29,300,22,19,21,043,36*70
$GPGSV,3,3,10,13,09,178,34,51,49,195,39*74
$GPRMC,034243.000,A,3353.7546,N,09832.0246,W,0.09,70.21,300312,,,D*43
$GPGGA,034244.000,3353.7547,N,09832.0246,W,2,08,1.1,319.5,M,-23.7,M,2.8,0000*46
$GPGSA,A,3,07,11,19,01,17,28,26,08,,,,,2.4,1.1,2.1*39
$GPRMC,034244.000,A,3353.7547,N,09832.0246,W,0.14,61.62,300312,,,D*4E
$GPGGA,034245.000,3353.7548,N,09832.0245,W,2,08,1.1,319.8,M,-23.7,M,0.8,0000*44
$GPGSA,A,3,07,11,19,01,17,28,26,08,,,,,2.4,1.1,2.1*39
$GPRMC,034245.000,A,3353.7548,N,09832.0245,W,0.09,68.89,300312,,,D*43
$GPGGA,034246.000,3353.7549,N,09832.0244,W,2,08,1.1,320.1,M,-23.7,M,0.8,0000*44
$GPGSA,A,3,07,11,19,01,17,28,26,08,,,,,2.4,1.1,2.1*39
$GPRMC,034246.000,A,3353.7549,N,09832.0244,W,0.16,94.04,300312,,,D*48
$GPGGA,034247.000,3353.7550,N,09832.0244,W,2,08,1.1,320.4,M,-23.7,M,0.8,0000*48
$GPGSA,A,3,07,11,19,01,17,28,26,08,,,,,2.4,1.1,2.1*39
$GPRMC,034247.000,A,3353.7550,N,09832.0244,W,0.22,93.39,300312,,,D*4F
$GPGGA,034248.000,3353.7550,N,09832.0243,W,2,08,1.1,320.6,M,-23.7,M,0.8,0000*42
$GPGSA,A,3,07,11,19,01,17,28,26,08,,,,,2.4,1.1,2.1*39
$GPGSV,3,1,10,08,77,358,37,07,56,127,34,28,49,306,34,11,42,083,27*72
$GPGSV,3,2,10,17,39,221,28,01,36,109,34,26,29,300,22,19,21,043,36*70
$GPGSV,3,3,10,13,09,178,34,51,49,195,39*74
$GPRMC,034248.000,A,3353.7550,N,09832.0243,W,0.22,108.55,300312,,,D*7E
$GPGGA,034249.000,3353.7550,N,09832.0243,W,2,08,1.1,320.7,M,-23.7,M,0.8,0000*42
$GPGSA,A,3,07,11,19,01,17,28,26,08,,,,,2.4,1.1,2.1*39
$GPRMC,034249.000,A,3353.7550,N,09832.0243,W,0.08,63.54,300312,,,D*4A
$GPGGA,034250.000,3353.7551,N,09832.0242,W,2,08,1.1,320.8,M,-23.7,M,1.8,0000*44
$GPGSA,A,3,07,11,19,01,17,28,26,08,,,,,2.4,1.1,2.1*39
$GPRMC,034250.000,A,3353.7551,N,09832.0242,W,0.09,343.97,300312,,,D*7D
$GPGGA,034251.000,3353.7551,N,09832.0243,W,2,08,1.1,320.8,M,-23.7,M,0.8,0000*45
$GPGSA,A,3,07,11,19,01,17,28,26,08,,,,,2.4,1.1,2.1*39
$GPRMC,034251.000,A,3353.7551,N,09832.0243,W,0.08,28.61,300312,,,D*4B
$GPGGA,034252.000,3353.7551,N,09832.0243,W,2,08,1.1,320.7,M,-23.7,M,0.8,0000*49
$GPGSA,A,3,07,11,19,01,17,28,26,08,,,,,2.4,1.1,2.1*39
$GPRMC,034252.000,A,3353.7551,N,09832.0243,W,0.07,342.63,300312,,,D*7A
$GPGGA,034253.000,3353.7552,N,09832.0243,W,2,08,1.1,320.7,M,-23.7,M,0.8,0000*4B
$GPGSA,A,3,07,11,19,01,17,28,26,08,,,,,2.4,1.1,2.1*39
$GPGSV,3,1,10,08,77,358,38,07,56,127,34,28,49,306,34,11,42,083,28*72
$GPGSV,3,2,10,17,39,221,28,01,36,109,34,26,29,300,22,19,21,043,36*70
$GPGSV,3,3,10,13,09,178,34,51,49,195,39*74
$GPRMC,034253.000,A,3353.7552,N,09832.0243,W,0.06,63.53,300312,,,D*4A
$GPGGA,034254.000,3353.7552,N,09832.0243,W,2,08,1.1,320.9,M,-23.7,M,1.8,0000*43
$GPGSA,A,3,07,11,19,01,17,28,26,08,,,,,2.4,1.1,2.1*39
$GPRMC,034254.000,A,3353.7552,N,09832.0243,W,0.08,349.48,300312,,,D*72
$GPGGA,034255.000,3353.7553,N,09832.0242,W,2,08,1.1,321.0,M,-23.7,M,2.8,0000*49
$GPGSA,A,3,07,11,19,01,17,28,26,08,,,,,2.4,1.1,2.1*39
$GPRMC,034255.000,A,3353.7553,N,09832.0242,W,0.11,3.60,300312,,,D*7C
$GPGGA,034256.000,3353.7554,N,09832.0242,W,2,08,1.1,321.1,M,-23.7,M,3.8,0000*4D
$GPGSA,A,3,07,11,19,01,17,28,26,08,,,,,2.4,1.1,2.1*39
$GPRMC,034256.000,A,3353.7554,N,09832.0242,W,0.08,15.01,300312,,,D*40
$GPGGA,034257.000,3353.7555,N,09832.0241,W,2,08,1.1,321.4,M,-23.7,M,0.8,0000*48
$GPGSA,A,3,07,11,19,01,17,28,26,08,,,,,2.4,1.1,2.1*39
$GPRMC,034257.000,A,3353.7555,N,09832.0241,W,0.16,95.89,300312,,,D*44
$GPGGA,034258.000,3353.7556,N,09832.0241,W,2,08,1.1,321.6,M,-23.7,M,0.8,0000*46
$GPGSA,A,3,07,11,19,01,17,28,26,08,,,,,2.4,1.1,2.1*39
$GPGSV,3,1,10,08,77,358,38,07,56,127,35,28,49,306,33,11,42,083,28*74
$GPGSV,3,2,10,17,39,221,28,01,36,109,34,26,29,300,23,19,21,043,36*71
$GPGSV,3,3,10,13,09,178,35,51,49,195,39*75
$GPRMC,034258.000,A,3353.7556,N,09832.0241,W,0.09,345.19,300312,,,D*71
$GPGGA,034259.000,3353.7556,N,09832.0241,W,2,08,1.1,321.8,M,-23.7,M,0.8,0000*49
$GPGSA,A,3,07,11,19,01,17,28,26,08,,,,,2.4,1.1,2.1*39
$GPRMC,034259.000,A,3353.7556,N,09832.0241,W,0.07,24.63,300312,,,D*47
$GPGGA,034300.000,3353.7557,N,09832.0241,W,2,08,1.1,321.9,M,-23.7,M,1.8,0000*45
$GPGSA,A,3,07,11,19,01,17,28,26,08,,,,,2.4,1.1,2.1*39
$GPRMC,034300.000,A,3353.7557,N,09832.0241,W,0.09,345.02,300312,,,D*76
$GPGGA,034301.000,3353.7558,N,09832.0240,W,2,08,1.1,322.2,M,-23.7,M,2.8,0000*41
$GPGSA,A,3,07,11,19,01,17,28,26,08,,,,,2.4,1.1,2.1*39
$GPRMC,034301.000,A,3353.7558,N,09832.0240,W,0.18,88.52,300312,,,D*4E
$GPGGA,034302.000,3353.7559,N,09832.0240,W,2,08,1.1,322.3,M,-23.7,M,3.8,0000*43
$GPGSA,A,3,07,11,19,01,17,28,26,08,,,,,2.4,1.1,2.1*39
$GPRMC,034302.000,A,3353.7559,N,09832.0240,W,0.08,343.49,300312,,,D*73
$GPGGA,034303.000,3353.7560,N,09832.0240,W,2,08,1.1,322.4,M,-23.7,M,0.8,0000*4C
$GPGSA,A,3,07,11,19,01,17,28,26,08,,,,,2.4,1.1,2.1*39
$GPGSV,3,1,10,08,77,358,38,07,56,127,35,28,49,306,33,11,42,083,28*74
$GPGSV,3,2,10,17,39,221,27,01,36,109,34,26,29,300,24,19,21,043,36*79
$GPGSV,3,3,10,13,09,178,35,51,49,195,39*75
$GPRMC,034303.000,A,3353.7560,N,09832.0240,W,0.10,62.52,300312,,,D*4B
$GPGGA,034304.000,3353.7560,N,09832.0239,W,2,08,1.1,322.5,M,-23.7,M,0.8,0000*44
$GPGSA,A,3,07,11,19,01,17,28,26,08,,,,,2.4,1.1,2.1*39
$GPRMC,034304.000,A,3353.7560,N,09832.0239,W,0.09,17.04,300312,,,D*4B
$GPGGA,034305.000,3353.7561,N,09832.0239,W,2,08,1.1,322.8,M,-23.7,M,0.8,0000*49
$GPGSA,A,3,07,11,19,01,17,28,26,08,,,,,2.4,1.1,2.1*39
$GPRMC,034305.000,A,3353.7561,N,09832.0239,W,0.15,42.17,300312,,,D*44
$GPGGA,034306.000,3353.7563,N,09832.0237,W,2,08,1.1,323.2,M,-23.7,M,0.8,0000*4D
$GPGSA,A,3,07,11,19,01,17,28,26,08,,,,,2.4,1.1,2.1*39
$GPRMC,034306.000,A,3353.7563,N,09832.0237,W,0.20,48.15,300312,,,D*45
$GPGGA,034307.000,3353.7564,N,09832.0235,W,2,08,1.1,323.5,M,-23.7,M,1.8,0000*4F
$GPGSA,A,3,07,11,19,01,17,28,26,08,,,,,2.4,1.1,2.1*39
$GPRMC,034307.000,A,3353.7564,N,09832.0235,W,0.08,101.91,300312,,,D*7B
$GPGGA,034308.000,3353.7566,N,09832.0233,W,2,08,1.1,323.9,M,-23.7,M,0.8,0000*49
$GPGSA,A,3,07,11,19,01,17,28,26,08,,,,,2.4,1.1,2.1*39
$GPGSV,3,1,10,08,77,358,38,07,56,127,34,28,49,306,32,11,42,083,27*7B
$GPGSV,3,2,10,17,39,221,27,01,36,109,35,26,29,300,25,19,21,043,36*79
$GPGSV,3,3,10,13,09,178,35,51,49,195,39*75
$GPRMC,034308.000,A,3353.7566,N,09832.0233,W,0.16,54.62,300312,,,D*42
$GPGGA,034309.000,3353.7567,N,09832.0231,W,2,08,1.1,324.2,M,-23.7,M,0.8,0000*47
$GPGSA,A,3,07,11,19,01,17,28,26,08,,,,,2.4,1.1,2.1*39
$GPRMC,034309.000,A,3353.7567,N,09832.0231,W,0.07,77.01,300312,,,D*44
$GPGGA,034310.000,3353.7569,N,09832.0229,W,2,08,1.1,324.6,M,-23.7,M,0.8,0000*4C
$GPGSA,A,3,07,11,19,01,17,28,26,08,,,,,2.4,1.1,2.1*39
$GPRMC,034310.000,A,3353.7569,N,09832.0229,W,0.16,39.82,300312,,,D*4A
$GPGGA,034311.000,3353.7570,N,09832.0228,W,2,08,1.1,325.0,M,-23.7,M,0.8,0000*43
$GPGSA,A,3,07,11,19,01,17,28,26,08,,,,,2.4,1.1,2.1*39
$GPRMC,034311.000,A,3353.7570,N,09832.0228,W,0.20,49.39,300312,,,D*40
$GPGGA,034312.000,3353.7571,N,09832.0226,W,2,08,1.1,325.2,M,-23.7,M,1.8,0000*4C
$GPGSA,A,3,07,11,19,01,17,28,26,08,,,,,2.4,1.1,2.1*39
$GPRMC,034312.000,A,3353.7571,N,09832.0226,W,0.13,79.71,300312,,,D*43
$GPGGA,034313.000,3353.7572,N,09832.0225,W,2,08,1.1,325.5,M,-23.7,M,2.8,0000*49
$GPGSA,A,3,07,11,19,01,17,28,26,08,,,,,2.4,1.1,2.1*39
$GPGSV,3,1,10,08,77,358,38,07,56,127,34,28,49,306,32,11,42,083,27*7B
$GPGSV,3,2,10,17,39,221,26,01,36,109,36,26,29,300,25,19,21,043,36*7B
$GPGSV,3,3,10,13,09,178,35,51,49,195,39*75
$GPRMC,034313.000,A,3353.7572,N,09832.0225,W,0.11,60.33,300312,,,D*4E
$GPGGA,034314.000,3353.7573,N,09832.0224,W,2,08,1.1,325.7,M,-23.7,M,3.8,0000*4D
$GPGSA,A,3,07,11,19,01,17,28,26,08,,,,,2.4,1.1,2.1*39
$GPRMC,034314.000,A,3353.7573,N,09832.0224,W,0.09,84.88,300312,,,D*4A
$GPGGA,034315.000,3353.7574,N,09832.0223,W,2,08,1.1,325.9,M,-23.7,M,0.8,0000*41
$GPGSA,A,3,07,11,19,01,17,28,26,08,,,,,2.4,1.1,2.1*39
$GPRMC,034315.000,A,3353.7574,N,09832.0223,W,0.15,68.29,300312,,,D*4F
$GPGGA,034316.000,3353.7574,N,09832.0222,W,2,08,1.1,326.1,M,-23.7,M,0.8,0000*48
$GPGSA,A,3,07,11,19,01,17,28,26,08,,,,,2.4,1.1,2.1*39
$GPRMC,034316.000,A,3353.7574,N,09832.0222,W,0.15,92.32,300312,,,D*42
$GPGGA,034317.000,3353.7575,N,09832.0221,W,2,08,1.1,326.4,M,-23.7,M,0.8,0000*4E
$GPGSA,A,3,07,11,19,01,17,28,26,08,,,,,2.4,1.1,2.1*39
$GPRMC,034317.000,A,3353.7575,N,09832.0221,W,0.12,59.11,300312,,,D*40
$GPGGA,034318.000,3353.7576,N,09832.0220,W,2,08,1.1,326.6,M,-23.7,M,1.8,0000*40
$GPGSA,A,3,07,11,19,01,17,28,26,08,,,,,2.4,1.1,2.1*39
$GPGSV,3,1,10,08,77,358,39,07,56,127,33,28,49,306,31,11,42,083,27*7E
$GPGSV,3,2,10,17,39,221,27,01,36,109,36,26,29,300,25,19,21,043,36*7A
$GPGSV,3,3,10,13,09,178,35,51,49,195,39*75
$GPRMC,034318.000,A,3353.7576,N,09832.0220,W,0.14,53.38,300312,,,D*4A
$GPGGA,034319.000,3353.7577,N,09832.0219,W,2,08,1.1,326.9,M,-23.7,M,2.8,0000*46
$GPGSA,A,3,07,11,19,01,17,28,26,08,,,,,2.4,1.1,2.1*39
$GPRMC,034319.000,A,3353.7577,N,09832.0219,W,0.14,68.58,300312,,,D*4E
$GPGGA,034320.000,3353.7578,N,09832.0219,W,2,08,1.1,327.1,M,-23.7,M,3.8,0000*4B
$GPGSA,A,3,07,11,19,01,17,28,26,08,,,,,2.4,1.1,2.1*39
$GPRMC,034320.000,A,3353.7578,N,09832.0219,W,0.12,58.42,300312,,,D*45
$GPGGA,034321.000,3353.7579,N,09832.0218,W,2,08,1.1,327.4,M,-23.7,M,0.8,0000*4C
$GPGSA,A,3,07,11,19,01,17,28,26,08,,,,,2.4,1.1,2.1*39
$GPRMC,034321.000,A,3353.7579,N,09832.0218,W,0.09,58.48,300312,,,D*44
$GPGGA,034322.000,3353.7580,N,09832.0217,W,2,08,1.1,327.6,M,-23.7,M,0.8,0000*44
$GPGSA,A,3,07,11,19,01,17,28,26,08,,,,,2.4,1.1,2.1*39
$GPRMC,034322.000,A,3353.7580,N,09832.0217,W,0.09,47.73,300312,,,D*48
$GPGGA,034323.000,3353.7580,N,09832.0217,W,2,08,1.1,327.8,M,-23.7,M,0.8,0000*4B
$GPGSA,A,3,07,11,19,01,17,28,26,08,,,,,2.4,1.1,2.1*39
$GPGSV,3,1,10,08,77,358,39,07,56,127,33,28,49,306,31,11,42,083,28*71
$GPGSV,3,2,10,17,39,221,27,01,36,109,36,26,29,300,26,19,21,043,36*79
$GPGSV,3,3,10,13,09,178,34,51,49,195,39*74
$GPRMC,034323.000,A,3353.7580,N,09832.0217,W,0.07,42.69,300312,,,D*49
$GPGGA,034324.000,3353.7581,N,09832.0217,W,2,08,1.1,327.9,M,-23.7,M,0.8,0000*4C
$GPGSA,A,3,07,11,19,01,17,28,26,08,,,,,2.4,1.1,2.1*39
$GPRMC,034324.000,A,3353.7581,N,09832.0217,W,0.08,47.06,300312,,,D*4C
$GPGGA,034325.000,3353.7582,N,09832.0217,W,2,08,1.1,328.1,M,-23.7,M,1.8,0000*48
$GPGSA,A,3,07,11,19,01,17,28,26,08,,,,,2.4,1.1,2.1*39
$GPRMC,034325.000,A,3353.7582,N,09832.0217,W,0.08,43.79,300312,,,D*42
$GPGGA,034326.000,3353.7582,N,09832.0216,W,2,08,1.1,328.2,M,-23.7,M,2.8,0000*4A
$GPGSA,A,3,07,11,19,01,17,28,26,08,,,,,2.4,1.1,2.1*39
$GPRMC,034326.000,A,3353.7582,N,09832.0216,W,0.05,20.68,300312,,,D*48
$GPGGA,034327.000,3353.7583,N,09832.0216,W,2,08,1.1,328.4,M,-23.7,M,0.8,0000*4E
$GPGSA,A,3,07,11,19,01,17,28,26,08,,,,,2.4,1.1,2.1*39
$GPRMC,034327.000,A,3353.7583,N,09832.0216,W,0.10,43.06,300312,,,D*41
$GPGGA,034328.000,3353.7583,N,09832.0216,W,2,08,1.1,328.4,M,-23.7,M,0.8,0000*41
$GPGSA,A,3,07,11,19,01,17,28,26,08,,,,,2.4,1.1,2.1*39
$GPGSV,3,1,10,08,77,358,39,07,56,127,32,28,49,306,30,11,42,083,29*70
$GPGSV,3,2,10,17,39,221,28,01,36,109,36,26,29,300,26,19,21,043,36*76
$GPGSV,3,3,10,13,09,178,34,51,49,195,39*74
$GPRMC,034328.000,A,3353.7583,N,09832.0216,W,0.12,63.54,300312,,,D*49
$GPGGA,034329.000,3353.7584,N,09832.0215,W,2,08,1.1,328.5,M,-23.7,M,0.8,0000*45
$GPGSA,A,3,07,11,19,01,17,28,26,08,,,,,2.4,1.1,2.1*39
$GPRMC,034329.000,A,3353.7584,N,09832.0215,W,0.11,45.49,300312,,,D*47
$GPGGA,034330.000,3353.7584,N,09832.0215,W,2,08,1.1,328.6,M,-23.7,M,1.8,0000*4F
$GPGSA,A,3,07,11,19,01,17,28,26,08,,,,,2.4,1.1,2.1*39
$GPRMC,034330.000,A,3353.7584,N,09832.0215,W,0.10,71.63,300312,,,D*41
$GPGGA,034331.000,3353.7574,N,09832.0224,W,2,08,1.1,326.0,M,-23.7,M,2.8,0000*48
$GPGSA,A,3,07,11,19,01,17,28,26,08,,,,,2.4,1.1,2.1*39
$GPRMC,034331.000,A,3353.7574,N,09832.0224,W,0.10,160.20,300312,,,D*7B
$GPGGA,034332.000,3353.7569,N,09832.0230,W,2,08,1.1,324.4,M,-23.7,M,3.8,0000*45
$GPGSA,A,3,07,11,19,01,17,28,26,08,,,,,2.4,1.1,2.1*39
$GPRMC,034332.000,A,3353.7569,N,09832.0230,W,0.05,172.37,300312,,,D*70
$GPGGA,034333.000,3353.7566,N,09832.0234,W,2,08,1.1,323.3,M,-23.7,M,0.8,0000*4C
$GPGSA,A,3,07,11,19,01,17,28,26,08,,,,,2.4,1.1,2.1*39
$GPGSV,3,1,10,08,77,358,39,07,56,127,32,28,49,306,25,11,42,083,29*74
$GPGSV,3,2,10,17,39,221,29,01,36,109,36,26,29,300,26,19,21,043,37*76
$GPGSV,3,3,10,13,09,178,34,51,49,195,39*74
$GPRMC,034333.000,A,3353.7566,N,09832.0234,W,0.10,160.11,300312,,,D*79
$GPGGA,034334.000,3353.7563,N,09832.0238,W,2,08,1.1,322.5,M,-23.7,M,0.8,0000*45
$GPGSA,A,3,07,11,19,01,17,28,26,08,,,,,2.4,1.1,2.1*39
$GPRMC,034334.000,A,3353.7563,N,09832.0238,W,0.08,269.27,300312,,,D*71
$GPGGA,034335.000,3353.7562,N,09832.0241,W,2,08,1.1,321.8,M,-23.7,M,0.8,0000*45
$GPGSA,A,3,07,11,19,01,17,28,26,08,,,,,2.4,1.1,2.1*39
$GPRMC,034335.000,A,3353.7562,N,09832.0241,W,0.05,289.03,300312,,,D*7A
$GPGGA,034336.000,3353.7561,N,09832.0243,W,2,08,1.1,321.2,M,-23.7,M,1.8,0000*4C
$GPGSA,A,3,07,11,19,01,17,28,26,08,,,,,2.4,1.1,2.1*39
$GPRMC,034336.000,A,3353.7561,N,09832.0243,W,0.07,278.80,300312,,,D*7F
$GPGGA,034337.000,3353.7560,N,09832.0246,W,2,08,1.1,320.7,M,-23.7,M,0.8,0000*4C
$GPGSA,A,3,07,11,19,01,17,28,26,08,,,,,2.4,1.1,2.1*39
$GPRMC,034337.000,A,3353.7560,N,09832.0246,W,0.03,142.67,300312,,,D*7D
$GPGGA,034338.000,3353.7560,N,09832.0247,W,2,08,1.1,320.3,M,-23.7,M,0.8,0000*46
$GPGSA,A,3,07,11,19,01,17,28,26,08,,,,,2.4,1.1,2.1*39
$GPGSV,3,1,10,08,77,358,39,07,56,127,31,28,49,306,24,11,42,083,29*76
$GPGSV,3,2,10,17,39,221,30,01,36,109,36,26,29,300,25,19,21,043,36*7C
$GPGSV,3,3,10,13,09,178,34,51,49,195,39*74
$GPRMC,034338.000,A,3353.7560,N,09832.0247,W,0.05,171.37,300312,,,D*70
$GPGGA,034339.000,3353.7560,N,09832.0249,W,2,08,1.1,319.9,M,-23.7,M,0.8,0000*49
$GPGSA,A,3,07,11,19,01,17,28,26,08,,,,,2.4,1.1,2.1*39
$GPRMC,034339.000,A,3353.7560,N,09832.0249,W,0.03,87.90,300312,,,D*4C
$GPGGA,034340.000,3353.7559,N,09832.0251,W,2,08,1.1,319.5,M,-23.7,M,0.8,0000*48
$GPGSA,A,3,07,11,19,01,17,28,26,08,,,,,2.4,1.1,2.1*39
$GPRMC,034340.000,A,3353.7559,N,09832.0251,W,0.05,127.56,300312,,,D*76
$GPGGA,034341.000,3353.7559,N,09832.0252,W,2,08,1.1,319.2,M,-23.7,M,0.8,0000*4D
$GPGSA,A,3,07,11,19,01,17,28,26,08,,,,,2.4,1.1,2.1*39
$GPRMC,034341.000,A,3353.7559,N,09832.0252,W,0.06,129.98,300312,,,D*7B
$GPGGA,034342.000,3353.7559,N,09832.0253,W,2,08,1.1,319.0,M,-23.7,M,1.8,0000*4C
$GPGSA,A,3,07,11,19,01,17,28,26,08,,,,,2.4,1.1,2.1*39
$GPRMC,034342.000,A,3353.7559,N,09832.0253,W,0.11,103.24,300312,,,D*70
$GPGGA,034343.000,3353.7559,N,09832.0254,W,2,08,1.1,319.0,M,-23.7,M,2.8,0000*49
$GPGSA,A,3,07,11,19,01,17,28,26,08,,,,,2.4,1.1,2.1*39
$GPGSV,3,1,10,08,77,358,39,07,56,127,30,28,49,306,24,11,42,083,30*7F
$GPGSV,3,2,10,17,39,221,30,01,36,109,36,26,29,300,25,19,21,043,36*7C
$GPGSV,3,3,10,13,09,178,34,51,49,195,39*74
$GPRMC,034343.000,A,3353.7559,N,09832.0254,W,0.14,129.50,300312,,,D*78
$GPGGA,034344.000,3353.7559,N,09832.0254,W,2,08,1.1,319.1,M,-23.7,M,3.8,0000*4E
$GPGSA,A,3,07,11,19,01,17,28,26,08,,,,,2.4,1.1,2.1*39
$GPRMC,034344.000,A,3353.7559,N,09832.0254,W,0.10,121.05,300312,,,D*73
$GPGGA,034345.000,3353.7558,N,09832.0254,W,2,08,1.1,319.2,M,-23.7,M,0.8,0000*4E
$GPGSA,A,3,07,11,19,01,17,28,26,08,,,,,2.4,1.1,2.1*39
$GPRMC,034345.000,A,3353.7558,N,09832.0254,W,0.04,335.15,300312,,,D*70
$GPGGA,034346.000,3353.7558,N,09832.0255,W,2,08,1.1,319.3,M,-23.7,M,0.8,0000*4D
$GPGSA,A,3,07,11,19,01,17,28,26,08,,,,,2.4,1.1,2.1*39
$GPRMC,034346.000,A,3353.7558,N,09832.0255,W,0.08,126.61,300312,,,D*7D
$GPGGA,034347.000,3353.7558,N,09832.0255,W,2,08,1.1,319.4,M,-23.7,M,0.8,0000*4B
$GPGSA,A,3,07,11,19,01,17,28,26,08,,,,,2.4,1.1,2.1*39
$GPRMC,034347.000,A,3353.7558,N,09832.0255,W,0.11,332.37,300312,,,D*70
$GPGGA,034348.000,3353.7558,N,09832.0256,W,2,08,1.1,319.5,M,-23.7,M,1.8,0000*47
$GPGSA,A,3,07,11,19,01,17,28,26,08,,,,,2.4,1.1,2.1*39
$GPGSV,3,1,10,08,77,358,39,07,56,127,30,28,49,306,22,11,42,083,30*79
$GPGSV,3,2,10,17,39,221,30,01,36,109,36,26,29,300,25,19,21,043,36*7C
$GPGSV,3,3,10,13,09,178,33,51,49,195,39*73
$GPRMC,034348.000,A,3353.7558,N,09832.0256,W,0.05,105.29,300312,,,D*70
$GPGGA,034349.000,3353.7558,N,09832.0256,W,2,07,1.2,319.6,M,-23.7,M,2.8,0000*4A
$GPGSA,A,3,07,11,19,01,17,26,08,,,,,,2.5,1.2,2.2*32
$GPRMC,034349.000,A,3353.7558,N,09832.0256,W,0.06,30.58,300312,,,D*43
$GPGGA,034350.000,3353.7558,N,09832.0256,W,2,07,1.2,319.6,M,-23.7,M,3.8,0000*43
$GPGSA,A,3,07,11,19,01,17,26,08,,,,,,2.5,1.2,2.2*32
$GPRMC,034350.000,A,3353.7558,N,09832.0256,W,0.03,50.41,300312,,,D*40
$GPGGA,034351.000,3353.7558,N,09832.0257,W,2,07,1.2,319.6,M,-23.7,M,0.8,0000*40
$GPGSA,A,3,07,11,19,01,17,26,08,,,,,,2.5,1.2,2.2*32
$GPRMC,034351.000,A,3353.7558,N,09832.0257,W,0.04,32.92,300312,,,D*4D
$GPGGA,034352.000,3353.7558,N,09832.0258,W,2,07,1.2,319.7,M,-23.7,M,0.8,0000*4D
$GPGSA,A,3,07,11,19,01,17,26,08,,,,,,2.5,1.2,2.2*32
$GPRMC,034352.000,A,3353.7558,N,09832.0258,W,0.07,348.24,300312,,,D*71
$GPGGA,034353.000,3353.7558,N,09832.0258,W,2,07,1.2,319.7,M,-23.7,M,0.8,0000*4C
$GPGSA,A,3,07,11,19,01,17,26,08,,,,,,2.5,1.2,2.2*32
$GPGSV,3,1,10,08,77,358,38,07,56,127,29,28,49,306,,11,42,083,29*78
$GPGSV,3,2,10,17,39,221,30,01,36,109,36,26,29,300,25,19,21,043,36*7C
$GPGSV,3,3,10,13,09,178,33,51,49,195,39*73
$GPRMC,034353.000,A,3353.7558,N,09832.0258,W,0.07,83.96,300312,,,D*4D
$GPGGA,034354.000,3353.7558,N,09832.0258,W,2,07,1.2,319.8,M,-23.7,M,1.8,0000*45
$GPGSA,A,3,07,11,19,01,17,26,08,,,,,,2.5,1.2,2.2*32
$GPRMC,034354.000,A,3353.7558,N,09832.0258,W,0.05,102.95,300312,,,D*73
$GPGGA,034355.000,3353.7558,N,09832.0259,W,2,07,1.2,319.9,M,-23.7,M,2.8,0000*47
$GPGSA,A,3,07,11,19,01,17,26,08,,,,,,2.5,1.2,2.2*32
$GPRMC,034355.000,A,3353.7558,N,09832.0259,W,0.06,45.48,300312,,,D*42
$GPGGA,034356.000,3353.7558,N,09832.0260,W,2,07,1.2,319.9,M,-23.7,M,0.8,0000*4C
$GPGSA,A,3,07,11,19,01,17,26,08,,,,,,2.5,1.2,2.2*32
$GPRMC,034356.000,A,3353.7558,N,09832.0260,W,0.04,94.47,300312,,,D*4A
$GPGGA,034357.000,3353.7558,N,09832.0260,W,2,07,1.2,320.0,M,-23.7,M,0.8,0000*4E
$GPGSA,A,3,07,11,19,01,17,26,08,,,,,,2.5,1.2,2.2*32
$GPRMC,034357.000,A,3353.7558,N,09832.0260,W,0.06,64.43,300312,,,D*42
$GPGGA,034358.000,3353.7557,N,09832.0261,W,2,07,1.2,320.0,M,-23.7,M,0.8,0000*4F
$GPGSA,A,3,07,11,19,01,17,26,08,,,,,,2.5,1.2,2.2*32
$GPGSV,3,1,10,08,78,002,38,07,55,128,28,28,49,308,,11,41,081,29*79
$GPGSV,3,2,10,17,40,222,29,01,36,107,36,26,29,299,25,19,20,043,36*77
$GPGSV,3,3,10,13,08,177,33,51,49,195,39*7D
$GPRMC,034358.000,A,3353.7557,N,09832.0261,W,0.16,110.08,300312,,,D*7F
$GPGGA,034359.000,3353.7557,N,09832.0261,W,2,07,1.2,320.0,M,-23.7,M,0.8,0000*4E
$GPGSA,A,3,07,11,19,01,17,26,08,,,,,,2.5,1.2,2.2*32
$GPRMC,034359.000,A,3353.7557,N,09832.0261,W,0.06,11.12,300312,,,D*44
$GPGGA,034400.000,3353.7557,N,09832.0262,W,2,07,1.2,320.1,M,-23.7,M,1.8,0000*46
$GPGSA,A,3,07,11,19,01,17,26,08,,,,,,2.5,1.2,2.2*32
$GPRMC,034400.000,A,3353.7557,N,09832.0262,W,0.05,24.61,300312,,,D*4D
$GPGGA,034401.000,3353.7557,N,09832.0263,W,2,07,1.2,320.1,M,-23.7,M,2.8,0000*45
$GPGSA,A,3,07,11,19,01,17,26,08,,,,,,2.5,1.2,2.2*32
$GPRMC,034401.000,A,3353.7557,N,09832.0263,W,0.13,99.58,300312,,,D*46
$GPGGA,034402.000,3353.7556,N,09832.0264,W,2,07,1.2,320.2,M,-23.7,M,3.8,0000*42
$GPGSA,A,3,07,11,19,01,17,26,08,,,,,,2.5,1.2,2.2*32
$GPRMC,034402.000,A,3353.7556,N,09832.0264,W,0.14,104.61,300312,,,D*7B
$GPGGA,034403.000,3353.7556,N,09832.0265,W,2,07,1.2,320.0,M,-23.7,M,0.8,0000*43
$GPGSA,A,3,07,11,19,01,17,26,08,,,,,,2.5,1.2,2.2*32
$GPGSV,3,1,10,08,78,002,38,07,55,128,28,28,49,308,,11,41,081,30*71
$GPGSV,3,2,10,17,40,222,28,01,36,107,36,26,29,299,24,19,20,043,36*77
$GPGSV,3,3,10,13,08,177,33,51,49,195,39*7D
$GPRMC,034403.000,A,3353.7556,N,09832.0265,W,0.12,330.17,300312,,,D*79
$GPGGA,034404.000,3353.7556,N,09832.0266,W,2,07,1.2,320.0,M,-23.7,M,0.8,0000*47
$GPGSA,A,3,07,11,19,01,17,26,08,,,,,,2.5,1.2,2.2*32
$GPRMC,034404.000,A,3353.7556,N,09832.0266,W,0.07,78.52,300312,,,D*47
$GPGGA,034405.000,3353.7556,N,09832.0266,W,2,07,1.2,320.0,M,-23.7,M,0.8,0000*46
$GPGSA,A,3,07,11,19,01,17,26,08,,,,,,2.5,1.2,2.2*32
$GPRMC,034405.000,A,3353.7556,N,09832.0266,W,0.10,108.32,300312,,,D*70
$GPGGA,034406.000,3353.7556,N,09832.0267,W,2,07,1.2,320.0,M,-23.7,M,1.8,0000*45
$GPGSA,A,3,07,11,19,01,17,26,08,,,,,,2.5,1.2,2.2*32
$GPRMC,034406.000,A,3353.7556,N,09832.0267,W,0.16,107.88,300312,,,D*7A
$GPGGA,034407.000,3353.7555,N,09832.0267,W,2,07,1.2,320.0,M,-23.7,M,2.8,0000*44
$GPGSA,A,3,07,11,19,01,17,26,08,,,,,,2.5,1.2,2.2*32
$GPRMC,034407.000,A,3353.7555,N,09832.0267,W,0.18,103.21,300312,,,D*71
$GPGGA,034408.000,3353.7555,N,09832.0268,W,2,07,1.2,319.9,M,-23.7,M,3.8,0000*46
$GPGSA,A,3,07,11,19,01,17,26,08,,,,,,2.5,1.2,2.2*32
$GPGSV,3,1,10,08,78,002,38,07,55,128,28,28,49,308,,11,41,081,30*71
$GPGSV,3,2,10,17,40,222,29,01,36,107,37,26,29,299,24,19,20,043,36*77
$GPGSV,3,3,10,13,08,177,32,51,49,195,39*7C
$GPRMC,034408.000,A,3353.7555,N,09832.0268,W,0.07,324.16,300312,,,D*7C
$GPGGA,034409.000,3353.7555,N,09832.0268,W,2,07,1.2,319.9,M,-23.7,M,0.8,0000*44
$GPGSA,A,3,07,11,19,01,17,26,08,,,,,,2.5,1.2,2.2*32
$GPRMC,034409.000,A,3353.7555,N,09832.0268,W,0.06,78.40,300312,,,D*45
$GPGGA,034410.000,3353.7555,N,09832.0269,W,2,07,1.2,319.9,M,-23.7,M,0.8,0000*4D
$GPGSA,A,3,07,11,19,01,17,26,08,,,,,,2.5,1.2,2.2*32
$GPRMC,034410.000,A,3353.7555,N,09832.0269,W,0.10,90.32,300312,,,D*48
$GPGGA,034411.000,3353.7555,N,09832.0270,W,2,07,1.2,319.8,M,-23.7,M,0.8,0000*45
$GPGSA,A,3,07,11,19,01,17,26,08,,,,,,2.5,1.2,2.2*32
$GPRMC,034411.000,A,3353.7555,N,09832.0270,W,0.06,331.34,300312,,,D*78
$GPGGA,034412.000,3353.7555,N,09832.0271,W,2,07,1.2,319.7,M,-23.7,M,0.8,0000*48
$GPGSA,A,3,07,11,19,01,17,26,08,,,,,,2.5,1.2,2.2*32
$GPRMC,034412.000,A,3353.7555,N,09832.0271,W,0.13,322.16,300312,,,D*7C
$GPGGA,034413.000,3353.7555,N,09832.0271,W,2,07,1.2,319.7,M,-23.7,M,0.8,0000*49
$GPGSA,A,3,07,11,19,01,17,26,08,,,,,,2.5,1.2,2.2*32
$GPGSV,3,1,10,08,78,002,38,07,55,128,28,28,49,308,,11,41,081,30*71
$GPGSV,3,2,10,17,40,222,30,01,36,107,37,26,29,299,24,19,20,043,35*7C
$GPGSV,3,3,10,13,08,177,32,51,49,195,39*7C
$GPRMC,034413.000,A,3353.7555,N,09832.0271,W,0.13,98.54,300312,,,D*49
$GPGGA,034414.000,3353.7555,N,09832.0272,W,2,07,1.2,319.6,M,-23.7,M,1.8,0000*4D
$GPGSA,A,3,07,11,19,01,17,26,08,,,,,,2.5,1.2,2.2*32
$GPRMC,034414.000,A,3353.7555,N,09832.0272,W,0.16,318.39,300312,,,D*78
$GPGGA,034415.000,3353.7555,N,09832.0273,W,2,07,1.2,319.4,M,-23.7,M,0.8,0000*4E
$GPGSA,A,3,07,11,19,01,17,26,08,,,,,,2.5,1.2,2.2*32
$GPRMC,034415.000,A,3353.7555,N,09832.0273,W,0.07,94.92,300312,,,D*4E
$GPGGA,034416.000,3353.7556,N,09832.0273,W,2,07,1.2,319.2,M,-23.7,M,0.8,0000*48
$GPGSA,A,3,07,11,19,01,17,26,08,,,,,,2.5,1.2,2.2*32
$GPRMC,034416.000,A,3353.7556,N,09832.0273,W,0.21,312.92,300312,,,D*77
$GPGGA,034417.000,3353.7556,N,09832.0275,W,2,07,1.2,319.1,M,-23.7,M,0.8,0000*4C
$GPGSA,A,3,07,11,19,01,17,26,08,,,,,,2.5,1.2,2.2*32
$GPRMC,034417.000,A,3353.7556,N,09832.0275,W,0.18,302.46,300312,,,D*72
$GPGGA,034418.000,3353.7556,N,09832.0275,W,2,08,1.1,318.9,M,-23.7,M,1.8,0000*47
$GPGSA,A,3,07,11,19,01,17,28,26,08,,,,,2.4,1.1,2.1*39
$GPGSV,3,1,10,08,78,002,38,07,55,128,27,28,49,308,24,11,41,081,30*78
$GPGSV,3,2,10,17,40,222,31,01,36,107,37,26,29,299,23,19,20,043,35*7A
$GPGSV,3,3,10,13,08,177,31,51,49,195,40*71
$GPRMC,034418.000,A,3353.7556,N,09832.0275,W,0.15,311.77,300312,,,D*70
$GPGGA,034419.000,3353.7556,N,09832.0276,W,2,08,1.1,318.8,M,-23.7,M,0.8,0000*45
$GPGSA,A,3,07,11,19,01,17,28,26,08,,,,,2.4,1.1,2.1*39
$GPRMC,034419.000,A,3353.7556,N,09832.0276,W,0.03,50.18,300312,,,D*4A
$GPGGA,034420.000,3353.7556,N,09832.0276,W,2,08,1.1,318.7,M,-23.7,M,1.8,0000*41
$GPGSA,A,3,07,11,19,01,17,28,26,08,,,,,2.4,1.1,2.1*39
$GPRMC,034420.000,A,3353.7556,N,09832.0276,W,0.06,295.43,300312,,,D*70
$GPGGA,034421.000,3353.7557,N,09832.0277,W,2,08,1.1,318.7,M,-23.7,M,0.8,0000*41
$GPGSA,A,3,07,11,19,01,17,28,26,08,,,,,2.4,1.1,2.1*39
$GPRMC,034421.000,A,3353.7557,N,09832.0277,W,0.03,38.31,300312,,,D*44
$GPGGA,034422.000,3353.7557,N,09832.0276,W,2,08,1.1,318.8,M,-23.7,M,0.8,0000*4C
$GPGSA,A,3,07,11,19,01,17,28,26,08,,,,,2.4,1.1,2.1*39
$GPGSV,3,1,10,08,78,002,38,07,55,128,27,28,49,308,24,11,41,081,31*79
$GPGSV,3,2,10,17,40,222,32,01,36,107,37,26,29,299,23,19,20,043,35*79
$GPGSV,3,3,10,13,08,177,31,51,49,195,39*7F
$GPRMC,034422.000,A,3353.7557,N,09832.0276,W,0.17,110.99,300312,,,D*7A
$GPGGA,034423.000,3353.7557,N,09832.0276,W,2,08,1.1,318.8,M,-23.7,M,0.8,0000*4D
$GPGSA,A,3,07,11,19,01,17,28,26,08,,,,,2.4,1.1,2.1*39
$GPGSV,3,1,10,08,78,002,38,07,55,128,27,28,49,308,24,11,41,081,31*79
$GPGSV,3,2,10,17,40,222,32,01,36,107,37,26,29,299,23,19,20,043,35*79
$GPGSV,3,3,10,13,08,177,31,51,49,195,39*7F
$GPRMC,034423.000,A,3353.7557,N,09832.0276,W,0.08,77.49,300312,,,D*48
$GPGGA,034424.000,3353.7556,N,09832.0276,W,2,08,1.1,318.9,M,-23.7,M,0.8,0000*4A
$GPGSA,A,3,07,11,19,01,17,28,26,08,,,,,2.4,1.1,2.1*39
$GPRMC,034424.000,A,3353.7556,N,09832.0276,W,0.28,114.19,300312,,,D*7D
$GPGGA,034425.000,3353.7556,N,09832.0275,W,2,08,1.1,319.0,M,-23.7,M,0.8,0000*40
$GPGSA,A,3,07,11,19,01,17,28,26,08,,,,,2.4,1.1,2.1*39
$GPRMC,034425.000,A,3353.7556,N,09832.0275,W,0.25,106.02,300312,,,D*7B
$GPGGA,034426.000,3353.7556,N,09832.0275,W,2,08,1.1,319.0,M,-23.7,M,1.8,0000*42
$GPGSA,A,3,07,11,19,01,17,28,26,08,,,,,2.4,1.1,2.1*39
$GPRMC,034426.000,A,3353.7556,N,09832.0275,W,0.06,55.97,300312,,,D*42
$GPGGA,034427.000,3353.7556,N,09832.0275,W,2,08,1.1,318.9,M,-23.7,M,0.8,0000*4A
$GPGSA,A,3,07,11,19,01,17,28,26,08,,,,,2.4,1.1,2.1*39
$GPRMC,034427.000,A,3353.7556,N,09832.0275,W,0.16,95.18,300312,,,D*49
$GPGGA,034428.000,3353.7556,N,09832.0275,W,2,08,1.1,318.9,M,-23.7,M,0.8,0000*45
$GPGSA,A,3,07,11,19,01,17,28,26,08,,,,,2.4,1.1,2.1*39
$GPGSV,3,1,10,08,78,002,38,07,55,128,27,28,49,308,25,11,41,081,31*78
$GPGSV,3,2,10,17,40,222,33,01,36,107,37,26,29,299,23,19,20,043,36*7B
$GPGSV,3,3,10,13,08,177,31,51,49,195,39*7F
$GPRMC,034428.000,A,3353.7556,N,09832.0275,W,0.13,78.10,300312,,,D*48
$GPGGA,034429.000,3353.7556,N,09832.0275,W,2,08,1.1,319.0,M,-23.7,M,0.8,0000*4C
$GPGSA,A,3,07,11,19,01,17,28,26,08,,,,,2.4,1.1,2.1*39
$GPRMC,034429.000,A,3353.7556,N,09832.0275,W,0.21,109.41,300312,,,D*7B
$GPGGA,034430.000,3353.7556,N,09832.0275,W,2,08,1.1,319.0,M,-23.7,M,0.8,0000*44
$GPGSA,A,3,07,11,19,01,17,28,26,08,,,,,2.4,1.1,2.1*39
$GPRMC,034430.000,A,3353.7556,N,09832.0275,W,0.17,96.10,300312,,,D*45
$GPGGA,034431.000,3353.7556,N,09832.0274,W,2,08,1.1,319.1,M,-23.7,M,1.8,0000*44
$GPGSA,A,3,07,11,19,01,17,28,26,08,,,,,2.4,1.1,2.1*39
$GPRMC,034431.000,A,3353.7556,N,09832.0274,W,0.22,107.88,300312,,,D*7B
$GPGGA,034432.000,3353.7556,N,09832.0274,W,2,08,1.1,319.1,M,-23.7,M,0.8,0000*46
$GPGSA,A,3,07,11,19,01,17,28,26,08,,,,,2.4,1.1,2.1*39
$GPRMC,034432.000,A,3353.7556,N,09832.0274,W,0.07,24.51,300312,,,D*4B
$GPGGA,034433.000,3353.7556,N,09832.0274,W,2,08,1.1,319.1,M,-23.7,M,0.8,0000*47
$GPGSA,A,3,07,11,19,01,17,28,26,08,,,,,2.4,1.1,2.1*39
$GPGSV,3,1,10,08,78,002,39,07,55,128,27,28,49,308,26,11,41,081,31*7A
$GPGSV,3,2,10,17,40,222,34,01,36,107,37,26,29,299,23,19,20,043,36*7C
$GPGSV,3,3,10,13,08,177,30,51,49,195,39*7E
$GPRMC,034433.000,A,3353.7556,N,09832.0274,W,0.11,87.51,300312,,,D*44
$GPGGA,034434.000,3353.7556,N,09832.0274,W,2,08,1.1,319.2,M,-23.7,M,0.8,0000*43
$GPGSA,A,3,07,11,19,01,17,28,26,08,,,,,2.4,1.1,2.1*39
$GPRMC,034434.000,A,3353.7556,N,09832.0274,W,0.06,343.72,300312,,,D*7F
$GPGGA,034435.000,3353.7556,N,09832.0275,W,2,08,1.1,319.2,M,-23.7,M,0.8,0000*43
$GPGSA,A,3,07,11,19,01,17,28,26,08,,,,,2.4,1.1,2.1*39
$GPRMC,034435.000,A,3353.7556,N,09832.0275,W,0.06,41.61,300312,,,D*4C
$GPGGA,034436.000,3353.7556,N,09832.0275,W,2,08,1.1,319.2,M,-23.7,M,1.8,0000*41
$GPGSA,A,3,07,11,19,01,17,28,26,08,,,,,2.4,1.1,2.1*39
$GPRMC,034436.000,A,3353.7556,N,09832.0275,W,0.06,358.41,300312,,,D*76
$GPGGA,034437.000,3353.7556,N,09832.0275,W,2,08,1.1,319.2,M,-23.7,M,2.8,0000*43
$GPGSA,A,3,07,11,19,01,17,28,26,08,,,,,2.4,1.1,2.1*39
$GPRMC,034437.000,A,3353.7556,N,09832.0275,W,0.14,94.89,300312,,,D*43
$GPGGA,034438.000,3353.7556,N,09832.0275,W,2,08,1.1,319.2,M,-23.7,M,3.8,0000*4D
$GPGSA,A,3,07,11,19,01,17,28,26,08,,,,,2.4,1.1,2.1*39
$GPGSV,3,1,10,08,78,002,39,07,55,128,28,28,49,308,28,11,41,081,32*78
$GPGSV,3,2,10,17,40,222,34,01,36,107,37,26,29,299,24,19,20,043,36*7B
$GPGSV,3,3,10,13,08,177,30,51,49,195,39*7E
$GPRMC,034438.000,A,3353.7556,N,09832.0275,W,0.10,100.05,300312,,,D*70
$GPGGA,034439.000,3353.7556,N,09832.0275,W,2,08,1.1,319.2,M,-23.7,M,0.8,0000*4F
$GPGSA,A,3,07,11,19,01,17,28,26,08,,,,,2.4,1.1,2.1*39
$GPRMC,034439.000,A,3353.7556,N,09832.0275,W,0.05,35.40,300312,,,D*43
$GPGGA,034440.000,3353.7556,N,09832.0275,W,2,08,1.1,319.1,M,-23.7,M,0.8,0000*42
$GPGSA,A,3,07,11,19,01,17,28,26,08,,,,,2.4,1.1,2.1*39
$GPRMC,034440.000,A,3353.7556,N,09832.0275,W,0.07,18.06,300312,,,D*42
$GPGGA,034441.000,3353.7556,N,09832.0275,W,2,08,1.1,319.1,M,-23.7,M,0.8,0000*43
$GPGSA,A,3,07,11,19,01,17,28,26,08,,,,,2.4,1.1,2.1*39
$GPRMC,034441.000,A,3353.7556,N,09832.0275,W,0.05,43.26,300312,,,D*4D
$GPGGA,034442.000,3353.7556,N,09832.0275,W,2,08,1.1,319.0,M,-23.7,M,1.8,0000*40
$GPGSA,A,3,07,11,19,01,17,28,26,08,,,,,2.4,1.1,2.1*39
$GPRMC,034442.000,A,3353.7556,N,09832.0275,W,0.08,100.14,300312,,,D*74
$GPGGA,034443.000,3353.7556,N,09832.0275,W,2,08,1.1,319.0,M,-23.7,M,2.8,0000*42
$GPGSA,A,3,07,11,19,01,17,28,26,08,,,,,2.4,1.1,2.1*39
$GPGSV,3,1,10,08,78,002,39,07,55,128,29,28,49,308,29,11,41,081,33*79
$GPGSV,3,2,10,17,40,222,34,01,36,107,37,26,29,299,24,19,20,043,36*7B
$GPGSV,3,3,10,13,08,177,30,51,49,195,39*7E
$GPRMC,034443.000,A,3353.7556,N,09832.0275,W,0.10,93.67,300312,,,D*43
$GPGGA,034444.000,3353.7556,N,09832.0275,W,2,08,1.1,319.0,M,-23.7,M,3.8,0000*44
$GPGSA,A,3,07,11,19,01,17,28,26,08,,,,,2.4,1.1,2.1*39
$GPRMC,034444.000,A,3353.7556,N,09832.0275,W,0.07,92.86,300312,,,D*4C
$GPGGA,034445.000,3353.7556,N,09832.0275,W,2,08,1.1,319.1,M,-23.7,M,0.8,0000*47
$GPGSA,A,3,07,11,19,01,17,28,26,08,,,,,2.4,1.1,2.1*39
$GPRMC,034445.000,A,3353.7556,N,09832.0275,W,0.07,86.78,300312,,,D*49
$GPGGA,034446.000,3353.7555,N,09832.0274,W,2,08,1.1,319.2,M,-23.7,M,0.8,0000*45
$GPGSA,A,3,07,11,19,01,17,28,26,08,,,,,2.4,1.1,2.1*39
$GPRMC,034446.000,A,3353.7555,N,09832.0274,W,0.13,106.48,300312,,,D*77
$GPGGA,034447.000,3353.7555,N,09832.0274,W,2,08,1.1,319.2,M,-23.7,M,0.8,0000*44
$GPGSA,A,3,07,11,19,01,17,28,26,08,,,,,2.4,1.1,2.1*39
$GPRMC,034447.000,A,3353.7555,N,09832.0274,W,0.06,67.71,300312,,,D*4E
$GPGGA,034448.000,3353.7555,N,09832.0274,W,2,08,1.1,319.2,M,-23.7,M,1.8,0000*4A
$GPGSA,A,3,07,11,19,01,17,28,26,08,,,,,2.4,1.1,2.1*39
$GPGSV,3,1,10,08,78,002,39,07,55,128,29,28,49,308,30,11,41,081,33*71
$GPGSV,3,2,10,17,40,222,35,01,36,107,37,26,29,299,25,19,20,043,36*7B
$GPGSV,3,3,10,13,08,177,30,51,49,195,39*7E
$GPRMC,034448.000,A,3353.7555,N,09832.0274,W,0.04,65.10,300312,,,D*46
$GPGGA,034449.000,3353.7555,N,09832.0274,W,2,08,1.1,319.2,M,-23.7,M,2.8,0000*48
$GPGSA,A,3,07,11,19,01,17,28,26,08,,,,,2.4,1.1,2.1*39
$GPRMC,034449.000,A,3353.7555,N,09832.0274,W,0.06,53.45,300312,,,D*40
$GPGGA,034450.000,3353.7555,N,09832.0274,W,2,08,1.1,319.2,M,-23.7,M,3.8,0000*41
$GPGSA,A,3,07,11,19,01,17,28,26,08,,,,,2.4,1.1,2.1*39
$GPRMC,034450.000,A,3353.7555,N,09832.0274,W,0.04,75.61,300312,,,D*48
$GPGGA,034451.000,3353.7555,N,09832.0274,W,2,08,1.1,319.1,M,-23.7,M,0.8,0000*40
$GPGSA,A,3,07,11,19,01,17,28,26,08,,,,,2.4,1.1,2.1*39
$GPRMC,034451.000,A,3353.7555,N,09832.0274,W,0.05,351.36,300312,,,D*7F
$GPGGA,034452.000,3353.7555,N,09832.0274,W,2,08,1.1,319.0,M,-23.7,M,0.8,0000*42
$GPGSA,A,3,07,11,19,01,17,28,26,08,,,,,2.4,1.1,2.1*39
$GPRMC,034452.000,A,3353.7555,N,09832.0274,W,0.08,331.02,300312,,,D*70
$GPGGA,034453.000,3353.7555,N,09832.0274,W,2,08,1.1,318.9,M,-23.7,M,0.8,0000*4B
$GPGSA,A,3,07,11,19,01,17,28,26,08,,,,,2.4,1.1,2.1*39
$GPGSV,3,1,10,08,78,002,39,07,55,128,30,28,49,308,31,11,41,081,34*7F
$GPGSV,3,2,10,17,40,222,35,01,36,107,37,26,29,299,25,19,20,043,36*7B
$GPGSV,3,3,10,13,08,177,30,51,49,195,40*70
$GPRMC,034453.000,A,3353.7555,N,09832.0274,W,0.10,101.27,300312,,,D*7E
$GPGGA,034454.000,3353.7555,N,09832.0274,W,2,08,1.1,318.9,M,-23.7,M,1.8,0000*4D
$GPGSA,A,3,07,11,19,01,17,28,26,08,,,,,2.4,1.1,2.1*39
$GPRMC,034454.000,A,3353.7555,N,09832.0274,W,0.06,82.68,300312,,,D*4F
$GPGGA,034455.000,3353.7555,N,09832.0274,W,2,08,1.1,318.9,M,-23.7,M,2.8,0000*4F
$GPGSA,A,3,07,11,19,01,17,28,26,08,,,,,2.4,1.1,2.1*39
$GPRMC,034455.000,A,3353.7555,N,09832.0274,W,0.03,20.86,300312,,,D*43
$GPGGA,034456.000,3353.7555,N,09832.0274,W,2,08,1.1,318.9,M,-23.7,M,3.8,0000*4D
$GPGSA,A,3,07,11,19,01,17,28,26,08,,,,,2.4,1.1,2.1*39
$GPRMC,034456.000,A,3353.7555,N,09832.0274,W,0.07,96.17,300312,,,D*41
$GPGGA,034457.000,3353.7555,N,09832.0274,W,2,08,1.1,319.0,M,-23.7,M,0.8,0000*47
$GPGSA,A,3,07,11,19,01,17,28,26,08,,,,,2.4,1.1,2.1*39
$GPRMC,034457.000,A,3353.7555,N,09832.0274,W,0.03,55.34,300312,,,D*4A
$GPGGA,034458.000,3353.7555,N,09832.0274,W,2,08,1.1,319.1,M,-23.7,M,0.8,0000*49
$GPGSA,A,3,07,11,19,01,17,28,26,08,,,,,2.4,1.1,2.1*39
$GPGSV,3,1,10,08,78,002,39,07,55,128,31,28,49,308,31,11,41,081,35*7F
$GPGSV,3,2,10,17,40,222,35,01,36,107,37,26,29,299,20,19,20,043,36*7E
$GPGSV,3,3,10,13,08,177,30,51,49,195,39*7E
$GPRMC,034458.000,A,3353.7555,N,09832.0274,W,0.05,334.12,300312,,,D*73
$GPGGA,034459.000,3353.7555,N,09832.0274,W,2,08,1.1,319.0,M,-23.7,M,0.8,0000*49
$GPGSA,A,3,07,11,19,01,17,28,26,08,,,,,2.4,1.1,2.1*39
$GPRMC,034459.000,A,3353.7555,N,09832.0274,W,0.08,335.48,300312,,,D*71
$GPGGA,034500.000,3353.7555,N,09832.0273,W,2,08,1.1,319.1,M,-23.7,M,0.8,0000*42
$GPGSA,A,3,07,11,19,01,17,28,26,08,,,,,2.4,1.1,2.1*39
$GPRMC,034500.000,A,3353.7555,N,09832.0273,W,0.15,101.03,300312,,,D*7D
$GPGGA,034501.000,3353.7555,N,09832.0273,W,2,08,1.1,319.2,M,-23.7,M,1.8,0000*41
$GPGSA,A,3,07,11,19,01,17,28,26,08,,,,,2.4,1.1,2.1*39
$GPRMC,034501.000,A,3353.7555,N,09832.0273,W,0.18,102.76,300312,,,D*70
$GPGGA,034502.000,3353.7554,N,09832.0272,W,2,08,1.1,319.3,M,-23.7,M,0.8,0000*42
$GPGSA,A,3,07,11,19,01,17,28,26,08,,,,,2.4,1.1,2.1*39
$GPRMC,034502.000,A,3353.7554,N,09832.0272,W,0.21,107.11,300312,,,D*7D
$GPGGA,034503.000,3353.7554,N,09832.0272,W,2,08,1.1,319.4,M,-23.7,M,0.8,0000*44
$GPGSA,A,3,07,11,19,01,17,28,26,08,,,,,2.4,1.1,2.1*39
$GPGSV,3,1,10,08,78,002,38,07,55,128,30,28,49,308,31,11,41,081,35*7F
$GPGSV,3,2,10,17,40,222,35,01,36,107,38,26,29,299,22,19,20,043,36*73
$GPGSV,3,3,10,13,08,177,31,51,49,195,39*7F
$GPRMC,034503.000,A,3353.7554,N,09832.0272,W,0.18,95.63,300312,,,D*49
$GPGGA,034504.000,3353.7554,N,09832.0272,W,2,08,1.1,319.3,M,-23.7,M,0.8,0000*44
$GPGSA,A,3,07,11,19,01,17,28,26,08,,,,,2.4,1.1,2.1*39
$GPRMC,034504.000,A,3353.7554,N,09832.0272,W,0.10,341.78,300312,,,D*76
$GPGGA,034505.000,3353.7554,N,09832.0272,W,2,08,1.1,319.3,M,-23.7,M,0.8,0000*45
$GPGSA,A,3,07,11,19,01,17,28,26,08,,,,,2.4,1.1,2.1*39
$GPRMC,034505.000,A,3353.7554,N,09832.0272,W,0.08,90.96,300312,,,D*41
$GPGGA,034506.000,3353.7554,N,09832.0272,W,2,08,1.1,319.3,M,-23.7,M,1.8,0000*47
$GPGSA,A,3,07,11,19,01,17,28,26,08,,,,,2.4,1.1,2.1*39
$GPRMC,034506.000,A,3353.7554,N,09832.0272,W,0.07,344.95,300312,,,D*74
$GPGGA,034507.000,3353.7554,N,09832.0272,W,2,08,1.1,319.3,M,-23.7,M,0.8,0000*47
$GPGSA,A,3,07,11,19,01,17,28,26,08,,,,,2.4,1.1,2.1*39
$GPRMC,034507.000,A,3353.7554,N,09832.0272,W,0.06,8.16,300312,,,D*74
$GPGGA,034508.000,3353.7554,N,09832.0272,W,2,08,1.1,319.3,M,-23.7,M,1.8,0000*49
$GPGSA,A,3,07,11,19,01,17,28,26,08,,,,,2.4,1.1,2.1*39
$GPGSV,3,1,10,08,78,002,38,07,55,128,31,28,49,308,32,11,41,081,36*7E
$GPGSV,3,2,10,17,40,222,35,01,36,107,38,26,29,299,21,19,20,043,36*70
$GPGSV,3,3,10,13,08,177,31,51,49,195,39*7F
$GPRMC,034508.000,A,3353.7554,N,09832.0272,W,0.06,71.71,300312,,,D*44
$GPGGA,034509.000,3353.7554,N,09832.0272,W,2,08,1.1,319.4,M,-23.7,M,0.8,0000*4E
$GPGSA,A,3,07,11,19,01,17,28,26,08,,,,,2.4,1.1,2.1*39
$GPRMC,034509.000,A,3353.7554,N,09832.0272,W,0.12,114.67,300312,,,D*75
$GPGGA,034510.000,3353.7554,N,09832.0271,W,2,08,1.1,319.5,M,-23.7,M,0.8,0000*44
$GPGSA,A,3,07,11,19,01,17,28,26,08,,,,,2.4,1.1,2.1*39
$GPRMC,034510.000,A,3353.7554,N,09832.0271,W,0.13,98.52,300312,,,D*4C
$GPGGA,034511.000,3353.7554,N,09832.0271,W,2,08,1.1,319.5,M,-23.7,M,0.8,0000*45
$GPGSA,A,3,07,11,19,01,17,28,26,08,,,,,2.4,1.1,2.1*39
$GPRMC,034511.000,A,3353.7554,N,09832.0271,W,0.06,9.40,300312,,,D*72
$GPGGA,034512.000,3353.7554,N,09832.0272,W,2,08,1.1,319.5,M,-23.7,M,1.8,0000*44
$GPGSA,A,3,07,11,19,01,17,28,26,08,,,,,2.4,1.1,2.1*39
$GPRMC,034512.000,A,3353.7554,N,09832.0272,W,0.06,333.12,300312,,,D*7F
$GPGGA,034513.000,3353.7554,N,09832.0272,W,2,08,1.1,319.4,M,-23.7,M,0.8,0000*45
$GPGSA,A,3,07,11,19,01,17,28,26,08,,,,,2.4,1.1,2.1*39
$GPGSV,3,1,10,08,78,002,38,07,55,128,31,28,49,308,32,11,41,081,36*7E
$GPGSV,3,2,10,17,40,222,34,01,36,107,38,26,29,299,21,19,20,043,36*71
$GPGSV,3,3,10,13,08,177,32,51,49,195,39*7C
$GPRMC,034513.000,A,3353.7554,N,09832.0272,W,0.10,330.58,300312,,,D*74
$GPGGA,034514.000,3353.7554,N,09832.0272,W,2,08,1.1,319.4,M,-23.7,M,1.8,0000*43
$GPGSA,A,3,07,11,19,01,17,28,26,08,,,,,2.4,1.1,2.1*39
$GPRMC,034514.000,A,3353.7554,N,09832.0272,W,0.07,325.69,300312,,,D*73
$GPGGA,034515.000,3353.7554,N,09832.0273,W,2,08,1.1,319.3,M,-23.7,M,0.8,0000*45
$GPGSA,A,3,07,11,19,01,17,28,26,08,,,,,2.4,1.1,2.1*39
$GPRMC,034515.000,A,3353.7554,N,09832.0273,W,0.02,329.68,300312,,,D*7B
$GPGGA,034516.000,3353.7554,N,09832.0273,W,2,08,1.1,319.2,M,-23.7,M,0.8,0000*47
$GPGSA,A,3,07,11,19,01,17,28,26,08,,,,,2.4,1.1,2.1*39
$GPRMC,034516.000,A,3353.7554,N,09832.0273,W,0.09,316.61,300312,,,D*76
$GPGGA,034517.000,3353.7554,N,09832.0273,W,2,08,1.1,319.1,M,-23.7,M,0.8,0000*45
$GPGSA,A,3,07,11,19,01,17,28,26,08,,,,,2.4,1.1,2.1*39
$GPRMC,034517.000,A,3353.7554,N,09832.0273,W,0.10,290.38,300312,,,D*7C
$GPGGA,034518.000,3353.7553,N,09832.0274,W,2,08,1.1,319.1,M,-23.7,M,1.8,0000*4B
$GPGSA,A,3,07,11,19,01,17,28,26,08,,,,,2.4,1.1,2.1*39
$GPGSV,3,1,10,08,78,002,38,07,55,128,31,28,49,308,33,11,41,081,36*7F
$GPGSV,3,2,10,17,40,222,34,01,36,107,38,26,29,299,20,19,20,043,36*70
$GPGSV,3,3,10,13,08,177,33,51,49,195,39*7D
$GPRMC,034518.000,A,3353.7553,N,09832.0274,W,0.12,297.69,300312,,,D*72
$GPGGA,034519.000,3353.7553,N,09832.0274,W,2,08,1.1,319.1,M,-23.7,M,2.8,0000*49
$GPGSA,A,3,07,11,19,01,17,28,26,08,,,,,2.4,1.1,2.1*39
$GPRMC,034519.000,A,3353.7553,N,09832.0274,W,0.05,133.22,300312,,,D*77
$GPGGA,034520.000,3353.7553,N,09832.0274,W,2,08,1.1,319.2,M,-23.7,M,0.8,0000*42
$GPGSA,A,3,07,11,19,01,17,28,26,08,,,,,2.4,1.1,2.1*39
$GPRMC,034520.000,A,3353.7553,N,09832.0274,W,0.19,121.31,300312,,,D*71
$GPGGA,034521.000,3353.7553,N,09832.0273,W,2,08,1.1,319.3,M,-23.7,M,0.8,0000*45
$GPGSA,A,3,07,11,19,01,17,28,26,08,,,,,2.4,1.1,2.1*39
$GPRMC,034521.000,A,3353.7553,N,09832.0273,W,0.19,100.46,300312,,,D*74
$GPGGA,034522.000,3353.7553,N,09832.0273,W,2,08,1.1,319.4,M,-23.7,M,0.8,0000*41
$GPGSA,A,3,07,11,19,01,17,28,26,08,,,,,2.4,1.1,2.1*39
$GPRMC,034522.000,A,3353.7553,N,09832.0273,W,0.16,100.48,300312,,,D*76
$GPGGA,034523.000,3353.7552,N,09832.0273,W,2,08,1.1,319.4,M,-23.7,M,0.8,0000*41
$GPGSA,A,3,07,11,19,01,17,28,26,08,,,,,2.4,1.1,2.1*39
$GPGSV,3,1,10,08,78,002,38,07,55,128,31,28,49,308,33,11,41,081,37*7E
$GPGSV,3,2,10,17,40,222,34,01,36,107,38,26,29,299,19,19,20,043,36*7A
$GPGSV,3,3,10,13,08,177,33,51,49,195,39*7D
$GPRMC,034523.000,A,3353.7552,N,09832.0273,W,0.07,11.21,300312,,,D*48
$GPGGA,034524.000,3353.7552,N,09832.0273,W,2,08,1.1,319.3,M,-23.7,M,1.8,0000*40
$GPGSA,A,3,07,11,19,01,17,28,26,08,,,,,2.4,1.1,2.1*39
$GPRMC,034524.000,A,3353.7552,N,09832.0273,W,0.07,353.89,300312,,,D*78
$GPGGA,034525.000,3353.7552,N,09832.0273,W,2,08,1.1,319.2,M,-23.7,M,2.8,0000*43
$GPGSA,A,3,07,11,19,01,17,28,26,08,,,,,2.4,1.1,2.1*39
$GPRMC,034525.000,A,3353.7552,N,09832.0273,W,0.09,346.73,300312,,,D*76
$GPGGA,034526.000,3353.7552,N,09832.0274,W,2,08,1.1,319.1,M,-23.7,M,3.8,0000*45
$GPGSA,A,3,07,11,19,01,17,28,26,08,,,,,2.4,1.1,2.1*39
$GPRMC,034526.000,A,3353.7552,N,09832.0274,W,0.09,339.08,300312,,,D*76
$GPGGA,034527.000,3353.7552,N,09832.0274,W,2,08,1.1,319.2,M,-23.7,M,0.8,0000*44
$GPGSA,A,3,07,11,19,01,17,28,26,08,,,,,2.4,1.1,2.1*39
$GPRMC,034527.000,A,3353.7552,N,09832.0274,W,0.13,105.86,300312,,,D*77
$GPGGA,034528.000,3353.7552,N,09832.0274,W,2,08,1.1,319.0,M,-23.7,M,0.8,0000*49
$GPGSA,A,3,07,11,19,01,17,28,26,08,,,,,2.4,1.1,2.1*39
$GPGSV,3,1,10,08,78,002,38,07,55,128,31,28,49,308,34,11,41,081,37*79
$GPGSV,3,2,10,17,40,222,34,01,36,107,38,26,29,299,19,19,20,043,36*7A
$GPGSV,3,3,10,13,08,177,33,51,49,195,39*7D
$GPRMC,034528.000,A,3353.7552,N,09832.0274,W,0.03,291.34,300312,,,D*7E
$GPGGA,034529.000,3353.7552,N,09832.0274,W,2,08,1.1,319.1,M,-23.7,M,0.8,0000*49
$GPGSA,A,3,07,11,19,01,17,28,26,08,,,,,2.4,1.1,2.1*39
$GPRMC,034529.000,A,3353.7552,N,09832.0274,W,0.14,124.25,300312,,,D*74
$GPGGA,034530.000,3353.7551,N,09832.0274,W,2,08,1.1,319.1,M,-23.7,M,1.8,0000*43
$GPGSA,A,3,07,11,19,01,17,28,26,08,,,,,2.4,1.1,2.1*39
$GPRMC,034530.000,A,3353.7551,N,09832.0274,W,0.12,110.65,300312,,,D*7A
$GPGGA,034531.000,3353.7551,N,09832.0274,W,2,08,1.1,319.2,M,-23.7,M,0.8,0000*40
$GPGSA,A,3,07,11,19,01,17,28,26,08,,,,,2.4,1.1,2.1*39
$GPRMC,034531.000,A,3353.7551,N,09832.0274,W,0.21,117.82,300312,,,D*75
$GPGGA,034532.000,3353.7551,N,09832.0274,W,2,08,1.1,319.3,M,-23.7,M,1.8,0000*43
$GPGSA,A,3,07,11,19,01,17,28,26,08,,,,,2.4,1.1,2.1*39
$GPRMC,034532.000,A,3353.7551,N,09832.0274,W,0.07,96.47,300312,,,D*43
$GPGGA,034533.000,3353.7550,N,09832.0273,W,2,08,1.1,319.4,M,-23.7,M,0.8,0000*42
$GPGSA,A,3,07,11,19,01,17,28,26,08,,,,,2.4,1.1,2.1*39
$GPGSV,3,1,10,08,78,002,38,07,55,128,32,28,49,308,34,11,41,081,37*7A
$GPGSV,3,2,10,17,40,222,35,01,36,107,38,26,29,299,19,19,20,043,36*7B
$GPGSV,3,3,10,13,08,177,33,51,49,195,39*7D
$GPRMC,034533.000,A,3353.7550,N,09832.0273,W,0.21,106.94,300312,,,D*76
$GPGGA,034534.000,3353.7550,N,09832.0273,W,2,08,1.1,319.5,M,-23.7,M,0.8,0000*44
$GPGSA,A,3,07,11,19,01,17,28,26,08,,,,,2.4,1.1,2.1*39
$GPRMC,034534.000,A,3353.7550,N,09832.0273,W,0.28,103.22,300312,,,D*70
$GPGGA,034535.000,3353.7550,N,09832.0272,W,2,08,1.1,319.6,M,-23.7,M,0.8,0000*47
$GPGSA,A,3,07,11,19,01,17,28,26,08,,,,,2.4,1.1,2.1*39
$GPRMC,034535.000,A,3353.7550,N,09832.0272,W,0.23,92.67,300312,,,D*43
$GPGGA,034536.000,3353.7550,N,09832.0272,W,2,08,1.1,319.7,M,-23.7,M,1.8,0000*44
$GPGSA,A,3,07,11,19,01,17,28,26,08,,,,,2.4,1.1,2.1*39
$GPRMC,034536.000,A,3353.7550,N,09832.0272,W,0.25,102.84,300312,,,D*73
$GPGGA,034537.000,3353.7550,N,09832.0272,W,2,08,1.1,319.8,M,-23.7,M,2.8,0000*49
$GPGSA,A,3,07,11,19,01,17,28,26,08,,,,,2.4,1.1,2.1*39
$GPRMC,034537.000,A,3353.7550,N,09832.0272,W,0.15,69.52,300312,,,D*46
$GPGGA,034538.000,3353.7550,N,09832.0272,W,2,08,1.1,319.7,M,-23.7,M,3.8,0000*48
$GPGSA,A,3,07,11,19,01,17,28,26,08,,,,,2.4,1.1,2.1*39
$GPGSV,3,1,10,08,78,002,38,07,55,128,32,28,49,308,34,11,41,081,38*75
$GPGSV,3,2,10,17,40,222,35,01,36,107,38,26,29,299,19,19,20,043,36*7B
$GPGSV,3,3,10,13,08,177,32,51,49,195,39*7C
$GPRMC,034538.000,A,3353.7550,N,09832.0272,W,0.07,8.52,300312,,,D*7D
$GPGGA,034539.000,3353.7549,N,09832.0273,W,2,08,1.1,319.6,M,-23.7,M,0.8,0000*42
$GPGSA,A,3,07,11,19,01,17,28,26,08,,,,,2.4,1.1,2.1*39
$GPRMC,034539.000,A,3353.7549,N,09832.0273,W,0.08,347.10,300312,,,D*74
$GPGGA,034540.000,3353.7549,N,09832.0274,W,2,08,1.1,319.4,M,-23.7,M,0.8,0000*49
$GPGSA,A,3,07,11,19,01,17,28,26,08,,,,,2.4,1.1,2.1*39
$GPRMC,034540.000,A,3353.7549,N,09832.0274,W,0.08,305.30,300312,,,D*79
$GPGGA,034541.000,3353.7549,N,09832.0274,W,2,08,1.1,319.5,M,-23.7,M,0.8,0000*49
$GPGSA,A,3,07,11,19,01,17,28,26,08,,,,,2.4,1.1,2.1*39
$GPRMC,034541.000,A,3353.7549,N,09832.0274,W,0.07,104.85,300312,,,D*7A
$GPGGA,034542.000,3353.7549,N,09832.0274,W,2,08,1.1,319.5,M,-23.7,M,1.8,0000*4B
$GPGSA,A,3,07,11,19,01,17,28,26,08,,,,,2.4,1.1,2.1*39
$GPRMC,034542.000,A,3353.7549,N,09832.0274,W,0.17,110.06,300312,,,D*76
$GPGGA,034543.000,3353.7549,N,09832.0274,W,2,08,1.1,319.5,M,-23.7,M,2.8,0000*49
$GPGSA,A,3,07,11,19,01,17,28,26,08,,,,,2.4,1.1,2.1*39
$GPGSV,3,1,10,08,78,002,38,07,55,128,32,28,49,308,34,11,41,081,38*75
$GPGSV,3,2,10,17,40,222,35,01,36,107,38,26,29,299,19,19,20,043,36*7B
$GPGSV,3,3,10,13,08,177,32,51,49,195,39*7C
$GPRMC,034543.000,A,3353.7549,N,09832.0274,W,0.08,119.30,300312,,,D*75
$GPGGA,034544.000,3353.7548,N,09832.0274,W,2,08,1.1,319.6,M,-23.7,M,3.8,0000*4D
$GPGSA,A,3,07,11,19,01,17,28,26,08,,,,,2.4,1.1,2.1*39
$GPRMC,034544.000,A,3353.7548,N,09832.0274,W,0.23,118.38,300312,,,D*73
$GPGGA,034545.000,3353.7548,N,09832.0273,W,2,08,1.1,319.7,M,-23.7,M,0.8,0000*49
$GPGSA,A,3,07,11,19,01,17,28,26,08,,,,,2.4,1.1,2.1*39
$GPRMC,034545.000,A,3353.7548,N,09832.0273,W,0.23,101.03,300312,,,D*75
$GPGGA,034546.000,3353.7548,N,09832.0273,W,2,08,1.1,319.7,M,-23.7,M,0.8,0000*4A
$GPGSA,A,3,07,11,19,01,17,28,26,08,,,,,2.4,1.1,2.1*39
$GPRMC,034546.000,A,3353.7548,N,09832.0273,W,0.11,36.61,300312,,,D*46
$GPGGA,034547.000,3353.7548,N,09832.0274,W,2,08,1.1,319.7,M,-23.7,M,0.8,0000*4C
$GPGSA,A,3,07,11,19,01,17,28,26,08,,,,,2.4,1.1,2.1*39
$GPRMC,034547.000,A,3353.7548,N,09832.0274,W,0.10,37.46,300312,,,D*45
$GPGGA,034548.000,3353.7548,N,09832.0274,W,2,08,1.1,319.6,M,-23.7,M,0.8,0000*42
$GPGSA,A,3,07,11,19,01,17,28,26,08,,,,,2.4,1.1,2.1*39
$GPGSV,3,1,10,08,78,002,38,07,55,128,32,28,49,308,34,11,41,081,38*75
$GPGSV,3,2,10,17,40,222,36,01,36,107,38,26,29,299,20,19,20,043,36*72
$GPGSV,3,3,10,13,08,177,32,51,49,195,39*7C
$GPRMC,034548.000,A,3353.7548,N,09832.0274,W,0.10,50.68,300312,,,D*47
$GPGGA,034549.000,3353.7549,N,09832.0274,W,2,08,1.1,319.5,M,-23.7,M,0.8,0000*41
$GPGSA,A,3,07,11,19,01,17,28,26,08,,,,,2.4,1.1,2.1*39
$GPRMC,034549.000,A,3353.7549,N,09832.0274,W,0.09,43.76,300312,,,D*42
$GPGGA,034550.000,3353.7549,N,09832.0274,W,2,08,1.1,319.5,M,-23.7,M,0.8,0000*49
$GPGSA,A,3,07,11,19,01,17,28,26,08,,,,,2.4,1.1,2.1*39
$GPRMC,034550.000,A,3353.7549,N,09832.0274,W,0.11,73.62,300312,,,D*45
$GPGGA,034551.000,3353.7548,N,09832.0274,W,2,08,1.1,319.4,M,-23.7,M,0.8,0000*48
$GPGSA,A,3,07,11,19,01,17,28,26,08,,,,,2.4,1.1,2.1*39
$GPRMC,034551.000,A,3353.7548,N,09832.0274,W,0.06,127.70,300312,,,D*70
