$GPGGA,054324.000,3353.7548,N,09832.0230,W,2,05,2.5,306.4,M,-23.7,M,0.8,0000*4E
$GPGSA,A,3,08,17,04,01,28,,,,,,,,3.8,2.5,2.8*35
$GPRMC,054324.000,A,3353.7548,N,09832.0230,W,0.08,94.09,010412,,,D*4E
$GPGGA,054325.000,3353.7549,N,09832.0231,W,2,05,2.5,306.5,M,-23.7,M,0.8,0000*4E
$GPGSA,A,3,08,17,04,01,28,,,,,,,,3.8,2.5,2.8*35
$GPRMC,054325.000,A,3353.7549,N,09832.0231,W,0.03,335.27,010412,,,D*70
$GPGGA,054326.000,3353.7549,N,09832.0233,W,2,06,2.2,306.6,M,-23.7,M,0.8,0000*48
$GPGSA,A,3,08,20,17,04,01,28,,,,,,,3.5,2.2,2.8*3D
$GPRMC,054326.000,A,3353.7549,N,09832.0233,W,0.36,101.89,010412,,,D*76
$GPGGA,054327.000,3353.7549,N,09832.0235,W,2,06,2.2,306.8,M,-23.7,M,0.8,0000*41
$GPGSA,A,3,08,20,17,04,01,28,,,,,,,3.5,2.2,2.8*3D
$GPRMC,054327.000,A,3353.7549,N,09832.0235,W,0.10,294.35,010412,,,D*7D
$GPGGA,054328.000,3353.7550,N,09832.0238,W,2,06,2.2,307.0,M,-23.7,M,0.8,0000*42
$GPGSA,A,3,08,20,17,04,01,28,,,,,,,3.5,2.2,2.8*3D
$GPGSV,3,1,12,17,69,342,32,28,63,057,38,08,33,164,33,04,33,191,34*72
$GPGSV,3,2,12,27,32,311,,01,23,044,29,09,14,321,,26,13,238,18*7D
$GPGSV,3,3,12,20,12,090,21,15,07,282,,02,06,204,,11,05,044,*7D
$GPRMC,054328.000,A,3353.7550,N,09832.0238,W,0.16,99.27,010412,,,D*4D
$GPGGA,054329.000,3353.7550,N,09832.0240,W,2,06,2.2,307.1,M,-23.7,M,0.8,0000*4D
$GPGSA,A,3,08,20,17,04,01,28,,,,,,,3.5,2.2,2.8*3D
$GPGSV,3,1,12,17,69,342,32,28,63,057,38,08,33,164,33,04,33,191,34*72
$GPGSV,3,2,12,27,32,311,,01,23,044,29,09,14,321,,26,13,238,18*7D
$GPGSV,3,3,12,20,12,090,21,15,07,282,,02,06,204,,11,05,044,*7D
$GPRMC,054329.000,A,3353.7550,N,09832.0240,W,0.36,101.36,010412,,,D*71
$GPGGA,054330.000,3353.7551,N,09832.0243,W,2,06,2.2,307.3,M,-23.7,M,0.8,0000*45
$GPGSA,A,3,08,20,17,04,01,28,,,,,,,3.5,2.2,2.8*3D
$GPRMC,054330.000,A,3353.7551,N,09832.0243,W,0.05,336.54,010412,,,D*79
$GPGGA,054331.000,3353.7551,N,09832.0243,W,2,06,2.2,307.2,M,-23.7,M,0.8,0000*45
$GPGSA,A,3,08,20,17,04,01,28,,,,,,,3.5,2.2,2.8*3D
$GPRMC,054331.000,A,3353.7551,N,09832.0243,W,0.38,101.02,010412,,,D*73
$GPGGA,054332.000,3353.7551,N,09832.0245,W,2,06,2.2,307.4,M,-23.7,M,1.8,0000*47
$GPGSA,A,3,08,20,17,04,01,28,,,,,,,3.5,2.2,2.8*3D
$GPRMC,054332.000,A,3353.7551,N,09832.0245,W,0.12,303.62,010412,,,D*78
$GPGGA,054333.000,3353.7552,N,09832.0248,W,2,06,2.2,307.5,M,-23.7,M,0.8,0000*48
$GPGSA,A,3,08,20,17,04,01,28,,,,,,,3.5,2.2,2.8*3D
$GPRMC,054333.000,A,3353.7552,N,09832.0248,W,0.16,293.36,010412,,,D*7A
$GPGGA,054334.000,3353.7552,N,09832.0250,W,2,06,2.2,307.5,M,-23.7,M,0.8,0000*46
$GPGSA,A,3,08,20,17,04,01,28,,,,,,,3.5,2.2,2.8*3D
$GPRMC,054334.000,A,3353.7552,N,09832.0250,W,0.17,92.27,010412,,,D*46
$GPGGA,054335.000,3353.7552,N,09832.0250,W,2,06,2.2,307.7,M,-23.7,M,0.8,0000*45
$GPGSA,A,3,08,20,17,04,01,28,,,,,,,3.5,2.2,2.8*3D
$GPRMC,054335.000,A,3353.7552,N,09832.0250,W,0.30,288.91,010412,,,D*76
$GPGGA,054336.000,3353.7552,N,09832.0248,W,2,06,2.2,307.8,M,-23.7,M,1.8,0000*41
$GPGSA,A,3,08,20,17,04,01,28,,,,,,,3.5,2.2,2.8*3D
$GPRMC,054336.000,A,3353.7552,N,09832.0248,W,0.20,100.21,010412,,,D*75
$GPGGA,054337.000,3353.7552,N,09832.0247,W,2,06,2.2,308.0,M,-23.7,M,0.8,0000*49
$GPGSA,A,3,08,20,17,04,01,28,,,,,,,3.5,2.2,2.8*3D
$GPRMC,054337.000,A,3353.7552,N,09832.0247,W,0.12,298.27,010412,,,D*7E
$GPGGA,054338.000,3353.7552,N,09832.0247,W,2,06,2.2,308.2,M,-23.7,M,1.8,0000*45
$GPGSA,A,3,08,20,17,04,01,28,,,,,,,3.5,2.2,2.8*3D
$GPGSV,3,1,12,17,69,342,33,28,63,057,39,08,33,164,33,04,33,191,35*73
$GPGSV,3,2,12,27,32,311,,01,23,044,29,09,14,321,,26,13,238,*74
$GPGSV,3,3,12,20,12,090,22,15,07,282,,02,06,204,,11,05,044,*7E
$GPRMC,054338.000,A,3353.7552,N,09832.0247,W,0.28,102.00,010412,,,D*7D
$GPGGA,054339.000,3353.7552,N,09832.0247,W,2,06,2.2,308.4,M,-23.7,M,0.8,0000*43
$GPGSA,A,3,08,20,17,04,01,28,,,,,,,3.5,2.2,2.8*3D
$GPRMC,054339.000,A,3353.7552,N,09832.0247,W,0.49,103.36,010412,,,D*7F
$GPGGA,054340.000,3353.7552,N,09832.0247,W,2,06,2.2,308.5,M,-23.7,M,0.8,0000*4C
$GPGSA,A,3,08,20,17,04,01,28,,,,,,,3.5,2.2,2.8*3D
$GPRMC,054340.000,A,3353.7552,N,09832.0247,W,0.03,241.55,010412,,,D*7F
$GPGGA,054341.000,3353.7552,N,09832.0248,W,2,06,2.2,308.6,M,-23.7,M,0.8,0000*41
$GPGSA,A,3,08,20,17,04,01,28,,,,,,,3.5,2.2,2.8*3D
$GPRMC,054341.000,A,3353.7552,N,09832.0248,W,0.18,102.92,010412,,,D*74
$GPGGA,054342.000,3353.7552,N,09832.0248,W,2,06,2.2,308.7,M,-23.7,M,1.8,0000*42
$GPGSA,A,3,08,20,17,04,01,28,,,,,,,3.5,2.2,2.8*3D
$GPRMC,054342.000,A,3353.7552,N,09832.0248,W,0.08,294.90,010412,,,D*78
$GPGGA,054343.000,3353.7552,N,09832.0249,W,2,06,2.2,308.8,M,-23.7,M,2.8,0000*4E
$GPGSA,A,3,08,20,17,04,01,28,,,,,,,3.5,2.2,2.8*3D
$GPGSV,3,1,12,17,69,342,33,28,63,057,39,08,33,164,32,04,33,191,35*72
$GPGSV,3,2,12,27,32,311,,01,23,044,29,09,14,321,,26,13,238,*74
$GPGSV,3,3,12,20,12,090,22,15,07,282,,02,06,204,,11,05,044,*7E
$GPRMC,054343.000,A,3353.7552,N,09832.0249,W,0.16,106.41,010412,,,D*73
$GPGGA,054344.000,3353.7552,N,09832.0249,W,2,06,2.2,308.9,M,-23.7,M,3.8,0000*49
$GPGSA,A,3,08,20,17,04,01,28,,,,,,,3.5,2.2,2.8*3D
$GPRMC,054344.000,A,3353.7552,N,09832.0249,W,0.28,101.06,010412,,,D*7D
$GPGGA,054345.000,3353.7552,N,09832.0249,W,2,06,2.2,308.9,M,-23.7,M,0.8,0000*4B
$GPGSA,A,3,08,20,17,04,01,28,,,,,,,3.5,2.2,2.8*3D
$GPRMC,054345.000,A,3353.7552,N,09832.0249,W,0.13,296.89,010412,,,D*7E
$GPGGA,054346.000,3353.7552,N,09832.0250,W,2,06,2.2,309.0,M,-23.7,M,0.8,0000*48
$GPGSA,A,3,08,20,17,04,01,28,,,,,,,3.5,2.2,2.8*3D
$GPRMC,054346.000,A,3353.7552,N,09832.0250,W,0.09,358.53,010412,,,D*7A
$GPGGA,054347.000,3353.7553,N,09832.0251,W,2,06,2.2,309.0,M,-23.7,M,0.8,0000*49
$GPGSA,A,3,08,20,17,04,01,28,,,,,,,3.5,2.2,2.8*3D
$GPRMC,054347.000,A,3353.7553,N,09832.0251,W,0.23,100.40,010412,,,D*7E
$GPGGA,054348.000,3353.7552,N,09832.0251,W,2,06,2.2,309.0,M,-23.7,M,1.8,0000*46
$GPGSA,A,3,08,20,17,04,01,28,,,,,,,3.5,2.2,2.8*3D
$GPGSV,3,1,12,17,69,342,32,28,63,057,39,08,33,164,28,04,33,191,35*78
$GPGSV,3,2,12,27,32,311,,01,23,044,29,09,14,321,,26,13,238,*74
$GPGSV,3,3,12,20,12,090,24,15,07,282,,02,06,204,,11,05,044,*78
$GPRMC,054348.000,A,3353.7552,N,09832.0251,W,0.36,101.56,010412,,,D*72
$GPGGA,054349.000,3353.7553,N,09832.0251,W,2,06,2.2,309.1,M,-23.7,M,2.8,0000*44
$GPGSA,A,3,08,20,17,04,01,28,,,,,,,3.5,2.2,2.8*3D
$GPRMC,054349.000,A,3353.7553,N,09832.0251,W,0.09,301.74,010412,,,D*7C
$GPGGA,054350.000,3353.7553,N,09832.0252,W,2,06,2.2,309.2,M,-23.7,M,3.8,0000*4D
$GPGSA,A,3,08,20,17,04,01,28,,,,,,,3.5,2.2,2.8*3D
$GPRMC,054350.000,A,3353.7553,N,09832.0252,W,0.09,311.58,010412,,,D*78
$GPGGA,054351.000,3353.7553,N,09832.0254,W,2,06,2.2,309.3,M,-23.7,M,0.8,0000*48
$GPGSA,A,3,08,20,17,04,01,28,,,,,,,3.5,2.2,2.8*3D
$GPRMC,054351.000,A,3353.7553,N,09832.0254,W,0.05,66.11,010412,,,D*4D
$GPGGA,054352.000,3353.7553,N,09832.0255,W,2,06,2.2,309.4,M,-23.7,M,0.8,0000*4D
$GPGSA,A,3,08,20,17,04,01,28,,,,,,,3.5,2.2,2.8*3D
$GPRMC,054352.000,A,3353.7553,N,09832.0255,W,0.05,269.03,010412,,,D*71
$GPGGA,054353.000,3353.7553,N,09832.0256,W,2,06,2.2,309.4,M,-23.7,M,0.8,0000*4F
$GPGSA,A,3,08,20,17,04,01,28,,,,,,,3.5,2.2,2.8*3D
$GPGSV,3,1,12,17,69,342,32,28,63,057,39,08,33,164,27,04,33,191,35*77
$GPGSV,3,2,12,27,32,311,,01,23,044,29,09,14,321,,26,13,238,*74
$GPGSV,3,3,12,20,12,090,25,15,07,282,,02,06,204,,11,05,044,*79
$GPRMC,054353.000,A,3353.7553,N,09832.0256,W,0.05,40.02,010412,,,D*4B
$GPGGA,054354.000,3353.7553,N,09832.0257,W,2,06,2.2,309.4,M,-23.7,M,1.8,0000*48
$GPGSA,A,3,08,20,17,04,01,28,,,,,,,3.5,2.2,2.8*3D
$GPRMC,054354.000,A,3353.7553,N,09832.0257,W,0.03,42.06,010412,,,D*4D
$GPGGA,054355.000,3353.7553,N,09832.0257,W,2,06,2.2,309.3,M,-23.7,M,2.8,0000*4D
$GPGSA,A,3,08,20,17,04,01,28,,,,,,,3.5,2.2,2.8*3D
$GPRMC,054355.000,A,3353.7553,N,09832.0257,W,0.05,21.92,010412,,,D*42
$GPGGA,054356.000,3353.7553,N,09832.0258,W,2,06,2.2,309.3,M,-23.7,M,3.8,0000*40
$GPGSA,A,3,08,20,17,04,01,28,,,,,,,3.5,2.2,2.8*3D
$GPRMC,054356.000,A,3353.7553,N,09832.0258,W,0.04,26.11,010412,,,D*43
$GPGGA,054357.000,3353.7553,N,09832.0259,W,2,06,2.2,309.3,M,-23.7,M,0.8,0000*43
$GPGSA,A,3,08,20,17,04,01,28,,,,,,,3.5,2.2,2.8*3D
$GPRMC,054357.000,A,3353.7553,N,09832.0259,W,0.05,19.64,010412,,,D*4C
$GPGGA,054358.000,3353.7553,N,09832.0259,W,2,06,2.2,309.4,M,-23.7,M,0.8,0000*4B
$GPGSA,A,3,08,20,17,04,01,28,,,,,,,3.5,2.2,2.8*3D
$GPGSV,3,1,12,17,69,342,32,28,63,057,39,08,33,164,27,04,33,191,35*77
$GPGSV,3,2,12,27,32,311,,01,23,044,29,09,14,321,,26,13,238,*74
$GPGSV,3,3,12,20,12,090,25,15,07,282,,02,06,204,,11,05,044,*79
$GPRMC,054358.000,A,3353.7553,N,09832.0259,W,0.09,356.75,010412,,,D*77
$GPGGA,054359.000,3353.7553,N,09832.0259,W,2,06,2.2,309.5,M,-23.7,M,0.8,0000*4B
$GPGSA,A,3,08,20,17,04,01,28,,,,,,,3.5,2.2,2.8*3D
$GPRMC,054359.000,A,3353.7553,N,09832.0259,W,0.03,20.16,010412,,,D*4B
$GPGGA,054400.000,3353.7553,N,09832.0259,W,2,06,2.2,309.5,M,-23.7,M,1.8,0000*41
$GPGSA,A,3,08,20,17,04,01,28,,,,,,,3.5,2.2,2.8*3D
$GPRMC,054400.000,A,3353.7553,N,09832.0259,W,0.04,334.05,010412,,,D*73
$GPGGA,054401.000,3353.7553,N,09832.0259,W,2,06,2.2,309.5,M,-23.7,M,0.8,0000*41
$GPGSA,A,3,08,20,17,04,01,28,,,,,,,3.5,2.2,2.8*3D
$GPRMC,054401.000,A,3353.7553,N,09832.0259,W,0.04,17.84,010412,,,D*49
$GPGGA,054402.000,3353.7553,N,09832.0259,W,2,06,2.2,309.5,M,-23.7,M,1.8,0000*43
$GPGSA,A,3,08,20,17,04,01,28,,,,,,,3.5,2.2,2.8*3D
$GPRMC,054402.000,A,3353.7553,N,09832.0259,W,0.04,21.62,010412,,,D*47
$GPGGA,054403.000,3353.7553,N,09832.0258,W,2,06,2.2,309.6,M,-23.7,M,0.8,0000*41
$GPGSA,A,3,08,20,17,04,01,28,,,,,,,3.5,2.2,2.8*3D
$GPGSV,3,1,12,17,69,342,32,28,63,057,39,08,33,164,27,04,33,191,35*77
$GPGSV,3,2,12,27,32,311,,01,23,044,30,09,14,321,,26,13,238,*7C
$GPGSV,3,3,12,20,12,090,25,15,07,282,,02,06,204,,11,05,044,*79
$GPRMC,054403.000,A,3353.7553,N,09832.0258,W,0.02,19.89,010412,,,D*4F
$GPGGA,054404.000,3353.7552,N,09832.0258,W,2,06,2.2,309.5,M,-23.7,M,0.8,0000*44
$GPGSA,A,3,08,20,17,04,01,28,,,,,,,3.5,2.2,2.8*3D
$GPRMC,054404.000,A,3353.7552,N,09832.0258,W,0.02,97.07,010412,,,D*49
$GPGGA,054405.000,3353.7552,N,09832.0258,W,2,06,2.2,309.4,M,-23.7,M,0.8,0000*44
$GPGSA,A,3,08,20,17,04,01,28,,,,,,,3.5,2.2,2.8*3D
$GPRMC,054405.000,A,3353.7552,N,09832.0258,W,0.04,8.75,010412,,,D*7D
$GPGGA,054406.000,3353.7552,N,09832.0258,W,2,06,2.2,309.4,M,-23.7,M,1.8,0000*46
$GPGSA,A,3,08,20,17,04,01,28,,,,,,,3.5,2.2,2.8*3D
$GPRMC,054406.000,A,3353.7552,N,09832.0258,W,0.06,82.70,010412,,,D*4B
$GPGGA,054407.000,3353.7552,N,09832.0258,W,2,06,2.2,309.3,M,-23.7,M,2.8,0000*43
$GPGSA,A,3,08,20,17,04,01,28,,,,,,,3.5,2.2,2.8*3D
$GPRMC,054407.000,A,3353.7552,N,09832.0258,W,0.06,51.70,010412,,,D*44
$GPGGA,054408.000,3353.7552,N,09832.0258,W,2,06,2.2,309.2,M,-23.7,M,0.8,0000*4F
$GPGSA,A,3,08,20,17,04,01,28,,,,,,,3.5,2.2,2.8*3D
$GPGSV,3,1,12,17,69,342,31,28,63,057,40,08,33,164,27,04,33,191,34*7B
$GPGSV,3,2,12,27,32,311,,01,23,044,30,09,14,321,,26,13,238,*7C
$GPGSV,3,3,12,20,12,090,26,15,07,282,,02,06,204,,11,05,044,*7A
$GPRMC,054408.000,A,3353.7552,N,09832.0258,W,0.03,17.53,010412,,,D*4D
$GPGGA,054409.000,3353.7552,N,09832.0258,W,2,06,2.2,309.1,M,-23.7,M,0.8,0000*4D
$GPGSA,A,3,08,20,17,04,01,28,,,,,,,3.5,2.2,2.8*3D
$GPGSV,3,1,12,17,69,342,31,28,63,057,40,08,33,164,27,04,33,191,34*7B
$GPGSV,3,2,12,27,32,311,,01,23,044,30,09,14,321,,26,13,238,*7C
$GPGSV,3,3,12,20,12,090,26,15,07,282,,02,06,204,,11,05,044,*7A
$GPRMC,054409.000,A,3353.7552,N,09832.0258,W,0.06,44.54,010412,,,D*48
$GPGGA,054410.000,3353.7552,N,09832.0258,W,2,06,2.2,309.0,M,-23.7,M,0.8,0000*44
$GPGSA,A,3,08,20,17,04,01,28,,,,,,,3.5,2.2,2.8*3D
$GPRMC,054410.000,A,3353.7552,N,09832.0258,W,0.08,10.01,010412,,,D*4F
$GPGGA,054411.000,3353.7552,N,09832.0258,W,2,06,2.2,308.9,M,-23.7,M,0.8,0000*4D
$GPGSA,A,3,08,20,17,04,01,28,,,,,,,3.5,2.2,2.8*3D
$GPRMC,054411.000,A,3353.7552,N,09832.0258,W,0.09,312.35,010412,,,D*79
$GPGGA,054412.000,3353.7552,N,09832.0258,W,2,06,2.2,308.9,M,-23.7,M,0.8,0000*4E
$GPGSA,A,3,08,20,17,04,01,28,,,,,,,3.5,2.2,2.8*3D
$GPRMC,054412.000,A,3353.7552,N,09832.0258,W,0.07,316.73,010412,,,D*72
$GPGGA,054413.000,3353.7552,N,09832.0258,W,2,06,2.2,308.8,M,-23.7,M,1.8,0000*4F
$GPGSA,A,3,08,20,17,04,01,28,,,,,,,3.5,2.2,2.8*3D
$GPRMC,054413.000,A,3353.7552,N,09832.0258,W,0.06,312.28,010412,,,D*78
$GPGGA,054414.000,3353.7552,N,09832.0258,W,2,06,2.2,308.8,M,-23.7,M,2.8,0000*4B
$GPGSA,A,3,08,20,17,04,01,28,,,,,,,3.5,2.2,2.8*3D
$GPRMC,054414.000,A,3353.7552,N,09832.0258,W,0.08,327.98,010412,,,D*7C
$GPGGA,054415.000,3353.7551,N,09832.0257,W,2,06,2.2,308.7,M,-23.7,M,0.8,0000*4B
$GPGSA,A,3,08,20,17,04,01,28,,,,,,,3.5,2.2,2.8*3D
$GPRMC,054415.000,A,3353.7551,N,09832.0257,W,0.03,54.55,010412,,,D*4C
$GPGGA,054416.000,3353.7551,N,09832.0257,W,2,06,2.2,308.5,M,-23.7,M,0.8,0000*4A
$GPGSA,A,3,08,20,17,04,01,28,,,,,,,3.5,2.2,2.8*3D
$GPRMC,054416.000,A,3353.7551,N,09832.0257,W,0.05,115.83,010412,,,D*76
$GPGGA,054417.000,3353.7551,N,09832.0257,W,2,06,2.2,308.3,M,-23.7,M,0.8,0000*4D
$GPGSA,A,3,08,20,17,04,01,28,,,,,,,3.5,2.2,2.8*3D
$GPRMC,054417.000,A,3353.7551,N,09832.0257,W,0.08,71.32,010412,,,D*43
$GPGGA,054418.000,3353.7551,N,09832.0256,W,2,06,2.2,308.1,M,-23.7,M,1.8,0000*40
$GPGSA,A,3,08,20,17,04,01,28,,,,,,,3.5,2.2,2.8*3D
$GPGSV,3,1,12,17,69,342,31,28,63,057,40,08,33,164,28,04,33,191,34*74
$GPGSV,3,2,12,27,32,311,,01,23,044,31,09,14,321,,26,13,238,*7D
$GPGSV,3,3,12,20,12,090,25,15,07,282,,02,06,204,,11,05,044,*79
$GPRMC,054418.000,A,3353.7551,N,09832.0256,W,0.06,37.15,010412,,,D*44
$GPGGA,054419.000,3353.7551,N,09832.0254,W,2,06,2.2,307.8,M,-23.7,M,0.8,0000*44
$GPGSA,A,3,08,20,17,04,01,28,,,,,,,3.5,2.2,2.8*3D
$GPGSV,3,1,12,17,69,342,31,28,63,057,40,08,33,164,28,04,33,191,34*74
$GPGSV,3,2,12,27,32,311,,01,23,044,31,09,14,321,,26,13,238,*7D
$GPGSV,3,3,12,20,12,090,25,15,07,282,,02,06,204,,11,05,044,*79
$GPRMC,054419.000,A,3353.7551,N,09832.0254,W,0.06,70.12,010412,,,D*43
$GPGGA,054420.000,3353.7551,N,09832.0252,W,2,06,2.2,307.5,M,-23.7,M,1.8,0000*44
$GPGSA,A,3,08,20,17,04,01,28,,,,,,,3.5,2.2,2.8*3D
$GPRMC,054420.000,A,3353.7551,N,09832.0252,W,0.34,97.80,010412,,,D*4C
$GPGGA,054421.000,3353.7551,N,09832.0253,W,2,06,2.2,307.3,M,-23.7,M,0.8,0000*43
$GPGSA,A,3,08,20,17,04,01,28,,,,,,,3.5,2.2,2.8*3D
$GPRMC,054421.000,A,3353.7551,N,09832.0253,W,0.14,293.28,010412,,,D*7A
$GPGGA,054422.000,3353.7551,N,09832.0253,W,2,06,2.2,307.2,M,-23.7,M,0.8,0000*41
$GPGSA,A,3,08,20,17,04,01,28,,,,,,,3.5,2.2,2.8*3D
$GPRMC,054422.000,A,3353.7551,N,09832.0253,W,0.22,307.72,010412,,,D*7F
$GPGGA,054423.000,3353.7551,N,09832.0253,W,2,06,2.2,307.1,M,-23.7,M,0.8,0000*43
$GPGSA,A,3,08,20,17,04,01,28,,,,,,,3.5,2.2,2.8*3D
$GPRMC,054423.000,A,3353.7551,N,09832.0253,W,0.07,323.56,010412,,,D*79
$GPGGA,054424.000,3353.7552,N,09832.0253,W,2,06,2.2,306.9,M,-23.7,M,1.8,0000*4F
$GPGSA,A,3,08,20,17,04,01,28,,,,,,,3.5,2.2,2.8*3D
$GPRMC,054424.000,A,3353.7552,N,09832.0253,W,0.07,34.73,010412,,,D*4F
$GPGGA,054425.000,3353.7552,N,09832.0253,W,2,06,2.2,306.8,M,-23.7,M,2.8,0000*4C
$GPGSA,A,3,08,20,17,04,01,28,,,,,,,3.5,2.2,2.8*3D
$GPRMC,054425.000,A,3353.7552,N,09832.0253,W,0.33,100.94,010412,,,D*76
$GPGGA,054426.000,3353.7552,N,09832.0252,W,2,06,2.2,306.6,M,-23.7,M,0.8,0000*42
$GPGSA,A,3,08,20,17,04,01,28,,,,,,,3.5,2.2,2.8*3D
$GPRMC,054426.000,A,3353.7552,N,09832.0252,W,0.37,98.43,010412,,,D*4A
$GPGGA,054427.000,3353.7552,N,09832.0253,W,2,06,2.2,306.6,M,-23.7,M,0.8,0000*42
$GPGSA,A,3,08,20,17,04,01,28,,,,,,,3.5,2.2,2.8*3D
$GPRMC,054427.000,A,3353.7552,N,09832.0253,W,0.12,92.55,010412,,,D*40
$GPGGA,054428.000,3353.7553,N,09832.0255,W,2,06,2.2,306.5,M,-23.7,M,0.8,0000*49
$GPGSA,A,3,08,20,17,04,01,28,,,,,,,3.5,2.2,2.8*3D
$GPGSV,3,1,12,17,69,342,31,28,63,057,40,08,33,164,29,04,33,191,34*75
$GPGSV,3,2,12,27,32,311,,01,23,044,31,09,14,321,,26,13,238,*7D
$GPGSV,3,3,12,20,12,090,24,15,07,282,,02,06,204,16,11,05,044,*7F
$GPRMC,054428.000,A,3353.7553,N,09832.0255,W,0.24,287.59,010412,,,D*77
$GPGGA,054429.000,3353.7553,N,09832.0257,W,2,06,2.2,306.4,M,-23.7,M,0.8,0000*4B
$GPGSA,A,3,08,20,17,04,01,28,,,,,,,3.5,2.2,2.8*3D
$GPRMC,054429.000,A,3353.7553,N,09832.0257,W,0.10,297.86,010412,,,D*70
$GPGGA,054430.000,3353.7553,N,09832.0258,W,2,06,2.2,306.3,M,-23.7,M,1.8,0000*4A
$GPGSA,A,3,08,20,17,04,01,28,,,,,,,3.5,2.2,2.8*3D
$GPRMC,054430.000,A,3353.7553,N,09832.0258,W,0.30,100.12,010412,,,D*75
$GPGGA,054431.000,3353.7554,N,09832.0259,W,2,06,2.2,306.1,M,-23.7,M,2.8,0000*4C
$GPGSA,A,3,08,20,17,04,01,28,,,,,,,3.5,2.2,2.8*3D
$GPRMC,054431.000,A,3353.7554,N,09832.0259,W,0.10,91.36,010412,,,D*4F
$GPGGA,054432.000,3353.7554,N,09832.0261,W,2,06,2.2,306.1,M,-23.7,M,0.8,0000*46
$GPGSA,A,3,08,20,17,04,01,28,,,,,,,3.5,2.2,2.8*3D
$GPRMC,054432.000,A,3353.7554,N,09832.0261,W,0.05,14.34,010412,,,D*4C
$GPGGA,054433.000,3353.7555,N,09832.0262,W,2,06,2.2,306.0,M,-23.7,M,0.8,0000*44
$GPGSA,A,3,08,20,17,04,01,28,,,,,,,3.5,2.2,2.8*3D
$GPGSV,3,1,12,17,69,342,31,28,63,057,40,08,33,164,29,04,33,191,34*75
$GPGSV,3,2,12,27,32,311,,01,23,044,31,09,14,321,,26,13,238,*7D
$GPGSV,3,3,12,20,12,090,24,15,07,282,,02,06,204,16,11,05,044,*7F
$GPRMC,054433.000,A,3353.7555,N,09832.0262,W,0.07,323.87,010412,,,D*72
$GPGGA,054434.000,3353.7555,N,09832.0264,W,2,06,2.2,306.0,M,-23.7,M,0.8,0000*45
$GPGSA,A,3,08,20,17,04,01,28,,,,,,,3.5,2.2,2.8*3D
$GPRMC,054434.000,A,3353.7555,N,09832.0264,W,0.28,304.19,010412,,,D*7C
$GPGGA,054435.000,3353.7556,N,09832.0266,W,2,06,2.2,306.0,M,-23.7,M,0.8,0000*45
$GPGSA,A,3,08,20,17,04,01,28,,,,,,,3.5,2.2,2.8*3D
$GPRMC,054435.000,A,3353.7556,N,09832.0266,W,0.06,335.18,010412,,,D*73
$GPGGA,054436.000,3353.7556,N,09832.0266,W,2,06,2.2,306.0,M,-23.7,M,1.8,0000*47
$GPGSA,A,3,08,20,17,04,01,28,,,,,,,3.5,2.2,2.8*3D
$GPRMC,054436.000,A,3353.7556,N,09832.0266,W,0.13,303.61,010412,,,D*7F
$GPGGA,054437.000,3353.7556,N,09832.0267,W,2,06,2.2,306.0,M,-23.7,M,2.8,0000*44
$GPGSA,A,3,08,20,17,04,01,28,,,,,,,3.5,2.2,2.8*3D
$GPRMC,054437.000,A,3353.7556,N,09832.0267,W,0.16,304.70,010412,,,D*7D
$GPGGA,054438.000,3353.7557,N,09832.0268,W,2,06,2.2,306.0,M,-23.7,M,3.8,0000*44
$GPGSA,A,3,08,20,17,04,01,28,,,,,,,3.5,2.2,2.8*3D
$GPGSV,3,1,12,17,69,342,31,28,63,057,39,08,33,164,28,04,33,191,34*7A
$GPGSV,3,2,12,27,32,311,,01,23,044,31,09,14,321,,26,13,238,*7D
$GPGSV,3,3,12,20,12,090,25,15,07,282,,02,06,204,14,11,05,044,*7C
$GPRMC,054438.000,A,3353.7557,N,09832.0268,W,0.10,306.64,010412,,,D*7D
$GPGGA,054439.000,3353.7557,N,09832.0269,W,2,06,2.2,306.1,M,-23.7,M,0.8,0000*46
$GPGSA,A,3,08,20,17,04,01,28,,,,,,,3.5,2.2,2.7*32
$GPGSV,3,1,12,17,69,342,30,28,63,057,39,08,33,164,28,04,33,191,34*7B
$GPGSV,3,2,12,27,32,311,,01,23,044,31,09,14,321,,26,13,238,*7D
$GPGSV,3,3,12,20,12,090,25,15,07,282,,02,06,204,14,11,05,044,*7C
$GPRMC,054439.000,A,3353.7557,N,09832.0269,W,0.07,306.90,010412,,,D*70
$GPGGA,054440.000,3353.7557,N,09832.0271,W,2,06,2.2,306.1,M,-23.7,M,0.8,0000*41
$GPGSA,A,3,08,20,17,04,01,28,,,,,,,3.5,2.2,2.7*32
$GPRMC,054440.000,A,3353.7557,N,09832.0271,W,0.06,299.38,010412,,,D*73
$GPGGA,054441.000,3353.7557,N,09832.0271,W,2,06,2.2,306.1,M,-23.7,M,0.8,0000*40
$GPGSA,A,3,08,20,17,04,01,28,,,,,,,3.5,2.2,2.7*32
$GPRMC,054441.000,A,3353.7557,N,09832.0271,W,0.04,38.97,010412,,,D*4C
$GPGGA,054442.000,3353.7557,N,09832.0272,W,2,06,2.2,306.1,M,-23.7,M,0.8,0000*40
$GPGSA,A,3,08,20,17,04,01,28,,,,,,,3.5,2.2,2.7*32
$GPRMC,054442.000,A,3353.7557,N,09832.0272,W,0.08,338.65,010412,,,D*7E
$GPGGA,054443.000,3353.7557,N,09832.0273,W,2,06,2.2,306.2,M,-23.7,M,0.8,0000*43
$GPGSA,A,3,08,20,17,04,01,28,,,,,,,3.5,2.2,2.7*32
$GPRMC,054443.000,A,3353.7557,N,09832.0273,W,0.04,21.01,010412,,,D*4B
$GPGGA,054444.000,3353.7558,N,09832.0273,W,2,06,2.2,306.2,M,-23.7,M,1.8,0000*4A
$GPGSA,A,3,08,20,17,04,01,28,,,,,,,3.5,2.2,2.7*32
$GPRMC,054444.000,A,3353.7558,N,09832.0273,W,0.05,351.80,010412,,,D*7F
$GPGGA,054445.000,3353.7558,N,09832.0274,W,2,06,2.2,306.2,M,-23.7,M,0.8,0000*4D
$GPGSA,A,3,08,20,17,04,01,28,,,,,,,3.5,2.2,2.7*32
$GPRMC,054445.000,A,3353.7558,N,09832.0274,W,0.06,53.54,010412,,,D*42
$GPGGA,054446.000,3353.7557,N,09832.0273,W,2,06,2.2,306.4,M,-23.7,M,0.8,0000*40
$GPGSA,A,3,08,20,17,04,01,28,,,,,,,3.5,2.2,2.7*32
$GPRMC,054446.000,A,3353.7557,N,09832.0273,W,0.09,81.29,010412,,,D*43
$GPGGA,054447.000,3353.7557,N,09832.0273,W,2,06,2.2,306.5,M,-23.7,M,0.8,0000*40
$GPGSA,A,3,08,20,17,04,01,28,,,,,,,3.5,2.2,2.7*32
$GPRMC,054447.000,A,3353.7557,N,09832.0273,W,0.07,89.62,010412,,,D*4B
$GPGGA,054448.000,3353.7557,N,09832.0273,W,2,06,2.2,306.6,M,-23.7,M,1.8,0000*4D
$GPGSA,A,3,08,20,17,04,01,28,,,,,,,3.5,2.2,2.7*32
$GPGSV,3,1,12,17,69,342,30,28,63,057,38,08,33,164,29,04,33,191,34*7B
$GPGSV,3,2,12,27,32,311,,01,23,044,31,09,14,321,,26,13,238,*7D
$GPGSV,3,3,12,20,12,090,24,15,07,282,,02,06,204,,11,05,044,*78
$GPRMC,054448.000,A,3353.7557,N,09832.0273,W,0.08,86.47,010412,,,D*43
$GPGGA,054449.000,3353.7557,N,09832.0273,W,2,06,2.2,306.7,M,-23.7,M,2.8,0000*4E
$GPGSA,A,3,08,20,17,04,01,28,,,,,,,3.5,2.2,2.7*32
$GPRMC,054449.000,A,3353.7557,N,09832.0273,W,0.06,92.88,010412,,,D*4A
$GPGGA,054450.000,3353.7557,N,09832.0273,W,2,06,2.2,306.9,M,-23.7,M,3.8,0000*49
$GPGSA,A,3,08,20,17,04,01,28,,,,,,,3.5,2.2,2.7*32
$GPRMC,054450.000,A,3353.7557,N,09832.0273,W,0.10,102.79,010412,,,D*73
$GPGGA,054451.000,3353.7557,N,09832.0274,W,2,06,2.2,307.0,M,-23.7,M,0.8,0000*44
$GPGSA,A,3,08,20,17,04,01,28,,,,,,,3.5,2.2,2.7*32
$GPRMC,054451.000,A,3353.7557,N,09832.0274,W,0.08,300.56,010412,,,D*71
$GPGGA,054452.000,3353.7557,N,09832.0275,W,2,06,2.2,307.1,M,-23.7,M,0.8,0000*47
$GPGSA,A,3,08,20,17,04,01,28,,,,,,,3.5,2.2,2.7*32
$GPRMC,054452.000,A,3353.7557,N,09832.0275,W,0.04,291.11,010412,,,D*75
$GPGGA,054453.000,3353.7557,N,09832.0277,W,2,06,2.2,307.2,M,-23.7,M,0.8,0000*47
$GPGSA,A,3,08,20,17,04,01,28,,,,,,,3.5,2.2,2.7*32
$GPGSV,3,1,12,17,69,342,30,28,63,057,38,08,33,164,30,04,33,191,34*73
$GPGSV,3,2,12,27,32,311,,01,23,044,32,09,14,321,14,26,13,238,21*78
$GPGSV,3,3,12,20,12,090,24,15,07,282,,02,06,204,,11,05,044,*78
$GPRMC,054453.000,A,3353.7557,N,09832.0277,W,0.06,330.33,010412,,,D*7E
$GPGGA,054454.000,3353.7557,N,09832.0277,W,2,06,2.2,307.3,M,-23.7,M,1.8,0000*40
$GPGSA,A,3,08,20,17,04,01,28,,,,,,,3.5,2.2,2.7*32
$GPRMC,054454.000,A,3353.7557,N,09832.0277,W,0.04,333.15,010412,,,D*7C
$GPGGA,054455.000,3353.7557,N,09832.0279,W,2,06,2.2,307.5,M,-23.7,M,2.8,0000*4A
$GPGSA,A,3,08,20,17,04,01,28,,,,,,,3.5,2.2,2.7*32
$GPRMC,054455.000,A,3353.7557,N,09832.0279,W,0.16,293.80,010412,,,D*77
$GPGGA,054456.000,3353.7558,N,09832.0283,W,2,06,2.2,307.7,M,-23.7,M,3.8,0000*40
$GPGSA,A,3,08,20,17,04,01,28,,,,,,,3.5,2.2,2.7*32
$GPRMC,054456.000,A,3353.7558,N,09832.0283,W,0.42,289.53,010412,,,D*7A
$GPGGA,054457.000,3353.7558,N,09832.0284,W,2,06,2.2,307.7,M,-23.7,M,0.8,0000*45
$GPGSA,A,3,08,20,17,04,01,28,,,,,,,3.5,2.2,2.7*32
$GPRMC,054457.000,A,3353.7558,N,09832.0284,W,0.20,89.27,010412,,,D*49
$GPGGA,054458.000,3353.7558,N,09832.0283,W,2,06,2.2,307.9,M,-23.7,M,0.8,0000*43
$GPGSA,A,3,08,20,17,04,01,28,,,,,,,3.5,2.2,2.7*32
$GPRMC,054458.000,A,3353.7558,N,09832.0283,W,0.07,86.78,010412,,,D*41
$GPGGA,054459.000,3353.7558,N,09832.0283,W,2,06,2.2,308.0,M,-23.7,M,0.8,0000*44
$GPGSA,A,3,08,20,17,04,01,28,,,,,,,3.5,2.2,2.7*32
$GPGSV,3,1,12,17,69,342,30,28,63,057,38,08,33,164,30,04,33,191,34*73
$GPGSV,3,2,12,27,32,311,,01,23,044,32,09,14,321,14,26,13,238,20*79
$GPGSV,3,3,12,20,12,090,24,15,07,282,,02,06,204,,11,05,044,*78
$GPRMC,054459.000,A,3353.7558,N,09832.0283,W,0.12,101.77,010412,,,D*75
$GPGGA,054500.000,3353.7558,N,09832.0283,W,2,06,2.2,308.1,M,-23.7,M,0.8,0000*48
$GPGSA,A,3,08,20,17,04,01,28,,,,,,,3.5,2.2,2.7*32
$GPRMC,054500.000,A,3353.7558,N,09832.0283,W,0.11,291.62,010412,,,D*75
$GPGGA,054501.000,3353.7558,N,09832.0284,W,2,06,2.2,308.3,M,-23.7,M,0.8,0000*4C
$GPGSA,A,3,08,20,17,04,01,28,,,,,,,3.5,2.2,2.7*32
$GPRMC,054501.000,A,3353.7558,N,09832.0284,W,0.34,284.64,010412,,,D*76
$GPGGA,054502.000,3353.7558,N,09832.0284,W,2,06,2.2,308.4,M,-23.7,M,1.8,0000*49
$GPGSA,A,3,08,20,17,04,01,28,,,,,,,3.5,2.2,2.7*32
$GPRMC,054502.000,A,3353.7558,N,09832.0284,W,0.23,288.54,010412,,,D*7C
$GPGGA,054503.000,3353.7558,N,09832.0285,W,2,06,2.2,308.6,M,-23.7,M,2.8,0000*48
$GPGSA,A,3,08,20,17,04,01,28,,,,,,,3.5,2.2,2.7*32
$GPRMC,054503.000,A,3353.7558,N,09832.0285,W,0.08,287.65,010412,,,D*78
$GPGGA,054504.000,3353.7558,N,09832.0287,W,2,06,2.2,308.7,M,-23.7,M,0.8,0000*4E
$GPGSA,A,3,08,20,17,04,01,28,,,,,,,3.5,2.2,2.7*32
$GPRMC,054504.000,A,3353.7558,N,09832.0287,W,0.07,282.96,010412,,,D*7B
$GPGGA,054505.000,3353.7558,N,09832.0287,W,2,06,2.2,308.7,M,-23.7,M,0.8,0000*4F
$GPGSA,A,3,08,20,17,04,01,28,,,,,,,3.5,2.2,2.7*32
$GPRMC,054505.000,A,3353.7558,N,09832.0287,W,0.26,101.15,010412,,,D*7A
$GPGGA,054506.000,3353.7558,N,09832.0286,W,2,06,2.2,308.7,M,-23.7,M,0.8,0000*4D
$GPGSA,A,3,08,20,17,04,01,28,,,,,,,3.5,2.2,2.7*32
$GPRMC,054506.000,A,3353.7558,N,09832.0286,W,0.33,102.37,010412,,,D*7F
$GPGGA,054507.000,3353.7558,N,09832.0286,W,2,06,2.2,308.7,M,-23.7,M,1.8,0000*4D
$GPGSA,A,3,08,20,17,04,01,28,,,,,,,3.5,2.2,2.7*32
$GPRMC,054507.000,A,3353.7558,N,09832.0286,W,0.50,102.32,010412,,,D*7E
$GPGGA,054508.000,3353.7558,N,09832.0285,W,2,06,2.2,308.7,M,-23.7,M,0.8,0000*40
$GPGSA,A,3,08,20,17,04,01,28,,,,,,,3.5,2.2,2.7*32
$GPGSV,3,1,12,17,69,342,29,28,63,057,37,08,33,164,31,04,33,191,33*72
$GPGSV,3,2,12,27,32,311,18,01,23,044,32,09,14,321,14,26,13,238,18*7B
$GPGSV,3,3,12,20,12,090,24,15,07,282,,02,06,204,,11,05,044,*78
$GPRMC,054508.000,A,3353.7558,N,09832.0285,W,0.60,102.82,010412,,,D*7A
$GPGGA,054509.000,3353.7558,N,09832.0285,W,2,06,2.2,308.6,M,-23.7,M,0.8,0000*40
$GPGSA,A,3,08,20,17,04,01,28,,,,,,,3.5,2.2,2.7*32
$GPGSV,3,1,12,17,69,342,29,28,63,057,37,08,33,164,32,04,33,191,33*71
$GPGSV,3,2,12,27,32,311,17,01,23,044,32,09,14,321,13,26,13,238,18*73
$GPGSV,3,3,12,20,12,090,24,15,07,282,,02,06,204,,11,05,044,*78
$GPRMC,054509.000,A,3353.7558,N,09832.0285,W,0.72,101.93,010412,,,D*7B
$GPGGA,054510.000,3353.7558,N,09832.0285,W,2,06,2.2,308.7,M,-23.7,M,0.8,0000*49
$GPGSA,A,3,08,20,17,04,01,28,,,,,,,3.5,2.2,2.7*32
$GPRMC,054510.000,A,3353.7558,N,09832.0285,W,0.28,95.07,010412,,,D*4D
$GPGGA,054511.000,3353.7558,N,09832.0286,W,2,06,2.2,308.9,M,-23.7,M,0.8,0000*45
$GPGSA,A,3,08,20,17,04,01,28,,,,,,,3.5,2.2,2.7*32
$GPRMC,054511.000,A,3353.7558,N,09832.0286,W,0.04,119.02,010412,,,D*71
$GPGGA,054512.000,3353.7558,N,09832.0289,W,2,06,2.2,309.0,M,-23.7,M,1.8,0000*40
$GPGSA,A,3,08,20,17,04,01,28,,,,,,,3.5,2.2,2.7*32
$GPRMC,054512.000,A,3353.7558,N,09832.0289,W,0.19,284.95,010412,,,D*78
$GPGGA,054513.000,3353.7559,N,09832.0289,W,2,06,2.2,309.0,M,-23.7,M,2.8,0000*43
$GPGSA,A,3,08,20,17,04,01,28,,,,,,,3.5,2.2,2.7*32
$GPRMC,054513.000,A,3353.7559,N,09832.0289,W,0.17,289.09,010412,,,D*7E
$GPGGA,054514.000,3353.7559,N,09832.0290,W,2,06,2.2,309.1,M,-23.7,M,3.8,0000*4C
$GPGSA,A,3,08,20,17,04,01,28,,,,,,,3.5,2.2,2.7*32
$GPRMC,054514.000,A,3353.7559,N,09832.0290,W,0.28,103.50,010412,,,D*70
$GPGGA,054515.000,3353.7559,N,09832.0291,W,2,06,2.2,309.2,M,-23.7,M,0.8,0000*4C
$GPGSA,A,3,08,20,17,04,01,28,,,,,,,3.5,2.2,2.7*32
$GPRMC,054515.000,A,3353.7559,N,09832.0291,W,0.28,289.20,010412,,,D*76
$GPGGA,054516.000,3353.7559,N,09832.0293,W,2,06,2.2,309.2,M,-23.7,M,0.8,0000*4D
$GPGSA,A,3,08,20,17,04,01,28,,,,,,,3.5,2.2,2.7*32
$GPRMC,054516.000,A,3353.7559,N,09832.0293,W,0.11,279.17,010412,,,D*76
$GPGGA,054517.000,3353.7560,N,09832.0294,W,2,06,2.2,309.2,M,-23.7,M,0.8,0000*41
$GPGSA,A,3,08,20,17,04,01,28,,,,,,,3.5,2.2,2.7*32
$GPRMC,054517.000,A,3353.7560,N,09832.0294,W,0.24,91.49,010412,,,D*43
$GPGGA,054518.000,3353.7560,N,09832.0295,W,2,06,2.2,309.2,M,-23.7,M,1.8,0000*4E
$GPGSA,A,3,08,20,17,04,01,28,,,,,,,3.5,2.2,2.7*32
$GPGSV,3,1,12,17,69,346,28,28,63,060,38,04,34,191,34,27,33,310,16*75
$GPGSV,3,2,12,08,32,164,32,01,22,043,32,09,15,320,12,20,13,089,24*7F
$GPGSV,3,3,12,26,12,237,16,02,07,204,,15,07,280,,11,04,044,*72
$GPRMC,054518.000,A,3353.7560,N,09832.0295,W,0.09,316.95,010412,,,D*7F
$GPGGA,054519.000,3353.7560,N,09832.0295,W,2,06,2.2,309.1,M,-23.7,M,2.8,0000*4F
$GPGSA,A,3,08,20,17,04,01,28,,,,,,,3.5,2.2,2.7*32
$GPGSV,3,1,12,17,69,346,28,28,63,060,38,04,34,191,34,27,33,310,16*75
$GPGSV,3,2,12,08,32,164,32,01,22,043,32,09,15,320,12,20,13,089,24*7F
$GPGSV,3,3,12,26,12,237,16,02,07,204,,15,07,280,,11,04,044,*72
$GPRMC,054519.000,A,3353.7560,N,09832.0295,W,0.04,336.66,010412,,,D*7D
$GPGGA,054520.000,3353.7561,N,09832.0295,W,2,06,2.2,309.0,M,-23.7,M,3.8,0000*44
$GPGSA,A,3,08,20,17,04,01,28,,,,,,,3.5,2.2,2.7*32
$GPRMC,054520.000,A,3353.7561,N,09832.0295,W,0.08,314.94,010412,,,D*77
$GPGGA,054521.000,3353.7561,N,09832.0297,W,2,06,2.2,309.1,M,-23.7,M,0.8,0000*45
$GPGSA,A,3,08,20,17,04,01,28,,,,,,,3.5,2.2,2.7*32
$GPRMC,054521.000,A,3353.7561,N,09832.0297,W,0.04,50.80,010412,,,D*4E
$GPGGA,054522.000,3353.7561,N,09832.0298,W,2,06,2.2,309.1,M,-23.7,M,0.8,0000*49
$GPGSA,A,3,08,20,17,04,01,28,,,,,,,3.5,2.2,2.7*32
$GPRMC,054522.000,A,3353.7561,N,09832.0298,W,0.07,51.58,010412,,,D*45
$GPGGA,054523.000,3353.7561,N,09832.0298,W,2,06,2.2,309.2,M,-23.7,M,0.8,0000*4B
$GPGSA,A,3,08,20,17,04,01,28,,,,,,,3.5,2.2,2.7*32
$GPRMC,054523.000,A,3353.7561,N,09832.0298,W,0.04,101.87,010412,,,D*71
$GPGGA,054524.000,3353.7562,N,09832.0299,W,2,06,2.2,309.3,M,-23.7,M,1.8,0000*4E
$GPGSA,A,3,08,20,17,04,01,28,,,,,,,3.5,2.2,2.7*32
$GPGSV,3,1,12,17,69,346,27,28,63,060,38,04,34,191,34,27,33,310,15*79
$GPGSV,3,2,12,08,32,164,32,01,22,043,32,09,15,320,12,20,13,089,24*7F
$GPGSV,3,3,12,26,12,237,16,02,07,204,,15,07,280,12,11,04,044,*71
$GPRMC,054524.000,A,3353.7562,N,09832.0299,W,0.03,347.01,010412,,,D*7D
$GPGGA,054525.000,3353.7562,N,09832.0299,W,2,06,2.2,309.3,M,-23.7,M,2.8,0000*4C
$GPGSA,A,3,08,20,17,04,01,28,,,,,,,3.5,2.2,2.7*32
$GPRMC,054525.000,A,3353.7562,N,09832.0299,W,0.03,6.29,010412,,,D*70
$GPGGA,054526.000,3353.7562,N,09832.0298,W,2,06,2.2,309.3,M,-23.7,M,3.8,0000*4F
$GPGSA,A,3,08,20,17,04,01,28,,,,,,,3.5,2.2,2.7*32
$GPRMC,054526.000,A,3353.7562,N,09832.0298,W,0.31,286.05,010412,,,D*77
$GPGGA,054527.000,3353.7561,N,09832.0296,W,2,06,2.2,309.2,M,-23.7,M,0.8,0000*41
$GPGSA,A,3,08,20,17,04,01,28,,,,,,,3.5,2.2,2.7*32
$GPRMC,054527.000,A,3353.7561,N,09832.0296,W,0.07,71.80,010412,,,D*49
$GPGGA,054528.000,3353.7561,N,09832.0293,W,2,06,2.2,308.9,M,-23.7,M,0.8,0000*41
$GPGSA,A,3,08,20,17,04,01,28,,,,,,,3.5,2.2,2.7*32
$GPGSV,3,1,12,17,69,346,27,28,63,060,38,04,34,191,34,27,33,310,14*78
$GPGSV,3,2,12,08,32,164,32,01,22,043,31,09,15,320,13,20,13,089,23*7A
$GPGSV,3,3,12,26,12,237,17,02,07,204,,15,07,280,12,11,04,044,*70
$GPRMC,054528.000,A,3353.7561,N,09832.0293,W,0.55,103.65,010412,,,D*7B
$GPGGA,054529.000,3353.7561,N,09832.0292,W,2,06,2.2,308.8,M,-23.7,M,0.8,0000*40
$GPGSA,A,3,08,20,17,04,01,28,,,,,,,3.5,2.2,2.7*32
$GPRMC,054529.000,A,3353.7561,N,09832.0292,W,0.05,290.19,010412,,,D*7C
$GPGGA,054530.000,3353.7561,N,09832.0290,W,2,06,2.2,308.5,M,-23.7,M,0.8,0000*47
$GPGSA,A,3,08,20,17,04,01,28,,,,,,,3.5,2.2,2.7*32
$GPRMC,054530.000,A,3353.7561,N,09832.0290,W,0.05,338.90,010412,,,D*74
$GPGGA,054531.000,3353.7561,N,09832.0287,W,2,06,2.2,308.2,M,-23.7,M,1.8,0000*46
$GPGSA,A,3,08,20,17,04,01,28,,,,,,,3.5,2.2,2.7*32
$GPRMC,054531.000,A,3353.7561,N,09832.0287,W,0.44,100.21,010412,,,D*75
$GPGGA,054532.000,3353.7561,N,09832.0285,W,2,06,2.2,308.0,M,-23.7,M,0.8,0000*44
$GPGSA,A,3,08,20,17,04,01,28,,,,,,,3.5,2.2,2.7*32
$GPRMC,054532.000,A,3353.7561,N,09832.0285,W,0.69,103.10,010412,,,D*7A
$GPGGA,054533.000,3353.7561,N,09832.0283,W,2,06,2.2,307.7,M,-23.7,M,0.8,0000*4B
$GPGSA,A,3,08,20,17,04,01,28,,,,,,,3.5,2.2,2.7*32
$GPGSV,3,1,12,17,69,346,27,28,63,060,38,04,34,191,34,27,33,310,14*78
$GPGSV,3,2,12,08,32,164,31,01,22,043,31,09,15,320,13,20,13,089,23*79
$GPGSV,3,3,12,26,12,237,17,02,07,204,,15,07,280,12,11,04,044,*70
$GPRMC,054533.000,A,3353.7561,N,09832.0283,W,0.55,101.85,010412,,,D*7C
$GPGGA,054534.000,3353.7560,N,09832.0280,W,2,06,2.2,307.6,M,-23.7,M,0.8,0000*4F
$GPGSA,A,3,08,20,17,04,01,28,,,,,,,3.5,2.2,2.7*32
$GPRMC,054534.000,A,3353.7560,N,09832.0280,W,0.37,99.84,010412,,,D*4C
$GPGGA,054535.000,3353.7560,N,09832.0278,W,2,06,2.2,307.5,M,-23.7,M,0.8,0000*4A
$GPGSA,A,3,08,20,17,04,01,28,,,,,,,3.5,2.2,2.7*32
$GPRMC,054535.000,A,3353.7560,N,09832.0278,W,0.46,102.82,010412,,,D*79
$GPGGA,054536.000,3353.7560,N,09832.0277,W,2,06,2.2,307.4,M,-23.7,M,1.8,0000*46
$GPGSA,A,3,08,20,17,04,01,28,,,,,,,3.5,2.2,2.7*32
$GPRMC,054536.000,A,3353.7560,N,09832.0277,W,0.20,98.31,010412,,,D*4F
$GPGGA,054537.000,3353.7560,N,09832.0277,W,2,06,2.2,307.3,M,-23.7,M,0.8,0000*41
$GPGSA,A,3,08,20,17,04,01,28,,,,,,,3.5,2.2,2.7*32
$GPRMC,054537.000,A,3353.7560,N,09832.0277,W,0.23,286.32,010412,,,D*73
$GPGGA,054538.000,3353.7561,N,09832.0277,W,2,06,2.2,307.2,M,-23.7,M,1.8,0000*4F
$GPGSA,A,3,08,20,17,04,01,28,,,,,,,3.5,2.2,2.7*32
$GPGSV,3,1,12,17,69,346,27,28,63,060,38,04,34,191,34,27,33,310,*7D
$GPGSV,3,2,12,08,32,164,31,01,22,043,31,09,15,320,14,20,13,089,22*7F
$GPGSV,3,3,12,26,12,237,17,02,07,204,,15,07,280,13,11,04,044,*71
$GPRMC,054538.000,A,3353.7561,N,09832.0277,W,0.43,289.63,010412,,,D*70
$GPGGA,054539.000,3353.7561,N,09832.0277,W,2,06,2.2,307.2,M,-23.7,M,0.8,0000*4F
$GPGSA,A,3,08,20,17,04,01,28,,,,,,,3.5,2.2,2.7*32
$GPGSV,3,1,12,17,69,346,27,28,63,060,38,04,34,191,34,27,33,310,*7D
$GPGSV,3,2,12,08,32,164,31,01,22,043,31,09,15,320,14,20,13,089,22*7F
$GPGSV,3,3,12,26,12,237,17,02,07,204,,15,07,280,13,11,04,044,*71
$GPRMC,054539.000,A,3353.7561,N,09832.0277,W,0.19,98.73,010412,,,D*4D
$GPGGA,054540.000,3353.7561,N,09832.0277,W,2,06,2.2,307.0,M,-23.7,M,0.8,0000*43
$GPGSA,A,3,08,20,17,04,01,28,,,,,,,3.5,2.2,2.7*32
$GPRMC,054540.000,A,3353.7561,N,09832.0277,W,0.29,101.82,010412,,,D*7F
$GPGGA,054541.000,3353.7561,N,09832.0277,W,2,06,2.2,306.9,M,-23.7,M,0.8,0000*4A
$GPGSA,A,3,08,20,17,04,01,28,,,,,,,3.5,2.2,2.7*32
$GPRMC,054541.000,A,3353.7561,N,09832.0277,W,0.14,95.49,010412,,,D*4B
$GPGGA,054542.000,3353.7562,N,09832.0278,W,2,06,2.2,306.8,M,-23.7,M,1.8,0000*45
$GPGSA,A,3,08,20,17,04,01,28,,,,,,,3.5,2.2,2.7*32
$GPRMC,054542.000,A,3353.7562,N,09832.0278,W,0.09,63.65,010412,,,D*4F
$GPGGA,054543.000,3353.7562,N,09832.0280,W,2,06,2.2,306.8,M,-23.7,M,2.8,0000*40
$GPGSA,A,3,08,20,17,04,01,28,,,,,,,3.5,2.2,2.7*32
$GPGSV,3,1,12,17,69,346,27,28,63,060,38,04,34,191,34,27,33,310,*7D
$GPGSV,3,2,12,08,32,164,31,01,22,043,31,09,15,320,15,20,13,089,23*7F
$GPGSV,3,3,12,26,12,237,17,02,07,204,,15,07,280,15,11,04,044,*77
$GPRMC,054543.000,A,3353.7562,N,09832.0280,W,0.21,295.63,010412,,,D*7E
$GPGGA,054544.000,3353.7563,N,09832.0281,W,2,06,2.2,306.7,M,-23.7,M,3.8,0000*49
$GPGSA,A,3,08,20,17,04,01,28,,,,,,,3.5,2.2,2.7*32
$GPRMC,054544.000,A,3353.7563,N,09832.0281,W,0.32,292.85,010412,,,D*74
$GPGGA,054545.000,3353.7563,N,09832.0282,W,2,06,2.2,306.7,M,-23.7,M,0.8,0000*48
$GPGSA,A,3,08,20,17,04,01,28,,,,,,,3.5,2.2,2.7*32
$GPRMC,054545.000,A,3353.7563,N,09832.0282,W,0.21,95.61,010412,,,D*4B
$GPGGA,054546.000,3353.7563,N,09832.0282,W,2,06,2.2,306.7,M,-23.7,M,0.8,0000*4B
$GPGSA,A,3,08,20,17,04,01,28,,,,,,,3.5,2.2,2.7*32
$GPRMC,054546.000,A,3353.7563,N,09832.0282,W,0.26,94.66,010412,,,D*49
$GPGGA,054547.000,3353.7563,N,09832.0282,W,2,06,2.2,306.7,M,-23.7,M,0.8,0000*4A
$GPGSA,A,3,08,20,17,04,01,28,,,,,,,3.5,2.2,2.7*32
$GPRMC,054547.000,A,3353.7563,N,09832.0282,W,0.33,103.09,010412,,,D*7A
$GPGGA,054548.000,3353.7563,N,09832.0282,W,2,06,2.2,306.8,M,-23.7,M,1.8,0000*4B
$GPGSA,A,3,08,20,17,04,01,28,,,,,,,3.5,2.2,2.7*32
$GPRMC,054548.000,A,3353.7563,N,09832.0282,W,0.11,298.26,010412,,,D*79
$GPGGA,054549.000,3353.7563,N,09832.0284,W,2,06,2.2,306.9,M,-23.7,M,0.8,0000*4C
$GPGSA,A,3,08,20,17,04,01,28,,,,,,,3.5,2.2,2.7*32
$GPGSV,3,1,12,17,69,347,27,28,62,060,37,04,35,191,34,27,33,310,*73
$GPGSV,3,2,12,08,32,164,31,01,22,043,32,09,16,320,15,20,13,088,24*79
$GPGSV,3,3,12,26,12,237,19,02,08,204,,15,07,280,16,11,03,044,*72
$GPRMC,054549.000,A,3353.7563,N,09832.0284,W,0.14,289.72,010412,,,D*7A
$GPGGA,054550.000,3353.7563,N,09832.0286,W,2,06,2.2,307.0,M,-23.7,M,1.8,0000*4F
$GPGSA,A,3,08,20,17,04,01,28,,,,,,,3.5,2.2,2.7*32
$GPRMC,054550.000,A,3353.7563,N,09832.0286,W,0.30,289.68,010412,,,D*7D
$GPGGA,054551.000,3353.7564,N,09832.0288,W,2,06,2.2,307.1,M,-23.7,M,0.8,0000*47
$GPGSA,A,3,08,20,17,04,01,28,,,,,,,3.5,2.2,2.7*32
$GPRMC,054551.000,A,3353.7564,N,09832.0288,W,0.05,58.89,010412,,,D*42
$GPGGA,054552.000,3353.7564,N,09832.0289,W,2,06,2.2,307.1,M,-23.7,M,0.8,0000*45
$GPGSA,A,3,08,20,17,04,01,28,,,,,,,3.5,2.2,2.7*32
$GPRMC,054552.000,A,3353.7564,N,09832.0289,W,0.20,287.94,010412,,,D*7B
$GPGGA,054553.000,3353.7564,N,09832.0291,W,2,06,2.2,307.2,M,-23.7,M,0.8,0000*4E
$GPGSA,A,3,08,20,17,04,01,28,,,,,,,3.5,2.2,2.7*32
$GPRMC,054553.000,A,3353.7564,N,09832.0291,W,0.06,308.65,010412,,,D*7F
$GPGGA,054554.000,3353.7565,N,09832.0291,W,2,06,2.2,307.2,M,-23.7,M,1.8,0000*49
$GPGSA,A,3,08,20,17,04,01,28,,,,,,,3.5,2.2,2.7*32
$GPRMC,054554.000,A,3353.7565,N,09832.0291,W,0.04,347.78,010412,,,D*7C
$GPGGA,054555.000,3353.7565,N,09832.0292,W,2,06,2.2,307.2,M,-23.7,M,0.8,0000*4A
$GPGSA,A,3,08,20,17,04,01,28,,,,,,,3.5,2.2,2.7*32
$GPRMC,054555.000,A,3353.7565,N,09832.0292,W,0.04,331.93,010412,,,D*7A
$GPGGA,054556.000,3353.7565,N,09832.0293,W,2,06,2.2,307.2,M,-23.7,M,0.8,0000*48
$GPGSA,A,3,08,20,17,04,01,28,,,,,,,3.5,2.2,2.7*32
$GPRMC,054556.000,A,3353.7565,N,09832.0293,W,0.13,82.75,010412,,,D*4D
$GPGGA,054557.000,3353.7565,N,09832.0293,W,2,06,2.2,307.2,M,-23.7,M,0.8,0000*49
$GPGSA,A,3,08,20,17,04,01,28,,,,,,,3.5,2.2,2.7*32
$GPRMC,054557.000,A,3353.7565,N,09832.0293,W,0.06,78.52,010412,,,D*48
$GPGGA,054558.000,3353.7565,N,09832.0293,W,2,06,2.2,307.3,M,-23.7,M,0.8,0000*47
$GPGSA,A,3,08,20,17,04,01,28,,,,,,,3.5,2.2,2.7*32
$GPRMC,054558.000,A,3353.7565,N,09832.0293,W,0.11,71.82,010412,,,D*45
$GPGGA,054559.000,3353.7565,N,09832.0294,W,2,06,2.2,307.4,M,-23.7,M,0.8,0000*46
$GPGSA,A,3,08,20,17,04,01,28,,,,,,,3.5,2.2,2.7*32
$GPGSV,3,1,12,17,69,347,28,28,62,060,36,04,35,191,34,27,33,310,*7D
$GPGSV,3,2,12,08,32,164,31,01,22,043,32,09,16,320,18,20,13,088,25*75
$GPGSV,3,3,12,26,12,237,19,02,08,204,,15,07,280,17,11,03,044,*73
$GPRMC,054559.000,A,3353.7565,N,09832.0294,W,0.03,6.22,010412,,,D*7A
$GPGGA,054600.000,3353.7565,N,09832.0294,W,2,06,2.2,307.6,M,-23.7,M,1.8,0000*4A
$GPGSA,A,3,08,20,17,04,01,28,,,,,,,3.5,2.2,2.7*32
$GPRMC,054600.000,A,3353.7565,N,09832.0294,W,0.03,327.68,010412,,,D*7B
$GPGGA,054601.000,3353.7565,N,09832.0295,W,2,06,2.2,307.7,M,-23.7,M,0.8,0000*4A
$GPGSA,A,3,08,20,17,04,01,28,,,,,,,3.5,2.2,2.7*32
$GPRMC,054601.000,A,3353.7565,N,09832.0295,W,0.03,31.10,010412,,,D*40
$GPGGA,054602.000,3353.7565,N,09832.0295,W,2,06,2.2,307.8,M,-23.7,M,1.8,0000*47
$GPGSA,A,3,08,20,17,04,01,28,,,,,,,3.5,2.2,2.7*32
$GPRMC,054602.000,A,3353.7565,N,09832.0295,W,0.03,344.66,010412,,,D*73
$GPGGA,054603.000,3353.7565,N,09832.0295,W,2,06,2.2,307.9,M,-23.7,M,0.8,0000*46
$GPGSA,A,3,08,20,17,04,01,28,,,,,,,3.5,2.2,2.7*32
$GPRMC,054603.000,A,3353.7565,N,09832.0295,W,0.01,69.74,010412,,,D*4F
$GPGGA,054604.000,3353.7565,N,09832.0295,W,2,06,2.2,308.0,M,-23.7,M,0.8,0000*47
$GPGSA,A,3,08,20,17,04,01,28,,,,,,,3.5,2.2,2.7*32
$GPRMC,054604.000,A,3353.7565,N,09832.0295,W,0.06,133.36,010412,,,D*77
$GPGGA,054605.000,3353.7565,N,09832.0295,W,2,06,2.2,308.0,M,-23.7,M,0.8,0000*46
$GPGSA,A,3,08,20,17,04,01,28,,,,,,,3.5,2.2,2.7*32
$GPRMC,054605.000,A,3353.7565,N,09832.0295,W,0.06,87.95,010412,,,D*41
$GPGGA,054606.000,3353.7564,N,09832.0295,W,2,06,2.2,308.0,M,-23.7,M,1.8,0000*45
$GPGSA,A,3,08,20,17,04,01,28,,,,,,,3.5,2.2,2.7*32
$GPRMC,054606.000,A,3353.7564,N,09832.0295,W,0.10,105.65,010412,,,D*70
$GPGGA,054607.000,3353.7564,N,09832.0295,W,2,06,2.2,308.0,M,-23.7,M,2.8,0000*47
$GPGSA,A,3,08,20,17,04,01,28,,,,,,,3.5,2.2,2.7*32
$GPRMC,054607.000,A,3353.7564,N,09832.0295,W,0.10,82.40,010412,,,D*48
$GPGGA,054608.000,3353.7564,N,09832.0295,W,2,06,2.2,308.1,M,-23.7,M,3.8,0000*48
$GPGSA,A,3,08,20,17,04,01,28,,,,,,,3.5,2.2,2.7*32
$GPGSV,3,1,12,17,69,347,30,28,62,060,36,04,35,191,34,27,33,310,*74
$GPGSV,3,2,12,08,32,164,31,01,22,043,32,09,16,320,17,20,13,088,26*79
$GPGSV,3,3,12,26,12,237,18,02,08,204,,15,07,280,15,11,03,044,*70
$GPRMC,054608.000,A,3353.7564,N,09832.0295,W,0.04,119.75,010412,,,D*77
$GPGGA,054609.000,3353.7564,N,09832.0295,W,2,06,2.2,308.1,M,-23.7,M,0.8,0000*4A
$GPGSA,A,3,08,20,17,04,01,28,,,,,,,3.5,2.2,2.7*32
$GPGSV,3,1,12,17,69,347,30,28,62,060,36,04,35,191,34,27,33,310,*74
$GPGSV,3,2,12,08,32,164,31,01,22,043,32,09,16,320,16,20,13,088,27*79
$GPGSV,3,3,12,26,12,237,18,02,08,204,,15,07,280,14,11,03,044,*71
$GPRMC,054609.000,A,3353.7564,N,09832.0295,W,0.07,72.14,010412,,,D*4E
$GPGGA,054610.000,3353.7564,N,09832.0295,W,2,06,2.2,308.2,M,-23.7,M,0.8,0000*41
$GPGSA,A,3,08,20,17,04,01,28,,,,,,,3.5,2.2,2.7*32
$GPRMC,054610.000,A,3353.7564,N,09832.0295,W,0.06,37.78,010412,,,D*4C
$GPGGA,054611.000,3353.7564,N,09832.0295,W,2,06,2.2,308.3,M,-23.7,M,0.8,0000*41
$GPGSA,A,3,08,20,17,04,01,28,,,,,,,3.5,2.2,2.7*32
$GPRMC,054611.000,A,3353.7564,N,09832.0295,W,0.02,11.58,010412,,,D*4F
$GPGGA,054612.000,3353.7564,N,09832.0294,W,2,06,2.2,308.4,M,-23.7,M,1.8,0000*45
$GPGSA,A,3,08,20,17,04,01,28,,,,,,,3.5,2.2,2.7*32
$GPRMC,054612.000,A,3353.7564,N,09832.0294,W,0.04,62.88,010412,,,D*42
$GPGGA,054613.000,3353.7564,N,09832.0294,W,2,06,2.2,308.5,M,-23.7,M,2.8,0000*46
$GPGSA,A,3,08,20,17,04,01,28,,,,,,,3.5,2.2,2.7*32
$GPRMC,054613.000,A,3353.7564,N,09832.0294,W,0.03,41.57,010412,,,D*47
$GPGGA,054614.000,3353.7563,N,09832.0294,W,2,06,2.2,308.5,M,-23.7,M,3.8,0000*47
$GPGSA,A,3,08,20,17,04,01,28,,,,,,,3.5,2.2,2.7*32
$GPGSV,3,1,12,17,69,347,31,28,62,060,36,04,35,191,34,27,33,310,*75
$GPGSV,3,2,12,08,32,164,30,01,22,043,32,09,16,320,15,20,13,088,26*7A
$GPGSV,3,3,12,26,12,237,17,02,08,204,20,15,07,280,,11,03,044,*79
$GPRMC,054614.000,A,3353.7563,N,09832.0294,W,0.03,10.01,010412,,,D*40
$GPGGA,054615.000,3353.7563,N,09832.0293,W,2,06,2.2,308.6,M,-23.7,M,0.8,0000*41
$GPGSA,A,3,08,20,17,04,01,28,,,,,,,3.5,2.2,2.7*32
$GPRMC,054615.000,A,3353.7563,N,09832.0293,W,0.25,106.33,010412,,,D*75
$GPGGA,054616.000,3353.7563,N,09832.0293,W,2,06,2.2,308.7,M,-23.7,M,0.8,0000*43
$GPGSA,A,3,08,20,17,04,01,28,,,,,,,3.5,2.2,2.7*32
$GPRMC,054616.000,A,3353.7563,N,09832.0293,W,0.05,111.53,010412,,,D*74
$GPGGA,054617.000,3353.7563,N,09832.0292,W,2,06,2.2,308.7,M,-23.7,M,0.8,0000*43
$GPGSA,A,3,08,20,17,04,01,28,,,,,,,3.5,2.2,2.7*32
$GPRMC,054617.000,A,3353.7563,N,09832.0292,W,0.07,91.42,010412,,,D*4F
$GPGGA,054618.000,3353.7563,N,09832.0292,W,2,06,2.2,308.6,M,-23.7,M,1.8,0000*4C
$GPGSA,A,3,08,20,17,04,01,28,,,,,,,3.5,2.2,2.7*32
$GPGSV,3,1,12,17,69,347,31,28,62,060,36,04,35,191,34,27,33,310,*75
$GPGSV,3,2,12,08,32,164,30,01,22,043,32,09,16,320,14,20,13,088,26*7B
$GPGSV,3,3,12,26,12,237,16,02,08,204,20,15,07,280,,11,03,044,*78
$GPRMC,054618.000,A,3353.7563,N,09832.0292,W,0.11,100.22,010412,,,D*78
$GPGGA,054619.000,3353.7562,N,09832.0291,W,2,06,2.2,308.6,M,-23.7,M,2.8,0000*4C
$GPGSA,A,3,08,20,17,04,01,28,,,,,,,3.5,2.2,2.7*32
$GPGSV,3,1,12,17,69,347,32,28,62,060,36,04,35,191,34,27,33,310,*76
$GPGSV,3,2,12,08,32,164,29,01,22,043,32,09,16,320,14,20,13,088,26*73
$GPGSV,3,3,12,26,12,237,16,02,08,204,20,15,07,280,,11,03,044,*78
$GPRMC,054619.000,A,3353.7562,N,09832.0291,W,0.09,92.45,010412,,,D*49
$GPGGA,054620.000,3353.7562,N,09832.0290,W,2,06,2.2,308.6,M,-23.7,M,0.8,0000*45
$GPGSA,A,3,08,20,17,04,01,28,,,,,,,3.5,2.2,2.7*32
$GPRMC,054620.000,A,3353.7562,N,09832.0290,W,0.08,96.16,010412,,,D*41
$GPGGA,054621.000,3353.7562,N,09832.0289,W,2,06,2.2,308.5,M,-23.7,M,0.8,0000*4F
$GPGSA,A,3,08,20,17,04,01,28,,,,,,,3.5,2.2,2.7*32
$GPRMC,054621.000,A,3353.7562,N,09832.0289,W,0.08,81.99,010412,,,D*49
$GPGGA,054622.000,3353.7562,N,09832.0287,W,2,06,2.2,308.6,M,-23.7,M,0.8,0000*41
$GPGSA,A,3,08,20,17,04,01,28,,,,,,,3.5,2.2,2.7*32
$GPRMC,054622.000,A,3353.7562,N,09832.0287,W,0.11,67.46,010412,,,D*46
$GPGGA,054623.000,3353.7561,N,09832.0286,W,2,06,2.2,308.7,M,-23.7,M,0.8,0000*43
$GPGSA,A,3,08,20,17,04,01,28,,,,,,,3.5,2.2,2.7*32
$GPGSV,3,1,12,17,69,347,32,28,62,060,36,04,35,191,35,27,33,310,*77
$GPGSV,3,2,12,08,32,164,29,01,22,043,32,09,16,320,13,20,13,088,26*74
$GPGSV,3,3,12,26,12,237,16,02,08,204,20,15,07,280,,11,03,044,*78
$GPRMC,054623.000,A,3353.7561,N,09832.0286,W,0.01,113.08,010412,,,D*7C
$GPGGA,054624.000,3353.7561,N,09832.0286,W,2,06,2.2,308.7,M,-23.7,M,1.8,0000*45
$GPGSA,A,3,08,20,17,04,01,28,,,,,,,3.5,2.2,2.7*32
$GPRMC,054624.000,A,3353.7561,N,09832.0286,W,0.04,70.50,010412,,,D*47
$GPGGA,054625.000,3353.7561,N,09832.0285,W,2,06,2.2,308.8,M,-23.7,M,2.8,0000*4B
$GPGSA,A,3,08,20,17,04,01,28,,,,,,,3.5,2.2,2.7*32
$GPRMC,054625.000,A,3353.7561,N,09832.0285,W,0.04,107.56,010412,,,D*72
$GPGGA,054626.000,3353.7561,N,09832.0284,W,2,06,2.2,308.9,M,-23.7,M,0.8,0000*4A
$GPGSA,A,3,08,20,17,04,01,28,,,,,,,3.5,2.2,2.7*32
$GPRMC,054626.000,A,3353.7561,N,09832.0284,W,0.06,74.11,010412,,,D*44
$GPGGA,054627.000,3353.7560,N,09832.0284,W,2,06,2.2,309.1,M,-23.7,M,0.8,0000*43
$GPGSA,A,3,08,20,17,04,01,28,,,,,,,3.5,2.2,2.7*32
$GPRMC,054627.000,A,3353.7560,N,09832.0284,W,0.07,122.39,010412,,,D*7D
$GPGGA,054628.000,3353.7560,N,09832.0283,W,2,06,2.2,309.1,M,-23.7,M,0.8,0000*4B
$GPGSA,A,3,08,20,17,04,01,28,,,,,,,3.5,2.2,2.7*32
$GPGSV,3,1,12,17,69,347,32,28,62,060,36,04,35,191,35,27,33,310,*77
$GPGSV,3,2,12,08,32,164,30,01,22,043,31,09,16,320,13,20,13,088,26*7F
$GPGSV,3,3,12,26,12,237,19,02,08,204,20,15,07,280,,11,03,044,*77
$GPRMC,054628.000,A,3353.7560,N,09832.0283,W,0.10,108.90,010412,,,D*78
$GPGGA,054629.000,3353.7560,N,09832.0282,W,2,06,2.2,309.1,M,-23.7,M,0.8,0000*4B
$GPGSA,A,3,08,20,17,04,01,28,,,,,,,3.5,2.2,2.7*32
$GPGSV,3,1,12,17,69,347,32,28,62,060,36,04,35,191,35,27,33,310,*77
$GPGSV,3,2,12,08,32,164,30,01,22,043,31,09,16,320,13,20,13,088,26*7F
$GPGSV,3,3,12,26,12,237,19,02,08,204,20,15,07,280,,11,03,044,*77
$GPRMC,054629.000,A,3353.7560,N,09832.0282,W,0.08,69.28,010412,,,D*44
$GPGGA,054630.000,3353.7560,N,09832.0281,W,2,06,2.2,309.1,M,-23.7,M,0.8,0000*40
$GPGSA,A,3,08,20,17,04,01,28,,,,,,,3.5,2.2,2.7*32
$GPRMC,054630.000,A,3353.7560,N,09832.0281,W,0.08,72.41,010412,,,D*4A
$GPGGA,054631.000,3353.7560,N,09832.0281,W,2,06,2.2,309.0,M,-23.7,M,1.8,0000*41
$GPGSA,A,3,08,20,17,04,01,28,,,,,,,3.5,2.2,2.7*32
$GPRMC,054631.000,A,3353.7560,N,09832.0281,W,0.07,52.49,010412,,,D*4E
$GPGGA,054632.000,3353.7560,N,09832.0280,W,2,06,2.2,309.0,M,-23.7,M,2.8,0000*40
$GPGSA,A,3,08,20,17,04,01,28,,,,,,,3.5,2.2,2.7*32
$GPRMC,054632.000,A,3353.7560,N,09832.0280,W,0.10,64.41,010412,,,D*47
$GPGGA,054633.000,3353.7560,N,09832.0280,W,2,06,2.2,309.0,M,-23.7,M,0.8,0000*43
$GPGSA,A,3,08,20,17,04,01,28,,,,,,,3.5,2.2,2.7*32
$GPGSV,3,1,12,17,69,347,32,28,62,060,37,04,35,191,36,27,33,310,*75
$GPGSV,3,2,12,08,32,164,30,01,22,043,32,09,16,320,12,20,13,088,26*7D
$GPGSV,3,3,12,26,12,237,21,02,08,204,20,15,07,280,,11,03,044,*7C
$GPRMC,054633.000,A,3353.7560,N,09832.0280,W,0.08,25.54,010412,,,D*4E
$GPGGA,054634.000,3353.7560,N,09832.0279,W,2,06,2.2,309.0,M,-23.7,M,0.8,0000*42
$GPGSA,A,3,08,20,17,04,01,28,,,,,,,3.5,2.2,2.7*32
$GPRMC,054634.000,A,3353.7560,N,09832.0279,W,0.12,51.85,010412,,,D*4B
$GPGGA,054635.000,3353.7560,N,09832.0278,W,2,06,2.2,309.1,M,-23.7,M,0.8,0000*43
$GPGSA,A,3,08,20,17,04,01,28,,,,,,,3.5,2.2,2.7*32
$GPRMC,054635.000,A,3353.7560,N,09832.0278,W,0.06,115.16,010412,,,D*75
$GPGGA,054636.000,3353.7560,N,09832.0277,W,2,06,2.2,309.2,M,-23.7,M,0.8,0000*4C
$GPGSA,A,3,08,20,17,04,01,28,,,,,,,3.5,2.2,2.7*32
$GPRMC,054636.000,A,3353.7560,N,09832.0277,W,0.04,68.43,010412,,,D*40
$GPGGA,054637.000,3353.7560,N,09832.0277,W,2,06,2.2,309.2,M,-23.7,M,0.8,0000*4D
$GPGSA,A,3,08,20,17,04,01,28,,,,,,,3.5,2.2,2.7*32
$GPRMC,054637.000,A,3353.7560,N,09832.0277,W,0.08,110.53,010412,,,D*72
$GPGGA,054638.000,3353.7559,N,09832.0276,W,2,06,2.2,309.3,M,-23.7,M,1.8,0000*49
$GPGSA,A,3,08,20,17,04,01,28,,,,,,,3.5,2.2,2.7*32
$GPGSV,3,1,12,17,69,347,32,28,62,060,37,04,35,191,36,27,33,310,*75
$GPGSV,3,2,12,08,32,164,30,01,22,043,32,09,16,320,12,20,13,088,25*7E
$GPGSV,3,3,12,26,12,237,22,02,08,204,20,15,07,280,,11,03,044,*7F
$GPRMC,054638.000,A,3353.7559,N,09832.0276,W,0.08,99.88,010412,,,D*40
$GPGGA,054639.000,3353.7559,N,09832.0275,W,2,06,2.2,309.4,M,-23.7,M,0.8,0000*4D
$GPGSA,A,3,08,20,17,04,01,28,,,,,,,3.5,2.2,2.7*32
$GPGSV,3,1,12,17,69,347,32,28,62,060,37,04,35,191,36,27,33,310,*75
$GPGSV,3,2,12,08,32,164,30,01,22,043,32,09,16,320,12,20,13,088,25*7E
$GPGSV,3,3,12,26,12,237,22,02,08,204,20,15,07,280,,11,03,044,*7F
$GPRMC,054639.000,A,3353.7559,N,09832.0275,W,0.09,119.68,010412,,,D*74
$GPGGA,054640.000,3353.7559,N,09832.0275,W,2,06,2.2,309.4,M,-23.7,M,0.8,0000*43
$GPGSA,A,3,08,20,17,04,01,28,,,,,,,3.5,2.2,2.7*32
$GPRMC,054640.000,A,3353.7559,N,09832.0275,W,0.08,120.92,010412,,,D*74
$GPGGA,054641.000,3353.7559,N,09832.0274,W,2,06,2.2,309.4,M,-23.7,M,0.8,0000*43
$GPGSA,A,3,08,20,17,04,01,28,,,,,,,3.5,2.2,2.7*32
$GPRMC,054641.000,A,3353.7559,N,09832.0274,W,0.11,85.71,010412,,,D*4F
$GPGGA,054642.000,3353.7559,N,09832.0274,W,2,06,2.2,309.4,M,-23.7,M,0.8,0000*40
$GPGSA,A,3,08,20,17,04,01,28,,,,,,,3.5,2.2,2.7*32
$GPRMC,054642.000,A,3353.7559,N,09832.0274,W,0.07,70.96,010412,,,D*48
$GPGGA,054643.000,3353.7559,N,09832.0273,W,2,06,2.2,309.4,M,-23.7,M,1.8,0000*47
$GPGSA,A,3,08,20,17,04,01,28,,,,,,,3.5,2.2,2.7*32
$GPRMC,054643.000,A,3353.7559,N,09832.0273,W,0.08,77.41,010412,,,D*4C
$GPGGA,054644.000,3353.7559,N,09832.0273,W,2,06,2.2,309.3,M,-23.7,M,2.8,0000*44
$GPGSA,A,3,08,20,17,04,01,28,,,,,,,3.5,2.2,2.7*32
$GPRMC,054644.000,A,3353.7559,N,09832.0273,W,0.09,63.49,010412,,,D*47
$GPGGA,054645.000,3353.7559,N,09832.0273,W,2,06,2.2,309.3,M,-23.7,M,0.8,0000*47
$GPGSA,A,3,08,20,17,04,01,28,,,,,,,3.5,2.2,2.7*32
$GPRMC,054645.000,A,3353.7559,N,09832.0273,W,0.08,45.52,010412,,,D*49
$GPGGA,054646.000,3353.7559,N,09832.0272,W,2,06,2.2,309.3,M,-23.7,M,0.8,0000*45
$GPGSA,A,3,08,20,17,04,01,28,,,,,,,3.5,2.2,2.7*32
$GPRMC,054646.000,A,3353.7559,N,09832.0272,W,0.11,56.93,010412,,,D*4C
$GPGGA,054647.000,3353.7560,N,09832.0272,W,2,06,2.2,309.4,M,-23.7,M,0.8,0000*49
$GPGSA,A,3,08,20,17,04,01,28,,,,,,,3.5,2.2,2.7*32
$GPRMC,054647.000,A,3353.7560,N,09832.0272,W,0.03,43.31,010412,,,D*48
$GPGGA,054648.000,3353.7559,N,09832.0272,W,2,06,2.2,309.4,M,-23.7,M,1.8,0000*4D
$GPGSA,A,3,08,20,17,04,01,28,,,,,,,3.5,2.2,2.7*32
$GPGSV,3,1,12,17,69,348,32,28,62,061,37,04,35,191,36,27,33,310,*7B
$GPGSV,3,2,12,08,31,164,30,01,21,043,32,09,16,320,13,20,13,088,25*7F
$GPGSV,3,3,12,26,12,237,21,02,08,205,19,15,06,280,,32,03,063,*72
$GPRMC,054648.000,A,3353.7559,N,09832.0272,W,0.06,306.16,010412,,,D*7F
$GPGGA,054649.000,3353.7560,N,09832.0272,W,2,06,2.2,309.6,M,-23.7,M,0.8,0000*45
$GPGSA,A,3,08,20,17,04,01,28,,,,,,,3.5,2.2,2.7*32
$GPGSV,3,1,12,17,69,348,32,28,62,061,38,04,35,191,36,27,33,310,*74
$GPGSV,3,2,12,08,31,164,30,01,21,043,32,09,16,320,13,20,13,088,25*7F
$GPGSV,3,3,12,26,12,237,21,02,08,205,19,15,06,280,,32,03,063,*72
$GPRMC,054649.000,A,3353.7560,N,09832.0272,W,0.01,49.84,010412,,,D*40
$GPGGA,054650.000,3353.7560,N,09832.0273,W,2,06,2.2,309.7,M,-23.7,M,1.8,0000*4C
$GPGSA,A,3,08,20,17,04,01,28,,,,,,,3.5,2.2,2.7*32
$GPRMC,054650.000,A,3353.7560,N,09832.0273,W,0.03,27.69,010412,,,D*40
$GPGGA,054651.000,3353.7560,N,09832.0273,W,2,06,2.2,309.8,M,-23.7,M,0.8,0000*43
$GPGSA,A,3,08,20,17,04,01,28,,,,,,,3.5,2.2,2.7*32
$GPRMC,054651.000,A,3353.7560,N,09832.0273,W,0.04,108.96,010412,,,D*7A
$GPGGA,054652.000,3353.7560,N,09832.0274,W,2,06,2.2,309.9,M,-23.7,M,0.8,0000*46
$GPGSA,A,3,08,20,17,04,01,28,,,,,,,3.5,2.2,2.7*32
$GPRMC,054652.000,A,3353.7560,N,09832.0274,W,0.09,135.94,010412,,,D*7F
$GPGGA,054653.000,3353.7559,N,09832.0273,W,2,06,2.2,309.9,M,-23.7,M,0.8,0000*4A
$GPGSA,A,3,08,20,17,04,01,28,,,,,,,3.5,2.2,2.7*32
$GPRMC,054653.000,A,3353.7559,N,09832.0273,W,0.05,34.29,010412,,,D*49
$GPGGA,054654.000,3353.7559,N,09832.0272,W,2,06,2.2,309.8,M,-23.7,M,1.8,0000*4C
$GPGSA,A,3,08,20,17,04,01,28,,,,,,,3.5,2.2,2.7*32
$GPRMC,054654.000,A,3353.7559,N,09832.0272,W,0.03,327.46,010412,,,D*71
$GPGGA,054655.000,3353.7559,N,09832.0272,W,2,06,2.2,309.7,M,-23.7,M,2.8,0000*41
$GPGSA,A,3,08,20,17,04,01,28,,,,,,,3.5,2.2,2.7*32
$GPRMC,054655.000,A,3353.7559,N,09832.0272,W,0.22,291.12,010412,,,D*7E
$GPGGA,054656.000,3353.7559,N,09832.0270,W,2,06,2.2,309.5,M,-23.7,M,3.8,0000*43
$GPGSA,A,3,08,20,17,04,01,28,,,,,,,3.5,2.2,2.7*32
$GPRMC,054656.000,A,3353.7559,N,09832.0270,W,0.29,99.85,010412,,,D*40
$GPGGA,054657.000,3353.7559,N,09832.0271,W,2,06,2.2,309.5,M,-23.7,M,0.8,0000*40
$GPGSA,A,3,08,20,17,04,01,28,,,,,,,3.5,2.2,2.7*32
$GPRMC,054657.000,A,3353.7559,N,09832.0271,W,0.16,91.66,010412,,,D*49
$GPGGA,054658.000,3353.7560,N,09832.0271,W,2,06,2.2,309.5,M,-23.7,M,0.8,0000*45
$GPGSA,A,3,08,20,17,04,01,28,,,,,,,3.5,2.2,2.7*32
$GPGSV,3,1,12,17,69,348,32,28,62,061,38,04,35,191,36,27,33,310,*74
$GPGSV,3,2,12,08,31,164,30,01,21,043,32,09,16,320,,20,13,088,24*7C
$GPGSV,3,3,12,26,12,237,13,02,08,205,18,15,06,280,,32,03,063,*72
$GPRMC,054658.000,A,3353.7560,N,09832.0271,W,0.09,61.34,010412,,,D*4A
$GPGGA,054659.000,3353.7560,N,09832.0272,W,2,06,2.2,309.6,M,-23.7,M,0.8,0000*44
$GPGSA,A,3,08,20,17,04,01,28,,,,,,,3.5,2.2,2.7*32
$GPGSV,3,1,12,17,69,348,32,28,62,061,38,04,35,191,36,27,33,310,*74
$GPGSV,3,2,12,08,31,164,30,01,21,043,32,09,16,320,,20,13,088,24*7C
$GPGSV,3,3,12,26,12,237,12,02,08,205,18,15,06,280,,32,03,063,*73
$GPRMC,054659.000,A,3353.7560,N,09832.0272,W,0.05,4.44,010412,,,D*70
$GPGGA,054700.000,3353.7560,N,09832.0272,W,2,06,2.2,309.6,M,-23.7,M,1.8,0000*48
$GPGSA,A,3,08,20,17,04,01,28,,,,,,,3.5,2.2,2.7*32
$GPRMC,054700.000,A,3353.7560,N,09832.0272,W,0.05,358.31,010412,,,D*75
$GPGGA,054701.000,3353.7560,N,09832.0272,W,2,06,2.2,309.7,M,-23.7,M,2.8,0000*4B
$GPGSA,A,3,08,20,17,04,01,28,,,,,,,3.5,2.2,2.7*32
$GPRMC,054701.000,A,3353.7560,N,09832.0272,W,0.03,38.80,010412,,,D*4D
$GPGGA,054702.000,3353.7560,N,09832.0272,W,2,06,2.2,309.7,M,-23.7,M,3.8,0000*49
$GPGSA,A,3,08,20,17,04,01,28,,,,,,,3.5,2.2,2.7*32
$GPRMC,054702.000,A,3353.7560,N,09832.0272,W,0.04,19.85,010412,,,D*4F
$GPGGA,054703.000,3353.7560,N,09832.0273,W,2,06,2.2,309.8,M,-23.7,M,0.8,0000*45
$GPGSA,A,3,08,20,17,04,01,28,,,,,,,3.5,2.2,2.7*32
$GPRMC,054703.000,A,3353.7560,N,09832.0273,W,0.03,92.73,010412,,,D*42
$GPGGA,054704.000,3353.7560,N,09832.0273,W,2,06,2.2,309.8,M,-23.7,M,0.8,0000*42
$GPGSA,A,3,08,20,17,04,01,28,,,,,,,3.5,2.2,2.7*32
$GPRMC,054704.000,A,3353.7560,N,09832.0273,W,0.01,187.92,010412,,,D*7D
$GPGGA,054705.000,3353.7559,N,09832.0273,W,2,06,2.2,309.7,M,-23.7,M,0.8,0000*46
$GPGSA,A,3,08,20,17,04,01,28,,,,,,,3.5,2.2,2.7*32
$GPRMC,054705.000,A,3353.7559,N,09832.0273,W,0.07,81.94,010412,,,D*41
$GPGGA,054706.000,3353.7559,N,09832.0274,W,2,06,2.2,309.7,M,-23.7,M,0.8,0000*42
$GPGSA,A,3,08,20,17,04,01,28,,,,,,,3.5,2.2,2.7*32
$GPRMC,054706.000,A,3353.7559,N,09832.0274,W,0.06,113.83,010412,,,D*78
$GPGGA,054707.000,3353.7559,N,09832.0274,W,2,06,2.2,309.6,M,-23.7,M,0.8,0000*42
$GPGSA,A,3,08,20,17,04,01,28,,,,,,,3.5,2.2,2.7*32
$GPRMC,054707.000,A,3353.7559,N,09832.0274,W,0.08,85.48,010412,,,D*4E
$GPGGA,054708.000,3353.7559,N,09832.0274,W,2,06,2.2,309.6,M,-23.7,M,1.8,0000*4C
$GPGSA,A,3,08,20,17,04,01,28,,,,,,,3.5,2.2,2.7*32
$GPGSV,3,1,12,17,69,348,32,28,62,061,38,04,35,191,35,27,33,310,*77
$GPGSV,3,2,12,08,31,164,29,01,21,043,31,09,16,320,,20,13,088,26*75
$GPGSV,3,3,12,26,12,237,,02,08,205,17,15,06,280,,32,03,063,*7F
$GPRMC,054708.000,A,3353.7559,N,09832.0274,W,0.09,83.71,010412,,,D*4C
$GPGGA,054709.000,3353.7559,N,09832.0275,W,2,06,2.2,309.5,M,-23.7,M,0.8,0000*4E
$GPGSA,A,3,08,20,17,04,01,28,,,,,,,3.5,2.2,2.7*32
$GPGSV,3,1,12,17,69,348,32,28,62,061,38,04,35,191,35,27,33,310,*77
$GPGSV,3,2,12,08,31,164,29,01,21,043,31,09,16,320,,20,13,088,26*75
$GPGSV,3,3,12,26,12,237,,02,08,205,17,15,06,280,,32,03,063,*7F
$GPRMC,054709.000,A,3353.7559,N,09832.0275,W,0.06,20.91,010412,,,D*44
$GPGGA,054710.000,3353.7559,N,09832.0275,W,2,06,2.2,309.5,M,-23.7,M,0.8,0000*46
$GPGSA,A,3,08,20,17,04,01,28,,,,,,,3.5,2.2,2.7*32
$GPRMC,054710.000,A,3353.7559,N,09832.0275,W,0.07,50.90,010412,,,D*4B
$GPGGA,054711.000,3353.7559,N,09832.0276,W,2,06,2.2,309.5,M,-23.7,M,0.8,0000*44
$GPGSA,A,3,08,20,17,04,01,28,,,,,,,3.5,2.2,2.7*32
$GPRMC,054711.000,A,3353.7559,N,09832.0276,W,0.05,4.15,010412,,,D*77
$GPGGA,054712.000,3353.7559,N,09832.0276,W,2,06,2.2,309.6,M,-23.7,M,1.8,0000*45
$GPGSA,A,3,08,20,17,04,01,28,,,,,,,3.5,2.2,2.7*32
$GPRMC,054712.000,A,3353.7559,N,09832.0276,W,0.04,15.39,010412,,,D*4B
$GPGGA,054713.000,3353.7559,N,09832.0277,W,2,06,2.2,309.6,M,-23.7,M,2.8,0000*46
$GPGSA,A,3,08,20,17,04,01,28,,,,,,,3.5,2.2,2.7*32
$GPGSV,3,1,12,17,69,348,32,28,62,061,38,04,35,191,35,27,33,310,*77
$GPGSV,3,2,12,08,31,164,29,01,21,043,31,09,16,320,,20,13,088,26*75
$GPGSV,3,3,12,26,12,237,17,02,08,205,16,15,06,280,,32,03,063,*78
$GPRMC,054713.000,A,3353.7559,N,09832.0277,W,0.05,334.29,010412,,,D*7B
$GPGGA,054714.000,3353.7559,N,09832.0277,W,2,06,2.2,309.6,M,-23.7,M,3.8,0000*40
$GPGSA,A,3,08,20,17,04,01,28,,,,,,,3.5,2.2,2.7*32
$GPRMC,054714.000,A,3353.7559,N,09832.0277,W,0.03,9.75,010412,,,D*7E
$GPGGA,054715.000,3353.7559,N,09832.0277,W,2,06,2.2,309.6,M,-23.7,M,0.8,0000*42
$GPGSA,A,3,08,20,17,04,01,28,,,,,,,3.4,2.2,2.7*33
$GPRMC,054715.000,A,3353.7559,N,09832.0277,W,0.01,281.78,010412,,,D*72
$GPGGA,054716.000,3353.7559,N,09832.0278,W,2,06,2.2,309.5,M,-23.7,M,0.8,0000*4D
$GPGSA,A,3,08,20,17,04,01,28,,,,,,,3.4,2.2,2.7*33
$GPRMC,054716.000,A,3353.7559,N,09832.0278,W,0.01,326.08,010412,,,D*75
$GPGGA,054717.000,3353.7559,N,09832.0278,W,2,06,2.2,309.4,M,-23.7,M,0.8,0000*4D
$GPGSA,A,3,08,20,17,04,01,28,,,,,,,3.4,2.2,2.7*33
$GPRMC,054717.000,A,3353.7559,N,09832.0278,W,0.06,111.25,010412,,,D*7A
$GPGGA,054718.000,3353.7559,N,09832.0279,W,2,06,2.2,309.3,M,-23.7,M,1.8,0000*45
$GPGSA,A,3,08,20,17,04,01,28,,,,,,,3.4,2.2,2.7*33
$GPGSV,3,1,12,17,69,348,33,28,62,061,38,04,35,191,35,27,33,310,*76
$GPGSV,3,2,12,08,31,164,29,01,21,043,31,09,16,320,,20,13,088,26*75
$GPGSV,3,3,12,26,12,237,17,02,08,205,15,15,06,280,,32,03,063,*7B
$GPRMC,054718.000,A,3353.7559,N,09832.0279,W,0.04,82.51,010412,,,D*4E
$GPGGA,054719.000,3353.7559,N,09832.0279,W,2,06,2.2,309.2,M,-23.7,M,2.8,0000*46
$GPGSA,A,3,08,20,17,04,01,28,,,,,,,3.4,2.2,2.7*33
$GPGSV,3,1,12,17,69,348,33,28,62,061,38,04,35,191,35,27,33,310,*76
$GPGSV,3,2,12,08,31,164,29,01,21,043,31,09,16,320,,20,13,088,26*75
$GPGSV,3,3,12,26,12,237,17,02,08,205,14,15,06,280,,32,03,063,*7A
$GPRMC,054719.000,A,3353.7559,N,09832.0279,W,0.04,92.95,010412,,,D*46
$GPGGA,054720.000,3353.7559,N,09832.0279,W,2,06,2.2,309.1,M,-23.7,M,3.8,0000*4E
$GPGSA,A,3,08,20,17,04,01,28,,,,,,,3.4,2.2,2.7*33
$GPRMC,054720.000,A,3353.7559,N,09832.0279,W,0.03,34.84,010412,,,D*47
$GPGGA,054721.000,3353.7559,N,09832.0280,W,2,06,2.2,309.0,M,-23.7,M,0.8,0000*4B
$GPGSA,A,3,08,20,17,04,01,28,,,,,,,3.4,2.2,2.7*33
$GPRMC,054721.000,A,3353.7559,N,09832.0280,W,0.03,310.67,010412,,,D*78
$GPGGA,054722.000,3353.7559,N,09832.0280,W,2,06,2.2,308.9,M,-23.7,M,0.8,0000*40
$GPGSA,A,3,08,20,17,04,01,28,,,,,,,3.4,2.2,2.7*33
$GPRMC,054722.000,A,3353.7559,N,09832.0280,W,0.06,26.29,010412,,,D*42
$GPGGA,054723.000,3353.7559,N,09832.0280,W,2,06,2.2,308.9,M,-23.7,M,0.8,0000*41
$GPGSA,A,3,08,20,17,04,01,28,,,,,,,3.4,2.2,2.7*33
$GPRMC,054723.000,A,3353.7559,N,09832.0280,W,0.06,20.71,010412,,,D*48
$GPGGA,054724.000,3353.7559,N,09832.0280,W,2,06,2.2,308.9,M,-23.7,M,1.8,0000*47
$GPGSA,A,3,08,20,17,04,01,28,,,,,,,3.4,2.2,2.7*33
$GPRMC,054724.000,A,3353.7559,N,09832.0280,W,0.07,0.88,010412,,,D*7A
$GPGGA,054725.000,3353.7559,N,09832.0280,W,2,06,2.2,309.0,M,-23.7,M,0.8,0000*4F
$GPGSA,A,3,08,20,17,04,01,28,,,,,,,3.4,2.2,2.7*33
$GPRMC,054725.000,A,3353.7559,N,09832.0280,W,0.08,29.63,010412,,,D*4A
$GPGGA,054726.000,3353.7559,N,09832.0280,W,2,06,2.2,309.0,M,-23.7,M,0.8,0000*4C
$GPGSA,A,3,08,20,17,04,01,28,,,,,,,3.4,2.2,2.7*33
$GPRMC,054726.000,A,3353.7559,N,09832.0280,W,0.08,1.71,010412,,,D*70
$GPGGA,054727.000,3353.7559,N,09832.0280,W,2,06,2.2,309.1,M,-23.7,M,0.8,0000*4C
$GPGSA,A,3,08,20,17,04,01,28,,,,,,,3.4,2.2,2.7*33
$GPRMC,054727.000,A,3353.7559,N,09832.0280,W,0.07,62.32,010412,,,D*4C
