$GPGGA,135311.000,3353.7456,N,09832.0216,W,1,07,1.5,322.9,M,-23.7,M,,0000*6B
$GPGSA,A,3,21,18,15,26,29,27,09,,,,,,2.8,1.5,2.3*30
$GPGSV,3,1,12,15,66,088,33,21,61,330,29,18,56,282,29,29,47,184,37*7B
$GPGSV,3,2,12,26,28,045,39,22,16,257,15,27,16,113,22,06,13,317,*7D
$GPGSV,3,3,12,09,10,135,27,16,05,296,,05,04,062,26,03,02,323,*7D
$GPRMC,135311.000,A,3353.7456,N,09832.0216,W,0.11,105.29,020412,,,A*71
$GPGGA,135312.000,3353.7456,N,09832.0216,W,1,07,1.5,322.7,M,-23.7,M,,0000*66
$GPGSA,A,3,21,18,15,26,29,27,09,,,,,,2.8,1.5,2.3*30
$GPRMC,135312.000,A,3353.7456,N,09832.0216,W,0.06,8.56,020412,,,A*70
$GPGGA,135313.000,3353.7456,N,09832.0216,W,1,07,1.5,322.5,M,-23.7,M,,0000*65
$GPGSA,A,3,21,18,15,26,29,27,09,,,,,,2.8,1.5,2.3*30
$GPRMC,135313.000,A,3353.7456,N,09832.0216,W,0.08,109.41,020412,,,A*79
$GPGGA,135314.000,3353.7456,N,09832.0216,W,1,07,1.5,322.3,M,-23.7,M,,0000*64
$GPGSA,A,3,21,18,15,26,29,27,09,,,,,,2.8,1.5,2.3*30
$GPRMC,135314.000,A,3353.7456,N,09832.0216,W,0.03,44.79,020412,,,A*46
$GPGGA,135315.000,3353.7455,N,09832.0217,W,1,07,1.5,322.0,M,-23.7,M,,0000*64
$GPGSA,A,3,21,18,15,26,29,27,09,,,,,,2.8,1.5,2.3*30
$GPRMC,135315.000,A,3353.7455,N,09832.0217,W,0.09,117.95,020412,,,A*7A
$GPGGA,135316.000,3353.7455,N,09832.0217,W,1,07,1.5,321.6,M,-23.7,M,,0000*62
$GPGSA,A,3,21,18,15,26,29,27,09,,,,,,2.8,1.5,2.3*30
$GPGSV,3,1,12,15,66,088,33,21,61,330,28,18,56,282,29,29,47,184,37*7A
$GPGSV,3,2,12,26,28,045,38,22,16,257,18,27,16,113,23,06,13,317,*70
$GPGSV,3,3,12,09,10,135,27,16,05,296,,05,04,062,25,03,02,323,*7E
$GPRMC,135316.000,A,3353.7455,N,09832.0217,W,0.15,119.95,020412,,,A*7A
$GPGGA,135317.000,3353.7455,N,09832.0219,W,1,07,1.5,321.3,M,-23.7,M,,0000*68
$GPGSA,A,3,21,18,15,26,29,27,09,,,,,,2.8,1.5,2.3*30
$GPRMC,135317.000,A,3353.7455,N,09832.0219,W,0.15,303.80,020412,,,A*78
$GPGGA,135318.000,3353.7455,N,09832.0220,W,1,07,1.5,320.9,M,-23.7,M,,0000*66
$GPGSA,A,3,21,18,15,26,29,27,09,,,,,,2.8,1.5,2.3*30
$GPRMC,135318.000,A,3353.7455,N,09832.0220,W,0.03,278.57,020412,,,A*7D
$GPGGA,135319.000,3353.7455,N,09832.0221,W,1,07,1.5,320.6,M,-23.7,M,,0000*69
$GPGSA,A,3,21,18,15,26,29,27,09,,,,,,2.8,1.5,2.3*30
$GPRMC,135319.000,A,3353.7455,N,09832.0221,W,0.05,141.55,020412,,,A*70
$GPGGA,135320.000,3353.7456,N,09832.0223,W,1,07,1.5,320.2,M,-23.7,M,,0000*66
$GPGSA,A,3,21,18,15,26,29,27,09,,,,,,2.8,1.5,2.3*30
$GPRMC,135320.000,A,3353.7456,N,09832.0223,W,0.18,308.67,020412,,,A*79
$GPGGA,135321.000,3353.7456,N,09832.0225,W,1,07,1.5,319.9,M,-23.7,M,,0000*60
$GPGSA,A,3,21,18,15,26,29,27,09,,,,,,2.8,1.5,2.3*30
$GPGSV,3,1,12,15,66,088,33,21,61,330,28,18,56,282,29,29,47,184,37*7A
$GPGSV,3,2,12,26,28,045,38,22,16,257,19,27,16,113,23,06,13,317,*71
$GPGSV,3,3,12,09,10,135,27,16,05,296,,05,04,062,26,03,02,323,*7D
$GPRMC,135321.000,A,3353.7456,N,09832.0225,W,0.23,297.45,020412,,,A*71
$GPGGA,135322.000,3353.7457,N,09832.0227,W,1,07,1.5,319.6,M,-23.7,M,,0000*6F
$GPGSA,A,3,21,18,15,26,29,27,09,,,,,,2.8,1.5,2.3*30
$GPRMC,135322.000,A,3353.7457,N,09832.0227,W,0.25,304.17,020412,,,A*7B
$GPGGA,135323.000,3353.7457,N,09832.0228,W,1,07,1.5,319.3,M,-23.7,M,,0000*64
$GPGSA,A,3,21,18,15,26,29,27,09,,,,,,2.8,1.5,2.3*30
$GPRMC,135323.000,A,3353.7457,N,09832.0228,W,0.05,311.23,020412,,,A*74
$GPGGA,135324.000,3353.7457,N,09832.0229,W,1,07,1.5,319.0,M,-23.7,M,,0000*61
$GPGSA,A,3,21,18,15,26,29,27,09,,,,,,2.8,1.5,2.3*30
$GPRMC,135324.000,A,3353.7457,N,09832.0229,W,0.03,108.60,020412,,,A*79
$GPGGA,135325.000,3353.7458,N,09832.0231,W,1,07,1.5,318.7,M,-23.7,M,,0000*60
$GPGSA,A,3,21,18,15,26,29,27,09,,,,,,2.8,1.5,2.3*30
$GPRMC,135325.000,A,3353.7458,N,09832.0231,W,0.03,149.50,020412,,,A*78
$GPGGA,135326.000,3353.7458,N,09832.0232,W,1,07,1.5,318.4,M,-23.7,M,,0000*63
$GPGSA,A,3,21,18,15,26,29,27,09,,,,,,2.8,1.5,2.3*30
$GPGSV,3,1,12,15,66,088,33,21,61,330,28,18,56,282,30,29,47,184,37*72
$GPGSV,3,2,12,26,28,045,38,22,16,257,19,27,16,113,23,06,13,317,*71
$GPGSV,3,3,12,09,10,135,27,16,05,296,,05,04,062,27,03,02,323,*7C
$GPRMC,135326.000,A,3353.7458,N,09832.0232,W,0.14,307.39,020412,,,A*79
$GPGGA,135327.000,3353.7459,N,09832.0234,W,1,07,1.5,318.2,M,-23.7,M,,0000*63
$GPGSA,A,3,21,18,15,26,29,27,09,,,,,,2.8,1.5,2.3*30
$GPRMC,135327.000,A,3353.7459,N,09832.0234,W,0.07,315.34,020412,,,A*73
$GPGGA,135328.000,3353.7459,N,09832.0235,W,1,07,1.5,318.0,M,-23.7,M,,0000*6F
$GPGSA,A,3,21,18,15,26,29,27,09,,,,,,2.8,1.5,2.3*30
$GPRMC,135328.000,A,3353.7459,N,09832.0235,W,0.01,79.81,020412,,,A*4C
$GPGGA,135329.000,3353.7459,N,09832.0236,W,1,07,1.5,317.7,M,-23.7,M,,0000*65
$GPGSA,A,3,21,18,15,26,29,27,09,,,,,,2.8,1.5,2.3*30
$GPRMC,135329.000,A,3353.7459,N,09832.0236,W,0.15,141.52,020412,,,A*7F
$GPGGA,135330.000,3353.7459,N,09832.0238,W,1,07,1.5,317.5,M,-23.7,M,,0000*61
$GPGSA,A,3,21,18,15,26,29,27,09,,,,,,2.8,1.5,2.3*30
$GPRMC,135330.000,A,3353.7459,N,09832.0238,W,0.17,310.94,020412,,,A*77
$GPGGA,135331.000,3353.7460,N,09832.0239,W,1,07,1.5,317.4,M,-23.7,M,,0000*6A
$GPGSA,A,3,21,18,15,26,29,27,09,,,,,,2.8,1.5,2.3*30
$GPGSV,3,1,12,15,66,088,33,21,61,330,28,18,56,282,31,29,47,184,37*73
$GPGSV,3,2,12,26,28,045,38,22,16,257,19,27,16,113,24,06,13,317,*76
$GPGSV,3,3,12,09,10,135,26,16,05,296,,05,04,062,27,03,02,323,*7D
$GPRMC,135331.000,A,3353.7460,N,09832.0239,W,0.06,50.65,020412,,,A*44
$GPGGA,135332.000,3353.7460,N,09832.0240,W,1,07,1.5,317.2,M,-23.7,M,,0000*61
$GPGSA,A,3,21,18,15,26,29,27,09,,,,,,2.8,1.5,2.3*30
$GPRMC,135332.000,A,3353.7460,N,09832.0240,W,0.12,134.36,020412,,,A*79
$GPGGA,135333.000,3353.7460,N,09832.0240,W,1,07,1.5,317.1,M,-23.7,M,,0000*63
$GPGSA,A,3,21,18,15,26,29,27,09,,,,,,2.8,1.5,2.3*30
$GPRMC,135333.000,A,3353.7460,N,09832.0240,W,0.03,111.62,020412,,,A*7E
$GPGGA,135334.000,3353.7460,N,09832.0241,W,1,07,1.5,317.0,M,-23.7,M,,0000*64
$GPGSA,A,3,21,18,15,26,29,27,09,,,,,,2.8,1.5,2.3*30
$GPRMC,135334.000,A,3353.7460,N,09832.0241,W,0.03,5.51,020412,,,A*7C
$GPGGA,135335.000,3353.7461,N,09832.0242,W,1,07,1.5,317.0,M,-23.7,M,,0000*67
$GPGSA,A,3,21,18,15,26,29,27,09,,,,,,2.8,1.5,2.3*30
$GPRMC,135335.000,A,3353.7461,N,09832.0242,W,0.03,34.54,020412,,,A*48
$GPGGA,135336.000,3353.7461,N,09832.0243,W,1,07,1.5,316.9,M,-23.7,M,,0000*6D
$GPGSA,A,3,21,18,15,26,29,27,09,,,,,,2.8,1.5,2.3*30
$GPGSV,3,1,12,15,66,088,33,21,61,330,29,18,56,282,31,29,47,184,37*72
$GPGSV,3,2,12,26,28,045,38,22,16,257,20,27,16,113,25,06,13,317,*7D
$GPGSV,3,3,12,09,10,135,25,16,05,296,,05,04,062,25,03,02,323,*7C
$GPRMC,135336.000,A,3353.7461,N,09832.0243,W,0.07,88.48,020412,,,A*44
$GPGGA,135337.000,3353.7461,N,09832.0244,W,1,07,1.5,316.9,M,-23.7,M,,0000*6B
$GPGSA,A,3,21,18,15,26,29,27,09,,,,,,2.8,1.5,2.3*30
$GPRMC,135337.000,A,3353.7461,N,09832.0244,W,0.04,60.76,020412,,,A*4A
$GPGGA,135338.000,3353.7461,N,09832.0244,W,1,07,1.5,316.9,M,-23.7,M,,0000*64
$GPGSA,A,3,21,18,15,26,29,27,09,,,,,,2.8,1.5,2.3*30
$GPRMC,135338.000,A,3353.7461,N,09832.0244,W,0.07,80.34,020412,,,A*4E
$GPGGA,135339.000,3353.7462,N,09832.0245,W,1,07,1.5,316.9,M,-23.7,M,,0000*67
$GPGSA,A,3,21,18,15,26,29,27,09,,,,,,2.8,1.5,2.3*30
$GPRMC,135339.000,A,3353.7462,N,09832.0245,W,0.06,16.60,020412,,,A*42
$GPGGA,135340.000,3353.7462,N,09832.0245,W,1,07,1.5,317.0,M,-23.7,M,,0000*61
$GPGSA,A,3,21,18,15,26,29,27,09,,,,,,2.8,1.5,2.3*30
$GPRMC,135340.000,A,3353.7462,N,09832.0245,W,0.07,37.03,020412,,,A*4B
$GPGGA,135341.000,3353.7462,N,09832.0246,W,1,07,1.5,317.0,M,-23.7,M,,0000*63
$GPGSA,A,3,21,18,15,26,29,27,09,,,,,,2.8,1.5,2.3*30
$GPGSV,3,1,12,15,66,088,33,21,61,330,28,18,56,282,31,29,47,184,37*73
$GPGSV,3,2,12,26,28,045,38,22,16,257,21,27,16,113,26,06,13,317,*7F
$GPGSV,3,3,12,09,10,135,24,16,05,296,,05,04,062,25,03,02,323,*7D
$GPRMC,135341.000,A,3353.7462,N,09832.0246,W,0.09,79.88,020412,,,A*4E
$GPGGA,135342.000,3353.7462,N,09832.0246,W,1,07,1.5,317.1,M,-23.7,M,,0000*61
$GPGSA,A,3,21,18,15,26,29,27,09,,,,,,2.8,1.5,2.3*30
$GPRMC,135342.000,A,3353.7462,N,09832.0246,W,0.08,92.14,020412,,,A*4C
$GPGGA,135343.000,3353.7462,N,09832.0246,W,1,07,1.5,317.2,M,-23.7,M,,0000*63
$GPGSA,A,3,21,18,15,26,29,27,09,,,,,,2.8,1.5,2.3*30
$GPRMC,135343.000,A,3353.7462,N,09832.0246,W,0.09,92.21,020412,,,A*4A
$GPGGA,135344.000,3353.7463,N,09832.0246,W,1,07,1.5,317.4,M,-23.7,M,,0000*63
$GPGSA,A,3,21,18,15,26,29,27,09,,,,,,2.8,1.5,2.3*30
$GPRMC,135344.000,A,3353.7463,N,09832.0246,W,0.10,86.55,020412,,,A*42
$GPGGA,135345.000,3353.7463,N,09832.0246,W,1,07,1.5,317.5,M,-23.7,M,,0000*63
$GPGSA,A,3,21,18,15,26,29,27,09,,,,,,2.8,1.5,2.3*30
$GPRMC,135345.000,A,3353.7463,N,09832.0246,W,0.12,108.46,020412,,,A*74
$GPGGA,135346.000,3353.7463,N,09832.0247,W,1,07,1.5,317.6,M,-23.7,M,,0000*62
$GPGSA,A,3,21,18,15,26,29,27,09,,,,,,2.8,1.5,2.3*30
$GPGSV,3,1,12,15,66,087,32,21,61,331,28,18,56,283,31,29,46,183,38*74
$GPGSV,3,2,12,26,28,045,38,22,17,257,22,27,16,112,26,06,14,317,*7B
$GPGSV,3,3,12,09,10,135,25,16,05,295,,05,04,063,25,03,03,323,*7F
$GPRMC,135346.000,A,3353.7463,N,09832.0247,W,0.07,72.17,020412,,,A*4A
$GPGGA,135347.000,3353.7463,N,09832.0247,W,1,07,1.5,317.8,M,-23.7,M,,0000*6D
$GPGSA,A,3,21,18,15,26,29,27,09,,,,,,2.8,1.5,2.3*30
$GPRMC,135347.000,A,3353.7463,N,09832.0247,W,0.11,94.47,020412,,,A*41
$GPGGA,135348.000,3353.7463,N,09832.0247,W,1,07,1.5,317.9,M,-23.7,M,,0000*63
$GPGSA,A,3,21,18,15,26,29,27,09,,,,,,2.8,1.5,2.3*30
$GPRMC,135348.000,A,3353.7463,N,09832.0247,W,0.09,89.18,020412,,,A*41
$GPGGA,135349.000,3353.7463,N,09832.0247,W,1,07,1.5,318.1,M,-23.7,M,,0000*65
$GPGSA,A,3,21,18,15,26,29,27,09,,,,,,2.8,1.5,2.3*30
$GPRMC,135349.000,A,3353.7463,N,09832.0247,W,0.19,106.22,020412,,,A*7E
$GPGGA,135350.000,3353.7463,N,09832.0246,W,1,07,1.5,318.2,M,-23.7,M,,0000*6F
$GPGSA,A,3,21,18,15,26,29,27,09,,,,,,2.8,1.5,2.3*30
$GPRMC,135350.000,A,3353.7463,N,09832.0246,W,0.14,95.57,020412,,,A*43
$GPGGA,135351.000,3353.7463,N,09832.0246,W,1,07,1.5,318.4,M,-23.7,M,,0000*68
$GPGSA,A,3,21,18,15,26,29,27,09,,,,,,2.8,1.5,2.3*30
$GPGSV,3,1,12,15,66,087,32,21,61,331,28,18,56,283,31,29,46,183,38*74
$GPGSV,3,2,12,26,28,045,38,22,17,257,22,27,16,112,25,06,14,317,*78
$GPGSV,3,3,12,09,10,135,25,16,05,295,,05,04,063,25,03,03,323,*7F
$GPRMC,135351.000,A,3353.7463,N,09832.0246,W,0.13,101.82,020412,,,A*71
$GPGGA,135352.000,3353.7463,N,09832.0246,W,1,07,1.5,318.6,M,-23.7,M,,0000*69
$GPGSA,A,3,21,18,15,26,29,27,09,,,,,,2.8,1.5,2.3*30
$GPRMC,135352.000,A,3353.7463,N,09832.0246,W,0.13,92.92,020412,,,A*48
$GPGGA,135353.000,3353.7463,N,09832.0246,W,1,07,1.5,318.8,M,-23.7,M,,0000*66
$GPGSA,A,3,21,18,15,26,29,27,09,,,,,,2.8,1.5,2.3*30
$GPRMC,135353.000,A,3353.7463,N,09832.0246,W,0.08,83.32,020412,,,A*49
$GPGGA,135354.000,3353.7463,N,09832.0246,W,1,07,1.5,318.9,M,-23.7,M,,0000*60
$GPGSA,A,3,21,18,15,26,29,27,09,,,,,,2.8,1.5,2.3*30
$GPRMC,135354.000,A,3353.7463,N,09832.0246,W,0.15,95.95,020412,,,A*48
$GPGGA,135355.000,3353.7464,N,09832.0246,W,1,07,1.5,319.1,M,-23.7,M,,0000*6F
$GPGSA,A,3,21,18,15,26,29,27,09,,,,,,2.8,1.5,2.3*30
$GPRMC,135355.000,A,3353.7464,N,09832.0246,W,0.10,73.99,020412,,,A*4F
$GPGGA,135356.000,3353.7464,N,09832.0246,W,1,07,1.5,319.4,M,-23.7,M,,0000*69
$GPGSA,A,3,21,18,15,26,29,27,09,,,,,,2.8,1.5,2.3*30
$GPGSV,3,1,12,15,66,087,32,21,61,331,28,18,56,283,32,29,46,183,38*77
$GPGSV,3,2,12,26,28,045,37,22,17,257,22,27,16,112,25,06,14,317,*77
$GPGSV,3,3,12,09,10,135,25,16,05,295,,05,04,063,25,03,03,323,*7F
$GPRMC,135356.000,A,3353.7464,N,09832.0246,W,0.11,26.71,020412,,,A*4B
$GPGGA,135357.000,3353.7464,N,09832.0246,W,1,07,1.5,319.6,M,-23.7,M,,0000*6A
$GPGSA,A,3,21,18,15,26,29,27,09,,,,,,2.8,1.5,2.3*30
$GPRMC,135357.000,A,3353.7464,N,09832.0246,W,0.13,77.77,020412,,,A*4A
$GPGGA,135358.000,3353.7464,N,09832.0245,W,1,07,1.5,319.8,M,-23.7,M,,0000*68
$GPGSA,A,3,21,18,15,26,29,27,09,,,,,,2.8,1.5,2.3*30
$GPRMC,135358.000,A,3353.7464,N,09832.0245,W,0.18,105.40,020412,,,A*7D
$GPGGA,135359.000,3353.7464,N,09832.0245,W,1,07,1.5,320.0,M,-23.7,M,,0000*6B
$GPGSA,A,3,21,18,15,26,29,27,09,,,,,,2.8,1.5,2.3*30
$GPRMC,135359.000,A,3353.7464,N,09832.0245,W,0.20,110.41,020412,,,A*72
$GPGGA,135400.000,3353.7464,N,09832.0245,W,1,07,1.5,320.2,M,-23.7,M,,0000*62
$GPGSA,A,3,21,18,15,26,29,27,09,,,,,,2.8,1.5,2.3*30
$GPRMC,135400.000,A,3353.7464,N,09832.0245,W,0.18,105.70,020412,,,A*74
$GPGGA,135401.000,3353.7464,N,09832.0244,W,1,07,1.5,320.3,M,-23.7,M,,0000*63
$GPGSA,A,3,21,18,15,26,29,27,09,,,,,,2.8,1.5,2.3*30
$GPGSV,3,1,12,15,66,087,33,21,61,331,28,18,56,283,32,29,46,183,37*79
$GPGSV,3,2,12,26,28,045,37,22,17,257,23,27,16,112,26,06,14,317,*75
$GPGSV,3,3,12,09,10,135,24,16,05,295,,05,04,063,25,03,03,323,*7E
$GPRMC,135401.000,A,3353.7464,N,09832.0244,W,0.17,106.06,020412,,,A*79
$GPGGA,135402.000,3353.7464,N,09832.0244,W,1,07,1.5,320.5,M,-23.7,M,,0000*66
$GPGSA,A,3,21,18,15,26,29,27,09,,,,,,2.8,1.5,2.3*30
$GPRMC,135402.000,A,3353.7464,N,09832.0244,W,0.15,99.97,020412,,,A*47
$GPGGA,135403.000,3353.7464,N,09832.0244,W,1,07,1.5,320.6,M,-23.7,M,,0000*64
$GPGSA,A,3,21,18,15,26,29,27,09,,,,,,2.8,1.5,2.3*30
$GPRMC,135403.000,A,3353.7464,N,09832.0244,W,0.12,97.00,020412,,,A*41
$GPGGA,135404.000,3353.7464,N,09832.0244,W,1,07,1.5,320.8,M,-23.7,M,,0000*6D
$GPGSA,A,3,21,18,15,26,29,27,09,,,,,,2.8,1.5,2.3*30
$GPRMC,135404.000,A,3353.7464,N,09832.0244,W,0.11,33.50,020412,,,A*4E
$GPGGA,135405.000,3353.7464,N,09832.0244,W,1,07,1.5,320.9,M,-23.7,M,,0000*6D
$GPGSA,A,3,21,18,15,26,29,27,09,,,,,,2.8,1.5,2.3*30
$GPRMC,135405.000,A,3353.7464,N,09832.0244,W,0.17,117.14,020412,,,A*7E
$GPGGA,135406.000,3353.7464,N,09832.0243,W,1,07,1.5,321.0,M,-23.7,M,,0000*61
$GPGSA,A,3,21,18,15,26,29,27,09,,,,,,2.8,1.5,2.3*30
$GPGSV,3,1,12,15,66,087,33,21,61,331,28,18,56,283,32,29,46,183,38*76
$GPGSV,3,2,12,26,28,045,37,22,17,257,23,27,16,112,27,06,14,317,*74
$GPGSV,3,3,12,09,10,135,24,16,05,295,,05,04,063,24,03,03,323,*7F
$GPRMC,135406.000,A,3353.7464,N,09832.0243,W,0.22,114.03,020412,,,A*79
$GPGGA,135407.000,3353.7464,N,09832.0243,W,1,07,1.5,321.0,M,-23.7,M,,0000*60
$GPGSA,A,3,21,18,15,26,29,27,09,,,,,,2.8,1.5,2.3*30
$GPRMC,135407.000,A,3353.7464,N,09832.0243,W,0.29,127.27,020412,,,A*75
$GPGGA,135408.000,3353.7464,N,09832.0243,W,1,07,1.5,321.0,M,-23.7,M,,0000*6F
$GPGSA,A,3,21,18,15,26,29,27,09,,,,,,2.8,1.5,2.3*30
$GPRMC,135408.000,A,3353.7464,N,09832.0243,W,0.12,108.02,020412,,,A*78
$GPGGA,135409.000,3353.7464,N,09832.0243,W,1,07,1.5,321.0,M,-23.7,M,,0000*6E
$GPGSA,A,3,21,18,15,26,29,27,09,,,,,,2.8,1.5,2.3*30
$GPRMC,135409.000,A,3353.7464,N,09832.0243,W,0.09,5.53,020412,,,A*7B
$GPGGA,135410.000,3353.7464,N,09832.0243,W,1,07,1.5,321.1,M,-23.7,M,,0000*67
$GPGSA,A,3,21,18,15,26,29,27,09,,,,,,2.8,1.5,2.3*30
$GPRMC,135410.000,A,3353.7464,N,09832.0243,W,0.10,345.03,020412,,,A*79
$GPGGA,135411.000,3353.7464,N,09832.0243,W,1,07,1.5,321.1,M,-23.7,M,,0000*66
$GPGSA,A,3,21,18,15,26,29,27,09,,,,,,2.8,1.5,2.3*30
$GPGSV,3,1,12,15,66,087,33,21,61,331,28,18,56,283,32,29,46,183,38*76
$GPGSV,3,2,12,26,28,045,37,22,17,257,17,27,16,112,28,06,14,317,*7C
$GPGSV,3,3,12,09,10,135,24,16,05,295,,05,04,063,23,03,03,323,*78
$GPRMC,135411.000,A,3353.7464,N,09832.0243,W,0.10,105.04,020412,,,A*79
$GPGGA,135412.000,3353.7464,N,09832.0243,W,1,07,1.5,321.1,M,-23.7,M,,0000*65
$GPGSA,A,3,21,18,15,26,29,27,09,,,,,,2.8,1.5,2.3*30
$GPRMC,135412.000,A,3353.7464,N,09832.0243,W,0.10,104.56,020412,,,A*7C
$GPGGA,135413.000,3353.7464,N,09832.0243,W,1,07,1.5,321.1,M,-23.7,M,,0000*64
$GPGSA,A,3,21,18,15,26,29,27,09,,,,,,2.8,1.5,2.3*30
$GPRMC,135413.000,A,3353.7464,N,09832.0243,W,0.06,87.55,020412,,,A*43
$GPGGA,135414.000,3353.7465,N,09832.0243,W,1,07,1.5,321.1,M,-23.7,M,,0000*62
$GPGSA,A,3,21,18,15,26,29,27,09,,,,,,2.8,1.5,2.3*30
$GPRMC,135414.000,A,3353.7465,N,09832.0243,W,0.08,87.84,020412,,,A*47
$GPGGA,135415.000,3353.7465,N,09832.0243,W,1,07,1.5,321.1,M,-23.7,M,,0000*63
$GPGSA,A,3,21,18,15,26,29,27,09,,,,,,2.8,1.5,2.3*30
$GPRMC,135415.000,A,3353.7465,N,09832.0243,W,0.07,82.39,020412,,,A*4A
$GPGGA,135416.000,3353.7465,N,09832.0243,W,1,07,1.5,321.1,M,-23.7,M,,0000*60
$GPGSA,A,3,21,18,15,26,29,27,09,,,,,,2.8,1.5,2.3*30
$GPGSV,3,1,12,15,66,087,33,21,61,331,28,18,56,283,32,29,46,183,38*76
$GPGSV,3,2,12,26,28,045,37,22,17,257,14,27,16,112,28,06,14,317,*7F
$GPGSV,3,3,12,09,10,135,24,16,05,295,,05,04,063,22,03,03,323,*79
$GPRMC,135416.000,A,3353.7465,N,09832.0243,W,0.07,90.30,020412,,,A*43
$GPGGA,135417.000,3353.7465,N,09832.0244,W,1,07,1.5,321.2,M,-23.7,M,,0000*65
$GPGSA,A,3,21,18,15,26,29,27,09,,,,,,2.8,1.5,2.3*30
$GPRMC,135417.000,A,3353.7465,N,09832.0244,W,0.06,77.48,020412,,,A*42
$GPGGA,135418.000,3353.7465,N,09832.0243,W,1,07,1.5,321.1,M,-23.7,M,,0000*6E
$GPGSA,A,3,21,18,15,26,29,27,09,,,,,,2.8,1.5,2.3*30
$GPRMC,135418.000,A,3353.7465,N,09832.0243,W,0.13,113.64,020412,,,A*73
$GPGGA,135419.000,3353.7465,N,09832.0244,W,1,07,1.5,321.1,M,-23.7,M,,0000*68
$GPGSA,A,3,21,18,15,26,29,27,09,,,,,,2.8,1.5,2.3*30
$GPRMC,135419.000,A,3353.7465,N,09832.0244,W,0.06,63.59,020412,,,A*49
$GPGGA,135420.000,3353.7465,N,09832.0244,W,1,07,1.5,321.1,M,-23.7,M,,0000*62
$GPGSA,A,3,21,18,15,26,29,27,09,,,,,,2.8,1.5,2.4*37
$GPRMC,135420.000,A,3353.7465,N,09832.0244,W,0.07,97.10,020412,,,A*44
$GPGGA,135421.000,3353.7465,N,09832.0244,W,1,07,1.5,321.1,M,-23.7,M,,0000*63
$GPGSA,A,3,21,18,15,26,29,27,09,,,,,,2.8,1.5,2.4*37
$GPGSV,3,1,12,15,66,087,32,21,61,331,28,18,56,283,32,29,46,183,38*77
$GPGSV,3,2,12,26,28,045,36,22,17,257,,27,16,112,28,06,14,317,*7B
$GPGSV,3,3,12,09,10,135,25,16,05,295,,05,04,063,15,03,03,323,*7C
$GPRMC,135421.000,A,3353.7465,N,09832.0244,W,0.06,94.83,020412,,,A*4D
$GPGGA,135422.000,3353.7465,N,09832.0244,W,1,07,1.5,321.1,M,-23.7,M,,0000*60
$GPGSA,A,3,21,18,15,26,29,27,09,,,,,,2.8,1.5,2.4*37
$GPRMC,135422.000,A,3353.7465,N,09832.0244,W,0.08,88.23,020412,,,A*47
$GPGGA,135423.000,3353.7465,N,09832.0244,W,1,07,1.5,321.0,M,-23.7,M,,0000*60
$GPGSA,A,3,21,18,15,26,29,27,09,,,,,,2.8,1.5,2.4*37
$GPRMC,135423.000,A,3353.7465,N,09832.0244,W,0.06,94.45,020412,,,A*45
$GPGGA,135424.000,3353.7465,N,09832.0244,W,1,07,1.5,321.0,M,-23.7,M,,0000*67
$GPGSA,A,3,21,18,15,26,29,27,09,,,,,,2.8,1.5,2.4*37
$GPRMC,135424.000,A,3353.7465,N,09832.0244,W,0.08,79.14,020412,,,A*4B
$GPGGA,135425.000,3353.7465,N,09832.0244,W,1,07,1.5,321.0,M,-23.7,M,,0000*66
$GPGSA,A,3,21,18,15,26,29,27,09,,,,,,2.8,1.5,2.4*37
$GPRMC,135425.000,A,3353.7465,N,09832.0244,W,0.06,103.42,020412,,,A*7B
$GPGGA,135426.000,3353.7465,N,09832.0244,W,1,07,1.5,321.0,M,-23.7,M,,0000*65
$GPGSA,A,3,21,18,15,26,29,27,09,,,,,,2.8,1.5,2.4*37
$GPGSV,3,1,12,15,66,087,32,21,61,331,28,18,56,283,32,29,46,183,38*77
$GPGSV,3,2,12,26,28,045,36,22,17,257,,27,16,112,28,06,14,317,*7B
$GPGSV,3,3,12,09,10,135,25,16,05,295,,05,04,063,14,03,03,323,*7D
$GPRMC,135426.000,A,3353.7465,N,09832.0244,W,0.06,88.15,020412,,,A*48
$GPGGA,135427.000,3353.7465,N,09832.0244,W,1,07,1.5,321.0,M,-23.7,M,,0000*64
$GPGSA,A,3,21,18,15,26,29,27,09,,,,,,2.8,1.5,2.4*37
$GPRMC,135427.000,A,3353.7465,N,09832.0244,W,0.07,80.51,020412,,,A*40
$GPGGA,135428.000,3353.7465,N,09832.0244,W,1,07,1.5,321.0,M,-23.7,M,,0000*6B
$GPGSA,A,3,21,18,15,26,29,27,09,,,,,,2.8,1.5,2.4*37
$GPRMC,135428.000,A,3353.7465,N,09832.0244,W,0.07,83.17,020412,,,A*4E
$GPGGA,135429.000,3353.7466,N,09832.0244,W,1,07,1.5,321.0,M,-23.7,M,,0000*69
$GPGSA,A,3,21,18,15,26,29,27,09,,,,,,2.8,1.5,2.4*37
$GPRMC,135429.000,A,3353.7466,N,09832.0244,W,0.07,10.21,020412,,,A*43
$GPGGA,135430.000,3353.7466,N,09832.0244,W,1,07,1.5,321.0,M,-23.7,M,,0000*61
$GPGSA,A,3,21,18,15,26,29,27,09,,,,,,2.8,1.5,2.4*37
$GPRMC,135430.000,A,3353.7466,N,09832.0244,W,0.07,20.07,020412,,,A*4C
$GPGGA,135431.000,3353.7466,N,09832.0244,W,1,07,1.5,321.0,M,-23.7,M,,0000*60
$GPGSA,A,3,21,18,15,26,29,27,09,,,,,,2.8,1.5,2.4*37
$GPGSV,3,1,12,15,66,087,32,21,61,331,28,18,56,283,32,29,46,183,38*77
$GPGSV,3,2,12,26,28,045,36,22,17,257,,27,16,112,28,06,14,317,*7B
$GPGSV,3,3,12,09,10,135,24,16,05,295,,05,04,063,15,03,03,323,*7D
$GPRMC,135431.000,A,3353.7466,N,09832.0244,W,0.18,127.81,020412,,,A*7B
$GPGGA,135432.000,3353.7466,N,09832.0244,W,1,07,1.5,321.0,M,-23.7,M,,0000*63
$GPGSA,A,3,21,18,15,26,29,27,09,,,,,,2.8,1.5,2.4*37
$GPRMC,135432.000,A,3353.7466,N,09832.0244,W,0.06,41.06,020412,,,A*49
$GPGGA,135433.000,3353.7466,N,09832.0244,W,1,07,1.5,321.0,M,-23.7,M,,0000*62
$GPGSA,A,3,21,18,15,26,29,27,09,,,,,,2.8,1.5,2.4*37
$GPRMC,135433.000,A,3353.7466,N,09832.0244,W,0.10,0.35,020412,,,A*7A
$GPGGA,135434.000,3353.7466,N,09832.0244,W,1,07,1.5,321.1,M,-23.7,M,,0000*64
$GPGSA,A,3,21,18,15,26,29,27,09,,,,,,2.8,1.5,2.4*37
$GPRMC,135434.000,A,3353.7466,N,09832.0244,W,0.08,26.51,020412,,,A*42
$GPGGA,135435.000,3353.7466,N,09832.0244,W,1,07,1.5,321.1,M,-23.7,M,,0000*65
$GPGSA,A,3,21,18,15,26,29,27,09,,,,,,2.8,1.5,2.4*37
$GPRMC,135435.000,A,3353.7466,N,09832.0244,W,0.19,124.72,020412,,,A*71
$GPGGA,135436.000,3353.7466,N,09832.0244,W,1,07,1.5,321.1,M,-23.7,M,,0000*66
$GPGSA,A,3,21,18,15,26,29,27,09,,,,,,2.8,1.5,2.4*37
$GPGSV,3,1,12,15,66,087,32,21,61,331,28,18,56,283,32,29,46,183,38*77
$GPGSV,3,2,12,26,28,045,36,22,17,257,,27,16,112,29,06,14,317,*7A
$GPGSV,3,3,12,09,10,135,23,16,05,295,,05,04,063,15,03,03,323,*7A
$GPRMC,135436.000,A,3353.7466,N,09832.0244,W,0.07,3.73,020412,,,A*78
$GPGGA,135437.000,3353.7466,N,09832.0244,W,1,07,1.5,321.1,M,-23.7,M,,0000*67
$GPGSA,A,3,21,18,15,26,29,27,09,,,,,,2.8,1.5,2.4*37
$GPRMC,135437.000,A,3353.7466,N,09832.0244,W,0.11,118.80,020412,,,A*79
$GPGGA,135438.000,3353.7466,N,09832.0244,W,1,07,1.5,321.0,M,-23.7,M,,0000*69
$GPGSA,A,3,21,18,15,26,29,27,09,,,,,,2.8,1.5,2.4*37
$GPRMC,135438.000,A,3353.7466,N,09832.0244,W,0.18,123.26,020412,,,A*7B
$GPGGA,135439.000,3353.7466,N,09832.0244,W,1,07,1.5,320.9,M,-23.7,M,,0000*60
$GPGSA,A,3,21,18,15,26,29,27,09,,,,,,2.8,1.5,2.4*37
$GPRMC,135439.000,A,3353.7466,N,09832.0244,W,0.12,114.20,020412,,,A*72
$GPGGA,135440.000,3353.7466,N,09832.0244,W,1,07,1.5,320.9,M,-23.7,M,,0000*6E
$GPGSA,A,3,21,18,15,26,29,27,09,,,,,,2.8,1.5,2.4*37
$GPRMC,135440.000,A,3353.7466,N,09832.0244,W,0.04,53.18,020412,,,A*42
$GPGGA,135441.000,3353.7466,N,09832.0244,W,1,07,1.5,320.8,M,-23.7,M,,0000*6E
$GPGSA,A,3,21,18,15,26,29,27,09,,,,,,2.8,1.5,2.4*37
$GPGSV,3,1,12,15,66,087,32,21,61,331,27,18,56,283,32,29,46,183,38*78
$GPGSV,3,2,12,26,28,045,36,22,17,257,,27,16,112,28,06,14,317,*7B
$GPGSV,3,3,12,09,10,135,23,16,05,295,,05,04,063,14,03,03,323,*7B
$GPRMC,135441.000,A,3353.7466,N,09832.0244,W,0.01,60.73,020412,,,A*4B
$GPGGA,135442.000,3353.7466,N,09832.0244,W,1,07,1.5,320.8,M,-23.7,M,,0000*6D
$GPGSA,A,3,21,18,15,26,29,27,09,,,,,,2.8,1.5,2.4*37
$GPRMC,135442.000,A,3353.7466,N,09832.0244,W,0.04,325.49,020412,,,A*76
$GPGGA,135443.000,3353.7466,N,09832.0244,W,1,07,1.5,320.8,M,-23.7,M,,0000*6C
$GPGSA,A,3,21,18,15,26,29,27,09,,,,,,2.8,1.5,2.4*37
$GPRMC,135443.000,A,3353.7466,N,09832.0244,W,0.05,105.81,020412,,,A*72
$GPGGA,135444.000,3353.7466,N,09832.0244,W,1,07,1.5,320.7,M,-23.7,M,,0000*64
$GPGSA,A,3,21,18,15,26,29,27,09,,,,,,2.8,1.5,2.4*37
$GPRMC,135444.000,A,3353.7466,N,09832.0244,W,0.17,120.19,020412,,,A*70
$GPGGA,135445.000,3353.7466,N,09832.0244,W,1,07,1.5,320.7,M,-23.7,M,,0000*65
$GPGSA,A,3,21,18,15,26,29,27,09,,,,,,2.8,1.5,2.4*37
$GPRMC,135445.000,A,3353.7466,N,09832.0244,W,0.02,9.25,020412,,,A*70
$GPGGA,135446.000,3353.7466,N,09832.0244,W,1,07,1.5,320.7,M,-23.7,M,,0000*66
$GPGSA,A,3,21,18,15,26,29,27,09,,,,,,2.8,1.5,2.4*37
$GPGSV,3,1,12,15,66,087,32,21,61,331,27,18,56,283,32,29,46,183,38*78
$GPGSV,3,2,12,26,28,045,35,22,17,257,,27,16,112,28,06,14,317,*78
$GPGSV,3,3,12,09,10,135,23,16,05,295,,05,04,063,13,03,03,323,*7C
$GPRMC,135446.000,A,3353.7466,N,09832.0244,W,0.09,124.54,020412,,,A*70
$GPGGA,135447.000,3353.7466,N,09832.0245,W,1,07,1.5,320.7,M,-23.7,M,,0000*66
$GPGSA,A,3,21,18,15,26,29,27,09,,,,,,2.8,1.5,2.4*37
$GPRMC,135447.000,A,3353.7466,N,09832.0245,W,0.04,351.88,020412,,,A*7C
$GPGGA,135448.000,3353.7466,N,09832.0244,W,1,07,1.5,320.6,M,-23.7,M,,0000*69
$GPGSA,A,3,21,18,15,26,29,27,09,,,,,,2.8,1.5,2.4*37
$GPRMC,135448.000,A,3353.7466,N,09832.0244,W,0.17,123.59,020412,,,A*7B
$GPGGA,135449.000,3353.7465,N,09832.0244,W,1,07,1.5,320.5,M,-23.7,M,,0000*68
$GPGSA,A,3,21,18,15,26,29,27,09,,,,,,2.8,1.5,2.4*37
$GPRMC,135449.000,A,3353.7465,N,09832.0244,W,0.24,120.64,020412,,,A*74
$GPGGA,135450.000,3353.7465,N,09832.0244,W,1,07,1.5,320.4,M,-23.7,M,,0000*61
$GPGSA,A,3,21,18,15,26,29,27,09,,,,,,2.8,1.5,2.4*37
$GPRMC,135450.000,A,3353.7465,N,09832.0244,W,0.10,140.22,020412,,,A*7F
$GPGGA,135451.000,3353.7465,N,09832.0244,W,1,07,1.5,320.3,M,-23.7,M,,0000*67
$GPGSA,A,3,21,18,15,26,29,27,09,,,,,,2.8,1.5,2.4*37
$GPGSV,3,1,12,15,66,087,32,21,61,331,27,18,56,283,32,29,46,183,38*78
$GPGSV,3,2,12,26,28,045,35,22,17,257,,27,16,112,27,06,14,317,*77
$GPGSV,3,3,12,09,10,135,22,16,05,295,,05,04,063,,03,03,323,*7F
$GPRMC,135451.000,A,3353.7465,N,09832.0244,W,0.15,130.99,020412,,,A*7C
$GPGGA,135452.000,3353.7465,N,09832.0244,W,1,07,1.5,320.2,M,-23.7,M,,0000*65
$GPGSA,A,3,21,18,15,26,29,27,09,,,,,,2.8,1.5,2.4*37
$GPRMC,135452.000,A,3353.7465,N,09832.0244,W,0.04,233.81,020412,,,A*76
$GPGGA,135453.000,3353.7465,N,09832.0245,W,1,07,1.5,320.1,M,-23.7,M,,0000*66
$GPGSA,A,3,21,18,15,26,29,27,09,,,,,,2.8,1.5,2.4*37
$GPRMC,135453.000,A,3353.7465,N,09832.0245,W,0.06,276.25,020412,,,A*7B
$GPGGA,135454.000,3353.7465,N,09832.0245,W,1,07,1.5,320.0,M,-23.7,M,,0000*60
$GPGSA,A,3,21,18,15,26,29,27,09,,,,,,2.8,1.5,2.4*37
$GPRMC,135454.000,A,3353.7465,N,09832.0245,W,0.09,297.71,020412,,,A*7D
$GPGGA,135455.000,3353.7465,N,09832.0246,W,1,07,1.5,320.0,M,-23.7,M,,0000*62
$GPGSA,A,3,21,18,15,26,29,27,09,,,,,,2.8,1.5,2.4*37
$GPRMC,135455.000,A,3353.7465,N,09832.0246,W,0.10,288.63,020412,,,A*7A
$GPGGA,135456.000,3353.7465,N,09832.0245,W,1,07,1.5,319.9,M,-23.7,M,,0000*61
$GPGSA,A,3,21,18,15,26,29,27,09,,,,,,2.8,1.5,2.4*37
$GPGSV,3,1,12,15,66,087,31,21,61,331,26,18,56,283,32,29,46,183,39*7B
$GPGSV,3,2,12,26,28,045,35,22,17,257,,27,16,112,27,06,14,317,*77
$GPGSV,3,3,12,09,10,135,22,16,05,295,,05,04,063,,03,03,323,*7F
$GPRMC,135456.000,A,3353.7465,N,09832.0245,W,0.16,124.10,020412,,,A*7D
$GPGGA,135457.000,3353.7465,N,09832.0245,W,1,07,1.5,319.9,M,-23.7,M,,0000*60
$GPGSA,A,3,21,18,15,26,29,27,09,,,,,,2.8,1.5,2.4*37
$GPRMC,135457.000,A,3353.7465,N,09832.0245,W,0.08,129.98,020412,,,A*7E
$GPGGA,135458.000,3353.7465,N,09832.0246,W,1,07,1.5,319.8,M,-23.7,M,,0000*6D
$GPGSA,A,3,21,18,15,26,29,27,09,,,,,,2.8,1.5,2.4*37
$GPRMC,135458.000,A,3353.7465,N,09832.0246,W,0.05,287.63,020412,,,A*7C
$GPGGA,135459.000,3353.7465,N,09832.0246,W,1,07,1.5,319.9,M,-23.7,M,,0000*6D
$GPGSA,A,3,21,18,15,26,29,27,09,,,,,,2.8,1.5,2.4*37
$GPRMC,135459.000,A,3353.7465,N,09832.0246,W,0.07,290.87,020412,,,A*73
$GPGGA,135500.000,3353.7466,N,09832.0246,W,1,07,1.5,319.9,M,-23.7,M,,0000*63
$GPGSA,A,3,21,18,15,26,29,27,09,,,,,,2.8,1.5,2.4*37
$GPRMC,135500.000,A,3353.7466,N,09832.0246,W,0.06,298.67,020412,,,A*7A
$GPGGA,135501.000,3353.7465,N,09832.0246,W,1,07,1.5,319.8,M,-23.7,M,,0000*60
$GPGSA,A,3,21,18,15,26,29,27,09,,,,,,2.8,1.5,2.4*37
$GPGSV,3,1,12,15,66,087,32,21,61,331,25,18,56,283,32,29,46,183,39*7B
$GPGSV,3,2,12,26,28,045,34,22,17,257,,27,16,112,26,06,14,317,*77
$GPGSV,3,3,12,09,10,135,21,16,05,295,,05,04,063,,03,03,323,*7C
$GPRMC,135501.000,A,3353.7465,N,09832.0246,W,0.25,117.93,020412,,,A*76
$GPGGA,135502.000,3353.7465,N,09832.0245,W,1,07,1.5,319.8,M,-23.7,M,,0000*60
$GPGSA,A,3,21,18,15,26,29,27,09,,,,,,2.8,1.5,2.4*37
$GPRMC,135502.000,A,3353.7465,N,09832.0245,W,0.24,121.55,020412,,,A*78
$GPGGA,135503.000,3353.7465,N,09832.0245,W,1,07,1.5,319.7,M,-23.7,M,,0000*6E
$GPGSA,A,3,21,18,15,26,29,27,09,,,,,,2.8,1.5,2.4*37
$GPRMC,135503.000,A,3353.7465,N,09832.0245,W,0.18,131.39,020412,,,A*7D
$GPGGA,135504.000,3353.7465,N,09832.0245,W,1,07,1.5,319.5,M,-23.7,M,,0000*6B
$GPGSA,A,3,21,18,15,26,29,27,09,,,,,,2.8,1.5,2.4*37
$GPRMC,135504.000,A,3353.7465,N,09832.0245,W,0.20,126.54,020412,,,A*7C
$GPGGA,135505.000,3353.7465,N,09832.0245,W,1,07,1.5,319.4,M,-23.7,M,,0000*6B
$GPGSA,A,3,21,18,15,26,29,27,09,,,,,,2.8,1.5,2.4*37
$GPRMC,135505.000,A,3353.7465,N,09832.0245,W,0.04,244.30,020412,,,A*7E
$GPGGA,135506.000,3353.7465,N,09832.0246,W,1,07,1.5,319.3,M,-23.7,M,,0000*6C
$GPGSA,A,3,21,18,15,26,29,27,09,,,,,,2.8,1.5,2.4*37
$GPGSV,3,1,12,15,66,087,32,21,61,331,25,18,56,283,32,29,46,183,39*7B
$GPGSV,3,2,12,26,28,045,34,22,17,257,,27,16,112,26,06,14,317,*77
$GPGSV,3,3,12,09,10,135,21,16,05,295,,05,04,063,,03,03,323,*7C
$GPRMC,135506.000,A,3353.7465,N,09832.0246,W,0.08,290.37,020412,,,A*7C
$GPGGA,135507.000,3353.7465,N,09832.0246,W,1,07,1.5,319.2,M,-23.7,M,,0000*6C
$GPGSA,A,3,21,18,15,26,29,27,09,,,,,,2.8,1.5,2.4*37
$GPRMC,135507.000,A,3353.7465,N,09832.0246,W,0.04,138.63,020412,,,A*71
$GPGGA,135508.000,3353.7465,N,09832.0246,W,1,07,1.5,319.2,M,-23.7,M,,0000*63
$GPGSA,A,3,21,18,15,26,29,27,09,,,,,,2.8,1.5,2.4*37
$GPRMC,135508.000,A,3353.7465,N,09832.0246,W,0.04,266.88,020412,,,A*73
$GPGGA,135509.000,3353.7465,N,09832.0246,W,1,07,1.5,319.1,M,-23.7,M,,0000*61
$GPGSA,A,3,21,18,15,26,29,27,09,,,,,,2.8,1.5,2.4*37
$GPRMC,135509.000,A,3353.7465,N,09832.0246,W,0.09,133.37,020412,,,A*78
$GPGGA,135510.000,3353.7465,N,09832.0246,W,1,07,1.5,319.1,M,-23.7,M,,0000*69
$GPGSA,A,3,21,18,15,26,29,27,09,,,,,,2.8,1.5,2.4*37
$GPRMC,135510.000,A,3353.7465,N,09832.0246,W,0.05,290.36,020412,,,A*77
$GPGGA,135511.000,3353.7465,N,09832.0247,W,1,07,1.5,319.1,M,-23.7,M,,0000*69
$GPGSA,A,3,21,18,15,26,29,27,09,,,,,,2.8,1.5,2.4*37
$GPGSV,3,1,12,15,66,087,32,21,61,331,25,18,56,283,33,29,46,183,39*7A
$GPGSV,3,2,12,26,28,045,34,22,17,257,,27,16,112,25,06,14,317,*74
$GPGSV,3,3,12,09,10,135,22,16,05,295,,05,04,063,,03,03,323,*7F
$GPRMC,135511.000,A,3353.7465,N,09832.0247,W,0.13,294.83,020412,,,A*7A
$GPGGA,135512.000,3353.7465,N,09832.0247,W,1,07,1.5,319.0,M,-23.7,M,,0000*6B
$GPGSA,A,3,21,18,15,26,29,27,09,,,,,,2.8,1.5,2.4*37
$GPRMC,135512.000,A,3353.7465,N,09832.0247,W,0.12,136.12,020412,,,A*7B
$GPGGA,135513.000,3353.7466,N,09832.0247,W,1,07,1.5,319.0,M,-23.7,M,,0000*69
$GPGSA,A,3,21,18,15,26,29,27,09,,,,,,2.8,1.5,2.4*37
$GPRMC,135513.000,A,3353.7466,N,09832.0247,W,0.06,298.06,020412,,,A*7E
$GPGGA,135514.000,3353.7466,N,09832.0247,W,1,07,1.5,319.0,M,-23.7,M,,0000*6E
$GPGSA,A,3,21,18,15,26,29,27,09,,,,,,2.8,1.5,2.4*37
$GPRMC,135514.000,A,3353.7466,N,09832.0247,W,0.10,264.06,020412,,,A*7D
$GPGGA,135515.000,3353.7466,N,09832.0248,W,1,07,1.5,319.0,M,-23.7,M,,0000*60
$GPGSA,A,3,21,18,15,26,29,27,09,,,,,,2.8,1.5,2.4*37
$GPRMC,135515.000,A,3353.7466,N,09832.0248,W,0.16,277.89,020412,,,A*70
$GPGGA,135516.000,3353.7466,N,09832.0248,W,1,07,1.5,319.0,M,-23.7,M,,0000*63
$GPGSA,A,3,21,18,15,26,29,27,09,,,,,,2.8,1.5,2.4*37
$GPGSV,3,1,12,15,66,085,32,21,62,331,26,18,56,284,33,29,45,183,39*7C
$GPGSV,3,2,12,26,27,044,33,22,17,258,,27,16,112,22,06,14,317,*75
$GPGSV,3,3,12,09,11,135,23,16,05,295,,05,03,063,,03,03,323,*78
$GPRMC,135516.000,A,3353.7466,N,09832.0248,W,0.17,112.14,020412,,,A*76
$GPGGA,135517.000,3353.7466,N,09832.0247,W,1,07,1.5,319.0,M,-23.7,M,,0000*6D
$GPGSA,A,3,21,18,15,26,29,27,09,,,,,,2.8,1.5,2.4*37
$GPRMC,135517.000,A,3353.7466,N,09832.0247,W,0.28,107.48,020412,,,A*79
$GPGGA,135518.000,3353.7466,N,09832.0246,W,1,07,1.5,319.0,M,-23.7,M,,0000*63
$GPGSA,A,3,21,18,15,26,29,27,09,,,,,,2.8,1.5,2.4*37
$GPRMC,135518.000,A,3353.7466,N,09832.0246,W,0.25,99.81,020412,,,A*49
$GPGGA,135519.000,3353.7465,N,09832.0245,W,1,07,1.5,318.9,M,-23.7,M,,0000*6A
$GPGSA,A,3,21,18,15,26,29,27,09,,,,,,2.8,1.5,2.4*37
$GPRMC,135519.000,A,3353.7465,N,09832.0245,W,0.42,110.69,020412,,,A*7F
$GPGGA,135520.000,3353.7465,N,09832.0244,W,1,07,1.5,318.8,M,-23.7,M,,0000*60
$GPGSA,A,3,21,18,15,26,29,27,09,,,,,,2.8,1.5,2.4*37
$GPRMC,135520.000,A,3353.7465,N,09832.0244,W,0.48,110.03,020412,,,A*72
$GPGGA,135521.000,3353.7465,N,09832.0243,W,1,07,1.5,318.6,M,-23.7,M,,0000*68
$GPGSA,A,3,21,18,15,26,29,27,09,,,,,,2.8,1.5,2.4*37
$GPGSV,3,1,12,15,66,085,32,21,62,331,25,18,56,284,33,29,45,183,39*7F
$GPGSV,3,2,12,26,27,044,33,22,17,258,,27,16,112,18,06,14,317,*7C
$GPGSV,3,3,12,09,11,135,23,16,05,295,,05,03,063,,03,03,323,*78
$GPRMC,135521.000,A,3353.7465,N,09832.0243,W,0.31,102.79,020412,,,A*74
$GPGGA,135522.000,3353.7465,N,09832.0242,W,1,06,1.6,318.5,M,-23.7,M,,0000*6B
$GPGSA,A,3,21,18,15,26,29,27,,,,,,,3.2,1.6,2.7*35
$GPRMC,135522.000,A,3353.7465,N,09832.0242,W,0.40,112.38,020412,,,A*74
$GPGGA,135523.000,3353.7465,N,09832.0243,W,1,07,1.5,318.3,M,-23.7,M,,0000*6F
$GPGSA,A,3,21,18,15,26,29,27,09,,,,,,2.8,1.5,2.4*37
$GPRMC,135523.000,A,3353.7465,N,09832.0243,W,0.06,244.25,020412,,,A*7A
$GPGGA,135524.000,3353.7465,N,09832.0243,W,1,07,1.5,318.1,M,-23.7,M,,0000*6A
$GPGSA,A,3,21,18,15,26,29,27,09,,,,,,2.8,1.5,2.4*37
$GPRMC,135524.000,A,3353.7465,N,09832.0243,W,0.20,272.35,020412,,,A*7D
$GPGGA,135525.000,3353.7465,N,09832.0244,W,1,07,1.5,317.9,M,-23.7,M,,0000*6B
$GPGSA,A,3,21,18,15,26,29,27,09,,,,,,2.8,1.5,2.4*37
$GPRMC,135525.000,A,3353.7465,N,09832.0244,W,0.08,229.87,020412,,,A*76
$GPGGA,135526.000,3353.7465,N,09832.0244,W,1,07,1.5,317.7,M,-23.7,M,,0000*66
$GPGSA,A,3,21,18,15,26,29,27,09,,,,,,2.8,1.5,2.4*37
$GPGSV,3,1,12,15,66,085,32,21,62,331,25,18,56,284,33,29,45,183,39*7F
$GPGSV,3,2,12,26,27,044,33,22,17,258,,27,16,112,18,06,14,317,*7C
$GPGSV,3,3,12,09,11,135,16,16,05,295,,05,03,063,,03,03,323,*7E
$GPRMC,135526.000,A,3353.7465,N,09832.0244,W,0.09,182.40,020412,,,A*7D
$GPGGA,135527.000,3353.7465,N,09832.0245,W,1,07,1.5,317.5,M,-23.7,M,,0000*64
$GPGSA,A,3,21,18,15,26,29,27,09,,,,,,2.8,1.5,2.4*37
$GPRMC,135527.000,A,3353.7465,N,09832.0245,W,0.09,185.51,020412,,,A*7A
$GPGGA,135528.000,3353.7465,N,09832.0245,W,1,07,1.5,317.3,M,-23.7,M,,0000*6D
$GPGSA,A,3,21,18,15,26,29,27,09,,,,,,2.8,1.5,2.4*37
$GPRMC,135528.000,A,3353.7465,N,09832.0245,W,0.09,219.97,020412,,,A*79
$GPGGA,135529.000,3353.7465,N,09832.0245,W,1,07,1.5,317.0,M,-23.7,M,,0000*6F
$GPGSA,A,3,21,18,15,26,29,27,09,,,,,,2.8,1.5,2.4*37
$GPRMC,135529.000,A,3353.7465,N,09832.0245,W,0.10,231.54,020412,,,A*75
$GPGGA,135530.000,3353.7464,N,09832.0245,W,1,07,1.5,316.8,M,-23.7,M,,0000*6F
$GPGSA,A,3,21,18,15,26,29,27,09,,,,,,2.8,1.5,2.4*37
$GPRMC,135530.000,A,3353.7464,N,09832.0245,W,0.15,141.24,020412,,,A*7A
$GPGGA,135531.000,3353.7464,N,09832.0245,W,1,07,1.5,316.5,M,-23.7,M,,0000*63
$GPGSA,A,3,21,18,15,26,29,27,09,,,,,,2.8,1.5,2.4*37
$GPGSV,3,1,12,15,66,085,32,21,62,331,25,18,56,284,33,29,45,183,39*7F
$GPGSV,3,2,12,26,27,044,33,22,17,258,15,27,16,112,17,06,14,317,*77
$GPGSV,3,3,12,09,11,135,15,16,05,295,,05,03,063,,03,03,323,*7D
$GPRMC,135531.000,A,3353.7464,N,09832.0245,W,0.15,120.29,020412,,,A*71
$GPGGA,135532.000,3353.7464,N,09832.0245,W,1,07,1.5,316.3,M,-23.7,M,,0000*66
$GPGSA,A,3,21,18,15,26,29,27,09,,,,,,2.8,1.5,2.4*37
$GPRMC,135532.000,A,3353.7464,N,09832.0245,W,0.09,137.05,020412,,,A*77
$GPGGA,135533.000,3353.7464,N,09832.0245,W,1,07,1.5,316.1,M,-23.7,M,,0000*65
$GPGSA,A,3,21,18,15,26,29,27,09,,,,,,2.8,1.5,2.4*37
$GPRMC,135533.000,A,3353.7464,N,09832.0245,W,0.10,89.25,020412,,,A*48
$GPGGA,135534.000,3353.7464,N,09832.0245,W,1,07,1.5,315.9,M,-23.7,M,,0000*69
$GPGSA,A,3,21,18,15,26,29,27,09,,,,,,2.8,1.5,2.4*37
$GPRMC,135534.000,A,3353.7464,N,09832.0245,W,0.08,83.95,020412,,,A*47
$GPGGA,135535.000,3353.7464,N,09832.0245,W,1,07,1.5,315.7,M,-23.7,M,,0000*66
$GPGSA,A,3,21,18,15,26,29,27,09,,,,,,2.8,1.5,2.4*37
$GPRMC,135535.000,A,3353.7464,N,09832.0245,W,0.14,108.09,020412,,,A*7C
$GPGGA,135536.000,3353.7465,N,09832.0245,W,1,07,1.5,315.5,M,-23.7,M,,0000*66
$GPGSA,A,3,21,18,15,26,29,27,09,,,,,,2.8,1.5,2.4*37
$GPGSV,3,1,12,15,66,085,32,21,62,331,24,18,56,284,34,29,45,183,39*79
$GPGSV,3,2,12,26,27,044,33,22,17,258,16,27,16,112,18,06,14,317,*7B
$GPGSV,3,3,12,09,11,135,15,16,05,295,,05,03,063,17,03,03,323,*7B
$GPRMC,135536.000,A,3353.7465,N,09832.0245,W,0.05,102.70,020412,,,A*7A
$GPGGA,135537.000,3353.7465,N,09832.0246,W,1,07,1.5,315.3,M,-23.7,M,,0000*62
$GPGSA,A,3,21,18,15,26,29,27,09,,,,,,2.8,1.5,2.4*37
$GPRMC,135537.000,A,3353.7465,N,09832.0246,W,0.17,273.84,020412,,,A*75
$GPGGA,135538.000,3353.7465,N,09832.0247,W,1,07,1.5,315.2,M,-23.7,M,,0000*6D
$GPGSA,A,3,21,18,15,26,29,27,09,,,,,,2.8,1.5,2.4*37
$GPRMC,135538.000,A,3353.7465,N,09832.0247,W,0.24,281.97,020412,,,A*74
$GPGGA,135539.000,3353.7465,N,09832.0248,W,1,07,1.5,315.1,M,-23.7,M,,0000*60
$GPGSA,A,3,21,18,15,26,29,27,09,,,,,,2.8,1.5,2.4*37
$GPRMC,135539.000,A,3353.7465,N,09832.0248,W,0.33,281.90,020412,,,A*7B
$GPGGA,135540.000,3353.7466,N,09832.0249,W,1,07,1.5,315.0,M,-23.7,M,,0000*6D
$GPGSA,A,3,21,18,15,26,29,27,09,,,,,,2.8,1.5,2.4*37
$GPRMC,135540.000,A,3353.7466,N,09832.0249,W,0.37,282.70,020412,,,A*7E
$GPGGA,135541.000,3353.7466,N,09832.0251,W,1,07,1.5,315.0,M,-23.7,M,,0000*65
$GPGSA,A,3,21,18,15,26,29,27,09,,,,,,2.8,1.5,2.4*37
$GPGSV,3,1,12,15,66,084,32,21,62,332,25,18,56,284,34,29,45,183,39*7A
$GPGSV,3,2,12,26,27,044,33,22,17,258,16,27,16,111,17,06,14,317,*77
$GPGSV,3,3,12,09,11,134,16,16,05,295,,05,03,063,18,03,03,323,*76
$GPRMC,135541.000,A,3353.7466,N,09832.0251,W,0.35,281.70,020412,,,A*77
$GPGGA,135542.000,3353.7466,N,09832.0251,W,1,07,1.5,315.0,M,-23.7,M,,0000*66
$GPGSA,A,3,21,18,15,26,29,27,09,,,,,,2.8,1.5,2.4*37
$GPRMC,135542.000,A,3353.7466,N,09832.0251,W,0.16,266.79,020412,,,A*75
$GPGGA,135543.000,3353.7466,N,09832.0251,W,1,07,1.5,314.9,M,-23.7,M,,0000*6F
$GPGSA,A,3,21,18,15,26,29,27,09,,,,,,2.8,1.5,2.4*37
$GPRMC,135543.000,A,3353.7466,N,09832.0251,W,0.17,126.39,020412,,,A*76
$GPGGA,135544.000,3353.7466,N,09832.0250,W,1,07,1.5,314.9,M,-23.7,M,,0000*69
$GPGSA,A,3,21,18,15,26,29,27,09,,,,,,2.8,1.5,2.4*37
$GPRMC,135544.000,A,3353.7466,N,09832.0250,W,0.28,124.09,020412,,,A*7D
$GPGGA,135545.000,3353.7465,N,09832.0250,W,1,07,1.5,314.7,M,-23.7,M,,0000*65
$GPGSA,A,3,21,18,15,26,29,27,09,,,,,,2.8,1.5,2.4*37
$GPRMC,135545.000,A,3353.7465,N,09832.0250,W,0.29,125.07,020412,,,A*71
$GPGGA,135546.000,3353.7465,N,09832.0249,W,1,07,1.5,314.6,M,-23.7,M,,0000*6F
$GPGSA,A,3,21,18,15,26,29,27,09,,,,,,2.8,1.5,2.4*37
$GPGSV,3,1,12,15,66,084,32,21,62,332,26,18,56,284,34,29,45,183,39*79
$GPGSV,3,2,12,26,27,044,33,22,17,258,16,27,16,111,17,06,14,317,*77
$GPGSV,3,3,12,09,11,134,17,16,05,295,,05,03,063,18,03,03,323,*77
$GPRMC,135546.000,A,3353.7465,N,09832.0249,W,0.19,136.00,020412,,,A*7C
$GPGGA,135547.000,3353.7465,N,09832.0249,W,1,07,1.5,314.5,M,-23.7,M,,0000*6D
$GPGSA,A,3,21,18,15,26,29,27,09,,,,,,2.8,1.5,2.4*37
$GPRMC,135547.000,A,3353.7465,N,09832.0249,W,0.11,149.26,020412,,,A*79
$GPGGA,135548.000,3353.7465,N,09832.0249,W,1,07,1.5,314.3,M,-23.7,M,,0000*64
$GPGSA,A,3,21,18,15,26,29,27,09,,,,,,2.8,1.5,2.4*37
$GPRMC,135548.000,A,3353.7465,N,09832.0249,W,0.01,306.26,020412,,,A*7E
$GPGGA,135549.000,3353.7465,N,09832.0249,W,1,07,1.5,314.3,M,-23.7,M,,0000*65
$GPGSA,A,3,21,18,15,26,29,27,09,,,,,,2.8,1.5,2.4*37
$GPRMC,135549.000,A,3353.7465,N,09832.0249,W,0.02,97.25,020412,,,A*44
$GPGGA,135550.000,3353.7465,N,09832.0249,W,1,07,1.5,314.2,M,-23.7,M,,0000*6C
$GPGSA,A,3,21,18,15,26,29,27,09,,,,,,2.8,1.5,2.4*37
$GPRMC,135550.000,A,3353.7465,N,09832.0249,W,0.17,109.06,020412,,,A*7F
$GPGGA,135551.000,3353.7465,N,09832.0248,W,1,07,1.5,314.0,M,-23.7,M,,0000*6E
$GPGSA,A,3,21,18,15,26,29,27,09,,,,,,2.8,1.5,2.4*37
$GPGSV,3,1,12,15,66,084,31,21,62,332,26,18,56,284,35,29,45,183,39*7B
$GPGSV,3,2,12,26,27,044,34,22,17,258,17,27,16,111,17,06,14,317,*71
$GPGSV,3,3,12,09,11,134,19,16,05,295,,05,03,063,19,03,03,323,*78
$GPRMC,135551.000,A,3353.7465,N,09832.0248,W,0.29,119.95,020412,,,A*79
$GPGGA,135552.000,3353.7464,N,09832.0247,W,1,07,1.5,313.9,M,-23.7,M,,0000*6D
$GPGSA,A,3,21,18,15,26,29,27,09,,,,,,2.8,1.5,2.4*37
$GPRMC,135552.000,A,3353.7464,N,09832.0247,W,0.41,113.55,020412,,,A*7C
$GPGGA,135553.000,3353.7464,N,09832.0246,W,1,07,1.5,313.7,M,-23.7,M,,0000*63
$GPGSA,A,3,21,18,15,26,29,27,09,,,,,,2.8,1.5,2.4*37
$GPRMC,135553.000,A,3353.7464,N,09832.0246,W,0.32,113.96,020412,,,A*77
$GPGGA,135554.000,3353.7464,N,09832.0246,W,1,07,1.5,313.5,M,-23.7,M,,0000*66
$GPGSA,A,3,21,18,15,26,29,27,09,,,,,,2.8,1.5,2.4*37
$GPRMC,135554.000,A,3353.7464,N,09832.0246,W,0.19,125.22,020412,,,A*73
$GPGGA,135555.000,3353.7464,N,09832.0247,W,1,07,1.5,313.3,M,-23.7,M,,0000*60
$GPGSA,A,3,21,18,15,26,29,27,09,,,,,,2.8,1.5,2.4*37
$GPRMC,135555.000,A,3353.7464,N,09832.0247,W,0.13,273.47,020412,,,A*7A
$GPGGA,135556.000,3353.7464,N,09832.0247,W,1,07,1.5,313.1,M,-23.7,M,,0000*61
$GPGSA,A,3,21,18,15,26,29,27,09,,,,,,2.8,1.5,2.4*37
$GPGSV,3,1,12,15,66,084,30,21,62,332,26,18,56,284,35,29,45,183,39*7A
$GPGSV,3,2,12,26,27,044,34,22,17,258,17,27,16,111,20,06,14,317,*75
$GPGSV,3,3,12,09,11,134,20,16,05,295,,05,03,063,20,03,03,323,*78
$GPRMC,135556.000,A,3353.7464,N,09832.0247,W,0.04,243.91,020412,,,A*77
$GPGGA,135557.000,3353.7464,N,09832.0248,W,1,07,1.5,313.0,M,-23.7,M,,0000*6E
$GPGSA,A,3,21,18,15,26,29,27,09,,,,,,2.8,1.5,2.4*37
$GPRMC,135557.000,A,3353.7464,N,09832.0248,W,0.18,273.95,020412,,,A*73
$GPGGA,135558.000,3353.7464,N,09832.0248,W,1,07,1.5,312.9,M,-23.7,M,,0000*69
$GPGSA,A,3,21,18,15,26,29,27,09,,,,,,2.8,1.5,2.4*37
$GPRMC,135558.000,A,3353.7464,N,09832.0248,W,0.19,281.16,020412,,,A*7B
$GPGGA,135559.000,3353.7464,N,09832.0249,W,1,07,1.5,312.8,M,-23.7,M,,0000*68
$GPGSA,A,3,21,18,15,26,29,27,09,,,,,,2.8,1.5,2.4*37
$GPRMC,135559.000,A,3353.7464,N,09832.0249,W,0.07,239.51,020412,,,A*74
$GPGGA,135600.000,3353.7464,N,09832.0249,W,1,07,1.5,312.8,M,-23.7,M,,0000*67
$GPGSA,A,3,21,18,15,26,29,27,09,,,,,,2.8,1.5,2.4*37
$GPRMC,135600.000,A,3353.7464,N,09832.0249,W,0.11,275.85,020412,,,A*7D
$GPGGA,135601.000,3353.7464,N,09832.0250,W,1,07,1.5,312.8,M,-23.7,M,,0000*6E
$GPGSA,A,3,21,18,15,26,29,27,09,,,,,,2.8,1.5,2.4*37
$GPGSV,3,1,12,15,66,084,30,21,62,332,26,18,56,284,35,29,45,183,39*7A
$GPGSV,3,2,12,26,27,044,35,22,17,258,17,27,16,111,21,06,14,317,*75
$GPGSV,3,3,12,09,11,134,22,16,05,295,,05,03,063,20,03,03,323,*7A
$GPRMC,135601.000,A,3353.7464,N,09832.0250,W,0.20,288.55,020412,,,A*79
$GPGGA,135602.000,3353.7464,N,09832.0250,W,1,07,1.5,312.8,M,-23.7,M,,0000*6D
$GPGSA,A,3,21,18,15,26,29,27,09,,,,,,2.8,1.5,2.4*37
$GPRMC,135602.000,A,3353.7464,N,09832.0250,W,0.07,243.99,020412,,,A*78
$GPGGA,135603.000,3353.7464,N,09832.0249,W,1,07,1.5,312.8,M,-23.7,M,,0000*64
$GPGSA,A,3,21,18,15,26,29,27,09,,,,,,2.8,1.5,2.4*37
$GPRMC,135603.000,A,3353.7464,N,09832.0249,W,0.20,124.75,020412,,,A*74
$GPGGA,135604.000,3353.7464,N,09832.0249,W,1,07,1.5,312.8,M,-23.7,M,,0000*63
$GPGSA,A,3,21,18,15,26,29,27,09,,,,,,2.8,1.5,2.4*37
$GPRMC,135604.000,A,3353.7464,N,09832.0249,W,0.28,122.61,020412,,,A*78
$GPGGA,135605.000,3353.7463,N,09832.0248,W,1,07,1.5,312.8,M,-23.7,M,,0000*64
$GPGSA,A,3,21,18,15,26,29,27,09,,,,,,2.8,1.5,2.4*37
$GPRMC,135605.000,A,3353.7463,N,09832.0248,W,0.25,112.38,020412,,,A*7D
$GPGGA,135606.000,3353.7463,N,09832.0247,W,1,07,1.5,312.8,M,-23.7,M,,0000*68
$GPGSA,A,3,21,18,15,26,29,27,09,,,,,,2.8,1.5,2.4*37
$GPGSV,3,1,12,15,66,084,29,21,62,332,26,18,56,284,35,29,45,183,39*72
$GPGSV,3,2,12,26,27,044,35,22,17,258,15,27,16,111,22,06,14,317,*74
$GPGSV,3,3,12,09,11,134,22,16,05,295,,05,03,063,20,03,03,323,*7A
$GPRMC,135606.000,A,3353.7463,N,09832.0247,W,0.23,112.15,020412,,,A*78
$GPGGA,135607.000,3353.7463,N,09832.0247,W,1,07,1.5,312.8,M,-23.7,M,,0000*69
$GPGSA,A,3,21,18,15,26,29,27,09,,,,,,2.8,1.5,2.4*37
$GPRMC,135607.000,A,3353.7463,N,09832.0247,W,0.12,98.92,020412,,,A*47
$GPGGA,135608.000,3353.7463,N,09832.0247,W,1,07,1.5,312.8,M,-23.7,M,,0000*66
$GPGSA,A,3,21,18,15,26,29,27,09,,,,,,2.8,1.5,2.4*37
$GPRMC,135608.000,A,3353.7463,N,09832.0247,W,0.10,107.48,020412,,,A*7A
$GPGGA,135609.000,3353.7463,N,09832.0246,W,1,07,1.5,312.9,M,-23.7,M,,0000*67
$GPGSA,A,3,21,18,15,26,29,27,09,,,,,,2.8,1.5,2.4*37
$GPRMC,135609.000,A,3353.7463,N,09832.0246,W,0.22,105.20,020412,,,A*77
$GPGGA,135610.000,3353.7463,N,09832.0246,W,1,07,1.5,313.0,M,-23.7,M,,0000*67
$GPGSA,A,3,21,18,15,26,29,27,09,,,,,,2.8,1.5,2.4*37
$GPRMC,135610.000,A,3353.7463,N,09832.0246,W,0.06,133.48,020412,,,A*72
$GPGGA,135611.000,3353.7463,N,09832.0246,W,1,07,1.5,313.0,M,-23.7,M,,0000*66
$GPGSA,A,3,21,18,15,26,29,27,09,,,,,,2.8,1.5,2.4*37
$GPGSV,3,1,12,15,66,084,30,21,62,332,27,18,56,284,35,29,45,183,39*7B
$GPGSV,3,2,12,26,27,044,36,22,17,258,14,27,16,111,22,06,14,317,*76
$GPGSV,3,3,12,09,11,134,23,16,05,295,,05,03,063,20,03,03,323,*7B
$GPRMC,135611.000,A,3353.7463,N,09832.0246,W,0.04,297.43,020412,,,A*77
$GPGGA,135612.000,3353.7463,N,09832.0246,W,1,07,1.5,313.1,M,-23.7,M,,0000*64
$GPGSA,A,3,21,18,15,26,29,27,09,,,,,,2.8,1.5,2.4*37
$GPRMC,135612.000,A,3353.7463,N,09832.0246,W,0.16,103.50,020412,,,A*7B
$GPGGA,135613.000,3353.7462,N,09832.0245,W,1,07,1.5,313.2,M,-23.7,M,,0000*64
$GPGSA,A,3,21,18,15,26,29,27,09,,,,,,2.8,1.5,2.4*37
$GPRMC,135613.000,A,3353.7462,N,09832.0245,W,0.32,112.29,020412,,,A*70
$GPGGA,135614.000,3353.7462,N,09832.0245,W,1,07,1.5,313.2,M,-23.7,M,,0000*63
$GPGSA,A,3,21,18,15,26,29,27,09,,,,,,2.8,1.5,2.4*37
$GPRMC,135614.000,A,3353.7462,N,09832.0245,W,0.16,111.30,020412,,,A*7A
$GPGGA,135615.000,3353.7462,N,09832.0244,W,1,07,1.5,313.3,M,-23.7,M,,0000*62
$GPGSA,A,3,21,18,15,26,29,27,09,,,,,,2.8,1.5,2.4*37
$GPRMC,135615.000,A,3353.7462,N,09832.0244,W,0.29,112.54,020412,,,A*77
$GPGGA,135616.000,3353.7462,N,09832.0244,W,1,07,1.5,313.3,M,-23.7,M,,0000*61
$GPGSA,A,3,21,18,15,26,29,27,09,,,,,,2.8,1.5,2.4*37
$GPGSV,3,1,12,15,66,084,30,21,62,332,28,18,56,284,35,29,45,183,39*74
$GPGSV,3,2,12,26,27,044,36,22,17,258,13,27,16,111,23,06,14,317,*70
$GPGSV,3,3,12,09,11,134,22,16,05,295,,05,03,063,21,03,03,323,*7B
$GPRMC,135616.000,A,3353.7462,N,09832.0244,W,0.09,111.76,020412,,,A*75
$GPGGA,135617.000,3353.7461,N,09832.0244,W,1,07,1.5,313.4,M,-23.7,M,,0000*64
$GPGSA,A,3,21,18,15,26,29,27,09,,,,,,2.8,1.5,2.4*37
$GPRMC,135617.000,A,3353.7461,N,09832.0244,W,0.14,109.43,020412,,,A*74
$GPGGA,135618.000,3353.7461,N,09832.0243,W,1,07,1.5,313.4,M,-23.7,M,,0000*6C
$GPGSA,A,3,21,18,15,26,29,27,09,,,,,,2.8,1.5,2.4*37
$GPRMC,135618.000,A,3353.7461,N,09832.0243,W,0.32,119.02,020412,,,A*7C
$GPGGA,135619.000,3353.7461,N,09832.0242,W,1,07,1.5,313.3,M,-23.7,M,,0000*6B
$GPGSA,A,3,21,18,15,26,29,27,09,,,,,,2.8,1.5,2.4*37
$GPRMC,135619.000,A,3353.7461,N,09832.0242,W,0.27,124.13,020412,,,A*76
$GPGGA,135620.000,3353.7461,N,09832.0242,W,1,07,1.5,313.3,M,-23.7,M,,0000*61
$GPGSA,A,3,21,18,15,26,29,27,09,,,,,,2.8,1.5,2.4*37
$GPRMC,135620.000,A,3353.7461,N,09832.0242,W,0.07,115.81,020412,,,A*77
$GPGGA,135621.000,3353.7461,N,09832.0243,W,1,07,1.5,313.3,M,-23.7,M,,0000*61
$GPGSA,A,3,21,18,15,26,29,27,09,,,,,,2.8,1.5,2.4*37
$GPGSV,3,1,12,15,66,084,30,21,62,332,28,18,56,284,35,29,45,183,39*74
$GPGSV,3,2,12,26,27,044,36,22,17,258,13,27,16,111,25,06,14,317,*76
$GPGSV,3,3,12,09,11,134,22,16,05,295,,05,03,063,21,03,03,323,*7B
$GPRMC,135621.000,A,3353.7461,N,09832.0243,W,0.06,291.83,020412,,,A*7B
$GPGGA,135622.000,3353.7461,N,09832.0243,W,1,07,1.5,313.4,M,-23.7,M,,0000*65
$GPGSA,A,3,21,18,15,26,29,27,09,,,,,,2.8,1.5,2.4*37
$GPRMC,135622.000,A,3353.7461,N,09832.0243,W,0.04,317.20,020412,,,A*7C
$GPGGA,135623.000,3353.7461,N,09832.0243,W,1,07,1.5,313.4,M,-23.7,M,,0000*64
$GPGSA,A,3,21,18,15,26,29,27,09,,,,,,2.8,1.5,2.4*37
$GPRMC,135623.000,A,3353.7461,N,09832.0243,W,0.02,319.15,020412,,,A*73
$GPGGA,135624.000,3353.7461,N,09832.0244,W,1,07,1.5,313.5,M,-23.7,M,,0000*65
$GPGSA,A,3,21,18,15,26,29,27,09,,,,,,2.8,1.5,2.4*37
$GPRMC,135624.000,A,3353.7461,N,09832.0244,W,0.07,314.20,020412,,,A*7D
$GPGGA,135625.000,3353.7461,N,09832.0244,W,1,07,1.5,313.6,M,-23.7,M,,0000*67
$GPGSA,A,3,21,18,15,26,29,27,09,,,,,,2.8,1.5,2.4*37
$GPRMC,135625.000,A,3353.7461,N,09832.0244,W,0.03,6.17,020412,,,A*7C
$GPGGA,135626.000,3353.7461,N,09832.0244,W,1,07,1.5,313.7,M,-23.7,M,,0000*65
$GPGSA,A,3,21,18,15,26,29,27,09,,,,,,2.8,1.5,2.4*37
$GPGSV,3,1,12,15,66,084,30,21,62,332,28,18,56,284,35,29,45,183,39*74
$GPGSV,3,2,12,26,27,044,36,22,17,258,14,27,16,111,26,06,14,317,*72
$GPGSV,3,3,12,09,11,134,22,16,05,295,,05,03,063,21,03,03,323,*7B
$GPRMC,135626.000,A,3353.7461,N,09832.0244,W,0.12,112.14,020412,,,A*78
$GPGGA,135627.000,3353.7460,N,09832.0243,W,1,07,1.5,313.8,M,-23.7,M,,0000*6D
$GPGSA,A,3,21,18,15,26,29,27,09,,,,,,2.8,1.5,2.4*37
$GPRMC,135627.000,A,3353.7460,N,09832.0243,W,0.22,121.81,020412,,,A*70
$GPGGA,135628.000,3353.7460,N,09832.0243,W,1,07,1.5,313.8,M,-23.7,M,,0000*62
$GPGSA,A,3,21,18,15,26,29,27,09,,,,,,2.8,1.5,2.4*37
$GPRMC,135628.000,A,3353.7460,N,09832.0243,W,0.11,111.19,020412,,,A*7D
$GPGGA,135629.000,3353.7460,N,09832.0243,W,1,07,1.5,313.9,M,-23.7,M,,0000*62
$GPGSA,A,3,21,18,15,26,29,27,09,,,,,,2.8,1.5,2.4*37
$GPRMC,135629.000,A,3353.7460,N,09832.0243,W,0.01,338.62,020412,,,A*78
$GPGGA,135630.000,3353.7460,N,09832.0243,W,1,07,1.5,314.0,M,-23.7,M,,0000*64
$GPGSA,A,3,21,18,15,26,29,27,09,,,,,,2.8,1.5,2.4*37
$GPRMC,135630.000,A,3353.7460,N,09832.0243,W,0.18,114.21,020412,,,A*73
$GPGGA,135631.000,3353.7460,N,09832.0243,W,1,07,1.5,314.0,M,-23.7,M,,0000*65
$GPGSA,A,3,21,18,15,26,29,27,09,,,,,,2.8,1.5,2.4*37
$GPGSV,3,1,12,15,66,084,30,21,62,332,27,18,56,284,35,29,45,183,39*7B
$GPGSV,3,2,12,26,27,044,36,22,17,258,14,27,16,111,26,06,14,317,*72
$GPGSV,3,3,12,09,11,134,23,16,05,295,,05,03,063,21,03,03,323,*7A
$GPRMC,135631.000,A,3353.7460,N,09832.0243,W,0.23,120.57,020412,,,A*7C
$GPGGA,135632.000,3353.7459,N,09832.0243,W,1,07,1.5,314.0,M,-23.7,M,,0000*6C
$GPGSA,A,3,21,18,15,26,29,27,09,,,,,,2.8,1.5,2.4*37
$GPRMC,135632.000,A,3353.7459,N,09832.0243,W,0.14,124.56,020412,,,A*74
$GPGGA,135633.000,3353.7459,N,09832.0243,W,1,07,1.5,314.0,M,-23.7,M,,0000*6D
$GPGSA,A,3,21,18,15,26,29,27,09,,,,,,2.8,1.5,2.4*37
$GPRMC,135633.000,A,3353.7459,N,09832.0243,W,0.07,321.13,020412,,,A*71
$GPGGA,135634.000,3353.7460,N,09832.0243,W,1,07,1.5,314.1,M,-23.7,M,,0000*61
$GPGSA,A,3,21,18,15,26,29,27,09,,,,,,2.8,1.5,2.4*37
$GPRMC,135634.000,A,3353.7460,N,09832.0243,W,0.06,312.19,020412,,,A*77
$GPGGA,135635.000,3353.7460,N,09832.0244,W,1,07,1.5,314.1,M,-23.7,M,,0000*67
$GPGSA,A,3,21,18,15,26,29,27,09,,,,,,2.8,1.5,2.4*37
$GPRMC,135635.000,A,3353.7460,N,09832.0244,W,0.03,76.53,020412,,,A*4B
$GPGGA,135636.000,3353.7460,N,09832.0244,W,1,07,1.5,314.2,M,-23.7,M,,0000*67
$GPGSA,A,3,21,18,15,26,29,27,09,,,,,,2.8,1.5,2.4*37
$GPGSV,3,1,12,15,66,084,30,21,62,332,26,18,56,284,35,29,45,183,40*74
$GPGSV,3,2,12,26,27,044,36,22,17,258,13,27,16,111,25,06,14,317,*76
$GPGSV,3,3,12,09,11,134,23,16,05,295,,05,03,063,20,03,03,323,*7B
$GPRMC,135636.000,A,3353.7460,N,09832.0244,W,0.02,352.47,020412,,,A*79
$GPGGA,135637.000,3353.7459,N,09832.0244,W,1,07,1.5,314.2,M,-23.7,M,,0000*6C
$GPGSA,A,3,21,18,15,26,29,27,09,,,,,,2.8,1.5,2.4*37
$GPRMC,135637.000,A,3353.7459,N,09832.0244,W,0.20,109.10,020412,,,A*7C
$GPGGA,135638.000,3353.7459,N,09832.0243,W,1,07,1.5,314.3,M,-23.7,M,,0000*65
$GPGSA,A,3,21,18,15,26,29,27,09,,,,,,2.8,1.5,2.4*37
$GPRMC,135638.000,A,3353.7459,N,09832.0243,W,0.22,101.20,020412,,,A*7D
$GPGGA,135639.000,3353.7459,N,09832.0243,W,1,07,1.5,314.3,M,-23.7,M,,0000*64
$GPGSA,A,3,21,18,15,26,29,27,09,,,,,,2.8,1.5,2.4*37
$GPRMC,135639.000,A,3353.7459,N,09832.0243,W,0.03,138.84,020412,,,A*7B
$GPGGA,135640.000,3353.7459,N,09832.0244,W,1,07,1.5,314.3,M,-23.7,M,,0000*6D
$GPGSA,A,3,21,18,15,26,29,27,09,,,,,,2.8,1.5,2.4*37
$GPRMC,135640.000,A,3353.7459,N,09832.0244,W,0.02,237.97,020412,,,A*7D
$GPGGA,135641.000,3353.7459,N,09832.0243,W,1,07,1.5,314.4,M,-23.7,M,,0000*6C
$GPGSA,A,3,21,18,15,26,29,27,09,,,,,,2.8,1.5,2.4*37
$GPGSV,3,1,12,15,65,083,30,21,62,332,25,18,57,285,34,29,45,183,40*72
$GPGSV,3,2,12,26,26,044,36,22,17,258,12,27,17,111,24,06,14,317,*76
$GPGSV,3,3,12,09,11,134,22,16,05,294,,03,04,322,,05,03,063,20*7D
$GPRMC,135641.000,A,3353.7459,N,09832.0243,W,0.27,117.41,020412,,,A*76
$GPGGA,135642.000,3353.7459,N,09832.0243,W,1,07,1.5,314.4,M,-23.7,M,,0000*6F
$GPGSA,A,3,21,18,15,26,29,27,09,,,,,,2.8,1.5,2.4*37
$GPRMC,135642.000,A,3353.7459,N,09832.0243,W,0.26,111.27,020412,,,A*72
$GPGGA,135643.000,3353.7458,N,09832.0242,W,1,07,1.5,314.4,M,-23.7,M,,0000*6E
$GPGSA,A,3,21,18,15,26,29,27,09,,,,,,2.8,1.5,2.4*37
$GPRMC,135643.000,A,3353.7458,N,09832.0242,W,0.34,113.72,020412,,,A*72
$GPGGA,135644.000,3353.7458,N,09832.0242,W,1,07,1.5,314.4,M,-23.7,M,,0000*69
$GPGSA,A,3,21,18,15,26,29,27,09,,,,,,2.8,1.5,2.4*37
$GPRMC,135644.000,A,3353.7458,N,09832.0242,W,0.06,302.89,020412,,,A*72
$GPGGA,135645.000,3353.7458,N,09832.0243,W,1,07,1.5,314.4,M,-23.7,M,,0000*69
$GPGSA,A,3,21,18,15,26,29,27,09,,,,,,2.8,1.5,2.4*37
$GPRMC,135645.000,A,3353.7458,N,09832.0243,W,0.21,293.04,020412,,,A*7B
$GPGGA,135646.000,3353.7459,N,09832.0244,W,1,07,1.5,314.4,M,-23.7,M,,0000*6C
$GPGSA,A,3,21,18,15,26,29,27,09,,,,,,2.8,1.5,2.4*37
$GPGSV,3,1,12,15,65,083,30,21,62,332,26,18,57,285,34,29,45,183,40*71
$GPGSV,3,2,12,26,26,044,36,22,17,258,14,27,17,111,24,06,14,317,*70
$GPGSV,3,3,12,09,11,134,22,16,05,294,,03,04,322,,05,03,063,20*7D
$GPRMC,135646.000,A,3353.7459,N,09832.0244,W,0.06,304.81,020412,,,A*79
$GPGGA,135647.000,3353.7458,N,09832.0244,W,1,07,1.5,314.5,M,-23.7,M,,0000*6D
$GPGSA,A,3,21,18,15,26,29,27,09,,,,,,2.8,1.5,2.4*37
$GPRMC,135647.000,A,3353.7458,N,09832.0244,W,0.03,177.55,020412,,,A*73
$GPGGA,135648.000,3353.7459,N,09832.0245,W,1,07,1.5,314.5,M,-23.7,M,,0000*62
$GPGSA,A,3,21,18,15,26,29,27,09,,,,,,2.8,1.5,2.4*37
$GPRMC,135648.000,A,3353.7459,N,09832.0245,W,0.18,296.35,020412,,,A*7C
$GPGGA,135649.000,3353.7458,N,09832.0244,W,1,07,1.5,314.6,M,-23.7,M,,0000*60
$GPGSA,A,3,21,18,15,26,29,27,09,,,,,,2.8,1.5,2.4*37
$GPRMC,135649.000,A,3353.7458,N,09832.0244,W,0.29,112.12,020412,,,A*75
$GPGGA,135650.000,3353.7458,N,09832.0244,W,1,07,1.5,314.6,M,-23.7,M,,0000*68
$GPGSA,A,3,21,18,15,26,29,27,09,,,,,,2.8,1.5,2.4*37
$GPRMC,135650.000,A,3353.7458,N,09832.0244,W,0.20,111.01,020412,,,A*75
$GPGGA,135651.000,3353.7458,N,09832.0244,W,1,07,1.5,314.6,M,-23.7,M,,0000*69
$GPGSA,A,3,21,18,15,26,29,27,09,,,,,,2.8,1.5,2.4*37
$GPGSV,3,1,12,15,65,083,30,21,62,332,25,18,57,285,34,29,45,183,40*72
$GPGSV,3,2,12,26,26,044,36,22,17,258,17,27,17,111,24,06,14,317,*73
$GPGSV,3,3,12,09,11,134,22,16,05,294,,03,04,322,,05,03,063,19*77
$GPRMC,135651.000,A,3353.7458,N,09832.0244,W,0.09,318.35,020412,,,A*73
$GPGGA,135652.000,3353.7458,N,09832.0244,W,1,07,1.5,314.7,M,-23.7,M,,0000*6B
$GPGSA,A,3,21,18,15,26,29,27,09,,,,,,2.8,1.5,2.4*37
$GPRMC,135652.000,A,3353.7458,N,09832.0244,W,0.12,104.71,020412,,,A*75
$GPGGA,135653.000,3353.7458,N,09832.0244,W,1,07,1.5,314.7,M,-23.7,M,,0000*6A
$GPGSA,A,3,21,18,15,26,29,27,09,,,,,,2.8,1.5,2.4*37
$GPRMC,135653.000,A,3353.7458,N,09832.0244,W,0.21,111.96,020412,,,A*79
$GPGGA,135654.000,3353.7458,N,09832.0245,W,1,07,1.5,314.7,M,-23.7,M,,0000*6C
$GPGSA,A,3,21,18,15,26,29,27,09,,,,,,2.8,1.5,2.4*37
$GPRMC,135654.000,A,3353.7458,N,09832.0245,W,0.07,307.51,020412,,,A*75
$GPGGA,135655.000,3353.7458,N,09832.0245,W,1,07,1.5,314.8,M,-23.7,M,,0000*62
$GPGSA,A,3,21,18,15,26,29,27,09,,,,,,2.8,1.5,2.4*37
$GPRMC,135655.000,A,3353.7458,N,09832.0245,W,0.06,325.94,020412,,,A*7C
$GPGGA,135656.000,3353.7458,N,09832.0245,W,1,07,1.5,314.8,M,-23.7,M,,0000*61
$GPGSA,A,3,21,18,15,26,29,27,09,,,,,,2.8,1.5,2.4*37
$GPGSV,3,1,12,15,65,083,30,21,62,332,25,18,57,285,34,29,45,183,40*72
$GPGSV,3,2,12,26,26,044,36,22,17,258,17,27,17,111,23,06,14,317,*74
$GPGSV,3,3,12,09,11,134,22,16,05,294,,03,04,322,,05,03,063,19*77
$GPRMC,135656.000,A,3353.7458,N,09832.0245,W,0.24,110.98,020412,,,A*77
$GPGGA,135657.000,3353.7458,N,09832.0244,W,1,07,1.5,314.8,M,-23.7,M,,0000*61
$GPGSA,A,3,21,18,15,26,29,27,09,,,,,,2.9,1.5,2.4*36
$GPRMC,135657.000,A,3353.7458,N,09832.0244,W,0.19,106.14,020412,,,A*7A
$GPGGA,135658.000,3353.7457,N,09832.0244,W,1,07,1.5,314.7,M,-23.7,M,,0000*6E
$GPGSA,A,3,21,18,15,26,29,27,09,,,,,,2.9,1.5,2.4*36
$GPRMC,135658.000,A,3353.7457,N,09832.0244,W,0.25,127.73,020412,,,A*77
$GPGGA,135659.000,3353.7457,N,09832.0244,W,1,07,1.5,314.7,M,-23.7,M,,0000*6F
$GPGSA,A,3,21,18,15,26,29,27,09,,,,,,2.9,1.5,2.4*36
$GPRMC,135659.000,A,3353.7457,N,09832.0244,W,0.19,126.91,020412,,,A*74
$GPGGA,135700.000,3353.7457,N,09832.0243,W,1,07,1.5,314.6,M,-23.7,M,,0000*64
$GPGSA,A,3,21,18,15,26,29,27,09,,,,,,2.9,1.5,2.4*36
$GPRMC,135700.000,A,3353.7457,N,09832.0243,W,0.23,125.53,020412,,,A*7A
$GPGGA,135701.000,3353.7457,N,09832.0244,W,1,07,1.5,314.5,M,-23.7,M,,0000*61
$GPGSA,A,3,21,18,15,26,29,27,09,,,,,,2.9,1.5,2.4*36
$GPGSV,3,1,12,15,65,083,29,21,62,332,24,18,57,285,34,29,45,183,40*7B
$GPGSV,3,2,12,26,26,044,35,22,17,258,17,27,17,111,24,06,14,317,*70
$GPGSV,3,3,12,09,11,134,15,16,05,294,,03,04,322,,05,03,063,19*73
$GPRMC,135701.000,A,3353.7457,N,09832.0244,W,0.09,144.18,020412,,,A*7C
$GPGGA,135702.000,3353.7456,N,09832.0244,W,1,07,1.5,314.3,M,-23.7,M,,0000*65
$GPGSA,A,3,21,18,15,26,29,27,09,,,,,,2.9,1.5,2.4*36
$GPRMC,135702.000,A,3353.7456,N,09832.0244,W,0.15,126.39,020412,,,A*74
$GPGGA,135703.000,3353.7456,N,09832.0244,W,1,07,1.5,314.2,M,-23.7,M,,0000*65
$GPGSA,A,3,21,18,15,26,29,27,09,,,,,,2.9,1.5,2.4*36
$GPRMC,135703.000,A,3353.7456,N,09832.0244,W,0.11,140.45,020412,,,A*7A
$GPGGA,135704.000,3353.7456,N,09832.0244,W,1,07,1.5,314.1,M,-23.7,M,,0000*61
$GPGSA,A,3,21,18,15,26,29,27,09,,,,,,2.9,1.5,2.4*36
$GPRMC,135704.000,A,3353.7456,N,09832.0244,W,0.08,273.62,020412,,,A*73
$GPGGA,135705.000,3353.7456,N,09832.0244,W,1,07,1.5,313.9,M,-23.7,M,,0000*6F
$GPGSA,A,3,21,18,15,26,29,27,09,,,,,,2.9,1.5,2.4*36
$GPRMC,135705.000,A,3353.7456,N,09832.0244,W,0.26,125.62,020412,,,A*7E
$GPGGA,135706.000,3353.7455,N,09832.0243,W,1,07,1.5,313.7,M,-23.7,M,,0000*66
$GPGSA,A,3,21,18,15,26,29,27,09,,,,,,2.9,1.5,2.4*36
$GPGSV,3,1,12,15,65,083,29,21,62,332,24,18,57,285,34,29,45,183,40*7B
$GPGSV,3,2,12,26,26,044,35,22,17,258,17,27,17,111,24,06,14,317,*70
$GPGSV,3,3,12,09,11,134,15,16,05,294,,03,04,322,,05,03,063,19*73
$GPRMC,135706.000,A,3353.7455,N,09832.0243,W,0.35,117.83,020412,,,A*75
$GPGGA,135707.000,3353.7455,N,09832.0243,W,1,07,1.5,313.5,M,-23.7,M,,0000*65
$GPGSA,A,3,21,18,15,26,29,27,09,,,,,,2.9,1.5,2.4*36
$GPRMC,135707.000,A,3353.7455,N,09832.0243,W,0.31,130.80,020412,,,A*76
$GPGGA,135708.000,3353.7454,N,09832.0242,W,1,07,1.5,313.3,M,-23.7,M,,0000*6C
$GPGSA,A,3,21,18,15,26,29,27,09,,,,,,2.9,1.5,2.4*36
$GPRMC,135708.000,A,3353.7454,N,09832.0242,W,0.29,121.86,020412,,,A*76
$GPGGA,135709.000,3353.7454,N,09832.0242,W,1,07,1.5,313.1,M,-23.7,M,,0000*6F
$GPGSA,A,3,21,18,15,26,29,27,09,,,,,,2.9,1.5,2.4*36
$GPRMC,135709.000,A,3353.7454,N,09832.0242,W,0.29,134.31,020412,,,A*7F
$GPGGA,135710.000,3353.7454,N,09832.0242,W,1,07,1.5,312.9,M,-23.7,M,,0000*6E
$GPGSA,A,3,21,18,15,26,29,27,09,,,,,,2.9,1.5,2.4*36
$GPRMC,135710.000,A,3353.7454,N,09832.0242,W,0.04,157.35,020412,,,A*79
$GPGGA,135711.000,3353.7454,N,09832.0242,W,1,07,1.5,312.8,M,-23.7,M,,0000*6E
$GPGSA,A,3,21,18,15,26,29,27,09,,,,,,2.9,1.5,2.4*36
$GPGSV,3,1,12,15,65,083,28,21,62,332,24,18,57,285,34,29,44,183,40*7B
$GPGSV,3,2,12,26,26,044,35,22,18,259,13,27,17,111,24,06,15,317,*7B
$GPGSV,3,3,12,09,11,134,16,16,05,294,,03,04,322,,05,03,064,19*77
$GPRMC,135711.000,A,3353.7454,N,09832.0242,W,0.03,124.47,020412,,,A*7E
$GPGGA,135712.000,3353.7453,N,09832.0243,W,1,07,1.5,312.6,M,-23.7,M,,0000*65
$GPGSA,A,3,21,18,15,26,29,27,09,,,,,,2.9,1.5,2.4*36
$GPRMC,135712.000,A,3353.7453,N,09832.0243,W,0.10,167.73,020412,,,A*79
$GPGGA,135713.000,3353.7453,N,09832.0243,W,1,07,1.5,312.5,M,-23.7,M,,0000*67
$GPGSA,A,3,21,18,15,26,29,27,09,,,,,,2.9,1.5,2.4*36
$GPRMC,135713.000,A,3353.7453,N,09832.0243,W,0.08,325.73,020412,,,A*75
$GPGGA,135714.000,3353.7453,N,09832.0243,W,1,07,1.5,312.5,M,-23.7,M,,0000*60
$GPGSA,A,3,21,18,15,26,29,27,09,,,,,,2.9,1.5,2.4*36
$GPRMC,135714.000,A,3353.7453,N,09832.0243,W,0.07,255.62,020412,,,A*7B
$GPGGA,135715.000,3353.7453,N,09832.0244,W,1,07,1.5,312.4,M,-23.7,M,,0000*67
$GPGSA,A,3,21,18,15,26,29,27,09,,,,,,2.9,1.5,2.4*36
$GPRMC,135715.000,A,3353.7453,N,09832.0244,W,0.02,309.96,020412,,,A*7B
$GPGGA,135716.000,3353.7453,N,09832.0243,W,1,07,1.5,312.3,M,-23.7,M,,0000*64
$GPGSA,A,3,21,18,15,26,29,27,09,,,,,,2.9,1.5,2.4*36
$GPGSV,3,1,12,15,65,082,29,21,62,332,24,18,57,285,33,29,44,183,39*72
$GPGSV,3,2,12,26,26,044,35,22,18,259,13,27,17,111,24,06,15,317,*7B
$GPGSV,3,3,12,09,11,134,17,16,05,294,,03,04,322,,05,03,064,15*7A
