$GPGGA,230236.000,3353.7440,N,09832.0180,W,1,09,1.0,356.7,M,-23.7,M,344.8,0000*41
$GPGSA,A,3,06,20,03,23,31,16,30,32,13,,,,2.0,1.0,1.7*34
$GPGSV,3,1,12,16,71,062,14,23,64,330,31,30,43,044,37,20,41,221,28*75
$GPGSV,3,2,12,32,33,189,18,13,32,317,25,03,30,138,29,06,29,119,23*76
$GPGSV,3,3,12,07,17,272,15,31,11,069,21,10,08,320,,19,05,165,*71
$GPRMC,230236.000,A,3353.7440,N,09832.0180,W,0.48,307.30,300312,,,A*7A
$GPGGA,230237.000,3353.7441,N,09832.0182,W,1,09,1.0,356.6,M,-23.7,M,344.8,0000*42
$GPGSA,A,3,06,20,03,23,31,16,30,32,13,,,,2.0,1.0,1.7*34
$GPRMC,230237.000,A,3353.7441,N,09832.0182,W,0.10,285.60,300312,,,A*7B
$GPGGA,230238.000,3353.7442,N,09832.0185,W,1,09,1.0,356.2,M,-23.7,M,344.8,0000*4D
$GPGSA,A,3,06,20,03,23,31,16,30,32,13,,,,2.0,1.0,1.7*34
$GPRMC,230238.000,A,3353.7442,N,09832.0185,W,0.13,246.56,300312,,,A*79
$GPGGA,230239.000,3353.7443,N,09832.0188,W,1,09,1.0,355.8,M,-23.7,M,344.8,0000*49
$GPGSA,A,3,06,20,03,23,31,16,30,32,13,,,,2.0,1.0,1.7*34
$GPRMC,230239.000,A,3353.7443,N,09832.0188,W,0.26,258.14,300312,,,A*7B
$GPGGA,230240.000,3353.7444,N,09832.0191,W,1,09,1.0,355.4,M,-23.7,M,344.8,0000*44
$GPGSA,A,3,06,20,03,23,31,16,30,32,13,,,,2.0,1.0,1.7*34
$GPRMC,230240.000,A,3353.7444,N,09832.0191,W,0.34,308.26,300312,,,A*7C
$GPGGA,230241.000,3353.7446,N,09832.0195,W,1,09,1.0,354.9,M,-23.7,M,344.8,0000*4F
$GPGSA,A,3,06,20,03,23,31,16,30,32,13,,,,2.0,1.0,1.7*34
$GPGSV,3,1,12,16,71,062,13,23,64,330,32,30,43,044,38,20,41,221,28*7E
$GPGSV,3,2,12,32,33,189,19,13,32,317,26,03,30,138,29,06,29,119,24*73
$GPGSV,3,3,12,07,17,272,14,31,11,069,23,10,08,320,,19,05,165,*72
$GPRMC,230241.000,A,3353.7446,N,09832.0195,W,0.38,291.40,300312,,,A*76
$GPGGA,230242.000,3353.7447,N,09832.0198,W,1,08,1.0,354.3,M,-23.7,M,344.8,0000*4B
$GPGSA,A,3,06,20,03,23,31,30,32,13,,,,,2.5,1.0,2.3*31
$GPRMC,230242.000,A,3353.7447,N,09832.0198,W,0.13,327.28,300312,,,A*72
$GPGGA,230243.000,3353.7449,N,09832.0201,W,1,08,1.0,353.7,M,-23.7,M,344.8,0000*44
$GPGSA,A,3,06,20,03,23,31,30,32,13,,,,,2.5,1.0,2.3*31
$GPRMC,230243.000,A,3353.7449,N,09832.0201,W,0.27,323.12,300312,,,A*74
$GPGGA,230244.000,3353.7450,N,09832.0205,W,1,08,1.0,353.1,M,-23.7,M,344.8,0000*49
$GPGSA,A,3,06,20,03,23,31,30,32,13,,,,,2.5,1.0,2.3*31
$GPRMC,230244.000,A,3353.7450,N,09832.0205,W,0.45,303.49,300312,,,A*77
$GPGGA,230245.000,3353.7452,N,09832.0208,W,1,08,1.0,352.5,M,-23.7,M,344.8,0000*42
$GPGSA,A,3,06,20,03,23,31,30,32,13,,,,,2.5,1.0,2.3*31
$GPRMC,230245.000,A,3353.7452,N,09832.0208,W,0.34,345.22,300312,,,A*70
$GPGGA,230246.000,3353.7454,N,09832.0211,W,1,08,1.0,351.8,M,-23.7,M,344.8,0000*41
$GPGSA,A,3,06,20,03,23,31,30,32,13,,,,,2.5,1.0,2.3*31
$GPGSV,3,1,12,16,71,062,,23,64,330,33,30,43,044,38,20,41,221,28*7D
$GPGSV,3,2,12,32,33,189,23,13,32,317,26,03,30,138,28,06,29,119,25*7A
$GPGSV,3,3,12,07,17,272,13,31,11,069,22,10,08,320,,19,05,165,*74
$GPRMC,230246.000,A,3353.7454,N,09832.0211,W,0.32,321.87,300312,,,A*76
$GPGGA,230247.000,3353.7455,N,09832.0213,W,1,08,1.0,351.1,M,-23.7,M,344.8,0000*4A
$GPGSA,A,3,06,20,03,23,31,30,32,13,,,,,2.5,1.0,2.3*31
$GPRMC,230247.000,A,3353.7455,N,09832.0213,W,0.08,2.25,300312,,,A*77
$GPGGA,230248.000,3353.7456,N,09832.0215,W,1,08,1.0,350.4,M,-23.7,M,344.8,0000*44
$GPGSA,A,3,06,20,03,23,31,30,32,13,,,,,2.5,1.0,2.3*31
$GPRMC,230248.000,A,3353.7456,N,09832.0215,W,0.22,351.56,300312,,,A*74
$GPGGA,230249.000,3353.7458,N,09832.0218,W,1,08,1.0,349.7,M,-23.7,M,344.8,0000*4D
$GPGSA,A,3,06,20,03,23,31,30,32,13,,,,,2.5,1.0,2.3*31
$GPRMC,230249.000,A,3353.7458,N,09832.0218,W,0.20,341.76,300312,,,A*77
$GPGGA,230250.000,3353.7458,N,09832.0220,W,1,08,1.0,348.9,M,-23.7,M,344.8,0000*41
$GPGSA,A,3,06,20,03,23,31,30,32,13,,,,,2.5,1.0,2.3*31
$GPRMC,230250.000,A,3353.7458,N,09832.0220,W,0.04,347.37,300312,,,A*71
$GPGGA,230251.000,3353.7459,N,09832.0221,W,1,08,1.0,348.3,M,-23.7,M,344.8,0000*4A
$GPGSA,A,3,06,20,03,23,31,30,32,13,,,,,2.5,1.0,2.3*31
$GPGSV,3,1,12,16,71,062,,23,64,330,34,30,43,044,38,20,41,221,28*7A
$GPGSV,3,2,12,32,33,189,23,13,32,317,26,03,30,138,28,06,29,119,25*7A
$GPGSV,3,3,12,07,17,272,15,31,11,069,21,10,08,320,,19,05,165,*71
$GPRMC,230251.000,A,3353.7459,N,09832.0221,W,0.13,6.34,300312,,,A*73
$GPGGA,230252.000,3353.7460,N,09832.0222,W,1,09,1.0,347.6,M,-23.7,M,344.8,0000*4B
$GPGSA,A,3,06,20,03,23,31,16,30,32,13,,,,2.0,1.0,1.7*34
$GPRMC,230252.000,A,3353.7460,N,09832.0222,W,0.23,23.90,300312,,,A*43
$GPGGA,230253.000,3353.7460,N,09832.0223,W,1,09,1.0,347.0,M,-23.7,M,344.8,0000*4D
$GPGSA,A,3,06,20,03,23,31,16,30,32,13,,,,2.0,1.0,1.7*34
$GPRMC,230253.000,A,3353.7460,N,09832.0223,W,0.09,87.24,300312,,,A*4A
$GPGGA,230254.000,3353.7461,N,09832.0224,W,1,09,1.0,346.5,M,-23.7,M,344.8,0000*48
$GPGSA,A,3,06,20,03,23,31,16,30,32,13,,,,2.0,1.0,1.7*34
$GPRMC,230254.000,A,3353.7461,N,09832.0224,W,0.10,31.25,300312,,,A*4F
$GPGGA,230255.000,3353.7461,N,09832.0226,W,1,09,1.0,346.1,M,-23.7,M,344.8,0000*4F
$GPGSA,A,3,06,20,03,23,31,16,30,32,13,,,,2.0,1.0,1.7*34
$GPRMC,230255.000,A,3353.7461,N,09832.0226,W,0.05,303.26,300312,,,A*79
$GPGGA,230256.000,3353.7461,N,09832.0226,W,1,09,1.0,345.8,M,-23.7,M,344.8,0000*46
$GPGSA,A,3,06,20,03,23,31,16,30,32,13,,,,2.0,1.0,1.7*34
$GPGSV,3,1,12,16,71,062,14,23,64,330,34,30,43,044,38,20,41,221,28*7F
$GPGSV,3,2,12,32,33,189,23,13,32,317,26,03,30,138,28,06,29,119,24*7B
$GPGSV,3,3,12,07,17,272,16,31,11,069,19,10,08,320,,19,05,165,*79
$GPRMC,230256.000,A,3353.7461,N,09832.0226,W,0.19,94.22,300312,,,A*4E
$GPGGA,230257.000,3353.7461,N,09832.0226,W,1,09,1.0,345.6,M,-23.7,M,344.8,0000*49
$GPGSA,A,3,06,20,03,23,31,16,30,32,13,,,,2.0,1.0,1.7*34
$GPRMC,230257.000,A,3353.7461,N,09832.0226,W,0.12,86.11,300312,,,A*47
$GPGGA,230258.000,3353.7460,N,09832.0227,W,1,09,1.0,345.4,M,-23.7,M,344.8,0000*44
$GPGSA,A,3,06,20,03,23,31,16,30,32,13,,,,2.0,1.0,1.7*34
$GPRMC,230258.000,A,3353.7460,N,09832.0227,W,0.23,254.27,300312,,,A*72
$GPGGA,230259.000,3353.7459,N,09832.0228,W,1,09,1.0,345.5,M,-23.7,M,344.8,0000*41
$GPGSA,A,3,06,20,03,23,31,16,30,32,13,,,,2.0,1.0,1.7*34
$GPRMC,230259.000,A,3353.7459,N,09832.0228,W,0.24,227.18,300312,,,A*79
$GPGGA,230300.000,3353.7459,N,09832.0229,W,1,09,1.0,345.4,M,-23.7,M,344.8,0000*4C
$GPGSA,A,3,06,20,03,23,31,16,30,32,13,,,,2.0,1.0,1.7*34
$GPRMC,230300.000,A,3353.7459,N,09832.0229,W,0.10,75.64,300312,,,A*4C
$GPGGA,230301.000,3353.7459,N,09832.0229,W,1,09,1.0,345.2,M,-23.7,M,344.8,0000*4B
$GPGSA,A,3,06,20,03,23,31,16,30,32,13,,,,2.0,1.0,1.7*34
$GPGSV,3,1,12,16,71,062,20,23,64,330,35,30,43,044,38,20,41,221,28*79
$GPGSV,3,2,12,32,33,189,23,13,32,317,25,03,30,138,28,06,29,119,23*7F
$GPGSV,3,3,12,07,17,272,16,31,11,069,18,10,08,320,,19,05,165,*78
$GPRMC,230301.000,A,3353.7459,N,09832.0229,W,0.09,138.36,300312,,,A*7A
$GPGGA,230302.000,3353.7459,N,09832.0230,W,1,09,1.0,344.7,M,-23.7,M,344.8,0000*44
$GPGSA,A,3,06,20,03,23,31,16,30,32,13,,,,2.0,1.0,1.7*34
$GPRMC,230302.000,A,3353.7459,N,09832.0230,W,0.12,49.59,300312,,,A*45
$GPGGA,230303.000,3353.7459,N,09832.0231,W,1,09,1.0,344.0,M,-23.7,M,344.8,0000*43
$GPGSA,A,3,06,20,03,23,31,16,30,32,13,,,,2.0,1.0,1.7*34
$GPRMC,230303.000,A,3353.7459,N,09832.0231,W,0.09,9.57,300312,,,A*75
$GPGGA,230304.000,3353.7459,N,09832.0232,W,1,09,1.0,343.2,M,-23.7,M,344.8,0000*42
$GPGSA,A,3,06,20,03,23,31,16,30,32,13,,,,2.0,1.0,1.7*34
$GPRMC,230304.000,A,3353.7459,N,09832.0232,W,0.08,281.87,300312,,,A*7F
$GPGGA,230305.000,3353.7459,N,09832.0234,W,1,09,1.0,342.4,M,-23.7,M,344.8,0000*42
$GPGSA,A,3,06,20,03,23,31,16,30,32,13,,,,2.0,1.0,1.7*34
$GPRMC,230305.000,A,3353.7459,N,09832.0234,W,0.17,226.59,300312,,,A*78
$GPGGA,230306.000,3353.7460,N,09832.0236,W,1,09,1.0,341.4,M,-23.7,M,344.8,0000*4A
$GPGSA,A,3,06,20,03,23,31,16,30,32,13,,,,2.0,1.0,1.7*34
$GPGSV,3,1,12,16,71,062,23,23,64,330,35,30,43,044,38,20,41,221,28*7A
$GPGSV,3,2,12,32,33,189,23,13,32,317,24,03,30,138,28,06,29,119,24*79
$GPGSV,3,3,12,07,17,272,16,31,11,069,18,10,08,320,,19,05,165,*78
$GPRMC,230306.000,A,3353.7460,N,09832.0236,W,0.35,318.74,300312,,,A*70
$GPGGA,230307.000,3353.7462,N,09832.0238,W,1,09,1.0,340.1,M,-23.7,M,344.8,0000*43
$GPGSA,A,3,06,20,03,23,31,16,30,32,13,,,,2.0,1.0,1.7*34
$GPRMC,230307.000,A,3353.7462,N,09832.0238,W,0.37,331.66,300312,,,A*77
$GPGGA,230308.000,3353.7463,N,09832.0240,W,1,09,1.0,338.8,M,-23.7,M,344.8,0000*44
$GPGSA,A,3,06,20,03,23,31,16,30,32,13,,,,2.0,1.0,1.7*34
$GPRMC,230308.000,A,3353.7463,N,09832.0240,W,0.34,343.60,300312,,,A*76
$GPGGA,230309.000,3353.7464,N,09832.0242,W,1,09,1.0,337.3,M,-23.7,M,344.8,0000*44
$GPGSA,A,3,06,20,03,23,31,16,30,32,13,,,,2.0,1.0,1.7*34
$GPRMC,230309.000,A,3353.7464,N,09832.0242,W,0.24,333.71,300312,,,A*74
$GPGGA,230310.000,3353.7466,N,09832.0246,W,1,09,1.0,335.5,M,-23.7,M,344.8,0000*4E
$GPGSA,A,3,06,20,03,23,31,16,30,32,13,,,,2.0,1.0,1.7*34
$GPRMC,230310.000,A,3353.7466,N,09832.0246,W,0.62,314.27,300312,,,A*7E
$GPGGA,230311.000,3353.7468,N,09832.0248,W,1,09,1.0,333.8,M,-23.7,M,344.8,0000*44
$GPGSA,A,3,06,20,03,23,31,16,30,32,13,,,,2.0,1.0,1.7*34
$GPGSV,3,1,12,16,71,062,23,23,64,330,34,30,43,044,38,20,41,221,28*7B
$GPGSV,3,2,12,32,33,189,23,13,32,317,24,03,30,138,28,06,29,119,24*79
$GPGSV,3,3,12,07,17,272,17,31,11,069,19,10,08,320,,19,05,165,*78
$GPRMC,230311.000,A,3353.7468,N,09832.0248,W,0.47,316.99,300312,,,A*7F
$GPGGA,230312.000,3353.7470,N,09832.0251,W,1,09,1.0,332.0,M,-23.7,M,344.8,0000*4F
$GPGSA,A,3,06,20,03,23,31,16,30,32,13,,,,2.0,1.0,1.7*34
$GPRMC,230312.000,A,3353.7470,N,09832.0251,W,0.44,321.59,300312,,,A*76
$GPGGA,230313.000,3353.7470,N,09832.0253,W,1,09,1.0,330.6,M,-23.7,M,344.8,0000*48
$GPGSA,A,3,06,20,03,23,31,16,30,32,13,,,,2.0,1.0,1.7*34
$GPRMC,230313.000,A,3353.7470,N,09832.0253,W,0.27,299.33,300312,,,A*7E
$GPGGA,230314.000,3353.7471,N,09832.0253,W,1,09,1.0,329.5,M,-23.7,M,344.8,0000*45
$GPGSA,A,3,06,20,03,23,31,16,30,32,13,,,,2.0,1.0,1.7*34
$GPRMC,230314.000,A,3353.7471,N,09832.0253,W,0.05,349.21,300312,,,A*77
$GPGGA,230315.000,3353.7471,N,09832.0255,W,1,09,1.0,328.3,M,-23.7,M,344.8,0000*45
$GPGSA,A,3,06,20,03,23,31,16,30,32,13,,,,2.0,1.0,1.7*34
$GPRMC,230315.000,A,3353.7471,N,09832.0255,W,0.29,331.97,300312,,,A*7C
$GPGGA,230316.000,3353.7472,N,09832.0256,W,1,09,1.0,327.2,M,-23.7,M,344.8,0000*48
$GPGSA,A,3,06,20,03,23,31,16,30,32,13,,,,2.0,1.0,1.7*34
$GPGSV,3,1,12,16,71,062,23,23,64,330,34,30,43,044,38,20,41,221,28*7B
$GPGSV,3,2,12,32,33,189,23,13,32,317,23,03,30,138,29,06,29,119,26*7D
$GPGSV,3,3,12,07,17,272,19,31,11,069,20,10,08,320,,19,05,165,*7C
$GPRMC,230316.000,A,3353.7472,N,09832.0256,W,0.30,322.50,300312,,,A*7E
$GPGGA,230317.000,3353.7473,N,09832.0258,W,1,09,1.0,326.2,M,-23.7,M,344.8,0000*47
$GPGSA,A,3,06,20,03,23,31,16,30,32,13,,,,2.0,1.0,1.7*34
$GPRMC,230317.000,A,3353.7473,N,09832.0258,W,0.24,285.55,300312,,,A*7C
$GPGGA,230318.000,3353.7473,N,09832.0258,W,1,09,1.0,325.3,M,-23.7,M,344.8,0000*4A
$GPGSA,A,3,06,20,03,23,31,16,30,32,13,,,,2.0,1.0,1.7*34
$GPRMC,230318.000,A,3353.7473,N,09832.0258,W,0.07,211.51,300312,,,A*7B
$GPGGA,230319.000,3353.7473,N,09832.0259,W,1,09,1.0,324.5,M,-23.7,M,344.8,0000*4D
$GPGSA,A,3,06,20,03,23,31,16,30,32,13,,,,2.0,1.0,1.7*34
$GPRMC,230319.000,A,3353.7473,N,09832.0259,W,0.16,47.14,300312,,,A*4B
$GPGGA,230320.000,3353.7474,N,09832.0259,W,1,09,1.0,323.8,M,-23.7,M,344.8,0000*4A
$GPGSA,A,3,06,20,03,23,31,16,30,32,13,,,,2.0,1.0,1.7*34
$GPRMC,230320.000,A,3353.7474,N,09832.0259,W,0.29,7.15,300312,,,A*7F
$GPGGA,230321.000,3353.7474,N,09832.0260,W,1,09,1.0,323.2,M,-23.7,M,344.8,0000*4B
$GPGSA,A,3,06,20,03,23,31,16,30,32,13,,,,2.0,1.0,1.7*34
$GPGSV,3,1,12,16,71,062,22,23,64,330,34,30,43,044,38,20,41,221,28*7A
$GPGSV,3,2,12,32,33,189,23,13,32,317,23,03,30,138,29,06,29,119,25*7E
$GPGSV,3,3,12,07,17,272,19,31,11,069,19,10,08,320,,19,05,165,*76
$GPRMC,230321.000,A,3353.7474,N,09832.0260,W,0.18,335.25,300312,,,A*77
$GPGGA,230322.000,3353.7474,N,09832.0260,W,1,09,1.0,322.9,M,-23.7,M,344.8,0000*42
$GPGSA,A,3,06,20,03,23,31,16,30,32,13,,,,2.0,1.0,1.7*34
$GPRMC,230322.000,A,3353.7474,N,09832.0260,W,0.14,326.68,300312,,,A*73
$GPGGA,230323.000,3353.7473,N,09832.0260,W,1,09,1.0,322.9,M,-23.7,M,344.8,0000*44
$GPGSA,A,3,06,20,03,23,31,16,30,32,13,,,,2.0,1.0,1.7*34
$GPRMC,230323.000,A,3353.7473,N,09832.0260,W,0.22,241.29,300312,,,A*75
$GPGGA,230324.000,3353.7473,N,09832.0261,W,1,09,1.0,323.1,M,-23.7,M,344.8,0000*4B
$GPGSA,A,3,06,20,03,23,31,16,30,32,13,,,,2.0,1.0,1.7*34
$GPRMC,230324.000,A,3353.7473,N,09832.0261,W,0.39,246.26,300312,,,A*71
$GPGGA,230325.000,3353.7472,N,09832.0261,W,1,09,1.0,323.4,M,-23.7,M,344.8,0000*4E
$GPGSA,A,3,06,20,03,23,31,16,30,32,13,,,,2.0,1.0,1.7*34
$GPRMC,230325.000,A,3353.7472,N,09832.0261,W,0.09,145.74,300312,,,A*75
$GPGGA,230326.000,3353.7471,N,09832.0259,W,1,09,1.0,324.0,M,-23.7,M,344.8,0000*46
$GPGSA,A,3,06,20,03,23,31,16,30,32,13,,,,2.0,1.0,1.7*34
$GPGSV,3,1,12,16,71,062,22,23,64,330,33,30,43,044,38,20,41,221,28*7D
$GPGSV,3,2,12,32,33,189,23,13,32,317,24,03,30,138,29,06,29,119,18*77
$GPGSV,3,3,12,07,17,272,19,31,11,069,14,10,08,320,,19,05,165,*7B
$GPRMC,230326.000,A,3353.7471,N,09832.0259,W,0.23,104.40,300312,,,A*74
$GPGGA,230327.000,3353.7470,N,09832.0258,W,1,09,1.0,324.6,M,-23.7,M,344.8,0000*41
$GPGSA,A,3,06,20,03,23,31,16,30,32,13,,,,2.0,1.0,1.7*34
$GPRMC,230327.000,A,3353.7470,N,09832.0258,W,0.37,102.50,300312,,,A*77
$GPGGA,230328.000,3353.7469,N,09832.0257,W,1,09,1.0,325.2,M,-23.7,M,344.8,0000*4C
$GPGSA,A,3,06,20,03,23,31,16,30,32,13,,,,2.0,1.0,1.7*34
$GPRMC,230328.000,A,3353.7469,N,09832.0257,W,0.19,127.74,300312,,,A*72
$GPGGA,230329.000,3353.7467,N,09832.0255,W,1,09,1.0,325.9,M,-23.7,M,344.8,0000*4A
$GPGSA,A,3,06,20,03,23,31,16,30,32,13,,,,2.0,1.0,1.7*34
$GPRMC,230329.000,A,3353.7467,N,09832.0255,W,0.28,140.02,300312,,,A*7D
$GPGGA,230330.000,3353.7466,N,09832.0254,W,1,09,1.0,326.6,M,-23.7,M,344.8,0000*4E
$GPGSA,A,3,06,20,03,23,31,16,30,32,13,,,,2.0,1.0,1.7*34
$GPRMC,230330.000,A,3353.7466,N,09832.0254,W,0.32,141.57,300312,,,A*7F
$GPGGA,230331.000,3353.7465,N,09832.0253,W,1,09,1.0,327.4,M,-23.7,M,344.8,0000*48
$GPGSA,A,3,06,20,03,23,31,16,30,32,13,,,,2.0,1.0,1.7*34
$GPGSV,3,1,12,16,71,062,22,23,64,330,33,30,43,044,38,20,41,221,27*72
$GPGSV,3,2,12,32,33,189,22,13,32,317,25,03,30,138,29,06,29,119,18*77
$GPGSV,3,3,12,07,17,272,18,31,11,069,13,10,08,320,,19,05,165,*7D
$GPRMC,230331.000,A,3353.7465,N,09832.0253,W,0.28,95.20,300312,,,A*49
$GPGGA,230332.000,3353.7464,N,09832.0251,W,1,09,1.0,328.3,M,-23.7,M,344.8,0000*40
$GPGSA,A,3,06,20,03,23,31,16,30,32,13,,,,2.0,1.0,1.7*34
$GPRMC,230332.000,A,3353.7464,N,09832.0251,W,0.30,67.68,300312,,,A*41
$GPGGA,230333.000,3353.7464,N,09832.0250,W,1,09,1.0,329.2,M,-23.7,M,344.8,0000*40
$GPGSA,A,3,06,20,03,23,31,16,30,32,13,,,,2.0,1.0,1.7*34
$GPRMC,230333.000,A,3353.7464,N,09832.0250,W,0.29,58.38,300312,,,A*40
$GPGGA,230334.000,3353.7463,N,09832.0249,W,1,09,1.0,330.2,M,-23.7,M,344.8,0000*40
$GPGSA,A,3,06,20,03,23,31,16,30,32,13,,,,2.0,1.0,1.7*34
$GPRMC,230334.000,A,3353.7463,N,09832.0249,W,0.11,133.89,300312,,,A*75
$GPGGA,230335.000,3353.7462,N,09832.0248,W,1,09,1.0,331.3,M,-23.7,M,344.8,0000*41
$GPGSA,A,3,06,20,03,23,31,16,30,32,13,,,,2.0,1.0,1.7*34
$GPRMC,230335.000,A,3353.7462,N,09832.0248,W,0.17,46.67,300312,,,A*41
$GPGGA,230336.000,3353.7461,N,09832.0246,W,1,09,1.0,332.3,M,-23.7,M,344.8,0000*4C
$GPGSA,A,3,06,20,03,23,31,16,30,32,13,,,,2.0,1.0,1.7*34
$GPGSV,3,1,12,16,71,062,22,23,64,330,32,30,43,044,38,20,41,221,27*73
$GPGSV,3,2,12,32,33,189,22,13,32,317,26,03,30,138,29,06,29,119,18*74
$GPGSV,3,3,12,07,17,272,18,31,11,069,15,10,08,320,,19,05,165,*7B
$GPRMC,230336.000,A,3353.7461,N,09832.0246,W,0.18,76.01,300312,,,A*43
$GPGGA,230337.000,3353.7460,N,09832.0245,W,1,09,1.0,333.4,M,-23.7,M,344.8,0000*49
$GPGSA,A,3,06,20,03,23,31,16,30,32,13,,,,2.0,1.0,1.7*34
$GPRMC,230337.000,A,3353.7460,N,09832.0245,W,0.23,131.02,300312,,,A*79
$GPGGA,230338.000,3353.7459,N,09832.0244,W,1,09,1.0,334.5,M,-23.7,M,344.8,0000*4B
$GPGSA,A,3,06,20,03,23,31,16,30,32,13,,,,2.0,1.0,1.7*34
$GPRMC,230338.000,A,3353.7459,N,09832.0244,W,0.22,158.60,300312,,,A*77
$GPGGA,230339.000,3353.7457,N,09832.0244,W,1,09,1.0,335.5,M,-23.7,M,344.8,0000*45
$GPGSA,A,3,06,20,03,23,31,16,30,32,13,,,,2.0,1.0,1.7*34
$GPRMC,230339.000,A,3353.7457,N,09832.0244,W,0.30,207.34,300312,,,A*73
$GPGGA,230340.000,3353.7456,N,09832.0243,W,1,09,1.0,336.6,M,-23.7,M,344.8,0000*4D
$GPGSA,A,3,06,20,03,23,31,16,30,32,13,,,,2.0,1.0,1.7*34
$GPRMC,230340.000,A,3353.7456,N,09832.0243,W,0.13,59.57,300312,,,A*46
$GPGGA,230341.000,3353.7455,N,09832.0241,W,1,09,1.0,337.6,M,-23.7,M,344.8,0000*4C
$GPGSA,A,3,06,20,03,23,31,16,30,32,13,,,,2.0,1.0,1.7*34
$GPGSV,3,1,12,16,71,062,22,23,64,330,31,30,43,044,38,20,41,221,28*7F
$GPGSV,3,2,12,32,33,189,22,13,32,317,26,03,30,138,29,06,29,119,18*74
$GPGSV,3,3,12,07,17,272,17,31,11,069,23,10,08,320,,19,05,165,*71
$GPRMC,230341.000,A,3353.7455,N,09832.0241,W,0.32,108.05,300312,,,A*77
$GPGGA,230342.000,3353.7454,N,09832.0240,W,1,09,1.0,338.6,M,-23.7,M,344.8,0000*40
$GPGSA,A,3,06,20,03,23,31,16,30,32,13,,,,2.0,1.0,1.7*34
$GPRMC,230342.000,A,3353.7454,N,09832.0240,W,0.39,114.34,300312,,,A*70
$GPGGA,230343.000,3353.7453,N,09832.0238,W,1,09,1.0,339.6,M,-23.7,M,344.8,0000*48
$GPGSA,A,3,06,20,03,23,31,16,30,32,13,,,,2.0,1.0,1.7*34
$GPRMC,230343.000,A,3353.7453,N,09832.0238,W,0.39,104.17,300312,,,A*79
$GPGGA,230344.000,3353.7451,N,09832.0236,W,1,09,1.0,340.5,M,-23.7,M,344.8,0000*4E
$GPGSA,A,3,06,20,03,23,31,16,30,32,13,,,,2.0,1.0,1.7*34
$GPRMC,230344.000,A,3353.7451,N,09832.0236,W,0.41,124.64,300312,,,A*7B
$GPGGA,230345.000,3353.7450,N,09832.0235,W,1,09,1.0,341.3,M,-23.7,M,344.8,0000*4A
$GPGSA,A,3,06,20,03,23,31,16,30,32,13,,,,2.0,1.0,1.7*34
$GPRMC,230345.000,A,3353.7450,N,09832.0235,W,0.32,124.51,300312,,,A*7A
$GPGGA,230346.000,3353.7449,N,09832.0234,W,1,09,1.0,342.0,M,-23.7,M,344.8,0000*40
$GPGSA,A,3,06,20,03,23,31,16,30,32,13,,,,2.0,1.0,1.7*34
$GPGSV,3,1,12,16,71,062,23,23,64,330,31,30,43,044,38,20,41,221,28*7E
$GPGSV,3,2,12,32,33,189,23,13,32,317,27,03,30,138,29,06,29,119,18*74
$GPGSV,3,3,12,07,17,272,18,31,11,069,23,10,08,320,,19,05,165,*7E
$GPRMC,230346.000,A,3353.7449,N,09832.0234,W,0.31,104.11,300312,,,A*75
$GPGGA,230347.000,3353.7448,N,09832.0233,W,1,09,1.0,342.7,M,-23.7,M,344.8,0000*40
$GPGSA,A,3,06,20,03,23,31,16,30,32,13,,,,2.0,1.0,1.7*34
$GPRMC,230347.000,A,3353.7448,N,09832.0233,W,0.12,146.84,300312,,,A*79
$GPGGA,230348.000,3353.7448,N,09832.0232,W,1,08,1.0,343.4,M,-23.7,M,344.8,0000*4D
$GPGSA,A,3,20,03,23,31,16,30,32,13,,,,,2.0,1.0,1.7*32
$GPRMC,230348.000,A,3353.7448,N,09832.0232,W,0.23,101.90,300312,,,A*73
$GPGGA,230349.000,3353.7447,N,09832.0231,W,1,08,1.0,344.0,M,-23.7,M,344.8,0000*43
$GPGSA,A,3,20,03,23,31,16,30,32,13,,,,,2.0,1.0,1.7*32
$GPRMC,230349.000,A,3353.7447,N,09832.0231,W,0.22,75.88,300312,,,A*44
$GPGGA,230350.000,3353.7446,N,09832.0230,W,1,08,1.0,344.6,M,-23.7,M,344.8,0000*4D
$GPGSA,A,3,20,03,23,31,16,30,32,13,,,,,2.0,1.0,1.7*32
$GPRMC,230350.000,A,3353.7446,N,09832.0230,W,0.18,123.88,300312,,,A*77
$GPGGA,230351.000,3353.7446,N,09832.0229,W,1,08,1.0,345.2,M,-23.7,M,344.8,0000*41
$GPGSA,A,3,20,03,23,31,16,30,32,13,,,,,2.0,1.0,1.7*32
$GPGSV,3,1,12,16,71,062,23,23,64,330,31,30,43,044,37,20,41,221,28*71
$GPGSV,3,2,12,32,33,189,23,13,32,317,27,03,30,138,29,06,29,119,*7D
$GPGSV,3,3,12,07,17,272,18,31,11,069,23,10,08,320,,19,05,165,*7E
$GPRMC,230351.000,A,3353.7446,N,09832.0229,W,0.13,144.64,300312,,,A*76
$GPGGA,230352.000,3353.7445,N,09832.0228,W,1,08,1.0,345.8,M,-23.7,M,344.8,0000*4A
$GPGSA,A,3,20,03,23,31,16,30,32,13,,,,,2.0,1.0,1.7*32
$GPRMC,230352.000,A,3353.7445,N,09832.0228,W,0.26,72.78,300312,,,A*48
$GPGGA,230353.000,3353.7445,N,09832.0227,W,1,08,1.0,346.3,M,-23.7,M,344.8,0000*4C
$GPGSA,A,3,20,03,23,31,16,30,32,13,,,,,2.0,1.0,1.7*32
$GPRMC,230353.000,A,3353.7445,N,09832.0227,W,0.27,103.86,300312,,,A*71
$GPGGA,230354.000,3353.7444,N,09832.0226,W,1,08,1.0,346.8,M,-23.7,M,344.8,0000*40
$GPGSA,A,3,20,03,23,31,16,30,32,13,,,,,2.0,1.0,1.7*32
$GPRMC,230354.000,A,3353.7444,N,09832.0226,W,0.27,71.49,300312,,,A*41
$GPGGA,230355.000,3353.7444,N,09832.0226,W,1,08,1.0,347.3,M,-23.7,M,344.8,0000*4B
$GPGSA,A,3,20,03,23,31,16,30,32,13,,,,,2.0,1.0,1.7*32
$GPRMC,230355.000,A,3353.7444,N,09832.0226,W,0.09,138.37,300312,,,A*79
$GPGGA,230356.000,3353.7443,N,09832.0226,W,1,08,1.0,347.8,M,-23.7,M,344.8,0000*44
$GPGSA,A,3,20,03,23,31,16,30,32,13,,,,,2.0,1.0,1.7*32
$GPGSV,3,1,12,16,71,062,22,23,64,330,31,30,43,044,37,20,41,221,28*70
$GPGSV,3,2,12,32,33,189,24,13,32,317,27,03,30,138,29,06,29,119,*7A
$GPGSV,3,3,12,07,17,272,18,31,11,069,23,10,08,320,,19,05,165,*7E
$GPRMC,230356.000,A,3353.7443,N,09832.0226,W,0.16,212.09,300312,,,A*75
$GPGGA,230357.000,3353.7442,N,09832.0225,W,1,08,1.0,348.3,M,-23.7,M,344.8,0000*43
$GPGSA,A,3,20,03,23,31,16,30,32,13,,,,,2.0,1.0,1.7*32
$GPRMC,230357.000,A,3353.7442,N,09832.0225,W,0.09,107.85,300312,,,A*7B
$GPGGA,230358.000,3353.7442,N,09832.0225,W,1,08,1.0,348.8,M,-23.7,M,344.8,0000*47
$GPGSA,A,3,20,03,23,31,16,30,32,13,,,,,2.0,1.0,1.7*32
$GPRMC,230358.000,A,3353.7442,N,09832.0225,W,0.16,174.15,300312,,,A*77
$GPGGA,230359.000,3353.7441,N,09832.0225,W,1,08,1.0,349.2,M,-23.7,M,344.8,0000*4E
$GPGSA,A,3,20,03,23,31,16,30,32,13,,,,,2.0,1.0,1.7*32
$GPRMC,230359.000,A,3353.7441,N,09832.0225,W,0.11,148.26,300312,,,A*7D
$GPGGA,230400.000,3353.7441,N,09832.0225,W,1,08,1.0,349.6,M,-23.7,M,344.8,0000*41
$GPGSA,A,3,20,03,23,31,16,30,32,13,,,,,2.0,1.0,1.7*32
$GPRMC,230400.000,A,3353.7441,N,09832.0225,W,0.03,52.68,300312,,,A*45
$GPGGA,230401.000,3353.7440,N,09832.0224,W,1,09,1.0,350.0,M,-23.7,M,344.8,0000*4F
$GPGSA,A,3,06,20,03,23,31,16,30,32,13,,,,2.0,1.0,1.7*34
$GPGSV,3,1,12,16,71,062,22,23,64,330,31,30,43,044,37,20,41,221,28*70
$GPGSV,3,2,12,32,33,189,24,13,32,317,27,03,30,138,28,06,29,119,16*7C
$GPGSV,3,3,12,07,17,272,18,31,11,069,25,10,08,320,,19,05,165,*78
$GPRMC,230401.000,A,3353.7440,N,09832.0224,W,0.16,134.47,300312,,,A*7C
$GPGGA,230402.000,3353.7440,N,09832.0224,W,1,09,1.0,350.4,M,-23.7,M,344.8,0000*48
$GPGSA,A,3,06,20,03,23,31,16,30,32,13,,,,2.0,1.0,1.7*34
$GPRMC,230402.000,A,3353.7440,N,09832.0224,W,0.17,59.98,300312,,,A*46
$GPGGA,230403.000,3353.7440,N,09832.0223,W,1,09,1.0,350.8,M,-23.7,M,344.8,0000*42
$GPGSA,A,3,06,20,03,23,31,16,30,32,13,,,,2.0,1.0,1.7*34
$GPRMC,230403.000,A,3353.7440,N,09832.0223,W,0.20,99.35,300312,,,A*4F
$GPGGA,230404.000,3353.7439,N,09832.0222,W,1,09,1.0,351.1,M,-23.7,M,344.8,0000*42
$GPGSA,A,3,06,20,03,23,31,16,30,32,13,,,,2.0,1.0,1.7*34
$GPRMC,230404.000,A,3353.7439,N,09832.0222,W,0.20,98.70,300312,,,A*47
$GPGGA,230405.000,3353.7439,N,09832.0222,W,1,09,1.0,351.4,M,-23.7,M,344.8,0000*46
$GPGSA,A,3,06,20,03,23,31,16,30,32,13,,,,2.0,1.0,1.7*34
$GPRMC,230405.000,A,3353.7439,N,09832.0222,W,0.16,86.54,300312,,,A*4A
$GPGGA,230406.000,3353.7439,N,09832.0221,W,1,09,1.0,351.5,M,-23.7,M,344.8,0000*47
$GPGSA,A,3,06,20,03,23,31,16,30,32,13,,,,2.0,1.0,1.7*34
$GPGSV,3,1,12,16,71,062,18,23,64,330,31,30,43,044,37,20,41,221,27*76
$GPGSV,3,2,12,32,33,189,25,13,32,317,26,03,30,138,29,06,29,119,14*7F
$GPGSV,3,3,12,07,17,272,18,31,11,069,26,10,08,320,,19,05,165,*7B
$GPRMC,230406.000,A,3353.7439,N,09832.0221,W,0.15,145.27,300312,,,A*73
$GPGGA,230407.000,3353.7438,N,09832.0221,W,1,09,1.0,351.5,M,-23.7,M,344.8,0000*47
$GPGSA,A,3,06,20,03,23,31,16,30,32,13,,,,2.0,1.0,1.7*34
$GPRMC,230407.000,A,3353.7438,N,09832.0221,W,0.17,167.00,300312,,,A*74
$GPGGA,230408.000,3353.7438,N,09832.0221,W,1,09,1.0,351.4,M,-23.7,M,344.8,0000*49
$GPGSA,A,3,06,20,03,23,31,16,30,32,13,,,,2.0,1.0,1.7*34
$GPRMC,230408.000,A,3353.7438,N,09832.0221,W,0.08,138.44,300312,,,A*7F
$GPGGA,230409.000,3353.7438,N,09832.0221,W,1,09,1.0,351.2,M,-23.7,M,344.8,0000*4E
$GPGSA,A,3,06,20,03,23,31,16,30,32,13,,,,2.0,1.0,1.7*34
$GPRMC,230409.000,A,3353.7438,N,09832.0221,W,0.07,100.50,300312,,,A*7F
$GPGGA,230410.000,3353.7438,N,09832.0221,W,1,09,1.0,350.9,M,-23.7,M,344.8,0000*4C
$GPGSA,A,3,06,20,03,23,31,16,30,32,13,,,,2.0,1.0,1.7*34
$GPRMC,230410.000,A,3353.7438,N,09832.0221,W,0.06,297.07,300312,,,A*79
$GPGGA,230411.000,3353.7438,N,09832.0221,W,1,09,1.0,350.5,M,-23.7,M,344.8,0000*41
$GPGSA,A,3,06,20,03,23,31,16,30,32,13,,,,2.0,1.0,1.7*34
$GPGSV,3,1,12,16,71,062,19,23,64,330,31,30,43,044,37,20,41,221,27*77
$GPGSV,3,2,12,32,33,189,26,13,32,317,22,03,30,138,29,06,29,119,14*78
$GPGSV,3,3,12,07,17,272,16,31,11,069,27,10,08,320,,19,05,165,*74
$GPRMC,230411.000,A,3353.7438,N,09832.0221,W,0.10,283.76,300312,,,A*7C
$GPGGA,230412.000,3353.7438,N,09832.0221,W,1,09,1.0,350.1,M,-23.7,M,344.8,0000*46
$GPGSA,A,3,06,20,03,23,31,16,30,32,13,,,,2.0,1.0,1.7*34
$GPRMC,230412.000,A,3353.7438,N,09832.0221,W,0.14,159.59,300312,,,A*72
$GPGGA,230413.000,3353.7438,N,09832.0221,W,1,09,1.0,349.7,M,-23.7,M,344.8,0000*49
$GPGSA,A,3,06,20,03,23,31,16,30,32,13,,,,2.0,1.0,1.7*34
$GPRMC,230413.000,A,3353.7438,N,09832.0221,W,0.28,124.79,300312,,,A*74
$GPGGA,230414.000,3353.7438,N,09832.0220,W,1,09,1.0,349.2,M,-23.7,M,344.8,0000*4A
$GPGSA,A,3,06,20,03,23,31,16,30,32,13,,,,2.0,1.0,1.7*34
$GPRMC,230414.000,A,3353.7438,N,09832.0220,W,0.18,131.13,300312,,,A*79
$GPGGA,230415.000,3353.7438,N,09832.0221,W,1,09,1.0,348.7,M,-23.7,M,344.8,0000*4E
$GPGSA,A,3,06,20,03,23,31,16,30,32,13,,,,2.0,1.0,1.7*34
$GPRMC,230415.000,A,3353.7438,N,09832.0221,W,0.09,309.57,300312,,,A*70
$GPGGA,230416.000,3353.7439,N,09832.0222,W,1,09,1.0,348.1,M,-23.7,M,344.8,0000*49
$GPGSA,A,3,06,20,03,23,31,16,30,32,13,,,,2.0,1.0,1.7*34
$GPGSV,3,1,12,16,71,062,20,23,64,330,31,30,43,044,36,20,41,221,27*7C
$GPGSV,3,2,12,32,33,189,27,13,32,317,21,03,30,138,28,06,29,119,16*79
$GPGSV,3,3,12,07,17,272,16,31,11,069,28,10,08,320,,19,05,165,*7B
$GPRMC,230416.000,A,3353.7439,N,09832.0222,W,0.36,305.85,300312,,,A*7E
$GPGGA,230417.000,3353.7440,N,09832.0223,W,1,09,1.0,347.6,M,-23.7,M,344.8,0000*4F
$GPGSA,A,3,06,20,03,23,31,16,30,32,13,,,,2.0,1.0,1.7*34
$GPRMC,230417.000,A,3353.7440,N,09832.0223,W,0.06,277.11,300312,,,A*7A
$GPGGA,230418.000,3353.7441,N,09832.0224,W,1,09,1.0,347.0,M,-23.7,M,344.8,0000*40
$GPGSA,A,3,06,20,03,23,31,16,30,32,13,,,,2.0,1.0,1.7*34
$GPRMC,230418.000,A,3353.7441,N,09832.0224,W,0.35,308.40,300312,,,A*7E
$GPGGA,230419.000,3353.7442,N,09832.0225,W,1,09,1.0,346.3,M,-23.7,M,344.8,0000*41
$GPGSA,A,3,06,20,03,23,31,16,30,32,13,,,,2.0,1.0,1.7*34
$GPRMC,230419.000,A,3353.7442,N,09832.0225,W,0.41,302.35,300312,,,A*76
$GPGGA,230420.000,3353.7442,N,09832.0226,W,1,09,1.0,345.6,M,-23.7,M,344.8,0000*4E
$GPGSA,A,3,06,20,03,23,31,16,30,32,13,,,,2.0,1.0,1.7*34
$GPRMC,230420.000,A,3353.7442,N,09832.0226,W,0.17,283.39,300312,,,A*78
$GPGGA,230421.000,3353.7443,N,09832.0227,W,1,09,1.0,344.9,M,-23.7,M,344.8,0000*41
$GPGSA,A,3,06,20,03,23,31,16,30,32,13,,,,2.0,1.0,1.7*34
$GPGSV,3,1,12,16,71,062,22,23,64,330,32,30,43,044,36,20,41,221,28*72
$GPGSV,3,2,12,32,33,189,28,13,32,317,20,03,30,138,23,06,29,119,17*7D
$GPGSV,3,3,12,07,17,272,17,31,11,069,29,10,08,320,,19,05,165,*7B
$GPRMC,230421.000,A,3353.7443,N,09832.0227,W,0.37,310.44,300312,,,A*7A
$GPGGA,230422.000,3353.7444,N,09832.0227,W,1,09,1.0,344.3,M,-23.7,M,344.8,0000*4F
$GPGSA,A,3,06,20,03,23,31,16,30,32,13,,,,2.0,1.0,1.7*34
$GPRMC,230422.000,A,3353.7444,N,09832.0227,W,0.09,289.50,300312,,,A*77
$GPGGA,230423.000,3353.7444,N,09832.0227,W,1,09,1.0,343.7,M,-23.7,M,344.8,0000*4D
$GPGSA,A,3,06,20,03,23,31,16,30,32,13,,,,2.0,1.0,1.7*34
$GPRMC,230423.000,A,3353.7444,N,09832.0227,W,0.06,279.78,300312,,,A*7C
$GPGGA,230424.000,3353.7444,N,09832.0228,W,1,09,1.0,343.0,M,-23.7,M,344.8,0000*42
$GPGSA,A,3,06,20,03,23,31,16,30,32,13,,,,2.0,1.0,1.7*34
$GPRMC,230424.000,A,3353.7444,N,09832.0228,W,0.09,253.87,300312,,,A*73
$GPGGA,230425.000,3353.7445,N,09832.0229,W,1,09,1.0,342.4,M,-23.7,M,344.8,0000*46
$GPGSA,A,3,06,20,03,23,31,16,30,32,13,,,,2.0,1.0,1.7*34
$GPRMC,230425.000,A,3353.7445,N,09832.0229,W,0.37,305.62,300312,,,A*76
$GPGGA,230426.000,3353.7446,N,09832.0230,W,1,09,1.0,341.8,M,-23.7,M,344.8,0000*41
$GPGSA,A,3,06,20,03,23,31,16,30,32,13,,,,2.0,1.0,1.7*34
$GPGSV,3,1,12,16,71,062,23,23,64,330,32,30,43,044,36,20,41,221,28*73
$GPGSV,3,2,12,32,33,189,28,13,32,317,19,03,30,138,23,06,29,119,17*77
$GPGSV,3,3,12,07,17,272,16,31,11,069,28,10,08,320,,19,05,165,*7B
$GPRMC,230426.000,A,3353.7446,N,09832.0230,W,0.13,307.53,300312,,,A*78
$GPGGA,230427.000,3353.7446,N,09832.0229,W,1,09,1.0,341.2,M,-23.7,M,344.8,0000*42
$GPGSA,A,3,06,20,03,23,31,16,30,32,13,,,,2.0,1.0,1.7*34
$GPRMC,230427.000,A,3353.7446,N,09832.0229,W,0.40,135.82,300312,,,A*78
$GPGGA,230428.000,3353.7446,N,09832.0229,W,1,09,1.0,340.5,M,-23.7,M,344.8,0000*4B
$GPGSA,A,3,06,20,03,23,31,16,30,32,13,,,,2.0,1.0,1.7*34
$GPRMC,230428.000,A,3353.7446,N,09832.0229,W,0.03,119.59,300312,,,A*78
$GPGGA,230429.000,3353.7447,N,09832.0229,W,1,09,1.0,340.0,M,-23.7,M,344.8,0000*4E
$GPGSA,A,3,06,20,03,23,31,16,30,32,13,,,,2.0,1.0,1.7*34
$GPRMC,230429.000,A,3353.7447,N,09832.0229,W,0.19,119.01,300312,,,A*7E
$GPGGA,230430.000,3353.7447,N,09832.0229,W,1,09,1.0,339.3,M,-23.7,M,344.8,0000*4B
$GPGSA,A,3,06,20,03,23,31,16,30,32,13,,,,2.0,1.0,1.7*34
$GPRMC,230430.000,A,3353.7447,N,09832.0229,W,0.13,141.98,300312,,,A*71
$GPGGA,230431.000,3353.7447,N,09832.0230,W,1,09,1.0,338.8,M,-23.7,M,344.8,0000*48
$GPGSA,A,3,06,20,03,23,31,16,30,32,13,,,,2.0,1.0,1.7*34
$GPGSV,3,1,12,16,71,062,23,23,64,330,33,30,43,044,36,20,41,221,28*72
$GPGSV,3,2,12,32,33,189,28,13,32,317,19,03,30,138,23,06,29,119,17*77
$GPGSV,3,3,12,07,17,272,14,31,11,069,28,10,08,320,,19,05,165,*79
$GPRMC,230431.000,A,3353.7447,N,09832.0230,W,0.28,308.51,300312,,,A*7A
$GPGGA,230432.000,3353.7448,N,09832.0231,W,1,09,1.0,338.2,M,-23.7,M,344.8,0000*4F
$GPGSA,A,3,06,20,03,23,31,16,30,32,13,,,,2.0,1.0,1.7*34
$GPRMC,230432.000,A,3353.7448,N,09832.0231,W,0.17,299.65,300312,,,A*75
$GPGGA,230433.000,3353.7449,N,09832.0231,W,1,08,1.4,337.6,M,-23.7,M,344.8,0000*41
$GPGSA,A,3,06,20,03,23,31,16,30,32,,,,,2.6,1.4,2.2*32
$GPRMC,230433.000,A,3353.7449,N,09832.0231,W,0.20,294.73,300312,,,A*7B
$GPGGA,230434.000,3353.7449,N,09832.0232,W,1,08,1.4,337.0,M,-23.7,M,344.8,0000*43
$GPGSA,A,3,06,20,03,23,31,16,30,32,,,,,2.6,1.4,2.2*32
$GPRMC,230434.000,A,3353.7449,N,09832.0232,W,0.03,251.94,300312,,,A*7E
$GPGGA,230435.000,3353.7449,N,09832.0232,W,1,08,1.4,336.5,M,-23.7,M,344.8,0000*46
$GPGSA,A,3,06,20,03,23,31,16,30,32,,,,,2.6,1.4,2.2*32
$GPRMC,230435.000,A,3353.7449,N,09832.0232,W,0.06,197.35,300312,,,A*78
$GPGGA,230436.000,3353.7450,N,09832.0233,W,1,08,1.4,336.0,M,-23.7,M,344.8,0000*49
$GPGSA,A,3,06,20,03,23,31,16,30,32,,,,,2.6,1.4,2.2*32
$GPGSV,3,1,12,16,71,062,23,23,64,330,33,30,43,044,36,20,41,221,29*73
$GPGSV,3,2,12,32,33,189,27,13,32,317,,03,30,138,24,06,29,119,18*78
$GPGSV,3,3,12,07,17,272,16,31,11,069,28,10,08,320,,19,05,165,*7B
$GPRMC,230436.000,A,3353.7450,N,09832.0233,W,0.20,300.94,300312,,,A*71
$GPGGA,230437.000,3353.7451,N,09832.0234,W,1,08,1.4,335.4,M,-23.7,M,344.8,0000*49
$GPGSA,A,3,06,20,03,23,31,16,30,32,,,,,2.6,1.4,2.2*32
$GPRMC,230437.000,A,3353.7451,N,09832.0234,W,0.40,313.46,300312,,,A*7D
$GPGGA,230438.000,3353.7451,N,09832.0236,W,1,08,1.4,334.9,M,-23.7,M,344.8,0000*48
$GPGSA,A,3,06,20,03,23,31,16,30,32,,,,,2.6,1.4,2.2*32
$GPRMC,230438.000,A,3353.7451,N,09832.0236,W,0.43,301.16,300312,,,A*75
$GPGGA,230439.000,3353.7451,N,09832.0236,W,1,08,1.4,334.4,M,-23.7,M,344.8,0000*44
$GPGSA,A,3,06,20,03,23,31,16,30,32,,,,,2.6,1.4,2.2*32
$GPRMC,230439.000,A,3353.7451,N,09832.0236,W,0.25,187.89,300312,,,A*7E
$GPGGA,230440.000,3353.7451,N,09832.0237,W,1,08,1.4,333.9,M,-23.7,M,344.8,0000*41
$GPGSA,A,3,06,20,03,23,31,16,30,32,,,,,2.6,1.4,2.2*32
$GPRMC,230440.000,A,3353.7451,N,09832.0237,W,0.18,249.75,300312,,,A*7D
$GPGGA,230441.000,3353.7451,N,09832.0238,W,1,08,1.4,333.5,M,-23.7,M,344.8,0000*43
$GPGSA,A,3,06,20,03,23,31,16,30,32,,,,,2.6,1.4,2.2*32
$GPGSV,3,1,12,16,71,062,23,23,64,330,32,30,43,044,36,20,41,221,29*72
$GPGSV,3,2,12,32,33,189,22,13,32,317,,03,30,138,25,06,29,119,19*7D
$GPGSV,3,3,12,07,17,272,17,31,11,069,29,10,08,320,,19,05,165,*7B
$GPRMC,230441.000,A,3353.7451,N,09832.0238,W,0.17,279.92,300312,,,A*76
$GPGGA,230442.000,3353.7450,N,09832.0238,W,1,08,1.4,333.1,M,-23.7,M,344.8,0000*45
$GPGSA,A,3,06,20,03,23,31,16,30,32,,,,,2.6,1.4,2.2*32
$GPRMC,230442.000,A,3353.7450,N,09832.0238,W,0.23,263.15,300312,,,A*77
$GPGGA,230443.000,3353.7450,N,09832.0238,W,1,08,1.4,332.8,M,-23.7,M,344.8,0000*4C
$GPGSA,A,3,06,20,03,23,31,16,30,32,,,,,2.6,1.4,2.2*32
$GPRMC,230443.000,A,3353.7450,N,09832.0238,W,0.18,206.31,300312,,,A*7B
$GPGGA,230444.000,3353.7450,N,09832.0239,W,1,08,1.4,332.5,M,-23.7,M,344.8,0000*47
$GPGSA,A,3,06,20,03,23,31,16,30,32,,,,,2.6,1.4,2.2*32
$GPRMC,230444.000,A,3353.7450,N,09832.0239,W,0.17,288.10,300312,,,A*77
$GPGGA,230445.000,3353.7449,N,09832.0238,W,1,08,1.4,332.2,M,-23.7,M,344.8,0000*48
$GPGSA,A,3,06,20,03,23,31,16,30,32,,,,,2.6,1.4,2.2*32
$GPRMC,230445.000,A,3353.7449,N,09832.0238,W,0.06,351.75,300312,,,A*79
$GPGGA,230446.000,3353.7449,N,09832.0238,W,1,08,1.4,332.1,M,-23.7,M,344.8,0000*48
$GPGSA,A,3,06,20,03,23,31,16,30,32,,,,,2.6,1.4,2.2*32
$GPGSV,3,1,12,16,71,062,22,23,64,330,32,30,43,044,35,20,41,221,29*70
$GPGSV,3,2,12,32,33,189,22,13,32,317,,03,30,138,25,06,29,119,21*76
$GPGSV,3,3,12,07,17,272,17,31,11,069,29,10,08,320,,19,05,165,*7B
$GPRMC,230446.000,A,3353.7449,N,09832.0238,W,0.08,277.07,300312,,,A*74
$GPGGA,230447.000,3353.7448,N,09832.0237,W,1,08,1.4,332.0,M,-23.7,M,344.8,0000*46
$GPGSA,A,3,06,20,03,23,31,16,30,32,,,,,2.6,1.4,2.2*32
$GPRMC,230447.000,A,3353.7448,N,09832.0237,W,0.07,180.12,300312,,,A*7B
$GPGGA,230448.000,3353.7447,N,09832.0235,W,1,08,1.4,331.9,M,-23.7,M,344.8,0000*4E
$GPGSA,A,3,06,20,03,23,31,16,30,32,,,,,2.6,1.4,2.2*32
$GPRMC,230448.000,A,3353.7447,N,09832.0235,W,0.13,107.49,300312,,,A*7D
$GPGGA,230449.000,3353.7447,N,09832.0235,W,1,08,1.4,331.9,M,-23.7,M,344.8,0000*4F
$GPGSA,A,3,06,20,03,23,31,16,30,32,,,,,2.6,1.4,2.2*32
$GPRMC,230449.000,A,3353.7447,N,09832.0235,W,0.11,349.87,300312,,,A*74
$GPGGA,230450.000,3353.7447,N,09832.0234,W,1,08,1.4,331.8,M,-23.7,M,344.8,0000*47
$GPGSA,A,3,06,20,03,23,31,16,30,32,,,,,2.6,1.4,2.2*32
$GPRMC,230450.000,A,3353.7447,N,09832.0234,W,0.22,349.11,300312,,,A*72
$GPGGA,230451.000,3353.7446,N,09832.0233,W,1,08,1.4,331.7,M,-23.7,M,344.8,0000*4F
$GPGSA,A,3,06,20,03,23,31,16,30,32,,,,,2.6,1.4,2.2*32
$GPGSV,3,1,12,16,71,062,22,23,64,330,32,30,43,044,35,20,41,221,30*78
$GPGSV,3,2,12,32,33,189,23,13,32,317,,03,30,138,25,06,29,119,23*75
$GPGSV,3,3,12,07,17,272,16,31,11,069,29,10,08,320,,19,05,165,*7A
$GPRMC,230451.000,A,3353.7446,N,09832.0233,W,0.11,283.01,300312,,,A*73
$GPGGA,230452.000,3353.7446,N,09832.0233,W,1,08,1.4,331.6,M,-23.7,M,344.8,0000*4D
$GPGSA,A,3,06,20,03,23,31,16,30,32,,,,,2.6,1.4,2.2*32
$GPRMC,230452.000,A,3353.7446,N,09832.0233,W,0.17,198.30,300312,,,A*7D
$GPGGA,230453.000,3353.7445,N,09832.0233,W,1,08,1.4,331.4,M,-23.7,M,344.8,0000*4D
$GPGSA,A,3,06,20,03,23,31,16,30,32,,,,,2.6,1.4,2.2*32
$GPRMC,230453.000,A,3353.7445,N,09832.0233,W,0.13,301.52,300312,,,A*7D
$GPGGA,230454.000,3353.7445,N,09832.0232,W,1,08,1.4,331.2,M,-23.7,M,344.8,0000*4D
$GPGSA,A,3,06,20,03,23,31,16,30,32,,,,,2.6,1.4,2.2*32
$GPRMC,230454.000,A,3353.7445,N,09832.0232,W,0.09,230.41,300312,,,A*71
$GPGGA,230455.000,3353.7445,N,09832.0232,W,1,08,1.4,331.0,M,-23.7,M,344.8,0000*4E
$GPGSA,A,3,06,20,03,23,31,16,30,32,,,,,2.6,1.4,2.2*32
$GPRMC,230455.000,A,3353.7445,N,09832.0232,W,0.22,308.05,300312,,,A*73
$GPGGA,230456.000,3353.7445,N,09832.0233,W,1,08,1.4,330.8,M,-23.7,M,344.8,0000*45
$GPGSA,A,3,06,20,03,23,31,16,30,32,,,,,2.6,1.4,2.2*32
$GPGSV,3,1,12,16,71,062,22,23,64,330,32,30,43,044,35,20,41,221,30*78
$GPGSV,3,2,12,32,33,189,24,13,32,317,,03,30,138,26,06,29,119,24*76
$GPGSV,3,3,12,07,17,272,15,31,11,069,29,10,08,320,,19,05,165,*79
$GPRMC,230456.000,A,3353.7445,N,09832.0233,W,0.14,270.38,300312,,,A*74
$GPGGA,230457.000,3353.7446,N,09832.0233,W,1,08,1.4,330.7,M,-23.7,M,344.8,0000*48
$GPGSA,A,3,06,20,03,23,31,16,30,32,,,,,2.6,1.4,2.2*32
$GPRMC,230457.000,A,3353.7446,N,09832.0233,W,0.26,333.55,300312,,,A*7A
$GPGGA,230458.000,3353.7446,N,09832.0233,W,1,08,1.4,330.5,M,-23.7,M,344.8,0000*45
$GPGSA,A,3,06,20,03,23,31,16,30,32,,,,,2.6,1.4,2.2*32
$GPRMC,230458.000,A,3353.7446,N,09832.0233,W,0.16,285.59,300312,,,A*76
$GPGGA,230459.000,3353.7446,N,09832.0234,W,1,08,1.4,330.2,M,-23.7,M,344.8,0000*44
$GPGSA,A,3,06,20,03,23,31,16,30,32,,,,,2.6,1.4,2.2*32
$GPRMC,230459.000,A,3353.7446,N,09832.0234,W,0.20,254.72,300312,,,A*70
$GPGGA,230500.000,3353.7447,N,09832.0234,W,1,08,1.4,330.0,M,-23.7,M,344.8,0000*4A
$GPGSA,A,3,06,20,03,23,31,16,30,32,,,,,2.6,1.4,2.2*32
$GPRMC,230500.000,A,3353.7447,N,09832.0234,W,0.19,314.60,300312,,,A*70
$GPGGA,230501.000,3353.7447,N,09832.0235,W,1,08,1.4,329.8,M,-23.7,M,344.8,0000*4A
$GPGSA,A,3,06,20,03,23,31,16,30,32,,,,,2.6,1.4,2.2*32
$GPGSV,3,1,12,16,71,062,22,23,64,330,32,30,43,044,35,20,41,221,30*78
$GPGSV,3,2,12,32,33,189,24,13,32,317,,03,30,138,27,06,29,119,25*76
$GPGSV,3,3,12,07,17,272,16,31,11,069,29,10,08,320,,19,05,165,*7A
$GPRMC,230501.000,A,3353.7447,N,09832.0235,W,0.16,278.18,300312,,,A*7B
$GPGGA,230502.000,3353.7447,N,09832.0236,W,1,08,1.4,329.5,M,-23.7,M,344.8,0000*47
$GPGSA,A,3,06,20,03,23,31,16,30,32,,,,,2.6,1.4,2.2*32
$GPRMC,230502.000,A,3353.7447,N,09832.0236,W,0.19,243.96,300312,,,A*7A
$GPGGA,230503.000,3353.7447,N,09832.0236,W,1,08,1.4,329.3,M,-23.7,M,344.8,0000*40
$GPGSA,A,3,06,20,03,23,31,16,30,32,,,,,2.6,1.4,2.2*32
$GPRMC,230503.000,A,3353.7447,N,09832.0236,W,0.17,290.67,300312,,,A*75
$GPGGA,230504.000,3353.7448,N,09832.0237,W,1,08,1.4,328.9,M,-23.7,M,344.8,0000*42
$GPGSA,A,3,06,20,03,23,31,16,30,32,,,,,2.6,1.4,2.2*32
$GPRMC,230504.000,A,3353.7448,N,09832.0237,W,0.18,288.74,300312,,,A*78
$GPGGA,230505.000,3353.7449,N,09832.0238,W,1,08,1.4,328.5,M,-23.7,M,344.8,0000*41
$GPGSA,A,3,06,20,03,23,31,16,30,32,,,,,2.6,1.4,2.2*32
$GPRMC,230505.000,A,3353.7449,N,09832.0238,W,0.28,323.39,300312,,,A*7D
$GPGGA,230506.000,3353.7450,N,09832.0240,W,1,08,1.4,328.1,M,-23.7,M,344.8,0000*41
$GPGSA,A,3,06,20,03,23,31,16,30,32,,,,,2.6,1.4,2.2*32
$GPGSV,3,1,12,16,71,062,23,23,64,330,33,30,43,044,34,20,41,221,29*71
$GPGSV,3,2,12,32,33,189,24,13,32,317,,03,30,138,27,06,29,119,26*75
$GPGSV,3,3,12,07,17,272,16,31,11,069,29,10,08,320,,19,05,165,*7A
$GPRMC,230506.000,A,3353.7450,N,09832.0240,W,0.33,324.89,300312,,,A*7F
$GPGGA,230507.000,3353.7451,N,09832.0241,W,1,08,1.4,327.6,M,-23.7,M,344.8,0000*48
$GPGSA,A,3,06,20,03,23,31,16,30,32,,,,,2.6,1.4,2.2*32
$GPRMC,230507.000,A,3353.7451,N,09832.0241,W,0.28,300.84,300312,,,A*7F
$GPGGA,230508.000,3353.7452,N,09832.0243,W,1,08,1.4,327.1,M,-23.7,M,344.8,0000*41
$GPGSA,A,3,06,20,03,23,31,16,30,32,,,,,2.6,1.4,2.2*32
$GPRMC,230508.000,A,3353.7452,N,09832.0243,W,0.31,307.50,300312,,,A*77
$GPGGA,230509.000,3353.7452,N,09832.0245,W,1,08,1.4,326.5,M,-23.7,M,344.8,0000*43
$GPGSA,A,3,06,20,03,23,31,16,30,32,,,,,2.6,1.4,2.2*32
$GPRMC,230509.000,A,3353.7452,N,09832.0245,W,0.29,286.81,300312,,,A*7D
$GPGGA,230510.000,3353.7452,N,09832.0247,W,1,08,1.4,325.9,M,-23.7,M,344.8,0000*46
$GPGSA,A,3,06,20,03,23,31,16,30,32,,,,,2.6,1.4,2.2*32
$GPRMC,230510.000,A,3353.7452,N,09832.0247,W,0.28,249.76,300312,,,A*7D
$GPGGA,230511.000,3353.7453,N,09832.0249,W,1,08,1.4,325.2,M,-23.7,M,344.8,0000*43
$GPGSA,A,3,06,20,03,23,31,16,30,32,,,,,2.6,1.4,2.2*32
$GPGSV,3,1,12,16,71,062,23,23,64,330,33,30,43,044,34,20,41,221,28*70
$GPGSV,3,2,12,32,33,189,24,13,32,317,,03,30,138,27,06,29,119,27*74
$GPGSV,3,3,12,07,17,272,16,31,11,069,29,10,08,320,,19,05,165,*7A
$GPRMC,230511.000,A,3353.7453,N,09832.0249,W,0.32,291.05,300312,,,A*79
$GPGGA,230512.000,3353.7453,N,09832.0250,W,1,08,1.4,324.7,M,-23.7,M,344.8,0000*4C
$GPGSA,A,3,06,20,03,23,31,16,30,32,,,,,2.6,1.4,2.2*32
$GPRMC,230512.000,A,3353.7453,N,09832.0250,W,0.24,307.00,300312,,,A*7E
$GPGGA,230513.000,3353.7453,N,09832.0252,W,1,08,1.4,324.2,M,-23.7,M,344.8,0000*4A
$GPGSA,A,3,06,20,03,23,31,16,30,32,,,,,2.6,1.4,2.2*32
$GPRMC,230513.000,A,3353.7453,N,09832.0252,W,0.22,287.39,300312,,,A*78
$GPGGA,230514.000,3353.7453,N,09832.0253,W,1,08,1.4,323.7,M,-23.7,M,344.8,0000*4E
$GPGSA,A,3,06,20,03,23,31,16,30,32,,,,,2.6,1.4,2.2*32
$GPRMC,230514.000,A,3353.7453,N,09832.0253,W,0.18,285.62,300312,,,A*7B
$GPGGA,230515.000,3353.7453,N,09832.0254,W,1,08,1.4,323.3,M,-23.7,M,344.8,0000*4C
$GPGSA,A,3,06,20,03,23,31,16,30,32,,,,,2.6,1.4,2.2*32
$GPRMC,230515.000,A,3353.7453,N,09832.0254,W,0.16,276.67,300312,,,A*7A
$GPGGA,230516.000,3353.7453,N,09832.0254,W,1,08,1.4,323.0,M,-23.7,M,344.8,0000*4C
$GPGSA,A,3,06,20,03,23,31,16,30,32,,,,,2.6,1.4,2.2*32
$GPGSV,3,1,12,16,71,062,25,23,64,330,33,30,43,044,33,20,41,221,27*7E
$GPGSV,3,2,12,32,33,189,24,13,32,317,,03,30,138,27,06,29,119,27*74
$GPGSV,3,3,12,07,17,272,16,31,11,069,29,10,08,320,,19,05,165,*7A
$GPRMC,230516.000,A,3353.7453,N,09832.0254,W,0.16,281.68,300312,,,A*7E
$GPGGA,230517.000,3353.7452,N,09832.0255,W,1,08,1.4,322.7,M,-23.7,M,344.8,0000*4B
$GPGSA,A,3,06,20,03,23,31,16,30,32,,,,,2.6,1.4,2.2*32
$GPRMC,230517.000,A,3353.7452,N,09832.0255,W,0.15,278.73,300312,,,A*70
$GPGGA,230518.000,3353.7451,N,09832.0255,W,1,08,1.4,322.4,M,-23.7,M,344.8,0000*44
$GPGSA,A,3,06,20,03,23,31,16,30,32,,,,,2.6,1.4,2.2*32
$GPRMC,230518.000,A,3353.7451,N,09832.0255,W,0.12,276.95,300312,,,A*7D
$GPGGA,230519.000,3353.7451,N,09832.0256,W,1,08,1.4,322.2,M,-23.7,M,344.8,0000*40
$GPGSA,A,3,06,20,03,23,31,16,30,32,,,,,2.6,1.4,2.2*32
$GPRMC,230519.000,A,3353.7451,N,09832.0256,W,0.11,288.42,300312,,,A*77
$GPGGA,230520.000,3353.7450,N,09832.0256,W,1,08,1.4,322.0,M,-23.7,M,344.8,0000*49
$GPGSA,A,3,06,20,03,23,31,16,30,32,,,,,2.6,1.4,2.2*32
$GPRMC,230520.000,A,3353.7450,N,09832.0256,W,0.14,299.35,300312,,,A*79
$GPGGA,230521.000,3353.7450,N,09832.0257,W,1,08,1.4,321.7,M,-23.7,M,344.8,0000*4D
$GPGSA,A,3,06,20,03,23,31,16,30,32,,,,,2.6,1.4,2.2*32
$GPGSV,3,1,12,16,71,062,25,23,64,330,33,30,43,044,33,20,41,221,27*7E
$GPGSV,3,2,12,32,33,189,25,13,32,317,,03,30,138,27,06,29,119,27*75
$GPGSV,3,3,12,07,17,272,17,31,11,069,28,10,08,320,,19,05,165,*7A
$GPRMC,230521.000,A,3353.7450,N,09832.0257,W,0.20,263.80,300312,,,A*75
$GPGGA,230522.000,3353.7449,N,09832.0257,W,1,08,1.4,321.5,M,-23.7,M,344.8,0000*44
$GPGSA,A,3,06,20,03,23,31,16,30,32,,,,,2.6,1.4,2.2*32
$GPRMC,230522.000,A,3353.7449,N,09832.0257,W,0.19,285.28,300312,,,A*7E
$GPGGA,230523.000,3353.7449,N,09832.0258,W,1,08,1.4,321.1,M,-23.7,M,344.8,0000*4E
$GPGSA,A,3,06,20,03,23,31,16,30,32,,,,,2.6,1.4,2.2*32
$GPRMC,230523.000,A,3353.7449,N,09832.0258,W,0.20,281.05,300312,,,A*71
$GPGGA,230524.000,3353.7449,N,09832.0259,W,1,08,1.4,320.8,M,-23.7,M,344.8,0000*40
$GPGSA,A,3,06,20,03,23,31,16,30,32,,,,,2.6,1.4,2.2*32
$GPRMC,230524.000,A,3353.7449,N,09832.0259,W,0.21,266.70,300312,,,A*7D
$GPGGA,230525.000,3353.7449,N,09832.0259,W,1,08,1.4,320.5,M,-23.7,M,344.8,0000*4C
$GPGSA,A,3,06,20,03,23,31,16,30,32,,,,,2.6,1.4,2.2*32
$GPRMC,230525.000,A,3353.7449,N,09832.0259,W,0.23,326.80,300312,,,A*74
$GPGGA,230526.000,3353.7450,N,09832.0260,W,1,08,1.4,320.2,M,-23.7,M,344.8,0000*4A
$GPGSA,A,3,06,20,03,23,31,16,30,32,,,,,2.5,1.4,2.2*31
$GPGSV,3,1,12,16,71,062,26,23,64,330,33,30,43,044,33,20,41,221,26*7C
$GPGSV,3,2,12,32,33,189,25,13,32,317,,03,30,138,29,06,29,119,27*7B
$GPGSV,3,3,12,07,17,272,16,31,11,069,27,10,08,320,,19,05,165,*74
$GPRMC,230526.000,A,3353.7450,N,09832.0260,W,0.21,327.85,300312,,,A*73
$GPGGA,230527.000,3353.7450,N,09832.0261,W,1,08,1.4,319.5,M,-23.7,M,344.8,0000*47
$GPGSA,A,3,06,20,03,23,31,16,30,32,,,,,2.5,1.4,2.2*31
$GPRMC,230527.000,A,3353.7450,N,09832.0261,W,0.22,283.88,300312,,,A*72
$GPGGA,230528.000,3353.7451,N,09832.0263,W,1,08,1.4,318.5,M,-23.7,M,344.8,0000*4A
$GPGSA,A,3,06,20,03,23,31,16,30,32,,,,,2.5,1.4,2.2*31
$GPRMC,230528.000,A,3353.7451,N,09832.0263,W,0.33,323.86,300312,,,A*7B
$GPGGA,230529.000,3353.7452,N,09832.0264,W,1,08,1.4,317.4,M,-23.7,M,344.8,0000*41
$GPGSA,A,3,06,20,03,23,31,16,30,32,,,,,2.5,1.4,2.2*31
$GPRMC,230529.000,A,3353.7452,N,09832.0264,W,0.33,316.62,300312,,,A*72
$GPGGA,230530.000,3353.7452,N,09832.0267,W,1,08,1.4,316.0,M,-23.7,M,344.8,0000*4F
$GPGSA,A,3,06,20,03,23,31,16,30,32,,,,,2.5,1.4,2.2*31
$GPRMC,230530.000,A,3353.7452,N,09832.0267,W,0.54,271.69,300312,,,A*73
$GPGGA,230531.000,3353.7453,N,09832.0271,W,1,08,1.4,314.4,M,-23.7,M,344.8,0000*4E
$GPGSA,A,3,06,20,03,23,31,16,30,32,,,,,2.5,1.4,2.2*31
$GPGSV,3,1,12,16,70,059,26,23,65,330,33,30,42,044,33,20,40,220,26*75
$GPGSV,3,2,12,13,34,317,,32,32,188,23,03,31,137,30,06,30,118,27*74
$GPGSV,3,3,12,07,17,273,16,31,10,070,26,10,09,320,,19,06,164,*7E
$GPRMC,230531.000,A,3353.7453,N,09832.0271,W,0.67,270.98,300312,,,A*7B
$GPGGA,230532.000,3353.7454,N,09832.0274,W,1,08,1.4,312.8,M,-23.7,M,344.8,0000*45
$GPGSA,A,3,06,20,03,23,31,16,30,32,,,,,2.5,1.4,2.2*31
$GPRMC,230532.000,A,3353.7454,N,09832.0274,W,0.60,279.02,300312,,,A*77
$GPGGA,230533.000,3353.7455,N,09832.0276,W,1,09,1.0,311.1,M,-23.7,M,344.8,0000*48
$GPGSA,A,3,06,20,03,23,31,16,30,32,13,,,,2.0,1.0,1.7*34
$GPRMC,230533.000,A,3353.7455,N,09832.0276,W,0.44,288.97,300312,,,A*71
$GPGGA,230534.000,3353.7457,N,09832.0279,W,1,09,1.0,309.4,M,-23.7,M,344.8,0000*4E
$GPGSA,A,3,06,20,03,23,31,16,30,32,13,,,,2.0,1.0,1.7*34
$GPRMC,230534.000,A,3353.7457,N,09832.0279,W,0.51,304.73,300312,,,A*70
$GPGGA,230535.000,3353.7459,N,09832.0282,W,1,09,1.0,307.7,M,-23.7,M,344.8,0000*48
$GPGSA,A,3,06,20,03,23,31,16,30,32,13,,,,2.0,1.0,1.7*34
$GPRMC,230535.000,A,3353.7459,N,09832.0282,W,0.55,308.53,300312,,,A*71
$GPGGA,230536.000,3353.7460,N,09832.0285,W,1,09,1.0,305.9,M,-23.7,M,344.8,0000*4A
$GPGSA,A,3,06,20,03,23,31,16,30,32,13,,,,2.0,1.0,1.7*34
$GPGSV,3,1,12,16,70,059,27,23,65,330,32,30,42,044,33,20,40,220,26*75
$GPGSV,3,2,12,13,34,317,19,32,32,188,22,03,31,137,29,06,30,118,27*75
$GPGSV,3,3,12,07,17,273,16,31,10,070,26,10,09,320,,19,06,164,*7E
$GPRMC,230536.000,A,3353.7460,N,09832.0285,W,0.66,298.00,300312,,,A*71
$GPGGA,230537.000,3353.7462,N,09832.0287,W,1,09,1.0,304.2,M,-23.7,M,344.8,0000*41
$GPGSA,A,3,06,20,03,23,31,16,30,32,13,,,,2.0,1.0,1.7*34
$GPRMC,230537.000,A,3353.7462,N,09832.0287,W,0.47,295.22,300312,,,A*7E
$GPGGA,230538.000,3353.7463,N,09832.0289,W,1,09,1.0,302.5,M,-23.7,M,344.8,0000*40
$GPGSA,A,3,06,20,03,23,31,16,30,32,13,,,,2.0,1.0,1.7*34
$GPRMC,230538.000,A,3353.7463,N,09832.0289,W,0.43,309.31,300312,,,A*7C
$GPGGA,230539.000,3353.7465,N,09832.0291,W,1,09,1.0,301.0,M,-23.7,M,344.8,0000*48
$GPGSA,A,3,06,20,03,23,31,16,30,32,13,,,,2.0,1.0,1.7*34
$GPRMC,230539.000,A,3353.7465,N,09832.0291,W,0.36,323.71,300312,,,A*7C
$GPGGA,230540.000,3353.7466,N,09832.0293,W,1,09,1.0,299.5,M,-23.7,M,344.8,0000*42
$GPGSA,A,3,06,20,03,23,31,16,30,32,13,,,,2.0,1.0,1.7*34
$GPRMC,230540.000,A,3353.7466,N,09832.0293,W,0.28,284.49,300312,,,A*7B
$GPGGA,230541.000,3353.7467,N,09832.0297,W,1,09,1.0,298.0,M,-23.7,M,344.8,0000*42
$GPGSA,A,3,06,20,03,23,31,16,30,32,13,,,,2.0,1.0,1.7*34
$GPGSV,3,1,12,16,70,059,26,23,65,330,32,30,42,044,32,20,40,220,26*75
$GPGSV,3,2,12,13,34,317,20,32,32,188,17,03,31,137,29,06,30,118,29*77
$GPGSV,3,3,12,07,17,273,16,31,10,070,26,10,09,320,,19,06,164,*7E
$GPRMC,230541.000,A,3353.7467,N,09832.0297,W,0.70,287.36,300312,,,A*79
$GPGGA,230542.000,3353.7468,N,09832.0300,W,1,09,1.0,296.6,M,-23.7,M,344.8,0000*49
$GPGSA,A,3,06,20,03,23,31,16,30,32,13,,,,2.0,1.0,1.7*34
$GPRMC,230542.000,A,3353.7468,N,09832.0300,W,0.48,275.72,300312,,,A*7C
$GPGGA,230543.000,3353.7469,N,09832.0302,W,1,09,1.0,295.3,M,-23.7,M,344.8,0000*4D
$GPGSA,A,3,06,20,03,23,31,16,30,32,13,,,,2.0,1.0,1.7*34
$GPRMC,230543.000,A,3353.7469,N,09832.0302,W,0.35,270.09,300312,,,A*7D
$GPGGA,230544.000,3353.7470,N,09832.0304,W,1,09,1.0,294.0,M,-23.7,M,344.8,0000*46
$GPGSA,A,3,06,20,03,23,31,16,30,32,13,,,,2.0,1.0,1.7*34
$GPRMC,230544.000,A,3353.7470,N,09832.0304,W,0.30,260.44,300312,,,A*79
$GPGGA,230545.000,3353.7471,N,09832.0307,W,1,09,1.0,292.7,M,-23.7,M,344.8,0000*44
$GPGSA,A,3,06,20,03,23,31,16,30,32,13,,,,2.0,1.0,1.7*34
$GPRMC,230545.000,A,3353.7471,N,09832.0307,W,0.50,298.56,300312,,,A*78
$GPGGA,230546.000,3353.7473,N,09832.0310,W,1,09,1.0,291.5,M,-23.7,M,344.8,0000*42
$GPGSA,A,3,06,20,03,23,31,16,30,32,13,,,,2.0,1.0,1.7*34
$GPGSV,3,1,12,16,70,059,26,23,65,330,32,30,42,044,32,20,40,220,25*76
$GPGSV,3,2,12,13,34,317,19,32,32,188,18,03,31,137,29,06,30,118,29*72
$GPGSV,3,3,12,07,17,273,22,31,10,070,19,10,09,320,,19,06,164,*75
$GPRMC,230546.000,A,3353.7473,N,09832.0310,W,0.69,284.92,300312,,,A*70
$GPGGA,230547.000,3353.7474,N,09832.0313,W,1,09,1.0,290.3,M,-23.7,M,344.8,0000*40
$GPGSA,A,3,06,20,03,23,31,16,30,32,13,,,,2.0,1.0,1.7*34
$GPRMC,230547.000,A,3353.7474,N,09832.0313,W,0.63,286.77,300312,,,A*76
$GPGGA,230548.000,3353.7476,N,09832.0315,W,1,09,1.0,289.1,M,-23.7,M,344.8,0000*41
$GPGSA,A,3,06,20,03,23,31,16,30,32,13,,,,2.0,1.0,1.7*34
$GPRMC,230548.000,A,3353.7476,N,09832.0315,W,0.41,314.68,300312,,,A*79
$GPGGA,230549.000,3353.7479,N,09832.0316,W,1,09,1.0,287.8,M,-23.7,M,344.8,0000*4B
$GPGSA,A,3,06,20,03,23,31,16,30,32,13,,,,2.0,1.0,1.7*34
$GPRMC,230549.000,A,3353.7479,N,09832.0316,W,0.51,339.05,300312,,,A*71
$GPGGA,230550.000,3353.7481,N,09832.0318,W,1,09,1.0,286.2,M,-23.7,M,344.8,0000*41
$GPGSA,A,3,06,20,03,23,31,16,30,32,13,,,,2.0,1.0,1.7*34
$GPRMC,230550.000,A,3353.7481,N,09832.0318,W,0.63,322.55,300312,,,A*7E
$GPGGA,230551.000,3353.7483,N,09832.0320,W,1,09,1.0,284.8,M,-23.7,M,344.8,0000*41
$GPGSA,A,3,06,20,03,23,31,16,30,32,13,,,,2.0,1.0,1.7*34
$GPGSV,3,1,12,16,70,059,24,23,65,330,32,30,42,044,32,20,40,220,20*71
$GPGSV,3,2,12,13,34,317,15,32,32,188,23,03,31,137,30,06,30,118,30*76
$GPGSV,3,3,12,07,17,273,23,31,10,070,19,10,09,320,,19,06,164,*74
$GPRMC,230551.000,A,3353.7483,N,09832.0320,W,0.40,337.29,300312,,,A*78
$GPGGA,230552.000,3353.7485,N,09832.0322,W,1,09,1.0,283.3,M,-23.7,M,344.8,0000*4A
$GPGSA,A,3,06,20,03,23,31,16,30,32,13,,,,2.0,1.0,1.7*34
$GPRMC,230552.000,A,3353.7485,N,09832.0322,W,0.36,301.37,300312,,,A*74
$GPGGA,230553.000,3353.7486,N,09832.0324,W,1,08,1.1,281.9,M,-23.7,M,344.8,0000*46
$GPGSA,A,3,06,20,03,23,16,30,32,13,,,,,2.7,1.1,2.5*31
$GPRMC,230553.000,A,3353.7486,N,09832.0324,W,0.31,329.62,300312,,,A*7D
$GPGGA,230554.000,3353.7488,N,09832.0326,W,1,08,1.1,280.3,M,-23.7,M,344.8,0000*46
$GPGSA,A,3,06,20,03,23,16,30,32,13,,,,,2.7,1.1,2.5*31
$GPRMC,230554.000,A,3353.7488,N,09832.0326,W,0.36,303.51,300312,,,A*79
$GPGGA,230555.000,3353.7489,N,09832.0329,W,1,08,1.1,278.7,M,-23.7,M,344.8,0000*4A
$GPGSA,A,3,06,20,03,23,16,30,32,13,,,,,2.7,1.1,2.5*31
$GPRMC,230555.000,A,3353.7489,N,09832.0329,W,0.40,299.98,300312,,,A*70
$GPGGA,230556.000,3353.7490,N,09832.0333,W,1,08,1.1,277.2,M,-23.7,M,344.8,0000*40
$GPGSA,A,3,06,20,03,23,16,30,32,13,,,,,2.7,1.1,2.5*31
$GPGSV,3,1,12,16,70,059,24,23,65,330,32,30,42,044,32,20,40,220,19*7B
$GPGSV,3,2,12,13,34,317,14,32,32,188,24,03,31,137,29,06,30,118,31*79
$GPGSV,3,3,12,07,17,273,23,31,10,070,,10,09,320,,19,06,164,*7C
$GPRMC,230556.000,A,3353.7490,N,09832.0333,W,0.64,284.07,300312,,,A*7C
$GPGGA,230557.000,3353.7492,N,09832.0336,W,1,08,1.1,275.7,M,-23.7,M,344.8,0000*41
$GPGSA,A,3,06,20,03,23,16,30,32,13,,,,,2.7,1.1,2.5*31
$GPRMC,230557.000,A,3353.7492,N,09832.0336,W,0.72,299.98,300312,,,A*77
$GPGGA,230558.000,3353.7493,N,09832.0340,W,1,08,1.1,274.3,M,-23.7,M,344.8,0000*4B
$GPGSA,A,3,06,20,03,23,16,30,32,13,,,,,2.7,1.1,2.5*31
$GPRMC,230558.000,A,3353.7493,N,09832.0340,W,0.84,302.76,300312,,,A*72
$GPGGA,230559.000,3353.7495,N,09832.0344,W,1,08,1.1,272.8,M,-23.7,M,344.8,0000*45
$GPGSA,A,3,06,20,03,23,16,30,32,13,,,,,2.7,1.1,2.5*31
$GPRMC,230559.000,A,3353.7495,N,09832.0344,W,0.82,312.87,300312,,,A*78
$GPGGA,230600.000,3353.7497,N,09832.0348,W,1,08,1.1,271.3,M,-23.7,M,344.8,0000*4C
$GPGSA,A,3,06,20,03,23,16,30,32,13,,,,,2.7,1.1,2.5*31
$GPRMC,230600.000,A,3353.7497,N,09832.0348,W,0.81,299.04,300312,,,A*73
$GPGGA,230601.000,3353.7498,N,09832.0352,W,1,08,1.1,269.7,M,-23.7,M,344.8,0000*44
$GPGSA,A,3,06,20,03,23,16,30,32,13,,,,,2.7,1.1,2.5*31
$GPGSV,3,1,12,16,70,059,24,23,65,330,32,30,42,044,31,20,40,220,20*72
$GPGSV,3,2,12,13,34,317,14,32,32,188,24,03,31,137,28,06,30,118,31*78
$GPGSV,3,3,12,07,17,273,22,31,10,070,,10,09,320,,19,06,164,*7D
$GPRMC,230601.000,A,3353.7498,N,09832.0352,W,0.50,289.79,300312,,,A*71
$GPGGA,230602.000,3353.7499,N,09832.0355,W,1,08,1.1,267.8,M,-23.7,M,344.8,0000*40
$GPGSA,A,3,06,20,03,23,16,30,32,13,,,,,2.7,1.1,2.5*31
$GPRMC,230602.000,A,3353.7499,N,09832.0355,W,0.44,300.27,300312,,,A*7A
$GPGGA,230603.000,3353.7501,N,09832.0358,W,1,08,1.1,265.9,M,-23.7,M,344.8,0000*4F
$GPGSA,A,3,06,20,03,23,16,30,32,13,,,,,2.7,1.1,2.5*31
$GPRMC,230603.000,A,3353.7501,N,09832.0358,W,0.65,338.15,300312,,,A*7F
$GPGGA,230604.000,3353.7504,N,09832.0360,W,1,08,1.1,264.0,M,-23.7,M,344.8,0000*4E
$GPGSA,A,3,06,20,03,23,16,30,32,13,,,,,2.7,1.1,2.5*31
$GPRMC,230604.000,A,3353.7504,N,09832.0360,W,0.62,344.66,300312,,,A*7E
$GPGGA,230605.000,3353.7505,N,09832.0363,W,1,08,1.1,262.3,M,-23.7,M,344.8,0000*48
$GPGSA,A,3,06,20,03,23,16,30,32,13,,,,,2.7,1.1,2.5*31
$GPRMC,230605.000,A,3353.7505,N,09832.0363,W,0.45,342.78,300312,,,A*71
$GPGGA,230606.000,3353.7506,N,09832.0367,W,1,08,1.1,260.4,M,-23.7,M,344.8,0000*49
$GPGSA,A,3,06,20,03,23,16,30,32,13,,,,,2.7,1.1,2.5*31
$GPGSV,3,1,12,16,70,059,24,23,65,330,32,30,42,044,31,20,40,220,21*73
$GPGSV,3,2,12,13,34,317,21,32,32,188,25,03,31,137,28,06,30,118,32*7C
$GPGSV,3,3,12,07,17,273,20,31,10,070,,10,09,320,,19,06,164,*7F
$GPRMC,230606.000,A,3353.7506,N,09832.0367,W,0.50,274.65,300312,,,A*79
$GPGGA,230607.000,3353.7507,N,09832.0370,W,1,08,1.1,258.4,M,-23.7,M,344.8,0000*44
$GPGSA,A,3,06,20,03,23,16,30,32,13,,,,,2.7,1.1,2.5*31
$GPRMC,230607.000,A,3353.7507,N,09832.0370,W,0.46,303.14,300312,,,A*7F
$GPGGA,230608.000,3353.7509,N,09832.0375,W,1,08,1.1,256.3,M,-23.7,M,344.8,0000*49
$GPGSA,A,3,06,20,03,23,16,30,32,13,,,,,2.7,1.1,2.5*31
$GPRMC,230608.000,A,3353.7509,N,09832.0375,W,0.87,304.14,300312,,,A*71
$GPGGA,230609.000,3353.7511,N,09832.0379,W,1,08,1.1,254.2,M,-23.7,M,344.8,0000*4E
$GPGSA,A,3,06,20,03,23,16,30,32,13,,,,,2.7,1.1,2.5*31
$GPRMC,230609.000,A,3353.7511,N,09832.0379,W,0.69,303.09,300312,,,A*7E
$GPGGA,230610.000,3353.7513,N,09832.0381,W,1,08,1.1,252.4,M,-23.7,M,344.8,0000*43
$GPGSA,A,3,06,20,03,23,16,30,32,13,,,,,2.7,1.1,2.5*31
$GPRMC,230610.000,A,3353.7513,N,09832.0381,W,0.58,326.30,300312,,,A*7C
$GPGGA,230611.000,3353.7514,N,09832.0384,W,1,08,1.1,251.0,M,-23.7,M,344.8,0000*47
$GPGSA,A,3,06,20,03,23,16,30,32,13,,,,,2.7,1.1,2.5*31
$GPGSV,3,1,12,16,70,059,23,23,65,330,32,30,42,044,31,20,40,220,21*74
$GPGSV,3,2,12,13,34,317,21,32,32,188,25,03,31,137,29,06,30,118,32*7D
$GPGSV,3,3,12,07,17,273,19,31,10,070,,10,09,320,,19,06,164,*75
$GPRMC,230611.000,A,3353.7514,N,09832.0384,W,0.45,321.76,300312,,,A*76
$GPGGA,230612.000,3353.7515,N,09832.0386,W,1,08,1.1,249.9,M,-23.7,M,344.8,0000*47
$GPGSA,A,3,06,20,03,23,16,30,32,13,,,,,2.7,1.1,2.5*31
$GPRMC,230612.000,A,3353.7515,N,09832.0386,W,0.40,295.07,300312,,,A*7B
$GPGGA,230613.000,3353.7516,N,09832.0388,W,1,08,1.1,248.9,M,-23.7,M,344.8,0000*4A
$GPGSA,A,3,06,20,03,23,16,30,32,13,,,,,2.7,1.1,2.5*31
$GPRMC,230613.000,A,3353.7516,N,09832.0388,W,0.34,297.09,300312,,,A*78
$GPGGA,230614.000,3353.7516,N,09832.0390,W,1,08,1.1,247.9,M,-23.7,M,344.8,0000*4B
$GPGSA,A,3,06,20,03,23,16,30,32,13,,,,,2.7,1.1,2.5*31
$GPRMC,230614.000,A,3353.7516,N,09832.0390,W,0.34,287.30,300312,,,A*7D
$GPGGA,230615.000,3353.7517,N,09832.0391,W,1,08,1.1,246.8,M,-23.7,M,344.8,0000*4A
$GPGSA,A,3,06,20,03,23,16,30,32,13,,,,,2.7,1.1,2.5*31
$GPRMC,230615.000,A,3353.7517,N,09832.0391,W,0.22,325.57,300312,,,A*73
$GPGGA,230616.000,3353.7519,N,09832.0392,W,1,08,1.1,245.9,M,-23.7,M,344.8,0000*46
$GPGSA,A,3,06,20,03,23,16,30,32,13,,,,,2.7,1.1,2.5*31
$GPGSV,3,1,12,16,70,059,22,23,65,330,32,30,42,044,31,20,40,220,22*76
$GPGSV,3,2,12,13,34,317,21,32,32,188,27,03,31,137,30,06,30,118,32*77
$GPGSV,3,3,12,07,17,273,14,31,10,070,,10,09,320,,19,06,164,*78
$GPRMC,230616.000,A,3353.7519,N,09832.0392,W,0.45,8.70,300312,,,A*75
$GPGGA,230617.000,3353.7521,N,09832.0392,W,1,08,1.1,245.2,M,-23.7,M,344.8,0000*47
$GPGSA,A,3,06,20,03,23,16,30,32,13,,,,,2.7,1.1,2.5*31
$GPRMC,230617.000,A,3353.7521,N,09832.0392,W,0.37,19.10,300312,,,A*4C
$GPGGA,230618.000,3353.7521,N,09832.0391,W,1,08,1.1,244.7,M,-23.7,M,344.8,0000*4F
$GPGSA,A,3,06,20,03,23,16,30,32,13,,,,,2.7,1.1,2.5*31
$GPRMC,230618.000,A,3353.7521,N,09832.0391,W,0.12,18.70,300312,,,A*40
$GPGGA,230619.000,3353.7522,N,09832.0391,W,1,08,1.1,244.4,M,-23.7,M,344.8,0000*4E
$GPGSA,A,3,06,20,03,23,16,30,32,13,,,,,2.7,1.1,2.5*31
$GPRMC,230619.000,A,3353.7522,N,09832.0391,W,0.12,51.93,300312,,,A*42
$GPGGA,230620.000,3353.7523,N,09832.0390,W,1,08,1.1,244.3,M,-23.7,M,344.8,0000*43
$GPGSA,A,3,06,20,03,23,16,30,32,13,,,,,2.7,1.1,2.5*31
$GPRMC,230620.000,A,3353.7523,N,09832.0390,W,0.13,61.25,300312,,,A*47
$GPGGA,230621.000,3353.7523,N,09832.0389,W,1,08,1.1,244.4,M,-23.7,M,344.8,0000*4D
$GPGSA,A,3,06,20,03,23,16,30,32,13,,,,,2.7,1.1,2.5*31
$GPGSV,3,1,12,16,70,059,22,23,65,330,32,30,42,044,31,20,40,220,23*77
$GPGSV,3,2,12,13,34,317,22,32,32,188,28,03,31,137,31,06,30,118,32*7A
$GPGSV,3,3,12,07,17,273,16,31,10,070,,10,09,320,,19,06,164,*7A
$GPRMC,230621.000,A,3353.7523,N,09832.0389,W,0.05,262.68,300312,,,A*71
$GPGGA,230622.000,3353.7524,N,09832.0387,W,1,08,1.1,244.7,M,-23.7,M,344.8,0000*44
$GPGSA,A,3,06,20,03,23,16,30,32,13,,,,,2.7,1.1,2.5*31
$GPRMC,230622.000,A,3353.7524,N,09832.0387,W,0.19,82.23,300312,,,A*45
$GPGGA,230623.000,3353.7524,N,09832.0386,W,1,08,1.1,245.0,M,-23.7,M,344.8,0000*42
$GPGSA,A,3,06,20,03,23,16,30,32,13,,,,,2.7,1.1,2.5*31
$GPRMC,230623.000,A,3353.7524,N,09832.0386,W,0.14,312.58,300312,,,A*7E
$GPGGA,230624.000,3353.7525,N,09832.0384,W,1,08,1.1,245.5,M,-23.7,M,344.8,0000*43
$GPGSA,A,3,06,20,03,23,16,30,32,13,,,,,2.7,1.1,2.5*31
$GPRMC,230624.000,A,3353.7525,N,09832.0384,W,0.06,355.17,300312,,,A*71
$GPGGA,230625.000,3353.7525,N,09832.0381,W,1,08,1.1,246.2,M,-23.7,M,344.8,0000*43
$GPGSA,A,3,06,20,03,23,16,30,32,13,,,,,2.7,1.1,2.5*31
$GPRMC,230625.000,A,3353.7525,N,09832.0381,W,0.25,115.31,300312,,,A*76
$GPGGA,230626.000,3353.7525,N,09832.0378,W,1,08,1.1,247.2,M,-23.7,M,344.8,0000*47
$GPGSA,A,3,06,20,03,23,16,30,32,13,,,,,2.7,1.1,2.5*31
$GPGSV,3,1,12,16,70,059,22,23,65,330,32,30,42,044,31,20,40,220,24*70
$GPGSV,3,2,12,13,34,317,21,32,32,188,28,03,31,137,31,06,30,118,32*79
$GPGSV,3,3,12,07,17,273,18,31,10,070,,10,09,320,,19,06,164,*74
$GPRMC,230626.000,A,3353.7525,N,09832.0378,W,0.38,116.22,300312,,,A*7E
$GPGGA,230627.000,3353.7524,N,09832.0375,W,1,08,1.1,248.3,M,-23.7,M,344.8,0000*44
$GPGSA,A,3,06,20,03,23,16,30,32,13,,,,,2.7,1.1,2.5*31
$GPRMC,230627.000,A,3353.7524,N,09832.0375,W,0.32,158.36,300312,,,A*76
$GPGGA,230628.000,3353.7523,N,09832.0372,W,1,08,1.1,249.6,M,-23.7,M,344.8,0000*4F
$GPGSA,A,3,06,20,03,23,16,30,32,13,,,,,2.7,1.1,2.5*31
$GPRMC,230628.000,A,3353.7523,N,09832.0372,W,0.35,160.72,300312,,,A*75
$GPGGA,230629.000,3353.7522,N,09832.0369,W,1,08,1.1,251.0,M,-23.7,M,344.8,0000*4A
$GPGSA,A,3,06,20,03,23,16,30,32,13,,,,,2.7,1.1,2.5*31
$GPRMC,230629.000,A,3353.7522,N,09832.0369,W,0.39,158.70,300312,,,A*7A
$GPGGA,230630.000,3353.7521,N,09832.0366,W,1,08,1.1,252.7,M,-23.7,M,344.8,0000*4A
$GPGSA,A,3,06,20,03,23,16,30,32,13,,,,,2.7,1.1,2.5*31
$GPRMC,230630.000,A,3353.7521,N,09832.0366,W,0.43,139.28,300312,,,A*79
$GPGGA,230631.000,3353.7520,N,09832.0364,W,1,08,1.1,254.3,M,-23.7,M,344.8,0000*4A
$GPGSA,A,3,06,20,03,23,16,30,32,13,,,,,2.7,1.1,2.5*31
$GPGSV,3,1,12,16,70,059,22,23,65,330,32,30,42,044,31,20,40,220,24*70
$GPGSV,3,2,12,13,34,317,20,32,32,188,28,03,31,137,31,06,30,118,32*78
$GPGSV,3,3,12,07,17,273,18,31,10,070,,10,09,320,,19,06,164,*74
$GPRMC,230631.000,A,3353.7520,N,09832.0364,W,0.21,181.79,300312,,,A*78
$GPGGA,230632.000,3353.7520,N,09832.0361,W,1,08,1.1,256.0,M,-23.7,M,344.8,0000*4D
$GPGSA,A,3,06,20,03,23,16,30,32,13,,,,,2.7,1.1,2.5*31
$GPRMC,230632.000,A,3353.7520,N,09832.0361,W,0.15,165.54,300312,,,A*7C
$GPGGA,230633.000,3353.7519,N,09832.0359,W,1,08,1.1,257.7,M,-23.7,M,344.8,0000*4B
$GPGSA,A,3,06,20,03,23,16,30,32,13,,,,,2.7,1.1,2.5*31
