$GPGGA,045027.000,3353.7564,N,09832.0245,W,2,07,1.1,316.3,M,-23.7,M,0.8,0000*41
$GPGSA,A,3,07,11,17,01,26,08,28,,,,,,2.2,1.1,1.9*3C
$GPGSV,3,1,12,17,66,260,38,08,64,152,36,28,61,356,31,01,39,067,32*7C
$GPGSV,3,2,12,26,28,263,30,11,26,051,36,07,25,149,32,27,11,321,*7C
$GPGSV,3,3,12,15,09,306,,04,07,192,21,20,00,113,,51,49,195,40*79
$GPRMC,045027.000,A,3353.7564,N,09832.0245,W,0.07,132.33,300312,,,D*7C
$GPGGA,045028.000,3353.7564,N,09832.0244,W,2,07,1.1,316.4,M,-23.7,M,0.8,0000*48
$GPGSA,A,3,07,11,17,01,26,08,28,,,,,,2.2,1.1,1.9*3C
$GPRMC,045028.000,A,3353.7564,N,09832.0244,W,0.08,94.37,300312,,,D*44
$GPGGA,045029.000,3353.7565,N,09832.0243,W,2,07,1.1,316.3,M,-23.7,M,0.8,0000*48
$GPGSA,A,3,07,11,17,01,26,08,28,,,,,,2.2,1.1,1.9*3C
$GPRMC,045029.000,A,3353.7565,N,09832.0243,W,0.14,113.58,300312,,,D*79
$GPGGA,045030.000,3353.7565,N,09832.0241,W,2,07,1.1,316.3,M,-23.7,M,1.8,0000*43
$GPGSA,A,3,07,11,17,01,26,08,28,,,,,,2.2,1.1,1.9*3C
$GPRMC,045030.000,A,3353.7565,N,09832.0241,W,0.12,119.12,300312,,,D*71
$GPGGA,045031.000,3353.7564,N,09832.0240,W,2,07,1.1,316.3,M,-23.7,M,2.8,0000*41
$GPGSA,A,3,07,11,17,01,26,08,28,,,,,,2.2,1.1,1.9*3C
$GPRMC,045031.000,A,3353.7564,N,09832.0240,W,0.16,122.60,300312,,,D*79
$GPGGA,045032.000,3353.7564,N,09832.0239,W,2,07,1.1,316.2,M,-23.7,M,3.8,0000*4C
$GPGSA,A,3,07,11,17,01,26,08,28,,,,,,2.2,1.1,1.9*3C
$GPGSV,3,1,12,17,66,260,38,08,64,152,35,28,61,356,31,01,39,067,33*7E
$GPGSV,3,2,12,26,28,263,30,11,26,051,36,07,25,149,32,27,11,321,*7C
$GPGSV,3,3,12,15,09,306,,04,07,192,20,20,00,113,,51,49,195,39*76
$GPRMC,045032.000,A,3353.7564,N,09832.0239,W,0.13,118.97,300312,,,D*70
$GPGGA,045033.000,3353.7564,N,09832.0239,W,2,07,1.1,316.2,M,-23.7,M,0.8,0000*4E
$GPGSA,A,3,07,11,17,01,26,08,28,,,,,,2.2,1.1,1.9*3C
$GPRMC,045033.000,A,3353.7564,N,09832.0239,W,0.09,146.64,300312,,,D*7D
$GPGGA,045034.000,3353.7563,N,09832.0238,W,2,07,1.1,316.1,M,-23.7,M,0.8,0000*4C
$GPGSA,A,3,07,11,17,01,26,08,28,,,,,,2.2,1.1,1.9*3C
$GPRMC,045034.000,A,3353.7563,N,09832.0238,W,0.09,139.07,300312,,,D*71
$GPGGA,045035.000,3353.7563,N,09832.0238,W,2,07,1.1,316.1,M,-23.7,M,0.8,0000*4D
$GPGSA,A,3,07,11,17,01,26,08,28,,,,,,2.2,1.1,1.9*3C
$GPRMC,045035.000,A,3353.7563,N,09832.0238,W,0.07,155.24,300312,,,D*75
$GPGGA,045036.000,3353.7563,N,09832.0237,W,2,07,1.1,316.0,M,-23.7,M,0.8,0000*40
$GPGSA,A,3,07,11,17,01,26,08,28,,,,,,2.2,1.1,1.9*3C
$GPRMC,045036.000,A,3353.7563,N,09832.0237,W,0.04,144.19,300312,,,D*74
$GPGGA,045037.000,3353.7563,N,09832.0237,W,2,07,1.1,316.0,M,-23.7,M,1.8,0000*40
$GPGSA,A,3,07,11,17,01,26,08,28,,,,,,2.2,1.1,1.9*3C
$GPGSV,3,1,12,17,66,260,38,08,64,152,35,28,61,356,31,01,39,067,33*7E
$GPGSV,3,2,12,26,28,263,30,11,26,051,36,07,25,149,32,27,11,321,*7C
$GPGSV,3,3,12,15,09,306,,04,07,192,20,20,00,113,,51,49,195,39*76
$GPRMC,045037.000,A,3353.7563,N,09832.0237,W,0.05,167.71,300312,,,D*7B
$GPGGA,045038.000,3353.7562,N,09832.0237,W,2,07,1.1,316.0,M,-23.7,M,0.8,0000*4F
$GPGSA,A,3,07,11,17,01,26,08,28,,,,,,2.2,1.1,1.9*3C
$GPRMC,045038.000,A,3353.7562,N,09832.0237,W,0.05,161.22,300312,,,D*75
$GPGGA,045039.000,3353.7562,N,09832.0237,W,2,07,1.1,315.9,M,-23.7,M,0.8,0000*44
$GPGSA,A,3,07,11,17,01,26,08,28,,,,,,2.2,1.1,1.9*3C
$GPRMC,045039.000,A,3353.7562,N,09832.0237,W,0.10,118.26,300312,,,D*7A
$GPGGA,045040.000,3353.7562,N,09832.0236,W,2,07,1.1,315.9,M,-23.7,M,0.8,0000*4B
$GPGSA,A,3,07,11,17,01,26,08,28,,,,,,2.2,1.1,1.9*3C
$GPRMC,045040.000,A,3353.7562,N,09832.0236,W,0.07,112.43,300312,,,D*7A
$GPGGA,045041.000,3353.7561,N,09832.0236,W,2,07,1.1,315.9,M,-23.7,M,0.8,0000*49
$GPGSA,A,3,07,11,17,01,26,08,28,,,,,,2.2,1.1,1.9*3C
$GPRMC,045041.000,A,3353.7561,N,09832.0236,W,0.11,125.11,300312,,,D*7C
$GPGGA,045042.000,3353.7560,N,09832.0235,W,2,07,1.1,315.7,M,-23.7,M,0.8,0000*46
$GPGSA,A,3,07,11,17,01,26,08,28,,,,,,2.2,1.1,1.9*3C
$GPGSV,3,1,12,17,66,260,38,08,64,152,35,28,61,356,31,01,39,067,33*7E
$GPGSV,3,2,12,26,28,263,30,11,26,051,36,07,25,149,31,27,11,321,*7F
$GPGSV,3,3,12,15,09,306,,04,07,192,20,20,00,113,,51,49,195,39*76
$GPRMC,045042.000,A,3353.7560,N,09832.0235,W,0.11,129.68,300312,,,D*7F
$GPGGA,045043.000,3353.7558,N,09832.0234,W,2,07,1.1,315.5,M,-23.7,M,1.8,0000*4E
$GPGSA,A,3,07,11,17,01,26,08,28,,,,,,2.2,1.1,1.9*3C
$GPRMC,045043.000,A,3353.7558,N,09832.0234,W,0.11,131.97,300312,,,D*7D
$GPGGA,045044.000,3353.7557,N,09832.0233,W,2,07,1.1,315.3,M,-23.7,M,2.8,0000*44
$GPGSA,A,3,07,11,17,01,26,08,28,,,,,,2.2,1.1,1.9*3C
$GPRMC,045044.000,A,3353.7557,N,09832.0233,W,0.11,137.56,300312,,,D*79
$GPGGA,045045.000,3353.7556,N,09832.0233,W,2,07,1.1,315.2,M,-23.7,M,0.8,0000*47
$GPGSA,A,3,07,11,17,01,26,08,28,,,,,,2.2,1.1,1.9*3C
$GPRMC,045045.000,A,3353.7556,N,09832.0233,W,0.07,167.84,300312,,,D*74
$GPGGA,045046.000,3353.7555,N,09832.0232,W,2,07,1.1,315.1,M,-23.7,M,0.8,0000*45
$GPGSA,A,3,07,11,17,01,26,08,28,,,,,,2.2,1.1,1.9*3C
$GPRMC,045046.000,A,3353.7555,N,09832.0232,W,0.09,161.94,300312,,,D*7C
$GPGGA,045047.000,3353.7554,N,09832.0232,W,2,07,1.1,314.9,M,-23.7,M,0.8,0000*4C
$GPGSA,A,3,07,11,17,01,26,08,28,,,,,,2.2,1.1,1.9*3C
$GPGSV,3,1,12,17,66,260,38,08,64,152,35,28,61,356,32,01,39,067,33*7D
$GPGSV,3,2,12,26,28,263,29,11,26,051,36,07,25,149,31,27,11,321,*77
$GPGSV,3,3,12,15,09,306,,04,07,192,20,20,00,113,,51,49,195,39*76
$GPRMC,045047.000,A,3353.7554,N,09832.0232,W,0.03,126.96,300312,,,D*77
$GPGGA,045048.000,3353.7553,N,09832.0232,W,2,07,1.1,314.8,M,-23.7,M,1.8,0000*44
$GPGSA,A,3,07,11,17,01,26,08,28,,,,,,2.2,1.1,1.9*3C
$GPRMC,045048.000,A,3353.7553,N,09832.0232,W,0.04,116.12,300312,,,D*77
$GPGGA,045049.000,3353.7553,N,09832.0231,W,2,07,1.1,314.6,M,-23.7,M,2.8,0000*4B
$GPGSA,A,3,07,11,17,01,26,08,28,,,,,,2.2,1.1,1.9*3C
$GPRMC,045049.000,A,3353.7553,N,09832.0231,W,0.03,89.59,300312,,,D*4A
$GPGGA,045050.000,3353.7552,N,09832.0231,W,2,07,1.1,314.5,M,-23.7,M,3.8,0000*40
$GPGSA,A,3,07,11,17,01,26,08,28,,,,,,2.2,1.1,1.9*3C
$GPRMC,045050.000,A,3353.7552,N,09832.0231,W,0.03,123.67,300312,,,D*7F
$GPGGA,045051.000,3353.7551,N,09832.0231,W,2,07,1.1,314.3,M,-23.7,M,0.8,0000*47
$GPGSA,A,3,07,11,17,01,26,08,28,,,,,,2.2,1.1,1.9*3C
$GPRMC,045051.000,A,3353.7551,N,09832.0231,W,0.07,92.57,300312,,,D*41
$GPGGA,045052.000,3353.7551,N,09832.0231,W,2,07,1.1,314.2,M,-23.7,M,0.8,0000*45
$GPGSA,A,3,07,11,17,01,26,08,28,,,,,,2.2,1.1,1.9*3C
$GPGSV,3,1,12,17,66,260,38,08,64,152,34,28,61,356,32,01,39,067,34*7B
$GPGSV,3,2,12,26,28,263,28,11,26,051,36,07,25,149,30,27,11,321,*77
$GPGSV,3,3,12,15,09,306,,04,07,192,20,20,00,113,,51,49,195,39*76
$GPRMC,045052.000,A,3353.7551,N,09832.0231,W,0.07,68.45,300312,,,D*44
$GPGGA,045053.000,3353.7550,N,09832.0231,W,2,07,1.1,314.2,M,-23.7,M,0.8,0000*45
$GPGSA,A,3,07,11,17,01,26,08,28,,,,,,2.2,1.1,1.9*3C
$GPRMC,045053.000,A,3353.7550,N,09832.0231,W,0.13,148.15,300312,,,D*77
$GPGGA,045054.000,3353.7549,N,09832.0230,W,2,07,1.1,314.1,M,-23.7,M,1.8,0000*49
$GPGSA,A,3,07,11,17,01,26,08,28,,,,,,2.2,1.1,1.9*3C
$GPRMC,045054.000,A,3353.7549,N,09832.0230,W,0.11,147.11,300312,,,D*70
$GPGGA,045055.000,3353.7548,N,09832.0230,W,2,07,1.1,314.1,M,-23.7,M,2.8,0000*4A
$GPGSA,A,3,07,11,17,01,26,08,28,,,,,,2.2,1.1,1.9*3C
$GPRMC,045055.000,A,3353.7548,N,09832.0230,W,0.12,147.17,300312,,,D*75
$GPGGA,045056.000,3353.7547,N,09832.0230,W,2,07,1.1,314.0,M,-23.7,M,3.8,0000*46
$GPGSA,A,3,07,11,17,01,26,08,28,,,,,,2.2,1.1,1.9*3C
$GPRMC,045056.000,A,3353.7547,N,09832.0230,W,0.14,151.32,300312,,,D*7F
$GPGGA,045057.000,3353.7546,N,09832.0230,W,2,07,1.1,314.0,M,-23.7,M,0.8,0000*45
$GPGSA,A,3,07,11,17,01,26,08,28,,,,,,2.2,1.1,1.9*3C
$GPGSV,3,1,12,17,66,260,38,08,64,152,34,28,61,356,32,01,39,067,34*7B
$GPGSV,3,2,12,26,28,263,26,11,26,051,36,07,25,149,29,27,11,321,*71
$GPGSV,3,3,12,15,09,306,,04,07,192,20,20,00,113,,51,49,195,39*76
$GPRMC,045057.000,A,3353.7546,N,09832.0230,W,0.09,174.38,300312,,,D*7E
$GPGGA,045058.000,3353.7545,N,09832.0231,W,2,07,1.1,313.8,M,-23.7,M,0.8,0000*47
$GPGSA,A,3,07,11,17,01,26,08,28,,,,,,2.2,1.1,1.9*3C
$GPRMC,045058.000,A,3353.7545,N,09832.0231,W,0.15,171.67,300312,,,D*71
$GPGGA,045059.000,3353.7544,N,09832.0231,W,2,07,1.1,313.5,M,-23.7,M,0.8,0000*4A
$GPGSA,A,3,07,11,17,01,26,08,28,,,,,,2.2,1.1,1.9*3C
$GPRMC,045059.000,A,3353.7544,N,09832.0231,W,0.08,244.26,300312,,,D*7D
$GPGGA,045100.000,3353.7544,N,09832.0232,W,2,07,1.1,313.1,M,-23.7,M,1.8,0000*41
$GPGSA,A,3,07,11,17,01,26,08,28,,,,,,2.2,1.1,1.9*3C
$GPRMC,045100.000,A,3353.7544,N,09832.0232,W,0.16,266.97,300312,,,D*76
$GPGGA,045101.000,3353.7543,N,09832.0232,W,2,07,1.1,312.9,M,-23.7,M,2.8,0000*4D
$GPGSA,A,3,07,11,17,01,26,08,28,,,,,,2.2,1.1,1.9*3C
$GPRMC,045101.000,A,3353.7543,N,09832.0232,W,0.09,146.19,300312,,,D*79
$GPGGA,045102.000,3353.7542,N,09832.0233,W,2,07,1.1,312.6,M,-23.7,M,3.8,0000*40
$GPGSA,A,3,07,11,17,01,26,08,28,,,,,,2.2,1.1,1.9*3C
$GPGSV,3,1,12,17,66,260,38,08,64,152,34,28,61,356,32,01,39,067,34*7B
$GPGSV,3,2,12,26,28,263,24,11,26,051,35,07,25,149,25,27,11,321,*7C
$GPGSV,3,3,12,15,09,306,,04,07,192,21,20,00,113,,51,49,195,39*77
$GPRMC,045102.000,A,3353.7542,N,09832.0233,W,0.08,245.49,300312,,,D*7E
$GPGGA,045103.000,3353.7542,N,09832.0233,W,2,07,1.1,312.1,M,-23.7,M,0.8,0000*45
$GPGSA,A,3,07,11,17,01,26,08,28,,,,,,2.2,1.1,1.9*3C
$GPRMC,045103.000,A,3353.7542,N,09832.0233,W,0.07,243.33,300312,,,D*7B
$GPGGA,045104.000,3353.7542,N,09832.0234,W,2,07,1.1,311.8,M,-23.7,M,0.8,0000*4F
$GPGSA,A,3,07,11,17,01,26,08,28,,,,,,2.2,1.1,1.9*3C
$GPRMC,045104.000,A,3353.7542,N,09832.0234,W,0.14,305.82,300312,,,D*70
$GPGGA,045105.000,3353.7541,N,09832.0234,W,2,07,1.1,311.8,M,-23.7,M,0.8,0000*4D
$GPGSA,A,3,07,11,17,01,26,08,28,,,,,,2.2,1.1,1.9*3C
$GPRMC,045105.000,A,3353.7541,N,09832.0234,W,0.08,329.36,300312,,,D*7E
$GPGGA,045106.000,3353.7541,N,09832.0234,W,2,07,1.1,312.0,M,-23.7,M,0.8,0000*45
$GPGSA,A,3,07,11,17,01,26,08,28,,,,,,2.2,1.1,1.9*3C
$GPRMC,045106.000,A,3353.7541,N,09832.0234,W,0.09,357.89,300312,,,D*71
$GPGGA,045107.000,3353.7541,N,09832.0233,W,2,07,1.1,312.1,M,-23.7,M,0.8,0000*42
$GPGSA,A,3,07,11,17,01,26,08,28,,,,,,2.2,1.1,1.9*3C
$GPGSV,3,1,12,17,66,260,39,08,64,152,34,28,61,356,32,01,39,067,33*7D
$GPGSV,3,2,12,26,28,263,24,11,26,051,35,07,25,149,24,27,11,321,*7D
$GPGSV,3,3,12,15,09,306,,04,07,192,21,20,00,113,,51,49,195,39*77
$GPRMC,045107.000,A,3353.7541,N,09832.0233,W,0.17,43.50,300312,,,D*4A
$GPGGA,045108.000,3353.7540,N,09832.0233,W,2,07,1.1,312.1,M,-23.7,M,0.8,0000*4C
$GPGSA,A,3,07,11,17,01,26,08,28,,,,,,2.2,1.1,1.9*3C
$GPRMC,045108.000,A,3353.7540,N,09832.0233,W,0.33,151.37,300312,,,D*71
$GPGGA,045109.000,3353.7539,N,09832.0235,W,2,07,1.1,311.3,M,-23.7,M,0.8,0000*44
$GPGSA,A,3,07,11,17,01,26,08,28,,,,,,2.2,1.1,1.9*3C
$GPRMC,045109.000,A,3353.7539,N,09832.0235,W,0.39,172.82,300312,,,D*7D
$GPGGA,045110.000,3353.7537,N,09832.0237,W,2,07,1.1,310.4,M,-23.7,M,0.8,0000*46
$GPGSA,A,3,07,11,17,01,26,08,28,,,,,,2.2,1.1,1.9*3C
$GPRMC,045110.000,A,3353.7537,N,09832.0237,W,0.62,164.34,300312,,,D*7D
$GPGGA,045111.000,3353.7536,N,09832.0239,W,2,07,1.1,309.4,M,-23.7,M,0.8,0000*40
$GPGSA,A,3,07,11,17,01,26,08,28,,,,,,2.2,1.1,1.9*3C
$GPRMC,045111.000,A,3353.7536,N,09832.0239,W,0.23,157.42,300312,,,D*77
$GPGGA,045112.000,3353.7535,N,09832.0239,W,2,07,1.1,309.3,M,-23.7,M,1.8,0000*46
$GPGSA,A,3,07,11,17,01,26,08,28,,,,,,2.2,1.1,1.9*3C
$GPGSV,3,1,12,17,66,260,39,08,64,152,35,28,61,356,32,01,39,067,33*7C
$GPGSV,3,2,12,26,28,263,24,11,26,051,35,07,25,149,24,27,11,321,*7D
$GPGSV,3,3,12,15,09,306,,04,07,192,21,20,00,113,,51,49,195,39*77
$GPRMC,045112.000,A,3353.7535,N,09832.0239,W,0.16,206.04,300312,,,D*74
$GPGGA,045113.000,3353.7534,N,09832.0241,W,2,07,1.1,308.3,M,-23.7,M,2.8,0000*4B
$GPGSA,A,3,07,11,17,01,26,08,28,,,,,,2.2,1.1,1.9*3C
$GPRMC,045113.000,A,3353.7534,N,09832.0241,W,0.18,205.75,300312,,,D*70
$GPGGA,045114.000,3353.7534,N,09832.0243,W,2,07,1.1,307.7,M,-23.7,M,0.8,0000*47
$GPGSA,A,3,07,11,17,01,26,08,28,,,,,,2.2,1.1,1.9*3C
$GPRMC,045114.000,A,3353.7534,N,09832.0243,W,0.08,318.74,300312,,,D*78
$GPGGA,045115.000,3353.7531,N,09832.0242,W,2,07,1.1,306.9,M,-23.7,M,0.8,0000*4D
$GPGSA,A,3,07,11,17,01,26,08,28,,,,,,2.2,1.1,1.9*3C
$GPRMC,045115.000,A,3353.7531,N,09832.0242,W,0.06,253.58,300312,,,D*73
$GPGGA,045116.000,3353.7531,N,09832.0242,W,2,07,1.1,306.9,M,-23.7,M,0.8,0000*4E
$GPGSA,A,3,07,11,17,01,26,08,28,,,,,,2.2,1.1,1.9*3C
$GPRMC,045116.000,A,3353.7531,N,09832.0242,W,0.12,112.48,300312,,,D*72
$GPGGA,045117.000,3353.7531,N,09832.0242,W,2,07,1.1,307.1,M,-23.7,M,0.8,0000*46
$GPGSA,A,3,07,11,17,01,26,08,28,,,,,,2.2,1.1,1.9*3C
$GPGSV,3,1,12,17,66,260,39,08,64,152,36,28,61,356,32,01,39,067,32*7E
$GPGSV,3,2,12,26,28,263,24,11,26,051,35,07,25,149,25,27,11,321,*7C
$GPGSV,3,3,12,15,09,306,,04,07,192,21,20,00,113,,51,49,195,39*77
$GPRMC,045117.000,A,3353.7531,N,09832.0242,W,0.13,104.84,300312,,,D*75
$GPGGA,045118.000,3353.7532,N,09832.0241,W,2,07,1.1,307.4,M,-23.7,M,1.8,0000*4D
$GPGSA,A,3,07,11,17,01,26,08,28,,,,,,2.2,1.1,1.9*3C
$GPRMC,045118.000,A,3353.7532,N,09832.0241,W,0.19,101.09,300312,,,D*70
$GPGGA,045119.000,3353.7533,N,09832.0241,W,2,07,1.1,307.5,M,-23.7,M,2.8,0000*4F
$GPGSA,A,3,07,11,17,01,26,08,28,,,,,,2.2,1.1,1.9*3C
$GPRMC,045119.000,A,3353.7533,N,09832.0241,W,0.02,261.35,300312,,,D*70
$GPGGA,045120.000,3353.7534,N,09832.0241,W,2,07,1.1,307.9,M,-23.7,M,3.8,0000*4F
$GPGSA,A,3,07,11,17,01,26,08,28,,,,,,2.2,1.1,1.9*3C
$GPRMC,045120.000,A,3353.7534,N,09832.0241,W,0.18,96.87,300312,,,D*45
$GPGGA,045121.000,3353.7534,N,09832.0240,W,2,07,1.1,308.3,M,-23.7,M,0.8,0000*49
$GPGSA,A,3,07,11,17,01,26,08,28,,,,,,2.2,1.1,1.9*3C
$GPRMC,045121.000,A,3353.7534,N,09832.0240,W,0.16,105.32,300312,,,D*7E
$GPGGA,045122.000,3353.7535,N,09832.0240,W,2,07,1.1,308.5,M,-23.7,M,0.8,0000*4D
$GPGSA,A,3,07,11,17,01,26,08,28,,,,,,2.2,1.1,1.9*3C
$GPGSV,3,1,12,17,66,260,39,08,64,152,36,28,61,356,32,01,39,067,32*7E
$GPGSV,3,2,12,26,28,263,24,11,26,051,35,07,25,149,27,27,11,321,*7E
$GPGSV,3,3,12,15,09,306,,04,07,192,20,20,00,113,,51,49,195,39*76
$GPRMC,045122.000,A,3353.7535,N,09832.0240,W,0.08,121.71,300312,,,D*72
$GPGGA,045123.000,3353.7535,N,09832.0240,W,2,07,1.1,308.6,M,-23.7,M,0.8,0000*4F
$GPGSA,A,3,07,11,17,01,26,08,28,,,,,,2.2,1.1,1.9*3C
$GPRMC,045123.000,A,3353.7535,N,09832.0240,W,0.08,167.84,300312,,,D*7B
$GPGGA,045124.000,3353.7535,N,09832.0240,W,2,07,1.1,308.7,M,-23.7,M,0.8,0000*49
$GPGSA,A,3,07,11,17,01,26,08,28,,,,,,2.2,1.1,1.9*3C
$GPRMC,045124.000,A,3353.7535,N,09832.0240,W,0.07,168.32,300312,,,D*71
$GPGGA,045125.000,3353.7535,N,09832.0240,W,2,07,1.1,309.0,M,-23.7,M,1.8,0000*4F
$GPGSA,A,3,07,11,17,01,26,08,28,,,,,,2.2,1.1,1.9*3C
$GPRMC,045125.000,A,3353.7535,N,09832.0240,W,0.20,117.53,300312,,,D*7A
$GPGGA,045126.000,3353.7535,N,09832.0239,W,2,07,1.1,309.3,M,-23.7,M,2.8,0000*42
$GPGSA,A,3,07,11,17,01,26,08,28,,,,,,2.2,1.1,1.9*3C
$GPRMC,045126.000,A,3353.7535,N,09832.0239,W,0.18,119.27,300312,,,D*71
$GPGGA,045127.000,3353.7535,N,09832.0239,W,2,07,1.1,309.4,M,-23.7,M,0.8,0000*46
$GPGSA,A,3,07,11,17,01,26,08,28,,,,,,2.2,1.1,1.9*3C
$GPGSV,3,1,12,17,66,260,39,08,64,152,37,28,61,356,32,01,39,067,32*7F
$GPGSV,3,2,12,26,28,263,24,11,26,051,34,07,25,149,29,27,11,321,*71
$GPGSV,3,3,12,15,09,306,,04,07,192,20,20,00,113,,51,49,195,39*76
$GPRMC,045127.000,A,3353.7535,N,09832.0239,W,0.13,140.31,300312,,,D*70
$GPGGA,045128.000,3353.7535,N,09832.0238,W,2,07,1.1,309.6,M,-23.7,M,0.8,0000*4A
$GPGSA,A,3,07,11,17,01,26,08,28,,,,,,2.2,1.1,1.9*3C
$GPRMC,045128.000,A,3353.7535,N,09832.0238,W,0.17,105.93,300312,,,D*73
$GPGGA,045129.000,3353.7536,N,09832.0238,W,2,07,1.1,309.8,M,-23.7,M,0.8,0000*46
$GPGSA,A,3,07,11,17,01,26,08,28,,,,,,2.2,1.1,1.9*3C
$GPRMC,045129.000,A,3353.7536,N,09832.0238,W,0.09,105.36,300312,,,D*71
$GPGGA,045130.000,3353.7536,N,09832.0237,W,2,07,1.1,310.2,M,-23.7,M,1.8,0000*42
$GPGSA,A,3,07,11,17,01,26,08,28,,,,,,2.2,1.1,1.9*3C
$GPRMC,045130.000,A,3353.7536,N,09832.0237,W,0.29,94.66,300312,,,D*48
$GPGGA,045131.000,3353.7537,N,09832.0236,W,2,07,1.1,310.6,M,-23.7,M,2.8,0000*44
$GPGSA,A,3,07,11,17,01,26,08,28,,,,,,2.2,1.1,1.9*3C
$GPRMC,045131.000,A,3353.7537,N,09832.0236,W,0.26,93.67,300312,,,D*40
$GPGGA,045132.000,3353.7537,N,09832.0236,W,2,07,1.1,310.9,M,-23.7,M,3.8,0000*49
$GPGSA,A,3,07,11,17,01,26,08,28,,,,,,2.2,1.1,1.9*3C
$GPGSV,3,1,12,17,66,260,39,08,64,152,37,28,61,356,32,01,39,067,32*7F
$GPGSV,3,2,12,26,28,263,24,11,26,051,34,07,25,149,31,27,11,321,*78
$GPGSV,3,3,12,15,09,306,,04,07,192,20,20,00,113,,51,49,195,39*76
$GPRMC,045132.000,A,3353.7537,N,09832.0236,W,0.14,98.91,300312,,,D*40
$GPGGA,045133.000,3353.7538,N,09832.0235,W,2,07,1.1,311.3,M,-23.7,M,0.8,0000*4C
$GPGSA,A,3,07,11,17,01,26,08,28,,,,,,2.2,1.1,1.9*3C
$GPRMC,045133.000,A,3353.7538,N,09832.0235,W,0.23,92.25,300312,,,D*4C
$GPGGA,045134.000,3353.7538,N,09832.0234,W,2,07,1.1,311.7,M,-23.7,M,0.8,0000*4E
$GPGSA,A,3,07,11,17,01,26,08,28,,,,,,2.2,1.1,1.9*3C
$GPRMC,045134.000,A,3353.7538,N,09832.0234,W,0.22,104.44,300312,,,D*72
$GPGGA,045135.000,3353.7538,N,09832.0235,W,2,07,1.1,311.7,M,-23.7,M,0.8,0000*4E
$GPGSA,A,3,07,11,17,01,26,08,28,,,,,,2.2,1.1,1.9*3C
$GPRMC,045135.000,A,3353.7538,N,09832.0235,W,0.07,163.99,300312,,,D*74
$GPGGA,045136.000,3353.7538,N,09832.0236,W,2,07,1.1,311.7,M,-23.7,M,1.8,0000*4F
$GPGSA,A,3,07,11,17,01,26,08,28,,,,,,2.2,1.1,1.9*3C
$GPRMC,045136.000,A,3353.7538,N,09832.0236,W,0.06,192.82,300312,,,D*71
$GPGGA,045137.000,3353.7538,N,09832.0237,W,2,07,1.1,311.8,M,-23.7,M,0.8,0000*41
$GPGSA,A,3,07,11,17,01,26,08,28,,,,,,2.2,1.1,1.9*3C
$GPGSV,3,1,12,17,66,260,40,08,64,152,37,28,61,356,32,01,39,067,31*72
$GPGSV,3,2,12,26,28,263,23,11,26,051,34,07,25,149,32,27,11,321,*7C
$GPGSV,3,3,12,15,09,306,,04,07,192,,20,00,113,,51,49,195,39*74
$GPRMC,045137.000,A,3353.7538,N,09832.0237,W,0.06,193.40,300312,,,D*7E
$GPGGA,045138.000,3353.7539,N,09832.0238,W,2,07,1.1,312.1,M,-23.7,M,0.8,0000*4A
$GPGSA,A,3,07,11,17,01,26,08,28,,,,,,2.2,1.1,1.9*3C
$GPRMC,045138.000,A,3353.7539,N,09832.0238,W,0.22,110.04,300312,,,D*72
$GPGGA,045139.000,3353.7539,N,09832.0238,W,2,07,1.1,312.3,M,-23.7,M,0.8,0000*49
$GPGSA,A,3,07,11,17,01,26,08,28,,,,,,2.2,1.1,1.9*3C
$GPRMC,045139.000,A,3353.7539,N,09832.0238,W,0.28,107.39,300312,,,D*71
$GPGGA,045140.000,3353.7539,N,09832.0238,W,2,07,1.1,312.3,M,-23.7,M,0.8,0000*47
$GPGSA,A,3,07,11,17,01,26,08,28,,,,,,2.2,1.1,1.9*3C
$GPRMC,045140.000,A,3353.7539,N,09832.0238,W,0.13,115.46,300312,,,D*7C
$GPGGA,045141.000,3353.7539,N,09832.0238,W,2,07,1.1,312.7,M,-23.7,M,0.8,0000*42
$GPGSA,A,3,07,11,17,01,26,08,28,,,,,,2.2,1.1,1.9*3C
$GPRMC,045141.000,A,3353.7539,N,09832.0238,W,0.29,94.46,300312,,,D*4C
$GPGGA,045142.000,3353.7540,N,09832.0238,W,2,07,1.1,312.8,M,-23.7,M,1.8,0000*41
$GPGSA,A,3,07,11,17,01,26,08,28,,,,,,2.2,1.1,1.9*3C
$GPGSV,3,1,12,17,66,260,39,08,64,152,37,28,61,356,32,01,39,067,31*7C
$GPGSV,3,2,12,26,28,263,22,11,26,051,35,07,25,149,32,27,11,321,*7C
$GPGSV,3,3,12,15,09,306,,04,07,192,23,20,00,113,13,51,49,195,39*77
$GPRMC,045142.000,A,3353.7540,N,09832.0238,W,0.09,96.13,300312,,,D*41
$GPGGA,045143.000,3353.7540,N,09832.0238,W,2,07,1.1,313.1,M,-23.7,M,2.8,0000*4B
$GPGSA,A,3,07,11,17,01,26,08,28,,,,,,2.2,1.1,1.9*3C
$GPRMC,045143.000,A,3353.7540,N,09832.0238,W,0.28,100.00,300312,,,D*7F
$GPGGA,045144.000,3353.7540,N,09832.0238,W,2,07,1.1,313.3,M,-23.7,M,3.8,0000*4F
$GPGSA,A,3,07,11,17,01,26,08,28,,,,,,2.2,1.1,1.9*3C
$GPRMC,045144.000,A,3353.7540,N,09832.0238,W,0.21,94.90,300312,,,D*44
$GPGGA,045145.000,3353.7541,N,09832.0238,W,2,07,1.1,313.7,M,-23.7,M,0.8,0000*48
$GPGSA,A,3,07,11,17,01,26,08,28,,,,,,2.2,1.1,1.9*3C
$GPRMC,045145.000,A,3353.7541,N,09832.0238,W,0.26,96.73,300312,,,D*4C
$GPGGA,045146.000,3353.7541,N,09832.0238,W,2,07,1.1,314.0,M,-23.7,M,0.8,0000*4B
$GPGSA,A,3,07,11,17,01,26,08,28,,,,,,2.2,1.1,1.9*3C
$GPRMC,045146.000,A,3353.7541,N,09832.0238,W,0.25,106.63,300312,,,D*75
$GPGGA,045147.000,3353.7541,N,09832.0237,W,2,07,1.1,314.2,M,-23.7,M,0.8,0000*47
$GPGSA,A,3,07,11,17,01,26,08,28,,,,,,2.2,1.1,1.9*3C
$GPGSV,3,1,12,17,66,260,39,08,64,152,37,28,61,356,32,01,39,067,30*7D
$GPGSV,3,2,12,26,28,263,21,11,26,051,35,07,25,149,32,27,11,321,*7F
$GPGSV,3,3,12,15,09,306,,04,07,192,23,20,00,113,,51,49,195,39*75
$GPRMC,045147.000,A,3353.7541,N,09832.0237,W,0.08,129.07,300312,,,D*7B
$GPGGA,045148.000,3353.7542,N,09832.0236,W,2,07,1.1,314.4,M,-23.7,M,1.8,0000*4D
$GPGSA,A,3,07,11,17,01,26,08,28,,,,,,2.2,1.1,1.9*3C
$GPRMC,045148.000,A,3353.7542,N,09832.0236,W,0.11,134.05,300312,,,D*70
$GPGGA,045149.000,3353.7542,N,09832.0235,W,2,07,1.1,314.8,M,-23.7,M,0.8,0000*42
$GPGSA,A,3,07,11,17,01,26,08,28,,,,,,2.2,1.1,1.9*3C
$GPRMC,045149.000,A,3353.7542,N,09832.0235,W,0.29,104.95,300312,,,D*73
$GPGGA,045150.000,3353.7542,N,09832.0233,W,2,07,1.1,315.2,M,-23.7,M,1.8,0000*46
$GPGSA,A,3,07,11,17,01,26,08,28,,,,,,2.2,1.1,1.9*3C
$GPRMC,045150.000,A,3353.7542,N,09832.0233,W,0.33,103.85,300312,,,D*70
$GPGGA,045151.000,3353.7543,N,09832.0232,W,2,07,1.1,315.3,M,-23.7,M,0.8,0000*47
$GPGSA,A,3,07,11,17,01,26,08,28,,,,,,2.2,1.1,1.9*3C
$GPRMC,045151.000,A,3353.7543,N,09832.0232,W,0.18,113.04,300312,,,D*70
$GPGGA,045152.000,3353.7543,N,09832.0231,W,2,07,1.1,315.5,M,-23.7,M,0.8,0000*41
$GPGSA,A,3,07,11,17,01,26,08,28,,,,,,2.2,1.1,1.9*3C
$GPGSV,3,1,12,17,66,260,39,08,64,152,37,28,61,356,32,01,39,067,29*75
$GPGSV,3,2,12,26,28,263,21,11,26,051,35,07,25,149,32,27,11,321,*7F
$GPGSV,3,3,12,15,09,306,,04,07,192,23,20,00,113,,51,49,195,40*7B
$GPRMC,045152.000,A,3353.7543,N,09832.0231,W,0.17,100.03,300312,,,D*7A
$GPGGA,045153.000,3353.7543,N,09832.0237,W,2,07,1.1,314.1,M,-23.7,M,0.8,0000*43
$GPGSA,A,3,07,11,17,01,26,08,28,,,,,,2.2,1.1,1.9*3C
$GPRMC,045153.000,A,3353.7543,N,09832.0237,W,0.17,102.12,300312,,,D*7F
$GPGGA,045154.000,3353.7544,N,09832.0235,W,2,07,1.1,314.4,M,-23.7,M,0.8,0000*44
$GPGSA,A,3,07,11,17,01,26,08,28,,,,,,2.2,1.1,1.9*3C
$GPRMC,045154.000,A,3353.7544,N,09832.0235,W,0.09,102.06,300312,,,D*77
$GPGGA,045155.000,3353.7544,N,09832.0238,W,2,07,1.1,313.9,M,-23.7,M,1.8,0000*43
$GPGSA,A,3,07,11,17,01,26,08,28,,,,,,2.2,1.1,1.9*3C
$GPRMC,045155.000,A,3353.7544,N,09832.0238,W,0.16,120.67,300312,,,D*72
$GPGGA,045156.000,3353.7545,N,09832.0236,W,2,07,1.1,314.1,M,-23.7,M,2.8,0000*43
$GPGSA,A,3,07,11,17,01,26,08,28,,,,,,2.2,1.1,1.9*3C
$GPRMC,045156.000,A,3353.7545,N,09832.0236,W,0.07,107.40,300312,,,D*7E
$GPGGA,045157.000,3353.7545,N,09832.0234,W,2,07,1.1,314.3,M,-23.7,M,0.8,0000*40
$GPGSA,A,3,07,11,17,01,26,08,28,,,,,,2.2,1.1,1.9*3C
$GPGSV,3,1,12,17,66,260,39,08,64,152,37,28,61,356,32,01,39,067,28*74
$GPGSV,3,2,12,26,28,263,21,11,26,051,35,07,25,149,31,27,11,321,*7C
$GPGSV,3,3,12,15,09,306,,04,07,192,22,20,00,113,,51,49,195,39*74
$GPRMC,045157.000,A,3353.7545,N,09832.0234,W,0.01,232.04,300312,,,D*7E
$GPGGA,045158.000,3353.7546,N,09832.0231,W,2,07,1.1,314.5,M,-23.7,M,0.8,0000*4F
$GPGSA,A,3,07,11,17,01,26,08,28,,,,,,2.2,1.1,1.9*3C
$GPRMC,045158.000,A,3353.7546,N,09832.0231,W,0.03,145.84,300312,,,D*7E
$GPGGA,045159.000,3353.7547,N,09832.0230,W,2,07,1.1,314.6,M,-23.7,M,0.8,0000*4D
$GPGSA,A,3,07,11,17,01,26,08,28,,,,,,2.2,1.1,1.9*3C
$GPRMC,045159.000,A,3353.7547,N,09832.0230,W,0.06,228.26,300312,,,D*7A
$GPGGA,045200.000,3353.7547,N,09832.0228,W,2,07,1.1,314.8,M,-23.7,M,1.8,0000*44
$GPGSA,A,3,07,11,17,01,26,08,28,,,,,,2.2,1.1,1.9*3C
$GPRMC,045200.000,A,3353.7547,N,09832.0228,W,0.08,118.32,300312,,,D*77
$GPGGA,045201.000,3353.7547,N,09832.0226,W,2,07,1.1,315.0,M,-23.7,M,2.8,0000*41
$GPGSA,A,3,07,11,17,01,26,08,28,,,,,,2.2,1.1,1.9*3C
$GPRMC,045201.000,A,3353.7547,N,09832.0226,W,0.06,132.05,300312,,,D*7A
$GPGGA,045202.000,3353.7547,N,09832.0224,W,2,07,1.1,315.3,M,-23.7,M,3.8,0000*42
$GPGSA,A,3,07,11,17,01,26,08,28,,,,,,2.2,1.1,1.9*3C
$GPGSV,3,1,12,17,66,260,39,08,64,152,38,28,61,356,33,01,39,067,29*7B
$GPGSV,3,2,12,26,28,263,22,11,26,051,35,07,25,149,30,27,11,321,*7E
$GPGSV,3,3,12,15,09,306,,04,07,192,22,20,00,113,,51,49,195,39*74
$GPRMC,045202.000,A,3353.7547,N,09832.0224,W,0.23,108.39,300312,,,D*7A
$GPGGA,045203.000,3353.7547,N,09832.0223,W,2,07,1.1,315.4,M,-23.7,M,0.8,0000*40
$GPGSA,A,3,07,11,17,01,26,08,28,,,,,,2.2,1.1,1.9*3C
$GPRMC,045203.000,A,3353.7547,N,09832.0223,W,0.14,108.54,300312,,,D*73
$GPGGA,045204.000,3353.7547,N,09832.0221,W,2,07,1.1,315.5,M,-23.7,M,0.8,0000*44
$GPGSA,A,3,07,11,17,01,26,08,28,,,,,,2.2,1.1,1.9*3C
$GPRMC,045204.000,A,3353.7547,N,09832.0221,W,0.07,125.09,300312,,,D*73
$GPGGA,045205.000,3353.7547,N,09832.0220,W,2,07,1.1,315.5,M,-23.7,M,0.8,0000*44
$GPGSA,A,3,07,11,17,01,26,08,28,,,,,,2.2,1.1,1.9*3C
$GPRMC,045205.000,A,3353.7547,N,09832.0220,W,0.05,141.88,300312,,,D*7A
$GPGGA,045206.000,3353.7546,N,09832.0219,W,2,07,1.1,315.7,M,-23.7,M,1.8,0000*4F
$GPGSA,A,3,07,11,17,01,26,08,28,,,,,,2.2,1.1,1.9*3C
$GPRMC,045206.000,A,3353.7546,N,09832.0219,W,0.24,101.53,300312,,,D*73
$GPGGA,045207.000,3353.7546,N,09832.0217,W,2,07,1.1,316.1,M,-23.7,M,2.8,0000*46
$GPGSA,A,3,07,11,17,01,26,08,28,,,,,,2.2,1.1,1.9*3C
$GPGSV,3,1,12,17,66,260,38,08,64,152,38,28,61,356,33,01,39,067,29*7A
$GPGSV,3,2,12,26,28,263,22,11,26,051,35,07,25,149,30,27,11,321,*7E
$GPGSV,3,3,12,15,09,306,,04,07,192,22,20,00,113,,51,49,195,39*74
$GPRMC,045207.000,A,3353.7546,N,09832.0217,W,0.35,99.27,300312,,,D*4F
$GPGGA,045208.000,3353.7546,N,09832.0215,W,2,07,1.1,316.3,M,-23.7,M,3.8,0000*48
$GPGSA,A,3,07,11,17,01,26,08,28,,,,,,2.2,1.1,1.9*3C
$GPRMC,045208.000,A,3353.7546,N,09832.0215,W,0.23,106.50,300312,,,D*72
$GPGGA,045209.000,3353.7545,N,09832.0214,W,2,07,1.1,316.6,M,-23.7,M,0.8,0000*4D
$GPGSA,A,3,07,11,17,01,26,08,28,,,,,,2.2,1.1,1.9*3C
$GPRMC,045209.000,A,3353.7545,N,09832.0214,W,0.25,104.87,300312,,,D*7F
$GPGGA,045210.000,3353.7545,N,09832.0212,W,2,07,1.1,316.8,M,-23.7,M,0.8,0000*4D
$GPGSA,A,3,07,11,17,01,26,08,28,,,,,,2.2,1.1,1.9*3C
$GPRMC,045210.000,A,3353.7545,N,09832.0212,W,0.21,111.44,300312,,,D*7E
$GPGGA,045211.000,3353.7544,N,09832.0212,W,2,07,1.1,316.8,M,-23.7,M,0.8,0000*4D
$GPGSA,A,3,07,11,17,01,26,08,28,,,,,,2.2,1.1,1.9*3C
$GPRMC,045211.000,A,3353.7544,N,09832.0212,W,0.09,146.75,300312,,,D*74
$GPGGA,045212.000,3353.7544,N,09832.0212,W,2,07,1.1,316.8,M,-23.7,M,0.8,0000*4E
$GPGSA,A,3,07,11,17,01,26,08,28,,,,,,2.2,1.1,1.9*3C
$GPGSV,3,1,12,17,66,260,38,08,64,152,38,28,61,356,33,01,39,067,29*7A
$GPGSV,3,2,12,26,28,263,22,11,26,051,35,07,25,149,30,27,11,321,*7E
$GPGSV,3,3,12,15,09,306,,04,07,192,22,20,00,113,,51,49,195,39*74
$GPRMC,045212.000,A,3353.7544,N,09832.0212,W,0.06,193.49,300312,,,D*7F
$GPGGA,045213.000,3353.7544,N,09832.0211,W,2,07,1.1,316.9,M,-23.7,M,0.8,0000*4D
$GPGSA,A,3,07,11,17,01,26,08,28,,,,,,2.2,1.1,1.9*3C
$GPRMC,045213.000,A,3353.7544,N,09832.0211,W,0.09,134.15,300312,,,D*76
$GPGGA,045214.000,3353.7544,N,09832.0210,W,2,07,1.1,317.0,M,-23.7,M,1.8,0000*42
$GPGSA,A,3,07,11,17,01,26,08,28,,,,,,2.2,1.1,1.9*3C
$GPRMC,045214.000,A,3353.7544,N,09832.0210,W,0.17,112.02,300312,,,D*7D
$GPGGA,045215.000,3353.7543,N,09832.0210,W,2,07,1.1,317.0,M,-23.7,M,0.8,0000*45
$GPGSA,A,3,07,11,17,01,26,08,28,,,,,,2.2,1.1,1.9*3C
$GPRMC,045215.000,A,3353.7543,N,09832.0210,W,0.06,207.90,300312,,,D*77
$GPGGA,045216.000,3353.7543,N,09832.0209,W,2,07,1.1,317.2,M,-23.7,M,0.8,0000*4C
$GPGSA,A,3,07,11,17,01,26,08,28,,,,,,2.2,1.1,1.9*3C
$GPRMC,045216.000,A,3353.7543,N,09832.0209,W,0.22,105.32,300312,,,D*73
$GPGGA,045217.000,3353.7543,N,09832.0208,W,2,07,1.1,317.3,M,-23.7,M,0.8,0000*4D
$GPGSA,A,3,07,11,17,01,26,08,28,,,,,,2.2,1.1,1.9*3C
$GPGSV,3,1,12,17,66,260,38,08,64,152,38,28,61,356,33,01,39,067,29*7A
$GPGSV,3,2,12,26,28,263,22,11,26,051,36,07,25,149,30,27,11,321,*7D
$GPGSV,3,3,12,15,09,306,,04,07,192,21,20,00,113,,51,49,195,39*77
$GPRMC,045217.000,A,3353.7543,N,09832.0208,W,0.28,103.33,300312,,,D*7E
$GPGGA,045218.000,3353.7543,N,09832.0207,W,2,07,1.1,317.4,M,-23.7,M,0.8,0000*4A
$GPGSA,A,3,07,11,17,01,26,08,28,,,,,,2.2,1.1,1.9*3C
$GPRMC,045218.000,A,3353.7543,N,09832.0207,W,0.12,113.38,300312,,,D*7D
$GPGGA,045219.000,3353.7543,N,09832.0207,W,2,07,1.1,317.4,M,-23.7,M,1.8,0000*4A
$GPGSA,A,3,07,11,17,01,26,08,28,,,,,,2.2,1.1,1.9*3C
$GPRMC,045219.000,A,3353.7543,N,09832.0207,W,0.14,110.64,300312,,,D*70
$GPGGA,045220.000,3353.7542,N,09832.0206,W,2,07,1.1,317.4,M,-23.7,M,0.8,0000*41
$GPGSA,A,3,07,11,17,01,26,08,28,,,,,,2.2,1.1,1.9*3C
$GPRMC,045220.000,A,3353.7542,N,09832.0206,W,0.03,181.35,300312,,,D*70
$GPGGA,045221.000,3353.7542,N,09832.0206,W,2,07,1.1,317.6,M,-23.7,M,0.8,0000*42
$GPGSA,A,3,07,11,17,01,26,08,28,,,,,,2.2,1.1,1.9*3C
$GPRMC,045221.000,A,3353.7542,N,09832.0206,W,0.24,106.00,300312,,,D*7D
$GPGGA,045222.000,3353.7542,N,09832.0204,W,2,07,1.1,317.8,M,-23.7,M,0.8,0000*4D
$GPGSA,A,3,07,11,17,01,26,08,28,,,,,,2.2,1.1,1.9*3C
$GPGSV,3,1,12,17,66,260,37,08,64,152,38,28,61,356,33,01,39,067,29*75
$GPGSV,3,2,12,26,28,263,22,11,26,051,36,07,25,149,30,27,11,321,*7D
$GPGSV,3,3,12,15,09,306,,04,07,192,21,20,00,113,,51,49,195,39*77
$GPRMC,045222.000,A,3353.7542,N,09832.0204,W,0.26,105.45,300312,,,D*7C
$GPGGA,045223.000,3353.7542,N,09832.0204,W,2,07,1.1,317.9,M,-23.7,M,0.8,0000*4D
$GPGSA,A,3,07,11,17,01,26,08,28,,,,,,2.2,1.1,1.9*3C
$GPRMC,045223.000,A,3353.7542,N,09832.0204,W,0.11,110.62,300312,,,D*78
$GPGGA,045224.000,3353.7542,N,09832.0203,W,2,07,1.1,318.1,M,-23.7,M,1.8,0000*4B
$GPGSA,A,3,07,11,17,01,26,08,28,,,,,,2.2,1.1,1.9*3C
$GPRMC,045224.000,A,3353.7542,N,09832.0203,W,0.20,110.90,300312,,,D*77
$GPGGA,045225.000,3353.7542,N,09832.0202,W,2,07,1.1,318.3,M,-23.7,M,0.8,0000*48
$GPGSA,A,3,07,11,17,01,26,08,28,,,,,,2.2,1.1,1.9*3C
$GPRMC,045225.000,A,3353.7542,N,09832.0202,W,0.33,100.35,300312,,,D*7B
$GPGGA,045226.000,3353.7542,N,09832.0201,W,2,07,1.1,318.5,M,-23.7,M,1.8,0000*4F
$GPGSA,A,3,07,11,17,01,26,08,28,,,,,,2.2,1.1,1.9*3C
$GPRMC,045226.000,A,3353.7542,N,09832.0201,W,0.20,103.83,300312,,,D*77
$GPGGA,045227.000,3353.7542,N,09832.0201,W,2,07,1.1,318.6,M,-23.7,M,0.8,0000*4C
$GPGSA,A,3,07,11,17,01,26,08,28,,,,,,2.2,1.1,1.9*3C
$GPGSV,3,1,12,17,66,260,37,08,64,152,38,28,61,356,33,01,39,067,28*74
$GPGSV,3,2,12,26,28,263,21,11,26,051,36,07,25,149,30,27,11,321,*7E
$GPGSV,3,3,12,15,09,306,,04,07,192,21,20,00,113,,51,49,195,39*77
$GPRMC,045227.000,A,3353.7542,N,09832.0201,W,0.08,122.83,300312,,,D*7F
$GPGGA,045228.000,3353.7542,N,09832.0201,W,2,07,1.1,318.6,M,-23.7,M,0.8,0000*43
$GPGSA,A,3,07,11,17,01,26,08,28,,,,,,2.2,1.1,1.9*3C
$GPRMC,045228.000,A,3353.7542,N,09832.0201,W,0.00,289.48,300312,,,D*7D
$GPGGA,045229.000,3353.7542,N,09832.0201,W,2,07,1.1,318.6,M,-23.7,M,0.8,0000*42
$GPGSA,A,3,07,11,17,01,26,08,28,,,,,,2.2,1.1,1.9*3C
$GPRMC,045229.000,A,3353.7542,N,09832.0201,W,0.09,100.75,300312,,,D*79
$GPGGA,045230.000,3353.7542,N,09832.0201,W,2,07,1.1,318.5,M,-23.7,M,1.8,0000*48
$GPGSA,A,3,07,11,17,01,26,08,28,,,,,,2.2,1.1,1.9*3C
$GPRMC,045230.000,A,3353.7542,N,09832.0201,W,0.05,146.80,300312,,,D*75
$GPGGA,045231.000,3353.7542,N,09832.0201,W,2,07,1.1,318.5,M,-23.7,M,2.8,0000*4A
$GPGSA,A,3,07,11,17,01,26,08,28,,,,,,2.2,1.1,1.9*3C
$GPRMC,045231.000,A,3353.7542,N,09832.0201,W,0.05,251.97,300312,,,D*77
$GPGGA,045232.000,3353.7542,N,09832.0201,W,2,07,1.1,318.3,M,-23.7,M,3.8,0000*4E
$GPGSA,A,3,07,11,17,01,26,08,28,,,,,,2.2,1.1,1.9*3C
$GPGSV,3,1,12,17,66,260,37,08,64,152,38,28,61,356,34,01,39,067,28*73
$GPGSV,3,2,12,26,28,263,21,11,26,051,36,07,25,149,29,27,11,321,*76
$GPGSV,3,3,12,15,09,306,,04,07,192,21,20,00,113,,51,49,195,39*77
$GPRMC,045232.000,A,3353.7542,N,09832.0201,W,0.08,255.74,300312,,,D*70
$GPGGA,045233.000,3353.7542,N,09832.0201,W,2,07,1.1,318.3,M,-23.7,M,0.8,0000*4C
$GPGSA,A,3,07,11,17,01,26,08,28,,,,,,2.2,1.1,1.9*3C
$GPRMC,045233.000,A,3353.7542,N,09832.0201,W,0.06,240.44,300312,,,D*78
$GPGGA,045234.000,3353.7541,N,09832.0200,W,2,07,1.1,318.4,M,-23.7,M,0.8,0000*4E
$GPGSA,A,3,07,11,17,01,26,08,28,,,,,,2.2,1.1,1.9*3C
$GPRMC,045234.000,A,3353.7541,N,09832.0200,W,0.25,105.67,300312,,,D*7F
$GPGGA,045235.000,3353.7541,N,09832.0199,W,2,07,1.1,318.7,M,-23.7,M,0.8,0000*4F
$GPGSA,A,3,07,11,17,01,26,08,28,,,,,,2.2,1.1,1.9*3C
$GPRMC,045235.000,A,3353.7541,N,09832.0199,W,0.26,104.31,300312,,,D*7C
$GPGGA,045236.000,3353.7541,N,09832.0199,W,2,07,1.1,318.7,M,-23.7,M,1.8,0000*4D
$GPGSA,A,3,07,11,17,01,26,08,28,,,,,,2.2,1.1,1.9*3C
$GPRMC,045236.000,A,3353.7541,N,09832.0199,W,0.05,167.38,300312,,,D*72
$GPGGA,045237.000,3353.7541,N,09832.0199,W,2,07,1.1,318.6,M,-23.7,M,2.8,0000*4E
$GPGSA,A,3,07,11,17,01,26,08,28,,,,,,2.2,1.1,1.9*3C
$GPGSV,3,1,12,17,66,260,37,08,64,152,38,28,61,356,34,01,39,067,29*72
$GPGSV,3,2,12,26,28,263,20,11,26,051,36,07,25,149,30,27,11,321,*7F
$GPGSV,3,3,12,15,09,306,,04,07,192,20,20,00,113,,51,49,195,39*76
$GPRMC,045237.000,A,3353.7541,N,09832.0199,W,0.12,268.90,300312,,,D*7B
$GPGGA,045238.000,3353.7541,N,09832.0200,W,2,07,1.1,318.4,M,-23.7,M,3.8,0000*41
$GPGSA,A,3,07,11,17,01,26,08,28,,,,,,2.2,1.1,1.9*3C
$GPRMC,045238.000,A,3353.7541,N,09832.0200,W,0.21,263.85,300312,,,D*78
$GPGGA,045239.000,3353.7541,N,09832.0201,W,2,07,1.1,318.3,M,-23.7,M,0.8,0000*45
$GPGSA,A,3,07,11,17,01,26,08,28,,,,,,2.2,1.1,1.9*3C
$GPRMC,045239.000,A,3353.7541,N,09832.0201,W,0.17,265.98,300312,,,D*77
$GPGGA,045240.000,3353.7541,N,09832.0201,W,2,07,1.1,318.4,M,-23.7,M,0.8,0000*4C
$GPGSA,A,3,07,11,17,01,26,08,28,,,,,,2.2,1.1,1.9*3C
$GPRMC,045240.000,A,3353.7541,N,09832.0201,W,0.16,103.68,300312,,,D*74
$GPGGA,045241.000,3353.7540,N,09832.0199,W,2,07,1.1,318.6,M,-23.7,M,0.8,0000*4C
$GPGSA,A,3,07,11,17,01,26,08,28,,,,,,2.2,1.1,1.9*3C
$GPRMC,045241.000,A,3353.7540,N,09832.0199,W,0.38,104.95,300312,,,D*7F
$GPGGA,045242.000,3353.7540,N,09832.0197,W,2,07,1.1,318.9,M,-23.7,M,1.8,0000*4F
$GPGSA,A,3,07,11,17,01,26,08,28,,,,,,2.2,1.1,1.9*3C
$GPGSV,3,1,12,17,66,260,36,08,64,152,38,28,61,356,34,01,39,067,30*7B
$GPGSV,3,2,12,26,28,263,20,11,26,051,36,07,25,149,31,27,11,321,*7E
$GPGSV,3,3,12,15,09,306,,04,07,192,20,20,00,113,,51,49,195,38*77
$GPRMC,045242.000,A,3353.7540,N,09832.0197,W,0.42,102.48,300312,,,D*79
$GPGGA,045243.000,3353.7540,N,09832.0196,W,2,07,1.1,319.0,M,-23.7,M,2.8,0000*44
$GPGSA,A,3,07,11,17,01,26,08,28,,,,,,2.2,1.1,1.9*3C
$GPRMC,045243.000,A,3353.7540,N,09832.0196,W,0.33,105.08,300312,,,D*7C
$GPGGA,045244.000,3353.7539,N,09832.0196,W,2,07,1.1,319.0,M,-23.7,M,0.8,0000*4F
$GPGSA,A,3,07,11,17,01,26,08,28,,,,,,2.2,1.1,1.9*3C
$GPRMC,045244.000,A,3353.7539,N,09832.0196,W,0.10,113.84,300312,,,D*77
$GPGGA,045245.000,3353.7539,N,09832.0196,W,2,07,1.1,318.9,M,-23.7,M,0.8,0000*46
$GPGSA,A,3,07,11,17,01,26,08,28,,,,,,2.2,1.1,1.9*3C
$GPRMC,045245.000,A,3353.7539,N,09832.0196,W,0.05,208.89,300312,,,D*76
$GPGGA,045246.000,3353.7539,N,09832.0197,W,2,07,1.1,318.7,M,-23.7,M,0.8,0000*4A
$GPGSA,A,3,07,11,17,01,26,08,28,,,,,,2.2,1.1,1.9*3C
$GPRMC,045246.000,A,3353.7539,N,09832.0197,W,0.10,238.03,300312,,,D*71
$GPGGA,045247.000,3353.7539,N,09832.0198,W,2,07,1.1,318.6,M,-23.7,M,0.8,0000*45
$GPGSA,A,3,07,11,17,01,26,08,28,,,,,,2.2,1.1,1.9*3C
$GPGSV,3,1,12,17,66,260,36,08,64,152,38,28,61,356,34,01,39,067,31*7A
$GPGSV,3,2,12,26,28,263,20,11,26,051,36,07,25,149,31,27,11,321,*7E
$GPGSV,3,3,12,15,09,306,,04,07,192,20,20,00,113,,51,49,195,39*76
$GPRMC,045247.000,A,3353.7539,N,09832.0198,W,0.18,261.42,300312,,,D*7E
$GPGGA,045248.000,3353.7539,N,09832.0198,W,2,07,1.1,318.4,M,-23.7,M,1.8,0000*49
$GPGSA,A,3,07,11,17,01,26,08,28,,,,,,2.2,1.1,1.9*3C
$GPRMC,045248.000,A,3353.7539,N,09832.0198,W,0.14,265.90,300312,,,D*76
$GPGGA,045249.000,3353.7539,N,09832.0199,W,2,07,1.1,318.2,M,-23.7,M,0.8,0000*4E
$GPGSA,A,3,07,11,17,01,26,08,28,,,,,,2.2,1.1,1.9*3C
$GPRMC,045249.000,A,3353.7539,N,09832.0199,W,0.25,271.33,300312,,,D*78
$GPGGA,045250.000,3353.7539,N,09832.0200,W,2,07,1.1,318.0,M,-23.7,M,1.8,0000*46
$GPGSA,A,3,07,11,17,01,26,08,28,,,,,,2.2,1.1,1.9*3C
$GPRMC,045250.000,A,3353.7539,N,09832.0200,W,0.26,265.07,300312,,,D*72
$GPGGA,045251.000,3353.7538,N,09832.0201,W,2,07,1.1,317.8,M,-23.7,M,0.8,0000*41
$GPGSA,A,3,07,11,17,01,26,08,28,,,,,,2.2,1.1,1.9*3C
$GPRMC,045251.000,A,3353.7538,N,09832.0201,W,0.19,257.33,300312,,,D*79
$GPGGA,045252.000,3353.7538,N,09832.0202,W,2,07,1.1,317.6,M,-23.7,M,0.8,0000*4F
$GPGSA,A,3,07,11,17,01,26,08,28,,,,,,2.2,1.1,1.9*3C
$GPGSV,3,1,12,17,66,260,36,08,64,152,39,28,61,356,34,01,39,067,31*7B
$GPGSV,3,2,12,26,28,263,20,11,26,051,36,07,25,149,32,27,11,321,*7D
$GPGSV,3,3,12,15,09,306,,04,07,192,19,20,00,113,,51,49,195,39*7C
$GPRMC,045252.000,A,3353.7538,N,09832.0202,W,0.26,268.90,300312,,,D*70
$GPGGA,045253.000,3353.7538,N,09832.0203,W,2,07,1.1,317.4,M,-23.7,M,0.8,0000*4D
$GPGSA,A,3,07,11,17,01,26,08,28,,,,,,2.2,1.1,1.9*3C
$GPRMC,045253.000,A,3353.7538,N,09832.0203,W,0.23,254.66,300312,,,D*73
$GPGGA,045254.000,3353.7538,N,09832.0202,W,2,07,1.1,317.4,M,-23.7,M,1.8,0000*4A
$GPGSA,A,3,07,11,17,01,26,08,28,,,,,,2.2,1.1,1.9*3C
$GPRMC,045254.000,A,3353.7538,N,09832.0202,W,0.16,125.02,300312,,,D*74
$GPGGA,045255.000,3353.7538,N,09832.0201,W,2,07,1.1,317.6,M,-23.7,M,2.8,0000*49
$GPGSA,A,3,07,11,17,01,26,08,28,,,,,,2.2,1.1,1.9*3C
$GPRMC,045255.000,A,3353.7538,N,09832.0201,W,0.30,115.78,300312,,,D*7C
$GPGGA,045256.000,3353.7537,N,09832.0199,W,2,07,1.1,317.8,M,-23.7,M,3.8,0000*48
$GPGSA,A,3,07,11,17,01,26,08,28,,,,,,2.2,1.1,1.9*3C
$GPRMC,045256.000,A,3353.7537,N,09832.0199,W,0.36,108.82,300312,,,D*7D
$GPGGA,045257.000,3353.7537,N,09832.0198,W,2,07,1.1,317.9,M,-23.7,M,0.8,0000*4A
$GPGSA,A,3,07,11,17,01,26,08,28,,,,,,2.2,1.1,1.9*3C
$GPGSV,3,1,12,17,66,260,36,08,64,152,39,28,61,356,34,01,39,067,31*7B
$GPGSV,3,2,12,26,28,263,19,11,26,051,35,07,25,149,32,27,11,321,*74
$GPGSV,3,3,12,15,09,306,,04,07,192,19,20,00,113,18,51,49,195,39*75
$GPRMC,045257.000,A,3353.7537,N,09832.0198,W,0.24,116.35,300312,,,D*7D
$GPGGA,045258.000,3353.7537,N,09832.0197,W,2,07,1.1,318.1,M,-23.7,M,0.8,0000*4D
$GPGSA,A,3,07,11,17,01,26,08,28,,,,,,2.2,1.1,1.8*3D
$GPRMC,045258.000,A,3353.7537,N,09832.0197,W,0.34,111.98,300312,,,D*7C
$GPGGA,045259.000,3353.7537,N,09832.0196,W,2,07,1.1,318.3,M,-23.7,M,0.8,0000*4F
$GPGSA,A,3,07,11,17,01,26,08,28,,,,,,2.2,1.1,1.8*3D
$GPRMC,045259.000,A,3353.7537,N,09832.0196,W,0.23,101.56,300312,,,D*79
$GPGGA,045300.000,3353.7537,N,09832.0196,W,2,07,1.1,318.4,M,-23.7,M,0.8,0000*45
$GPGSA,A,3,07,11,17,01,26,08,28,,,,,,2.2,1.1,1.8*3D
$GPRMC,045300.000,A,3353.7537,N,09832.0196,W,0.17,107.87,300312,,,D*79
$GPGGA,045301.000,3353.7537,N,09832.0196,W,2,07,1.1,318.5,M,-23.7,M,1.8,0000*44
$GPGSA,A,3,07,11,17,01,26,08,28,,,,,,2.2,1.1,1.8*3D
$GPRMC,045301.000,A,3353.7537,N,09832.0196,W,0.14,108.11,300312,,,D*7B
$GPGGA,045302.000,3353.7537,N,09832.0196,W,2,07,1.1,318.5,M,-23.7,M,2.8,0000*44
$GPGSA,A,3,07,11,17,01,26,08,28,,,,,,2.2,1.1,1.8*3D
$GPGSV,3,1,12,17,66,260,35,08,64,152,39,28,61,356,35,01,39,067,32*7A
$GPGSV,3,2,12,26,28,263,19,11,26,051,35,07,25,149,32,27,11,321,*74
$GPGSV,3,3,12,15,09,306,,04,07,192,18,20,00,113,18,51,49,195,39*74
$GPRMC,045302.000,A,3353.7537,N,09832.0196,W,0.08,248.04,300312,,,D*76
$GPGGA,045303.000,3353.7537,N,09832.0196,W,2,07,1.1,318.4,M,-23.7,M,0.8,0000*46
$GPGSA,A,3,07,11,17,01,26,08,28,,,,,,2.2,1.1,1.8*3D
$GPRMC,045303.000,A,3353.7537,N,09832.0196,W,0.09,258.20,300312,,,D*71
$GPGGA,045304.000,3353.7537,N,09832.0197,W,2,07,1.1,318.3,M,-23.7,M,0.8,0000*47
$GPGSA,A,3,07,11,17,01,26,08,28,,,,,,2.2,1.1,1.8*3D
$GPRMC,045304.000,A,3353.7537,N,09832.0197,W,0.12,266.69,300312,,,D*7D
$GPGGA,045305.000,3353.7537,N,09832.0197,W,2,07,1.1,318.3,M,-23.7,M,0.8,0000*46
$GPGSA,A,3,07,11,17,01,26,08,28,,,,,,2.2,1.1,1.8*3D
$GPRMC,045305.000,A,3353.7537,N,09832.0197,W,0.06,205.68,300312,,,D*7D
$GPGGA,045306.000,3353.7536,N,09832.0196,W,2,07,1.1,318.4,M,-23.7,M,1.8,0000*43
$GPGSA,A,3,07,11,17,01,26,08,28,,,,,,2.2,1.1,1.8*3D
$GPRMC,045306.000,A,3353.7536,N,09832.0196,W,0.29,110.45,300312,,,D*7B
$GPGGA,045307.000,3353.7536,N,09832.0195,W,2,07,1.1,318.6,M,-23.7,M,0.8,0000*42
$GPGSA,A,3,07,11,17,01,26,08,28,,,,,,2.2,1.1,1.8*3D
$GPGSV,3,1,12,17,66,260,35,08,64,152,39,28,61,356,35,01,39,067,32*7A
$GPGSV,3,2,12,26,28,263,19,11,26,051,35,07,25,149,33,27,11,321,*75
$GPGSV,3,3,12,15,09,306,,04,07,192,18,20,00,113,16,51,49,195,39*7A
$GPRMC,045307.000,A,3353.7536,N,09832.0195,W,0.38,106.43,300312,,,D*78
$GPGGA,045308.000,3353.7536,N,09832.0194,W,2,07,1.1,318.8,M,-23.7,M,0.8,0000*42
$GPGSA,A,3,07,11,17,01,26,08,28,,,,,,2.2,1.1,1.8*3D
$GPRMC,045308.000,A,3353.7536,N,09832.0194,W,0.33,106.20,300312,,,D*78
$GPGGA,045309.000,3353.7536,N,09832.0193,W,2,07,1.1,318.8,M,-23.7,M,0.8,0000*44
$GPGSA,A,3,07,11,17,01,26,08,28,,,,,,2.2,1.1,1.8*3D
$GPRMC,045309.000,A,3353.7536,N,09832.0193,W,0.12,127.33,300312,,,D*7C
$GPGGA,045310.000,3353.7536,N,09832.0193,W,2,07,1.1,318.8,M,-23.7,M,0.8,0000*4C
$GPGSA,A,3,07,11,17,01,26,08,28,,,,,,2.2,1.1,1.8*3D
$GPRMC,045310.000,A,3353.7536,N,09832.0193,W,0.13,239.47,300312,,,D*7A
$GPGGA,045311.000,3353.7536,N,09832.0195,W,2,07,1.1,318.6,M,-23.7,M,0.8,0000*45
$GPGSA,A,3,07,11,17,01,26,08,28,,,,,,2.2,1.1,1.8*3D
$GPRMC,045311.000,A,3353.7536,N,09832.0195,W,0.25,264.00,300312,,,D*73
$GPGGA,045312.000,3353.7536,N,09832.0196,W,2,07,1.1,318.5,M,-23.7,M,1.8,0000*47
$GPGSA,A,3,07,11,17,01,26,08,28,,,,,,2.2,1.1,1.8*3D
$GPGSV,3,1,12,17,66,260,34,08,64,152,39,28,61,356,35,01,39,067,32*7B
$GPGSV,3,2,12,26,28,263,20,11,26,051,35,07,25,149,33,27,11,321,*7F
$GPGSV,3,3,12,15,09,306,,04,07,192,18,20,00,113,15,51,49,195,39*79
$GPRMC,045312.000,A,3353.7536,N,09832.0196,W,0.25,263.23,300312,,,D*75
$GPGGA,045313.000,3353.7536,N,09832.0196,W,2,07,1.1,318.6,M,-23.7,M,2.8,0000*46
$GPGSA,A,3,07,11,17,01,26,08,28,,,,,,2.2,1.1,1.8*3D
$GPRMC,045313.000,A,3353.7536,N,09832.0196,W,0.19,116.58,300312,,,D*76
$GPGGA,045314.000,3353.7536,N,09832.0196,W,2,07,1.1,318.5,M,-23.7,M,0.8,0000*40
$GPGSA,A,3,07,11,17,01,26,08,28,,,,,,2.2,1.1,1.8*3D
$GPRMC,045314.000,A,3353.7536,N,09832.0196,W,0.07,211.39,300312,,,D*7D
$GPGGA,045315.000,3353.7536,N,09832.0196,W,2,07,1.1,318.5,M,-23.7,M,0.8,0000*41
$GPGSA,A,3,07,11,17,01,26,08,28,,,,,,2.2,1.1,1.8*3D
$GPRMC,045315.000,A,3353.7536,N,09832.0196,W,0.12,129.48,300312,,,D*76
$GPGGA,045316.000,3353.7536,N,09832.0195,W,2,07,1.1,318.6,M,-23.7,M,0.8,0000*42
$GPGSA,A,3,07,11,17,01,26,08,28,,,,,,2.2,1.1,1.8*3D
$GPRMC,045316.000,A,3353.7536,N,09832.0195,W,0.08,118.33,300312,,,D*73
$GPGGA,045317.000,3353.7536,N,09832.0195,W,2,07,1.1,318.7,M,-23.7,M,0.8,0000*42
$GPGSA,A,3,07,11,17,01,26,08,28,,,,,,2.2,1.1,1.8*3D
$GPGSV,3,1,12,17,66,260,33,08,64,152,40,28,61,356,35,01,39,067,32*72
$GPGSV,3,2,12,26,28,263,20,11,26,051,35,07,25,149,33,27,11,321,*7F
$GPGSV,3,3,12,15,09,306,,04,07,192,18,20,00,113,,51,49,195,39*7D
$GPRMC,045317.000,A,3353.7536,N,09832.0195,W,0.22,108.01,300312,,,D*7A
$GPGGA,045318.000,3353.7536,N,09832.0194,W,2,07,1.1,318.9,M,-23.7,M,1.8,0000*43
$GPGSA,A,3,07,11,17,01,26,08,28,,,,,,2.2,1.1,1.8*3D
$GPRMC,045318.000,A,3353.7536,N,09832.0194,W,0.35,102.60,300312,,,D*7F
$GPGGA,045319.000,3353.7536,N,09832.0193,W,2,07,1.1,319.0,M,-23.7,M,2.8,0000*4E
$GPGSA,A,3,07,11,17,01,26,08,28,,,,,,2.2,1.1,1.8*3D
$GPRMC,045319.000,A,3353.7536,N,09832.0193,W,0.16,104.79,300312,,,D*76
$GPGGA,045320.000,3353.7536,N,09832.0193,W,2,07,1.1,319.0,M,-23.7,M,3.8,0000*45
$GPGSA,A,3,07,11,17,01,26,08,28,,,,,,2.2,1.1,1.8*3D
$GPRMC,045320.000,A,3353.7536,N,09832.0193,W,0.06,130.11,300312,,,D*74
$GPGGA,045321.000,3353.7536,N,09832.0193,W,2,07,1.1,319.0,M,-23.7,M,0.8,0000*47
$GPGSA,A,3,07,11,17,01,26,08,28,,,,,,2.2,1.1,1.8*3D
$GPRMC,045321.000,A,3353.7536,N,09832.0193,W,0.12,262.23,300312,,,D*75
$GPGGA,045322.000,3353.7536,N,09832.0193,W,2,07,1.1,319.1,M,-23.7,M,0.8,0000*45
$GPGSA,A,3,07,11,17,01,26,08,28,,,,,,2.2,1.1,1.8*3D
$GPGSV,3,1,12,17,66,263,32,08,63,153,40,28,62,359,35,01,39,065,32*78
$GPGSV,3,2,12,26,27,262,21,11,25,050,35,07,24,150,33,27,12,320,*79
$GPGSV,3,3,12,15,09,305,,04,08,192,19,20,01,112,,51,49,195,39*70
$GPRMC,045322.000,A,3353.7536,N,09832.0193,W,0.19,104.83,300312,,,D*74
$GPGGA,045323.000,3353.7536,N,09832.0194,W,2,07,1.1,319.0,M,-23.7,M,0.8,0000*42
$GPGSA,A,3,07,11,17,01,26,08,28,,,,,,2.2,1.1,1.8*3D
$GPRMC,045323.000,A,3353.7536,N,09832.0194,W,0.14,247.03,300312,,,D*73
$GPGGA,045324.000,3353.7536,N,09832.0194,W,2,07,1.1,319.0,M,-23.7,M,1.8,0000*44
$GPGSA,A,3,07,11,17,01,26,08,28,,,,,,2.2,1.1,1.8*3D
$GPRMC,045324.000,A,3353.7536,N,09832.0194,W,0.05,143.34,300312,,,D*77
$GPGGA,045325.000,3353.7536,N,09832.0195,W,2,07,1.1,318.9,M,-23.7,M,2.8,0000*4F
$GPGSA,A,3,07,11,17,01,26,08,28,,,,,,2.2,1.1,1.8*3D
$GPRMC,045325.000,A,3353.7536,N,09832.0195,W,0.17,256.55,300312,,,D*74
$GPGGA,045326.000,3353.7536,N,09832.0195,W,2,07,1.1,318.9,M,-23.7,M,3.8,0000*4D
$GPGSA,A,3,07,11,17,01,26,08,28,,,,,,2.2,1.1,1.8*3D
$GPRMC,045326.000,A,3353.7536,N,09832.0195,W,0.07,135.27,300312,,,D*75
$GPGGA,045327.000,3353.7536,N,09832.0195,W,2,07,1.1,318.8,M,-23.7,M,0.8,0000*4E
$GPGSA,A,3,07,11,17,01,26,08,28,,,,,,2.2,1.1,1.8*3D
$GPGSV,3,1,12,17,66,263,31,08,63,153,40,28,62,359,35,01,39,065,33*7A
$GPGSV,3,2,12,26,27,262,21,11,25,050,35,07,24,150,32,27,12,320,*78
$GPGSV,3,3,12,15,09,305,,04,08,192,19,20,01,112,,51,49,195,39*70
$GPRMC,045327.000,A,3353.7536,N,09832.0195,W,0.16,257.08,300312,,,D*7E
$GPGGA,045328.000,3353.7536,N,09832.0195,W,2,07,1.1,318.8,M,-23.7,M,0.8,0000*41
$GPGSA,A,3,07,11,17,01,26,08,28,,,,,,2.2,1.1,1.8*3D
$GPRMC,045328.000,A,3353.7536,N,09832.0195,W,0.07,130.62,300312,,,D*7F
$GPGGA,045329.000,3353.7536,N,09832.0195,W,2,07,1.1,318.8,M,-23.7,M,0.8,0000*40
$GPGSA,A,3,07,11,17,01,26,08,28,,,,,,2.2,1.1,1.8*3D
$GPRMC,045329.000,A,3353.7536,N,09832.0195,W,0.10,161.12,300312,,,D*7B
$GPGGA,045330.000,3353.7536,N,09832.0196,W,2,07,1.1,318.7,M,-23.7,M,0.8,0000*44
$GPGSA,A,3,07,11,17,01,26,08,28,,,,,,2.2,1.1,1.8*3D
$GPRMC,045330.000,A,3353.7536,N,09832.0196,W,0.12,231.99,300312,,,D*77
$GPGGA,045331.000,3353.7536,N,09832.0196,W,2,07,1.1,318.7,M,-23.7,M,1.8,0000*44
$GPGSA,A,3,07,11,17,01,26,08,28,,,,,,2.2,1.1,1.8*3D
$GPRMC,045331.000,A,3353.7536,N,09832.0196,W,0.15,127.71,300312,,,D*73
$GPGGA,045332.000,3353.7536,N,09832.0196,W,2,07,1.1,318.6,M,-23.7,M,2.8,0000*45
$GPGSA,A,3,07,11,17,01,26,08,28,,,,,,2.2,1.1,1.8*3D
$GPGSV,3,1,12,17,66,263,31,08,63,153,40,28,62,359,35,01,39,065,33*7A
$GPGSV,3,2,12,26,27,262,22,11,25,050,35,07,24,150,32,27,12,320,*7B
$GPGSV,3,3,12,15,09,305,,04,08,192,19,20,01,112,,51,49,195,39*70
$GPRMC,045332.000,A,3353.7536,N,09832.0196,W,0.14,207.17,300312,,,D*70
$GPGGA,045333.000,3353.7536,N,09832.0196,W,2,07,1.1,318.7,M,-23.7,M,0.8,0000*47
$GPGSA,A,3,07,11,17,01,26,08,28,,,,,,2.2,1.1,1.8*3D
$GPRMC,045333.000,A,3353.7536,N,09832.0196,W,0.14,145.81,300312,,,D*7B
$GPGGA,045334.000,3353.7536,N,09832.0196,W,2,07,1.1,318.7,M,-23.7,M,0.8,0000*40
$GPGSA,A,3,07,11,17,01,26,08,28,,,,,,2.2,1.1,1.8*3D
$GPRMC,045334.000,A,3353.7536,N,09832.0196,W,0.19,127.31,300312,,,D*7E
$GPGGA,045335.000,3353.7536,N,09832.0195,W,2,07,1.1,318.9,M,-23.7,M,0.8,0000*4C
$GPGSA,A,3,07,11,17,01,26,08,28,,,,,,2.2,1.1,1.8*3D
$GPRMC,045335.000,A,3353.7536,N,09832.0195,W,0.25,97.49,300312,,,D*46
$GPGGA,045336.000,3353.7536,N,09832.0195,W,2,07,1.1,319.0,M,-23.7,M,1.8,0000*46
$GPGSA,A,3,07,11,17,01,26,08,28,,,,,,2.2,1.1,1.8*3D
$GPRMC,045336.000,A,3353.7536,N,09832.0195,W,0.15,95.33,300312,,,D*49
$GPGGA,045337.000,3353.7536,N,09832.0194,W,2,07,1.1,319.1,M,-23.7,M,2.8,0000*44
$GPGSA,A,3,07,11,17,01,26,08,28,,,,,,2.2,1.1,1.8*3D
$GPGSV,3,1,12,17,66,263,27,08,63,153,40,28,62,359,35,01,39,065,33*7D
$GPGSV,3,2,12,26,27,262,24,11,25,050,35,07,24,150,32,27,12,320,*7D
$GPGSV,3,3,12,15,09,305,,04,08,192,19,20,01,112,,51,49,195,39*70
$GPRMC,045337.000,A,3353.7536,N,09832.0194,W,0.19,95.67,300312,,,D*44
$GPGGA,045338.000,3353.7536,N,09832.0194,W,2,07,1.1,319.3,M,-23.7,M,3.8,0000*48
$GPGSA,A,3,07,11,17,01,26,08,28,,,,,,2.2,1.1,1.8*3D
$GPRMC,045338.000,A,3353.7536,N,09832.0194,W,0.25,97.18,300312,,,D*4E
$GPGGA,045339.000,3353.7536,N,09832.0194,W,2,07,1.1,319.3,M,-23.7,M,0.8,0000*4A
$GPGSA,A,3,07,11,17,01,26,08,28,,,,,,2.2,1.1,1.8*3D
$GPRMC,045339.000,A,3353.7536,N,09832.0194,W,0.02,248.97,300312,,,D*7D
$GPGGA,045340.000,3353.7537,N,09832.0196,W,2,07,1.1,319.2,M,-23.7,M,0.8,0000*46
$GPGSA,A,3,07,11,17,01,26,08,28,,,,,,2.2,1.1,1.8*3D
$GPRMC,045340.000,A,3353.7537,N,09832.0196,W,0.11,260.41,300312,,,D*73
$GPGGA,045341.000,3353.7537,N,09832.0195,W,2,07,1.1,319.4,M,-23.7,M,0.8,0000*42
$GPGSA,A,3,07,11,17,01,26,08,28,,,,,,2.2,1.1,1.8*3D
$GPRMC,045341.000,A,3353.7537,N,09832.0195,W,0.37,108.64,300312,,,D*7F
$GPGGA,045342.000,3353.7536,N,09832.0191,W,2,07,1.1,319.5,M,-23.7,M,1.8,0000*44
$GPGSA,A,3,07,11,17,01,26,08,28,,,,,,2.2,1.1,1.8*3D
$GPGSV,3,1,12,17,66,263,25,08,63,153,41,28,62,359,35,01,39,065,34*79
$GPGSV,3,2,12,26,27,262,24,11,25,050,34,07,24,150,31,27,12,320,*7F
$GPGSV,3,3,12,15,09,305,,04,08,192,19,20,01,112,,51,49,195,39*70
$GPRMC,045342.000,A,3353.7536,N,09832.0191,W,0.40,111.56,300312,,,D*70
$GPGGA,045343.000,3353.7536,N,09832.0189,W,2,07,1.1,319.5,M,-23.7,M,2.8,0000*4F
$GPGSA,A,3,07,11,17,01,26,08,28,,,,,,2.2,1.1,1.8*3D
$GPRMC,045343.000,A,3353.7536,N,09832.0189,W,0.09,220.33,300312,,,D*77
$GPGGA,045344.000,3353.7536,N,09832.0187,W,2,07,1.1,319.7,M,-23.7,M,3.8,0000*45
$GPGSA,A,3,07,11,17,01,26,08,28,,,,,,2.2,1.1,1.8*3D
$GPRMC,045344.000,A,3353.7536,N,09832.0187,W,0.46,109.43,300312,,,D*7A
$GPGGA,045345.000,3353.7536,N,09832.0186,W,2,07,1.1,319.8,M,-23.7,M,0.8,0000*49
$GPGSA,A,3,07,11,17,01,26,08,28,,,,,,2.2,1.1,1.8*3D
$GPRMC,045345.000,A,3353.7536,N,09832.0186,W,0.10,143.75,300312,,,D*72
$GPGGA,045346.000,3353.7536,N,09832.0180,W,2,07,1.1,320.2,M,-23.7,M,0.8,0000*4C
$GPGSA,A,3,07,11,17,01,26,08,28,,,,,,2.2,1.1,1.8*3D
$GPRMC,045346.000,A,3353.7536,N,09832.0180,W,0.47,100.25,300312,,,D*77
$GPGGA,045347.000,3353.7536,N,09832.0180,W,2,07,1.1,320.2,M,-23.7,M,0.8,0000*4D
$GPGSA,A,3,07,11,17,01,26,08,28,,,,,,2.2,1.1,1.8*3D
$GPGSV,3,1,12,17,66,263,25,08,63,153,41,28,62,359,35,01,39,065,34*79
$GPGSV,3,2,12,26,27,262,24,11,25,050,34,07,24,150,31,27,12,320,*7F
$GPGSV,3,3,12,15,09,305,,04,08,192,19,20,01,112,,51,49,195,39*70
$GPRMC,045347.000,A,3353.7536,N,09832.0180,W,0.05,121.62,300312,,,D*70
$GPGGA,045348.000,3353.7536,N,09832.0194,W,2,07,1.1,316.9,M,-23.7,M,0.8,0000*49
$GPGSA,A,3,07,11,17,01,26,08,28,,,,,,2.2,1.1,1.8*3D
$GPRMC,045348.000,A,3353.7536,N,09832.0194,W,0.09,216.73,300312,,,D*71
$GPGGA,045349.000,3353.7536,N,09832.0207,W,2,07,1.1,314.0,M,-23.7,M,1.8,0000*4B
$GPGSA,A,3,07,11,17,01,26,08,28,,,,,,2.2,1.1,1.8*3D
$GPRMC,045349.000,A,3353.7536,N,09832.0207,W,0.15,241.90,300312,,,D*7B
$GPGGA,045350.000,3353.7536,N,09832.0212,W,2,07,1.1,312.8,M,-23.7,M,2.8,0000*4A
$GPGSA,A,3,07,11,17,01,26,08,28,,,,,,2.2,1.1,1.8*3D
$GPRMC,045350.000,A,3353.7536,N,09832.0212,W,0.14,251.18,300312,,,D*77
$GPGGA,045351.000,3353.7537,N,09832.0210,W,2,07,1.1,312.9,M,-23.7,M,0.8,0000*4B
$GPGSA,A,3,07,11,17,01,26,08,28,,,,,,2.2,1.1,1.8*3D
$GPRMC,045351.000,A,3353.7537,N,09832.0210,W,0.14,115.92,300312,,,D*74
$GPGGA,045352.000,3353.7537,N,09832.0222,W,2,07,1.1,310.3,M,-23.7,M,0.8,0000*41
$GPGSA,A,3,07,11,17,01,26,08,28,,,,,,2.2,1.1,1.8*3D
$GPGSV,3,1,12,17,66,263,19,08,63,153,41,28,62,359,35,01,39,065,33*71
$GPGSV,3,2,12,26,27,262,24,11,25,050,34,07,24,150,31,27,12,320,*7F
$GPGSV,3,3,12,15,09,305,,04,08,192,18,20,01,112,,51,49,195,39*71
$GPRMC,045352.000,A,3353.7537,N,09832.0222,W,0.38,252.69,300312,,,D*7C
$GPGGA,045353.000,3353.7537,N,09832.0223,W,2,07,1.1,310.1,M,-23.7,M,0.8,0000*43
$GPGSA,A,3,07,11,17,01,26,08,28,,,,,,2.2,1.1,1.8*3D
$GPRMC,045353.000,A,3353.7537,N,09832.0223,W,0.14,182.41,300312,,,D*76
$GPGGA,045354.000,3353.7537,N,09832.0226,W,2,07,1.1,309.4,M,-23.7,M,0.8,0000*4C
$GPGSA,A,3,07,11,17,01,26,08,28,,,,,,2.2,1.1,1.8*3D
$GPRMC,045354.000,A,3353.7537,N,09832.0226,W,0.28,237.53,300312,,,D*75
$GPGGA,045355.000,3353.7537,N,09832.0228,W,2,07,1.1,309.1,M,-23.7,M,0.8,0000*46
$GPGSA,A,3,07,11,17,01,26,08,28,,,,,,2.2,1.1,1.8*3D
$GPRMC,045355.000,A,3353.7537,N,09832.0228,W,0.20,235.76,300312,,,D*77
$GPGGA,045356.000,3353.7537,N,09832.0227,W,2,07,1.1,309.3,M,-23.7,M,1.8,0000*49
$GPGSA,A,3,07,11,17,01,26,08,28,,,,,,2.2,1.1,1.8*3D
$GPRMC,045356.000,A,3353.7537,N,09832.0227,W,0.16,210.10,300312,,,D*79
$GPGGA,045357.000,3353.7537,N,09832.0224,W,2,07,1.1,310.0,M,-23.7,M,0.8,0000*41
$GPGSA,A,3,07,11,17,01,26,08,28,,,,,,2.2,1.1,1.8*3D
$GPGSV,3,1,12,17,66,263,19,08,63,153,41,28,62,359,35,01,39,065,33*71
$GPGSV,3,2,12,26,27,262,24,11,25,050,34,07,24,150,30,27,12,320,*7E
$GPGSV,3,3,12,15,09,305,,04,08,192,18,20,01,112,,51,49,195,39*71
$GPRMC,045357.000,A,3353.7537,N,09832.0224,W,0.09,157.41,300312,,,D*71
$GPGGA,045358.000,3353.7537,N,09832.0225,W,2,07,1.1,309.8,M,-23.7,M,0.8,0000*4F
$GPGSA,A,3,07,11,17,01,26,08,28,,,,,,2.2,1.1,1.8*3D
$GPRMC,045358.000,A,3353.7537,N,09832.0225,W,0.17,249.47,300312,,,D*7A
$GPGGA,045359.000,3353.7537,N,09832.0227,W,2,07,1.1,309.3,M,-23.7,M,0.8,0000*47
$GPGSA,A,3,07,11,17,01,26,08,28,,,,,,2.1,1.1,1.8*3E
$GPRMC,045359.000,A,3353.7537,N,09832.0227,W,0.12,234.54,300312,,,D*74
$GPGGA,045400.000,3353.7537,N,09832.0230,W,2,07,1.1,308.8,M,-23.7,M,0.8,0000*40
$GPGSA,A,3,07,11,17,01,26,08,28,,,,,,2.1,1.1,1.8*3E
$GPRMC,045400.000,A,3353.7537,N,09832.0230,W,0.13,252.62,300312,,,D*7D
$GPGGA,045401.000,3353.7537,N,09832.0233,W,2,07,1.1,308.3,M,-23.7,M,0.8,0000*49
$GPGSA,A,3,07,11,17,01,26,08,28,,,,,,2.1,1.1,1.8*3E
$GPRMC,045401.000,A,3353.7537,N,09832.0233,W,0.15,255.51,300312,,,D*7E
$GPGGA,045402.000,3353.7537,N,09832.0236,W,2,07,1.1,307.8,M,-23.7,M,1.8,0000*4A
$GPGSA,A,3,07,11,17,01,26,08,28,,,,,,2.1,1.1,1.8*3E
$GPGSV,3,1,12,17,66,263,18,08,63,153,41,28,62,359,35,01,39,065,32*71
$GPGSV,3,2,12,26,27,262,24,11,25,050,33,07,24,150,30,27,12,320,*79
$GPGSV,3,3,12,15,09,305,,04,08,192,17,20,01,112,,51,49,195,39*7E
$GPRMC,045402.000,A,3353.7537,N,09832.0236,W,0.09,220.10,300312,,,D*72
$GPGGA,045403.000,3353.7537,N,09832.0239,W,2,07,1.1,307.3,M,-23.7,M,0.8,0000*4E
$GPGSA,A,3,07,11,17,01,26,08,28,,,,,,2.1,1.1,1.8*3E
$GPRMC,045403.000,A,3353.7537,N,09832.0239,W,0.10,165.21,300312,,,D*74
$GPGGA,045404.000,3353.7537,N,09832.0240,W,2,07,1.1,306.9,M,-23.7,M,0.8,0000*4C
$GPGSA,A,3,07,11,17,01,26,08,28,,,,,,2.1,1.1,1.8*3E
$GPRMC,045404.000,A,3353.7537,N,09832.0240,W,0.15,151.47,300312,,,D*7F
$GPGGA,045405.000,3353.7537,N,09832.0241,W,2,06,1.1,306.7,M,-23.7,M,0.8,0000*43
$GPGSA,A,3,07,11,01,26,08,28,,,,,,,2.4,1.1,2.1*37
$GPRMC,045405.000,A,3353.7537,N,09832.0241,W,0.16,176.00,300312,,,D*7A
$GPGGA,045406.000,3353.7537,N,09832.0242,W,2,06,1.1,306.5,M,-23.7,M,1.8,0000*40
$GPGSA,A,3,07,11,01,26,08,28,,,,,,,2.4,1.1,2.1*37
$GPRMC,045406.000,A,3353.7537,N,09832.0242,W,0.13,178.28,300312,,,D*7B
$GPGGA,045407.000,3353.7537,N,09832.0242,W,2,06,1.1,306.4,M,-23.7,M,2.8,0000*43
$GPGSA,A,3,07,11,01,26,08,28,,,,,,,2.4,1.1,2.1*37
$GPGSV,3,1,12,17,66,263,07,08,63,153,41,28,62,359,35,01,39,065,32*7F
$GPGSV,3,2,12,26,27,262,25,11,25,050,33,07,24,150,30,27,12,320,*78
$GPGSV,3,3,12,15,09,305,,04,08,192,17,20,01,112,,51,49,195,39*7E
$GPRMC,045407.000,A,3353.7537,N,09832.0242,W,0.15,164.21,300312,,,D*78
$GPGGA,045408.000,3353.7537,N,09832.0242,W,2,06,1.1,306.4,M,-23.7,M,0.8,0000*4E
$GPGSA,A,3,07,11,01,26,08,28,,,,,,,2.3,1.1,2.0*31
$GPRMC,045408.000,A,3353.7537,N,09832.0242,W,0.15,158.03,300312,,,D*78
$GPGGA,045409.000,3353.7537,N,09832.0242,W,2,06,1.1,306.4,M,-23.7,M,0.8,0000*4F
$GPGSA,A,3,07,11,01,26,08,28,,,,,,,2.3,1.1,2.0*31
$GPRMC,045409.000,A,3353.7537,N,09832.0242,W,0.16,142.08,300312,,,D*7A
$GPGGA,045410.000,3353.7537,N,09832.0241,W,2,06,1.1,306.5,M,-23.7,M,0.8,0000*45
$GPGSA,A,3,07,11,01,26,08,28,,,,,,,2.3,1.1,2.0*31
$GPRMC,045410.000,A,3353.7537,N,09832.0241,W,0.11,125.54,300312,,,D*7E
$GPGGA,045411.000,3353.7537,N,09832.0241,W,2,06,1.1,306.5,M,-23.7,M,0.8,0000*44
$GPGSA,A,3,07,11,01,26,08,28,,,,,,,2.3,1.1,2.0*31
$GPRMC,045411.000,A,3353.7537,N,09832.0241,W,0.08,124.89,300312,,,D*76
$GPGGA,045412.000,3353.7538,N,09832.0240,W,2,06,1.1,306.6,M,-23.7,M,1.8,0000*4B
$GPGSA,A,3,07,11,01,26,08,28,,,,,,,2.3,1.1,2.0*31
$GPGSV,3,1,12,17,66,263,,08,63,153,41,28,62,359,35,01,39,065,31*7B
$GPGSV,3,2,12,26,27,262,26,11,25,050,33,07,24,150,30,27,12,320,*7B
$GPGSV,3,3,12,15,09,305,,04,08,192,16,20,01,112,,51,49,195,39*7F
$GPRMC,045412.000,A,3353.7538,N,09832.0240,W,0.12,114.10,300312,,,D*73
$GPGGA,045413.000,3353.7538,N,09832.0239,W,2,06,1.1,306.7,M,-23.7,M,2.8,0000*46
$GPGSA,A,3,07,11,01,26,08,28,,,,,,,2.3,1.1,2.0*31
$GPRMC,045413.000,A,3353.7538,N,09832.0239,W,0.10,106.69,300312,,,D*73
$GPGGA,045414.000,3353.7538,N,09832.0238,W,2,06,1.1,306.8,M,-23.7,M,3.8,0000*4E
$GPGSA,A,3,07,11,01,26,08,28,,,,,,,2.3,1.1,2.0*31
$GPRMC,045414.000,A,3353.7538,N,09832.0238,W,0.11,105.88,300312,,,D*78
$GPGGA,045415.000,3353.7538,N,09832.0237,W,2,06,1.1,306.9,M,-23.7,M,0.8,0000*42
$GPGSA,A,3,07,11,01,26,08,28,,,,,,,2.3,1.1,2.0*31
$GPRMC,045415.000,A,3353.7538,N,09832.0237,W,0.07,110.69,300312,,,D*7A
$GPGGA,045416.000,3353.7538,N,09832.0236,W,2,06,1.1,306.9,M,-23.7,M,0.8,0000*40
$GPGSA,A,3,07,11,01,26,08,28,,,,,,,2.3,1.1,2.0*31
$GPRMC,045416.000,A,3353.7538,N,09832.0236,W,0.12,129.03,300312,,,D*7A
$GPGGA,045417.000,3353.7539,N,09832.0235,W,2,06,1.1,307.0,M,-23.7,M,0.8,0000*4B
$GPGSA,A,3,07,11,01,26,08,28,,,,,,,2.3,1.1,2.0*31
$GPGSV,3,1,12,17,66,263,,08,63,153,41,28,62,359,35,01,39,065,30*7A
$GPGSV,3,2,12,26,27,262,27,11,25,050,32,07,24,150,30,27,12,320,*7B
$GPGSV,3,3,12,15,09,305,,04,08,192,15,20,01,112,,51,49,195,39*7C
$GPRMC,045417.000,A,3353.7539,N,09832.0235,W,0.13,141.31,300312,,,D*77
$GPGGA,045418.000,3353.7539,N,09832.0234,W,2,06,1.1,307.2,M,-23.7,M,1.8,0000*46
$GPGSA,A,3,07,11,01,26,08,28,,,,,,,2.3,1.1,2.0*31
$GPRMC,045418.000,A,3353.7539,N,09832.0234,W,0.13,142.84,300312,,,D*74
$GPGGA,045419.000,3353.7539,N,09832.0233,W,2,06,1.1,307.3,M,-23.7,M,0.8,0000*40
$GPGSA,A,3,07,11,01,26,08,28,,,,,,,2.3,1.1,2.0*31
$GPRMC,045419.000,A,3353.7539,N,09832.0233,W,0.14,145.71,300312,,,D*78
$GPGGA,045420.000,3353.7538,N,09832.0232,W,2,07,1.1,307.4,M,-23.7,M,1.8,0000*4D
$GPGSA,A,3,07,11,17,01,26,08,28,,,,,,2.1,1.1,1.8*3E
$GPRMC,045420.000,A,3353.7538,N,09832.0232,W,0.24,124.59,300312,,,D*7C
$GPGGA,045421.000,3353.7538,N,09832.0231,W,2,07,1.1,307.5,M,-23.7,M,0.8,0000*4F
$GPGSA,A,3,07,11,17,01,26,08,28,,,,,,2.1,1.1,1.8*3E
$GPRMC,045421.000,A,3353.7538,N,09832.0231,W,0.24,126.07,300312,,,D*77
$GPGGA,045422.000,3353.7538,N,09832.0231,W,2,07,1.1,307.6,M,-23.7,M,0.8,0000*4F
$GPGSA,A,3,07,11,17,01,26,08,28,,,,,,2.1,1.1,1.8*3E
$GPGSV,3,1,12,17,66,263,19,08,63,153,41,28,62,359,35,01,39,065,29*7A
$GPGSV,3,2,12,26,27,262,27,11,25,050,32,07,24,150,30,27,12,320,*7B
$GPGSV,3,3,12,15,09,305,,04,08,192,14,20,01,112,,51,49,195,39*7D
$GPRMC,045422.000,A,3353.7538,N,09832.0231,W,0.10,120.02,300312,,,D*70
$GPGGA,045423.000,3353.7539,N,09832.0230,W,2,07,1.1,307.6,M,-23.7,M,0.8,0000*4E
$GPGSA,A,3,07,11,17,01,26,08,28,,,,,,2.1,1.1,1.8*3E
$GPRMC,045423.000,A,3353.7539,N,09832.0230,W,0.12,108.05,300312,,,D*7E
$GPGGA,045424.000,3353.7539,N,09832.0229,W,2,07,1.1,307.7,M,-23.7,M,1.8,0000*41
$GPGSA,A,3,07,11,17,01,26,08,28,,,,,,2.1,1.1,1.8*3E
$GPRMC,045424.000,A,3353.7539,N,09832.0229,W,0.22,104.60,300312,,,D*7D
$GPGGA,045425.000,3353.7539,N,09832.0229,W,2,07,1.1,307.7,M,-23.7,M,2.8,0000*43
$GPGSA,A,3,07,11,17,01,26,08,28,,,,,,2.1,1.1,1.8*3E
$GPRMC,045425.000,A,3353.7539,N,09832.0229,W,0.03,248.15,300312,,,D*76
$GPGGA,045426.000,3353.7539,N,09832.0228,W,2,07,1.1,307.8,M,-23.7,M,3.8,0000*4F
$GPGSA,A,3,07,11,17,01,26,08,28,,,,,,2.1,1.1,1.8*3E
$GPRMC,045426.000,A,3353.7539,N,09832.0228,W,0.02,241.28,300312,,,D*72
$GPGGA,045427.000,3353.7539,N,09832.0228,W,2,07,1.1,307.8,M,-23.7,M,0.8,0000*4D
$GPGSA,A,3,07,11,17,01,26,08,28,,,,,,2.1,1.1,1.8*3E
$GPGSV,3,1,12,17,66,263,20,08,63,153,40,28,62,359,35,01,39,065,29*71
$GPGSV,3,2,12,26,27,262,27,11,25,050,32,07,24,150,30,27,12,320,*7B
$GPGSV,3,3,12,15,09,305,,04,08,192,15,20,01,112,,51,49,195,39*7C
$GPRMC,045427.000,A,3353.7539,N,09832.0228,W,0.17,112.58,300312,,,D*75
$GPGGA,045428.000,3353.7539,N,09832.0227,W,2,07,1.1,307.8,M,-23.7,M,0.8,0000*4D
$GPGSA,A,3,07,11,17,01,26,08,28,,,,,,2.1,1.1,1.8*3E
$GPRMC,045428.000,A,3353.7539,N,09832.0227,W,0.20,118.52,300312,,,D*71
$GPGGA,045429.000,3353.7540,N,09832.0226,W,2,07,1.1,307.9,M,-23.7,M,0.8,0000*42
$GPGSA,A,3,07,11,17,01,26,08,28,,,,,,2.1,1.1,1.8*3E
