$GPGGA,055027.000,3353.7532,N,09832.0251,W,2,07,1.1,315.1,M,-23.7,M,5.8,0000*42
$GPGSA,A,3,08,20,28,04,01,17,27,,,,,,2.1,1.1,1.8*3E
$GPRMC,055027.000,A,3353.7532,N,09832.0251,W,0.35,122.40,310312,,,D*7E
$GPGGA,055028.000,3353.7527,N,09832.0247,W,2,07,1.1,315.4,M,-23.7,M,0.8,0000*4E
$GPGSA,A,3,08,20,28,04,01,17,27,,,,,,2.1,1.1,1.8*3E
$GPRMC,055028.000,A,3353.7527,N,09832.0247,W,0.49,134.11,310312,,,D*7A
$GPGGA,055029.000,3353.7523,N,09832.0244,W,2,07,1.1,315.2,M,-23.7,M,0.8,0000*4E
$GPGSA,A,3,08,20,28,04,01,17,27,,,,,,2.1,1.1,1.8*3E
$GPRMC,055029.000,A,3353.7523,N,09832.0244,W,0.21,105.27,310312,,,D*75
$GPGGA,055030.000,3353.7519,N,09832.0242,W,2,07,1.1,315.8,M,-23.7,M,1.8,0000*42
$GPGSA,A,3,08,20,28,04,01,17,27,,,,,,2.1,1.1,1.8*3E
$GPGSV,3,1,12,17,69,347,40,28,62,060,36,04,35,191,40,27,33,310,21*73
$GPGSV,3,2,12,08,32,164,24,01,22,043,24,09,16,320,,20,13,088,30*7B
$GPGSV,3,3,12,26,12,237,,02,08,204,25,15,07,280,,11,03,044,18*73
$GPRMC,055030.000,A,3353.7519,N,09832.0242,W,0.09,259.04,310312,,,D*73
$GPGGA,055031.000,3353.7517,N,09832.0240,W,2,07,1.1,316.2,M,-23.7,M,2.8,0000*45
$GPGSA,A,3,08,20,28,04,01,17,27,,,,,,2.1,1.1,1.8*3E
$GPRMC,055031.000,A,3353.7517,N,09832.0240,W,0.20,112.20,310312,,,D*7F
$GPGGA,055032.000,3353.7516,N,09832.0239,W,2,07,1.1,316.2,M,-23.7,M,0.8,0000*4B
$GPGSA,A,3,08,20,28,04,01,17,27,,,,,,2.1,1.1,1.8*3E
$GPRMC,055032.000,A,3353.7516,N,09832.0239,W,0.08,341.09,310312,,,D*76
$GPGGA,055033.000,3353.7514,N,09832.0237,W,2,07,1.1,316.7,M,-23.7,M,0.8,0000*43
$GPGSA,A,3,08,20,28,04,01,17,27,,,,,,2.1,1.1,1.8*3E
$GPRMC,055033.000,A,3353.7514,N,09832.0237,W,0.05,230.33,310312,,,D*78
$GPGGA,055034.000,3353.7512,N,09832.0235,W,2,07,1.1,317.4,M,-23.7,M,0.8,0000*42
$GPGSA,A,3,08,20,28,04,01,17,27,,,,,,2.1,1.1,1.8*3E
$GPRMC,055034.000,A,3353.7512,N,09832.0235,W,0.20,98.74,310312,,,D*4F
$GPGGA,055035.000,3353.7510,N,09832.0232,W,2,08,0.9,317.9,M,-23.7,M,0.8,0000*4D
$GPGSA,A,3,08,20,28,04,01,26,17,27,,,,,1.7,0.9,1.4*3A
$GPGSV,3,1,12,17,69,347,40,28,62,060,36,04,35,191,40,27,33,310,22*70
$GPGSV,3,2,12,08,32,164,25,01,22,043,24,09,16,320,,20,13,088,30*7A
$GPGSV,3,3,12,26,12,237,20,02,08,204,24,15,07,280,,11,03,044,18*70
$GPRMC,055035.000,A,3353.7510,N,09832.0232,W,0.25,107.70,310312,,,D*7D
$GPGGA,055036.000,3353.7509,N,09832.0230,W,2,08,0.9,318.3,M,-23.7,M,0.8,0000*41
$GPGSA,A,3,08,20,28,04,01,26,17,27,,,,,1.7,0.9,1.4*3A
$GPRMC,055036.000,A,3353.7509,N,09832.0230,W,0.16,105.27,310312,,,D*74
$GPGGA,055037.000,3353.7510,N,09832.0229,W,2,08,0.9,317.8,M,-23.7,M,1.8,0000*45
$GPGSA,A,3,08,20,28,04,01,26,17,27,,,,,1.7,0.9,1.4*3A
$GPRMC,055037.000,A,3353.7510,N,09832.0229,W,0.11,35.54,310312,,,D*44
$GPGGA,055038.000,3353.7509,N,09832.0227,W,2,08,0.9,317.9,M,-23.7,M,2.8,0000*4E
$GPGSA,A,3,08,20,28,04,01,26,17,27,,,,,1.7,0.9,1.4*3A
$GPRMC,055038.000,A,3353.7509,N,09832.0227,W,0.15,66.91,310312,,,D*46
$GPGGA,055039.000,3353.7509,N,09832.0226,W,2,08,0.9,318.1,M,-23.7,M,0.8,0000*4B
$GPGSA,A,3,08,20,28,04,01,26,17,27,,,,,1.7,0.9,1.4*3A
$GPRMC,055039.000,A,3353.7509,N,09832.0226,W,0.20,60.52,310312,,,D*49
$GPGGA,055040.000,3353.7509,N,09832.0224,W,2,08,0.9,318.3,M,-23.7,M,0.8,0000*45
$GPGSA,A,3,08,20,28,04,01,26,17,27,,,,,1.7,0.9,1.4*3A
$GPGSV,3,1,12,17,69,348,40,28,62,061,36,04,35,191,40,27,33,310,22*7E
$GPGSV,3,2,12,08,31,164,26,01,21,043,24,09,16,320,,20,13,088,29*71
$GPGSV,3,3,12,26,12,237,19,02,08,205,24,15,07,280,,11,03,044,18*7B
$GPRMC,055040.000,A,3353.7509,N,09832.0224,W,0.14,85.98,310312,,,D*4F
$GPGGA,055041.000,3353.7509,N,09832.0224,W,2,08,0.9,318.3,M,-23.7,M,0.8,0000*44
$GPGSA,A,3,08,20,28,04,01,26,17,27,,,,,1.7,0.9,1.4*3A
$GPRMC,055041.000,A,3353.7509,N,09832.0224,W,0.30,268.59,310312,,,D*74
$GPGGA,055042.000,3353.7508,N,09832.0224,W,2,08,0.9,318.4,M,-23.7,M,1.8,0000*40
$GPGSA,A,3,08,20,28,04,01,26,17,27,,,,,1.7,0.9,1.4*3A
$GPRMC,055042.000,A,3353.7508,N,09832.0224,W,0.25,253.71,310312,,,D*70
$GPGGA,055043.000,3353.7507,N,09832.0224,W,2,08,0.9,318.9,M,-23.7,M,0.8,0000*42
$GPGSA,A,3,08,20,28,04,01,26,17,27,,,,,1.7,0.9,1.4*3A
$GPRMC,055043.000,A,3353.7507,N,09832.0224,W,0.14,132.84,310312,,,D*72
$GPGGA,055044.000,3353.7505,N,09832.0223,W,2,08,0.9,319.5,M,-23.7,M,1.8,0000*4C
$GPGSA,A,3,08,20,28,04,01,26,17,27,,,,,1.7,0.9,1.4*3A
$GPRMC,055044.000,A,3353.7505,N,09832.0223,W,0.06,185.76,310312,,,D*72
$GPGGA,055045.000,3353.7505,N,09832.0221,W,2,08,0.9,319.6,M,-23.7,M,0.8,0000*4D
$GPGSA,A,3,08,20,28,04,01,26,17,27,,,,,1.7,0.9,1.4*3A
$GPGSV,3,1,12,17,69,348,40,28,62,061,36,04,35,191,40,27,33,310,22*7E
$GPGSV,3,2,12,08,31,164,28,01,21,043,23,09,16,320,,20,13,088,29*78
$GPGSV,3,3,12,26,12,237,19,02,08,205,23,15,07,280,,11,03,044,18*7C
$GPRMC,055045.000,A,3353.7505,N,09832.0221,W,0.24,127.67,310312,,,D*79
$GPGGA,055046.000,3353.7505,N,09832.0221,W,2,08,0.9,319.6,M,-23.7,M,1.8,0000*4F
$GPGSA,A,3,08,20,28,04,01,26,17,27,,,,,1.7,0.9,1.4*3A
$GPRMC,055046.000,A,3353.7505,N,09832.0221,W,0.08,75.03,310312,,,D*40
$GPGGA,055047.000,3353.7505,N,09832.0220,W,2,08,0.9,319.8,M,-23.7,M,0.8,0000*40
$GPGSA,A,3,08,20,28,04,01,26,17,27,,,,,1.7,0.9,1.4*3A
$GPRMC,055047.000,A,3353.7505,N,09832.0220,W,0.10,33.99,310312,,,D*48
$GPGGA,055048.000,3353.7504,N,09832.0219,W,2,08,0.9,320.1,M,-23.7,M,1.8,0000*46
$GPGSA,A,3,08,20,28,04,01,26,17,27,,,,,1.7,0.9,1.4*3A
$GPRMC,055048.000,A,3353.7504,N,09832.0219,W,0.15,119.96,310312,,,D*7F
$GPGGA,055049.000,3353.7504,N,09832.0218,W,2,08,0.9,320.0,M,-23.7,M,0.8,0000*46
$GPGSA,A,3,08,20,28,04,01,26,17,27,,,,,1.7,0.9,1.4*3A
$GPRMC,055049.000,A,3353.7504,N,09832.0218,W,0.09,8.99,310312,,,D*7C
$GPGGA,055050.000,3353.7504,N,09832.0217,W,2,08,0.9,320.1,M,-23.7,M,1.8,0000*41
$GPGSA,A,3,08,20,28,04,01,26,17,27,,,,,1.7,0.9,1.4*3A
$GPGSV,3,1,12,17,69,348,40,28,62,061,36,04,35,191,40,27,33,310,22*7E
$GPGSV,3,2,12,08,31,164,29,01,21,043,23,09,16,320,,20,13,088,29*79
$GPGSV,3,3,12,26,12,237,21,02,08,205,22,15,07,280,,11,03,044,18*76
$GPRMC,055050.000,A,3353.7504,N,09832.0217,W,0.14,68.96,310312,,,D*4E
$GPGGA,055051.000,3353.7503,N,09832.0216,W,2,08,0.9,320.6,M,-23.7,M,0.8,0000*40
$GPGSA,A,3,08,20,28,04,01,26,17,27,,,,,1.7,0.9,1.4*3A
$GPRMC,055051.000,A,3353.7503,N,09832.0216,W,0.34,116.32,310312,,,D*7D
$GPGGA,055052.000,3353.7502,N,09832.0214,W,2,08,0.9,321.2,M,-23.7,M,0.8,0000*45
$GPGSA,A,3,08,20,28,04,01,26,17,27,,,,,1.7,0.9,1.4*3A
$GPRMC,055052.000,A,3353.7502,N,09832.0214,W,0.33,119.94,310312,,,D*79
$GPGGA,055053.000,3353.7501,N,09832.0212,W,2,08,0.9,321.6,M,-23.7,M,0.8,0000*45
$GPGSA,A,3,08,20,28,04,01,26,17,27,,,,,1.7,0.9,1.4*3A
$GPRMC,055053.000,A,3353.7501,N,09832.0212,W,0.16,132.48,310312,,,D*72
$GPGGA,055054.000,3353.7500,N,09832.0211,W,2,08,0.9,322.2,M,-23.7,M,1.8,0000*46
$GPGSA,A,3,08,20,28,04,01,26,17,27,,,,,1.7,0.9,1.4*3A
$GPRMC,055054.000,A,3353.7500,N,09832.0211,W,0.34,116.34,310312,,,D*7A
$GPGGA,055055.000,3353.7499,N,09832.0210,W,2,08,0.9,322.7,M,-23.7,M,2.8,0000*41
$GPGSA,A,3,08,20,28,04,01,26,17,27,,,,,1.7,0.9,1.4*3A
$GPGSV,3,1,12,17,69,348,39,28,62,061,36,04,35,191,40,27,33,310,22*70
$GPGSV,3,2,12,08,31,164,30,01,21,043,24,09,16,320,,20,13,088,29*76
$GPGSV,3,3,12,26,12,237,22,02,08,205,21,15,07,280,,11,03,044,18*76
$GPRMC,055055.000,A,3353.7499,N,09832.0210,W,0.28,131.68,310312,,,D*7A
$GPGGA,055056.000,3353.7499,N,09832.0209,W,2,08,0.9,322.5,M,-23.7,M,3.8,0000*49
$GPGSA,A,3,08,20,28,04,01,26,17,27,,,,,1.7,0.9,1.4*3A
$GPRMC,055056.000,A,3353.7499,N,09832.0209,W,0.15,155.48,310312,,,D*7F
$GPGGA,055057.000,3353.7500,N,09832.0209,W,2,08,0.9,322.3,M,-23.7,M,0.8,0000*4C
$GPGSA,A,3,08,20,28,04,01,26,17,27,,,,,1.7,0.9,1.4*3A
$GPRMC,055057.000,A,3353.7500,N,09832.0209,W,0.12,344.47,310312,,,D*75
$GPGGA,055058.000,3353.7499,N,09832.0209,W,2,08,0.9,322.8,M,-23.7,M,0.8,0000*49
$GPGSA,A,3,08,20,28,04,01,26,17,27,,,,,1.7,0.9,1.4*3A
$GPRMC,055058.000,A,3353.7499,N,09832.0209,W,0.11,227.24,310312,,,D*79
$GPGGA,055059.000,3353.7499,N,09832.0209,W,2,08,0.9,322.8,M,-23.7,M,0.8,0000*48
$GPGSA,A,3,08,20,28,04,01,26,17,27,,,,,1.7,0.9,1.4*3A
$GPRMC,055059.000,A,3353.7499,N,09832.0209,W,0.13,123.79,310312,,,D*75
$GPGGA,055100.000,3353.7501,N,09832.0209,W,2,08,0.9,322.3,M,-23.7,M,1.8,0000*4F
$GPGSA,A,3,08,20,28,04,01,26,17,27,,,,,1.7,0.9,1.4*3A
$GPGSV,3,1,12,17,69,348,39,28,62,061,37,04,35,191,40,27,33,310,23*70
$GPGSV,3,2,12,08,31,164,30,01,21,043,24,09,16,320,,20,13,088,30*7E
$GPGSV,3,3,12,26,12,237,21,02,08,205,20,15,07,280,,11,03,044,18*74
$GPRMC,055100.000,A,3353.7501,N,09832.0209,W,0.04,37.72,310312,,,D*41
$GPGGA,055101.000,3353.7501,N,09832.0208,W,2,08,0.9,322.2,M,-23.7,M,2.8,0000*4D
$GPGSA,A,3,08,20,28,04,01,26,17,27,,,,,1.7,0.9,1.4*3A
$GPRMC,055101.000,A,3353.7501,N,09832.0208,W,0.07,331.15,310312,,,D*76
$GPGGA,055102.000,3353.7501,N,09832.0208,W,2,08,0.9,322.3,M,-23.7,M,3.8,0000*4E
$GPGSA,A,3,08,20,28,04,01,26,17,27,,,,,1.7,0.9,1.4*3A
$GPRMC,055102.000,A,3353.7501,N,09832.0208,W,0.07,209.16,310312,,,D*7C
$GPGGA,055103.000,3353.7500,N,09832.0208,W,2,08,0.9,322.5,M,-23.7,M,0.8,0000*4B
$GPGSA,A,3,08,20,28,04,01,26,17,27,,,,,1.7,0.9,1.4*3A
$GPRMC,055103.000,A,3353.7500,N,09832.0208,W,0.07,27.07,310312,,,D*42
$GPGGA,055104.000,3353.7500,N,09832.0208,W,2,08,0.9,322.9,M,-23.7,M,0.8,0000*40
$GPGSA,A,3,08,20,28,04,01,26,17,27,,,,,1.7,0.9,1.4*3A
$GPRMC,055104.000,A,3353.7500,N,09832.0208,W,0.07,91.61,310312,,,D*48
$GPGGA,055105.000,3353.7500,N,09832.0207,W,2,08,0.9,322.9,M,-23.7,M,0.8,0000*4E
$GPGSA,A,3,08,20,28,04,01,26,17,27,,,,,1.7,0.9,1.4*3A
$GPGSV,3,1,12,17,69,348,40,28,62,061,37,04,35,191,40,27,33,310,23*7E
$GPGSV,3,2,12,08,31,164,31,01,21,043,25,09,16,320,,20,13,088,30*7E
$GPGSV,3,3,12,26,12,237,20,02,08,205,,15,07,280,,11,03,044,18*77
$GPRMC,055105.000,A,3353.7500,N,09832.0207,W,0.10,89.52,310312,,,D*49
$GPGGA,055106.000,3353.7499,N,09832.0206,W,2,07,1.1,323.4,M,-23.7,M,0.8,0000*47
$GPGSA,A,3,08,20,28,04,01,17,27,,,,,,2.1,1.1,1.8*3E
$GPRMC,055106.000,A,3353.7499,N,09832.0206,W,0.16,85.21,310312,,,D*44
$GPGGA,055107.000,3353.7498,N,09832.0205,W,2,07,1.1,323.9,M,-23.7,M,0.8,0000*49
$GPGSA,A,3,08,20,28,04,01,17,27,,,,,,2.1,1.1,1.8*3E
$GPRMC,055107.000,A,3353.7498,N,09832.0205,W,0.11,89.92,310312,,,D*44
$GPGGA,055108.000,3353.7497,N,09832.0204,W,2,07,1.1,324.6,M,-23.7,M,1.8,0000*41
$GPGSA,A,3,08,20,28,04,01,17,27,,,,,,2.1,1.1,1.8*3E
$GPRMC,055108.000,A,3353.7497,N,09832.0204,W,0.24,103.82,310312,,,D*71
$GPGGA,055109.000,3353.7496,N,09832.0203,W,2,07,1.1,325.0,M,-23.7,M,0.8,0000*40
$GPGSA,A,3,08,20,28,04,01,17,27,,,,,,2.1,1.1,1.8*3E
$GPRMC,055109.000,A,3353.7496,N,09832.0203,W,0.09,19.19,310312,,,D*41
$GPGGA,055110.000,3353.7496,N,09832.0203,W,2,07,1.1,325.4,M,-23.7,M,0.8,0000*4C
$GPGSA,A,3,08,20,28,04,01,17,27,,,,,,2.1,1.1,1.8*3E
$GPGSV,3,1,12,17,68,348,40,28,62,062,37,04,35,191,40,27,34,309,24*74
$GPGSV,3,2,12,08,31,164,32,01,21,043,26,09,16,320,,20,13,088,30*7E
$GPGSV,3,3,12,26,11,237,,02,08,205,,15,06,279,,32,03,062,*7D
$GPRMC,055110.000,A,3353.7496,N,09832.0203,W,0.07,24.67,310312,,,D*40
$GPGGA,055111.000,3353.7495,N,09832.0202,W,2,07,1.1,325.9,M,-23.7,M,0.8,0000*42
$GPGSA,A,3,08,20,28,04,01,17,27,,,,,,2.1,1.1,1.8*3E
$GPRMC,055111.000,A,3353.7495,N,09832.0202,W,0.14,105.30,310312,,,D*71
$GPGGA,055112.000,3353.7495,N,09832.0202,W,2,07,1.1,326.4,M,-23.7,M,1.8,0000*4E
$GPGSA,A,3,08,20,28,04,01,17,27,,,,,,2.1,1.1,1.8*3E
$GPRMC,055112.000,A,3353.7495,N,09832.0202,W,0.23,109.07,310312,,,D*7E
$GPGGA,055113.000,3353.7494,N,09832.0200,W,2,07,1.1,326.9,M,-23.7,M,2.8,0000*42
$GPGSA,A,3,08,20,28,04,01,17,27,,,,,,2.1,1.1,1.8*3E
$GPRMC,055113.000,A,3353.7494,N,09832.0200,W,0.27,112.60,310312,,,D*73
$GPGGA,055114.000,3353.7493,N,09832.0200,W,2,07,1.1,327.2,M,-23.7,M,3.8,0000*49
$GPGSA,A,3,08,20,28,04,01,17,27,,,,,,2.1,1.1,1.8*3E
$GPRMC,055114.000,A,3353.7493,N,09832.0200,W,0.14,109.28,310312,,,D*75
$GPGGA,055115.000,3353.7493,N,09832.0199,W,2,07,1.1,327.6,M,-23.7,M,0.8,0000*4C
$GPGSA,A,3,08,20,28,04,01,17,27,,,,,,2.1,1.1,1.8*3E
$GPGSV,3,1,12,17,68,348,40,28,62,062,37,04,35,191,40,27,34,309,25*75
$GPGSV,3,2,12,08,31,164,33,01,21,043,26,09,16,320,,20,13,088,30*7F
$GPGSV,3,3,12,26,11,237,,02,08,205,,15,06,279,,32,03,062,*7D
$GPRMC,055115.000,A,3353.7493,N,09832.0199,W,0.17,118.67,310312,,,D*7F
$GPGGA,055116.000,3353.7492,N,09832.0198,W,2,07,1.1,328.0,M,-23.7,M,0.8,0000*46
$GPGSA,A,3,08,20,28,04,01,17,27,,,,,,2.1,1.1,1.8*3E
$GPRMC,055116.000,A,3353.7492,N,09832.0198,W,0.20,110.58,310312,,,D*7C
$GPGGA,055117.000,3353.7491,N,09832.0198,W,2,07,1.1,328.4,M,-23.7,M,0.8,0000*40
$GPGSA,A,3,08,20,28,04,01,17,27,,,,,,2.1,1.1,1.8*3E
$GPRMC,055117.000,A,3353.7491,N,09832.0198,W,0.22,108.00,310312,,,D*78
$GPGGA,055118.000,3353.7491,N,09832.0197,W,2,07,1.1,328.7,M,-23.7,M,1.8,0000*42
$GPGSA,A,3,08,20,28,04,01,17,27,,,,,,2.1,1.1,1.8*3E
$GPRMC,055118.000,A,3353.7491,N,09832.0197,W,0.07,98.86,310312,,,D*49
$GPGGA,055119.000,3353.7491,N,09832.0197,W,2,07,1.1,329.0,M,-23.7,M,2.8,0000*46
$GPGSA,A,3,08,20,28,04,01,17,27,,,,,,2.1,1.1,1.8*3E
$GPRMC,055119.000,A,3353.7491,N,09832.0197,W,0.11,94.17,310312,,,D*4B
$GPGGA,055120.000,3353.7490,N,09832.0197,W,2,08,0.9,329.6,M,-23.7,M,3.8,0000*4C
$GPGSA,A,3,08,26,20,28,04,01,17,27,,,,,1.7,0.9,1.4*3A
$GPGSV,3,1,12,17,68,348,40,28,62,062,37,04,35,191,40,27,34,309,25*75
$GPGSV,3,2,12,08,31,164,33,01,21,043,27,09,16,320,,20,13,088,29*76
$GPGSV,3,3,12,26,11,237,21,02,08,205,,15,06,279,,32,03,062,*7E
$GPRMC,055120.000,A,3353.7490,N,09832.0197,W,0.03,105.46,310312,,,D*7E
$GPGGA,055121.000,3353.7490,N,09832.0197,W,2,08,0.9,329.6,M,-23.7,M,0.8,0000*4E
$GPGSA,A,3,08,26,20,28,04,01,17,27,,,,,1.7,0.9,1.4*3A
$GPRMC,055121.000,A,3353.7490,N,09832.0197,W,0.10,331.10,310312,,,D*7B
$GPGGA,055122.000,3353.7490,N,09832.0198,W,2,08,0.9,329.7,M,-23.7,M,0.8,0000*43
$GPGSA,A,3,08,26,20,28,04,01,17,27,,,,,1.7,0.9,1.4*3A
$GPRMC,055122.000,A,3353.7490,N,09832.0198,W,0.21,302.28,310312,,,D*7E
$GPGGA,055123.000,3353.7490,N,09832.0198,W,2,08,0.9,330.0,M,-23.7,M,0.8,0000*4D
$GPGSA,A,3,08,26,20,28,04,01,17,27,,,,,1.7,0.9,1.4*3A
$GPRMC,055123.000,A,3353.7490,N,09832.0198,W,0.04,40.21,310312,,,D*44
$GPGGA,055124.000,3353.7490,N,09832.0197,W,2,08,0.9,330.3,M,-23.7,M,0.8,0000*46
$GPGSA,A,3,08,26,20,28,04,01,17,27,,,,,1.7,0.9,1.4*3A
$GPRMC,055124.000,A,3353.7490,N,09832.0197,W,0.16,99.23,310312,,,D*49
$GPGGA,055125.000,3353.7490,N,09832.0197,W,2,08,0.9,330.5,M,-23.7,M,1.8,0000*40
$GPGSA,A,3,08,26,20,28,04,01,17,27,,,,,1.7,0.9,1.4*3A
$GPGSV,3,1,12,17,68,348,40,28,62,062,37,04,35,191,40,27,34,309,25*75
$GPGSV,3,2,12,08,31,164,33,01,21,043,27,09,16,320,,20,13,088,29*76
$GPGSV,3,3,12,26,11,237,21,02,08,205,,15,06,279,,32,03,062,*7E
$GPRMC,055125.000,A,3353.7490,N,09832.0197,W,0.12,301.24,310312,,,D*79
$GPGGA,055126.000,3353.7489,N,09832.0197,W,2,08,0.9,330.7,M,-23.7,M,0.8,0000*48
$GPGSA,A,3,08,26,20,28,04,01,17,27,,,,,1.7,0.9,1.4*3A
$GPRMC,055126.000,A,3353.7489,N,09832.0197,W,0.02,8.69,310312,,,D*70
$GPGGA,055127.000,3353.7489,N,09832.0197,W,2,08,0.9,330.9,M,-23.7,M,0.8,0000*47
$GPGSA,A,3,08,26,20,28,04,01,17,27,,,,,1.7,0.9,1.4*3A
$GPRMC,055127.000,A,3353.7489,N,09832.0197,W,0.03,110.47,310312,,,D*74
$GPGGA,055128.000,3353.7489,N,09832.0197,W,2,08,0.9,331.2,M,-23.7,M,0.8,0000*42
$GPGSA,A,3,08,26,20,28,04,01,17,27,,,,,1.7,0.9,1.4*3A
$GPRMC,055128.000,A,3353.7489,N,09832.0197,W,0.17,104.39,310312,,,D*72
$GPGGA,055129.000,3353.7488,N,09832.0196,W,2,08,0.9,331.4,M,-23.7,M,0.8,0000*45
$GPGSA,A,3,08,26,20,28,04,01,17,27,,,,,1.7,0.9,1.4*3A
$GPRMC,055129.000,A,3353.7488,N,09832.0196,W,0.14,83.56,310312,,,D*47
$GPGGA,055130.000,3353.7488,N,09832.0195,W,2,08,0.9,331.7,M,-23.7,M,0.8,0000*4D
$GPGSA,A,3,08,26,20,28,04,01,17,27,,,,,1.7,0.9,1.4*3A
$GPGSV,3,1,12,17,68,348,40,28,62,062,37,04,35,191,40,27,34,309,24*74
$GPGSV,3,2,12,08,31,164,34,01,21,043,27,09,16,320,,20,13,088,28*70
$GPGSV,3,3,12,26,11,237,21,02,08,205,,15,06,279,,32,03,062,*7E
$GPRMC,055130.000,A,3353.7488,N,09832.0195,W,0.26,93.24,310312,,,D*49
$GPGGA,055131.000,3353.7488,N,09832.0194,W,2,08,0.9,331.9,M,-23.7,M,1.8,0000*42
$GPGSA,A,3,08,26,20,28,04,01,17,27,,,,,1.7,0.9,1.4*3A
$GPRMC,055131.000,A,3353.7488,N,09832.0194,W,0.01,5.27,310312,,,D*70
$GPGGA,055132.000,3353.7488,N,09832.0193,W,2,08,0.9,332.2,M,-23.7,M,2.8,0000*4D
$GPGSA,A,3,08,26,20,28,04,01,17,27,,,,,1.7,0.9,1.4*3A
$GPRMC,055132.000,A,3353.7488,N,09832.0193,W,0.33,101.19,310312,,,D*7D
$GPGGA,055133.000,3353.7488,N,09832.0192,W,2,08,0.9,332.5,M,-23.7,M,0.8,0000*48
$GPGSA,A,3,08,26,20,28,04,01,17,27,,,,,1.7,0.9,1.4*3A
$GPRMC,055133.000,A,3353.7488,N,09832.0192,W,0.24,89.93,310312,,,D*48
$GPGGA,055134.000,3353.7487,N,09832.0191,W,2,08,0.9,332.8,M,-23.7,M,0.8,0000*4E
$GPGSA,A,3,08,26,20,28,04,01,17,27,,,,,1.7,0.9,1.4*3A
$GPRMC,055134.000,A,3353.7487,N,09832.0191,W,0.41,104.45,310312,,,D*7F
$GPGGA,055135.000,3353.7487,N,09832.0191,W,2,08,0.9,332.9,M,-23.7,M,0.8,0000*4E
$GPGSA,A,3,08,26,20,28,04,01,17,27,,,,,1.7,0.9,1.4*3A
$GPGSV,3,1,12,17,68,348,40,28,62,062,36,04,35,191,39,27,34,309,24*7B
$GPGSV,3,2,12,08,31,164,34,01,21,043,27,09,16,320,,20,13,088,28*70
$GPGSV,3,3,12,26,11,237,21,02,08,205,,15,06,279,,32,03,062,*7E
$GPRMC,055135.000,A,3353.7487,N,09832.0191,W,0.05,286.40,310312,,,D*72
$GPGGA,055136.000,3353.7488,N,09832.0191,W,2,08,0.9,333.0,M,-23.7,M,1.8,0000*4B
$GPGSA,A,3,08,26,20,28,04,01,17,27,,,,,1.7,0.9,1.4*3A
$GPRMC,055136.000,A,3353.7488,N,09832.0191,W,0.16,73.58,310312,,,D*4D
$GPGGA,055137.000,3353.7488,N,09832.0192,W,2,08,0.9,333.0,M,-23.7,M,2.8,0000*4A
$GPGSA,A,3,08,26,20,28,04,01,17,27,,,,,1.7,0.9,1.4*3A
$GPRMC,055137.000,A,3353.7488,N,09832.0192,W,0.18,293.27,310312,,,D*75
$GPGGA,055138.000,3353.7488,N,09832.0192,W,2,08,0.9,333.0,M,-23.7,M,0.8,0000*47
$GPGSA,A,3,08,26,20,28,04,01,17,27,,,,,1.7,0.9,1.4*3A
$GPRMC,055138.000,A,3353.7488,N,09832.0192,W,0.04,240.54,310312,,,D*7D
$GPGGA,055139.000,3353.7488,N,09832.0192,W,2,08,0.9,332.9,M,-23.7,M,0.8,0000*4E
$GPGSA,A,3,08,26,20,28,04,01,17,27,,,,,1.7,0.9,1.4*3A
$GPRMC,055139.000,A,3353.7488,N,09832.0192,W,0.11,131.42,310312,,,D*7A
$GPGGA,055140.000,3353.7488,N,09832.0192,W,2,08,0.9,333.1,M,-23.7,M,0.8,0000*49
$GPGSA,A,3,08,26,20,28,04,01,17,27,,,,,1.7,0.9,1.4*3A
$GPGSV,3,1,12,17,68,349,40,28,62,062,36,04,36,191,39,27,34,309,24*79
$GPGSV,3,2,12,08,31,164,34,01,21,043,27,09,16,320,,20,13,088,28*70
$GPGSV,3,3,12,26,11,237,20,02,08,205,,15,06,279,,32,03,062,*7F
$GPRMC,055140.000,A,3353.7488,N,09832.0192,W,0.28,91.35,310312,,,D*45
$GPGGA,055141.000,3353.7488,N,09832.0190,W,2,08,0.9,333.3,M,-23.7,M,0.8,0000*48
$GPGSA,A,3,08,26,20,28,04,01,17,27,,,,,1.7,0.9,1.4*3A
$GPRMC,055141.000,A,3353.7488,N,09832.0190,W,0.36,91.01,310312,,,D*4E
$GPGGA,055142.000,3353.7488,N,09832.0189,W,2,08,0.9,333.5,M,-23.7,M,1.8,0000*44
$GPGSA,A,3,08,26,20,28,04,01,17,27,,,,,1.7,0.9,1.4*3A
$GPRMC,055142.000,A,3353.7488,N,09832.0189,W,0.40,101.32,310312,,,D*7C
$GPGGA,055143.000,3353.7487,N,09832.0188,W,2,08,0.9,333.7,M,-23.7,M,2.8,0000*4A
$GPGSA,A,3,08,26,20,28,04,01,17,27,,,,,1.7,0.9,1.4*3A
$GPRMC,055143.000,A,3353.7487,N,09832.0188,W,0.24,84.47,310312,,,D*4F
$GPGGA,055144.000,3353.7487,N,09832.0187,W,2,08,0.9,333.8,M,-23.7,M,3.8,0000*4C
$GPGSA,A,3,08,26,20,28,04,01,17,27,,,,,1.7,0.9,1.4*3A
$GPRMC,055144.000,A,3353.7487,N,09832.0187,W,0.31,109.42,310312,,,D*72
$GPGGA,055145.000,3353.7487,N,09832.0186,W,2,08,0.9,334.1,M,-23.7,M,0.8,0000*41
$GPGSA,A,3,08,26,20,28,04,01,17,27,,,,,1.7,0.9,1.4*3A
$GPGSV,3,1,12,17,68,349,40,28,62,062,36,04,36,191,39,27,34,309,24*79
$GPGSV,3,2,12,08,31,164,33,01,21,043,28,09,16,320,,20,13,088,27*77
$GPGSV,3,3,12,26,11,237,20,02,08,205,,15,06,279,,32,03,062,*7F
$GPRMC,055145.000,A,3353.7487,N,09832.0186,W,0.39,101.61,310312,,,D*73
$GPGGA,055146.000,3353.7487,N,09832.0186,W,2,08,0.9,334.1,M,-23.7,M,0.8,0000*42
$GPGSA,A,3,08,26,20,28,04,01,17,27,,,,,1.7,0.9,1.4*3A
$GPRMC,055146.000,A,3353.7487,N,09832.0186,W,0.18,297.68,310312,,,D*76
$GPGGA,055147.000,3353.7487,N,09832.0187,W,2,08,0.9,334.0,M,-23.7,M,0.8,0000*43
$GPGSA,A,3,08,26,20,28,04,01,17,27,,,,,1.7,0.9,1.4*3A
$GPRMC,055147.000,A,3353.7487,N,09832.0187,W,0.38,289.44,310312,,,D*75
$GPGGA,055148.000,3353.7487,N,09832.0188,W,2,08,0.9,334.0,M,-23.7,M,0.8,0000*43
$GPGSA,A,3,08,26,20,28,04,01,17,27,,,,,1.7,0.9,1.4*3A
$GPRMC,055148.000,A,3353.7487,N,09832.0188,W,0.09,285.37,310312,,,D*7F
$GPGGA,055149.000,3353.7487,N,09832.0188,W,2,08,0.9,334.0,M,-23.7,M,1.8,0000*43
$GPGSA,A,3,08,26,20,28,04,01,17,27,,,,,1.7,0.9,1.4*3A
$GPRMC,055149.000,A,3353.7487,N,09832.0188,W,0.07,281.09,310312,,,D*79
$GPGGA,055150.000,3353.7487,N,09832.0189,W,2,08,0.9,333.9,M,-23.7,M,2.8,0000*47
$GPGSA,A,3,08,26,20,28,04,01,17,27,,,,,1.7,0.9,1.4*3A
$GPGSV,3,1,12,17,68,349,40,28,62,062,36,04,36,191,39,27,34,309,23*7E
$GPGSV,3,2,12,08,31,164,33,01,21,043,27,09,16,320,,20,13,087,26*76
$GPGSV,3,3,12,26,11,237,15,02,08,205,,15,06,279,,32,03,062,*79
$GPRMC,055150.000,A,3353.7487,N,09832.0189,W,0.30,288.63,310312,,,D*71
$GPGGA,055151.000,3353.7488,N,09832.0190,W,2,08,0.9,333.7,M,-23.7,M,0.8,0000*4D
$GPGSA,A,3,08,26,20,28,04,01,17,27,,,,,1.7,0.9,1.4*3A
$GPRMC,055151.000,A,3353.7488,N,09832.0190,W,0.14,272.40,310312,,,D*75
$GPGGA,055152.000,3353.7487,N,09832.0190,W,2,08,0.9,333.7,M,-23.7,M,0.8,0000*41
$GPGSA,A,3,08,26,20,28,04,01,17,27,,,,,1.7,0.9,1.4*3A
$GPRMC,055152.000,A,3353.7487,N,09832.0190,W,0.06,290.15,310312,,,D*76
$GPGGA,055153.000,3353.7487,N,09832.0190,W,2,08,0.9,333.6,M,-23.7,M,0.8,0000*41
$GPGSA,A,3,08,26,20,28,04,01,17,27,,,,,1.7,0.9,1.4*3A
$GPRMC,055153.000,A,3353.7487,N,09832.0190,W,0.07,295.30,310312,,,D*74
$GPGGA,055154.000,3353.7487,N,09832.0190,W,2,08,0.9,333.4,M,-23.7,M,0.8,0000*44
$GPGSA,A,3,08,26,20,28,04,01,17,27,,,,,1.7,0.9,1.4*3A
$GPRMC,055154.000,A,3353.7487,N,09832.0190,W,0.23,292.70,310312,,,D*76
$GPGGA,055155.000,3353.7487,N,09832.0190,W,2,08,0.9,333.3,M,-23.7,M,1.8,0000*43
$GPGSA,A,3,08,26,20,28,04,01,17,27,,,,,1.7,0.9,1.4*3A
$GPGSV,3,1,12,17,68,349,39,28,62,062,36,04,36,191,39,27,34,309,24*77
$GPGSV,3,2,12,08,31,164,32,01,21,043,27,09,16,320,,20,13,087,26*77
$GPGSV,3,3,12,26,11,237,16,02,08,205,,15,06,279,,32,03,062,*7A
$GPRMC,055155.000,A,3353.7487,N,09832.0190,W,0.09,280.95,310312,,,D*77
$GPGGA,055156.000,3353.7487,N,09832.0190,W,2,08,0.9,333.4,M,-23.7,M,2.8,0000*44
$GPGSA,A,3,08,26,20,28,04,01,17,27,,,,,1.7,0.9,1.4*3A
$GPRMC,055156.000,A,3353.7487,N,09832.0190,W,0.21,89.02,310312,,,D*4B
$GPGGA,055157.000,3353.7487,N,09832.0189,W,2,08,0.9,333.5,M,-23.7,M,0.8,0000*4E
$GPGSA,A,3,08,26,20,28,04,01,17,27,,,,,1.7,0.9,1.4*3A
$GPRMC,055157.000,A,3353.7487,N,09832.0189,W,0.11,12.31,310312,,,D*43
$GPGGA,055158.000,3353.7487,N,09832.0189,W,2,08,0.9,333.5,M,-23.7,M,0.8,0000*41
$GPGSA,A,3,08,26,20,28,04,01,17,27,,,,,1.7,0.9,1.4*3A
$GPRMC,055158.000,A,3353.7487,N,09832.0189,W,0.07,59.87,310312,,,D*49
$GPGGA,055159.000,3353.7488,N,09832.0189,W,2,08,0.9,333.1,M,-23.7,M,0.8,0000*4B
$GPGSA,A,3,08,26,20,28,04,01,17,27,,,,,1.7,0.9,1.4*3A
$GPRMC,055159.000,A,3353.7488,N,09832.0189,W,0.14,39.82,310312,,,D*46
$GPGGA,055200.000,3353.7489,N,09832.0188,W,2,08,0.9,332.8,M,-23.7,M,1.8,0000*4D
$GPGSA,A,3,08,26,20,28,04,01,17,27,,,,,1.7,0.9,1.4*3A
$GPGSV,3,1,12,17,68,349,39,28,62,062,37,04,36,191,39,27,34,309,24*76
$GPGSV,3,2,12,08,31,164,32,01,21,043,27,09,16,320,,20,13,087,26*77
$GPGSV,3,3,12,26,11,237,15,02,08,205,,15,06,279,,32,03,062,*79
$GPRMC,055200.000,A,3353.7489,N,09832.0188,W,0.14,54.49,310312,,,D*45
$GPGGA,055201.000,3353.7488,N,09832.0188,W,2,08,0.9,332.9,M,-23.7,M,2.8,0000*4F
$GPGSA,A,3,08,26,20,28,04,01,17,27,,,,,1.7,0.9,1.4*3A
$GPRMC,055201.000,A,3353.7488,N,09832.0188,W,0.12,279.45,310312,,,D*72
$GPGGA,055202.000,3353.7489,N,09832.0189,W,2,08,0.9,332.7,M,-23.7,M,3.8,0000*43
$GPGSA,A,3,08,26,20,28,04,01,17,27,,,,,1.7,0.9,1.4*3A
$GPRMC,055202.000,A,3353.7489,N,09832.0189,W,0.34,298.20,310312,,,D*79
$GPGGA,055203.000,3353.7489,N,09832.0190,W,2,08,0.9,332.3,M,-23.7,M,0.8,0000*4D
$GPGSA,A,3,08,26,20,28,04,01,17,27,,,,,1.7,0.9,1.4*3A
$GPRMC,055203.000,A,3353.7489,N,09832.0190,W,0.06,305.64,310312,,,D*74
$GPGGA,055204.000,3353.7490,N,09832.0190,W,2,08,0.9,331.9,M,-23.7,M,0.8,0000*4B
$GPGSA,A,3,08,26,20,28,04,01,17,27,,,,,1.7,0.9,1.4*3A
$GPRMC,055204.000,A,3353.7490,N,09832.0190,W,0.24,302.25,310312,,,D*79
$GPGGA,055205.000,3353.7490,N,09832.0191,W,2,08,0.9,331.5,M,-23.7,M,0.8,0000*47
$GPGSA,A,3,08,26,20,28,04,01,17,27,,,,,1.7,0.9,1.4*3A
$GPGSV,3,1,12,17,68,349,39,28,62,062,37,04,36,191,39,27,34,309,25*77
$GPGSV,3,2,12,08,31,164,32,01,21,043,26,09,16,320,,20,13,087,26*76
$GPGSV,3,3,12,26,11,237,14,02,08,205,,15,06,279,,32,03,062,*78
$GPRMC,055205.000,A,3353.7490,N,09832.0191,W,0.26,302.28,310312,,,D*76
$GPGGA,055206.000,3353.7491,N,09832.0191,W,2,08,0.9,331.2,M,-23.7,M,1.8,0000*43
$GPGSA,A,3,08,26,20,28,04,01,17,27,,,,,1.7,0.9,1.4*3A
$GPRMC,055206.000,A,3353.7491,N,09832.0191,W,0.26,315.98,310312,,,D*79
$GPGGA,055207.000,3353.7491,N,09832.0191,W,2,08,0.9,331.0,M,-23.7,M,2.8,0000*43
$GPGSA,A,3,08,26,20,28,04,01,17,27,,,,,1.7,0.9,1.4*3A
$GPRMC,055207.000,A,3353.7491,N,09832.0191,W,0.14,354.18,310312,,,D*74
$GPGGA,055208.000,3353.7492,N,09832.0192,W,2,08,0.9,330.7,M,-23.7,M,0.8,0000*48
$GPGSA,A,3,08,26,20,28,04,01,17,27,,,,,1.7,0.9,1.4*3A
$GPRMC,055208.000,A,3353.7492,N,09832.0192,W,0.17,322.32,310312,,,D*71
$GPGGA,055209.000,3353.7499,N,09832.0206,W,2,08,0.9,327.9,M,-23.7,M,0.8,0000*44
$GPGSA,A,3,08,26,20,28,04,01,17,27,,,,,1.7,0.9,1.4*3A
$GPRMC,055209.000,A,3353.7499,N,09832.0206,W,0.40,311.98,310312,,,D*77
$GPGGA,055210.000,3353.7504,N,09832.0216,W,2,08,0.9,325.9,M,-23.7,M,0.8,0000*4A
$GPGSA,A,3,08,26,20,28,04,01,17,27,,,,,1.7,0.9,1.4*3A
$GPGSV,3,1,12,17,68,349,39,28,62,063,37,04,36,191,39,27,34,309,25*76
$GPGSV,3,2,12,08,30,164,32,01,21,043,25,09,16,320,,20,13,087,27*75
$GPGSV,3,3,12,26,11,236,16,02,09,205,,15,06,279,,32,03,062,*7A
$GPRMC,055210.000,A,3353.7504,N,09832.0216,W,0.45,308.17,310312,,,D*71
$GPGGA,055211.000,3353.7507,N,09832.0223,W,2,08,0.9,324.4,M,-23.7,M,0.8,0000*42
$GPGSA,A,3,08,26,20,28,04,01,17,27,,,,,1.7,0.9,1.4*3A
$GPRMC,055211.000,A,3353.7507,N,09832.0223,W,0.35,306.88,310312,,,D*7A
$GPGGA,055212.000,3353.7510,N,09832.0228,W,2,08,0.9,323.0,M,-23.7,M,1.8,0000*4E
$GPGSA,A,3,08,26,20,28,04,01,17,27,,,,,1.7,0.9,1.4*3A
$GPRMC,055212.000,A,3353.7510,N,09832.0228,W,0.42,304.21,310312,,,D*75
$GPGGA,055213.000,3353.7512,N,09832.0232,W,2,08,0.9,322.1,M,-23.7,M,0.8,0000*47
$GPGSA,A,3,08,26,20,28,04,01,17,27,,,,,1.7,0.9,1.4*3A
$GPRMC,055213.000,A,3353.7512,N,09832.0232,W,0.23,332.01,310312,,,D*7D
$GPGGA,055214.000,3353.7514,N,09832.0235,W,2,08,0.9,321.3,M,-23.7,M,1.8,0000*41
$GPGSA,A,3,08,26,20,28,04,01,17,27,,,,,1.7,0.9,1.4*3A
$GPRMC,055214.000,A,3353.7514,N,09832.0235,W,0.18,4.12,310312,,,D*77
$GPGGA,055215.000,3353.7515,N,09832.0237,W,2,08,0.9,320.5,M,-23.7,M,0.8,0000*45
$GPGSA,A,3,08,26,20,28,04,01,17,27,,,,,1.7,0.9,1.4*3A
$GPGSV,3,1,12,17,68,349,38,28,62,063,37,04,36,191,40,27,34,309,26*7A
$GPGSV,3,2,12,08,30,164,32,01,21,043,25,09,16,320,,20,13,087,28*7A
$GPGSV,3,3,12,26,11,236,22,02,09,205,,15,06,279,,32,03,062,*7D
$GPRMC,055215.000,A,3353.7515,N,09832.0237,W,0.18,340.70,310312,,,D*72
$GPGGA,055216.000,3353.7517,N,09832.0239,W,2,08,0.9,319.7,M,-23.7,M,0.8,0000*42
$GPGSA,A,3,08,26,20,28,04,01,17,27,,,,,1.7,0.9,1.4*3A
$GPRMC,055216.000,A,3353.7517,N,09832.0239,W,0.24,300.35,310312,,,D*77
$GPGGA,055217.000,3353.7519,N,09832.0242,W,2,08,0.9,318.8,M,-23.7,M,0.8,0000*4F
$GPGSA,A,3,08,26,20,28,04,01,17,27,,,,,1.7,0.9,1.4*3A
$GPRMC,055217.000,A,3353.7519,N,09832.0242,W,0.25,340.32,310312,,,D*76
$GPGGA,055218.000,3353.7520,N,09832.0244,W,2,08,0.9,318.3,M,-23.7,M,1.8,0000*46
$GPGSA,A,3,08,26,20,28,04,01,17,27,,,,,1.7,0.9,1.4*3A
$GPRMC,055218.000,A,3353.7520,N,09832.0244,W,0.17,343.70,310312,,,D*71
$GPGGA,055219.000,3353.7521,N,09832.0245,W,2,08,0.9,317.6,M,-23.7,M,0.8,0000*4C
$GPGSA,A,3,08,26,20,28,04,01,17,27,,,,,1.7,0.9,1.4*3A
$GPRMC,055219.000,A,3353.7521,N,09832.0245,W,0.29,303.58,310312,,,D*73
$GPGGA,055220.000,3353.7522,N,09832.0247,W,2,08,0.9,317.1,M,-23.7,M,0.8,0000*40
$GPGSA,A,3,08,26,20,28,04,01,17,27,,,,,1.7,0.9,1.4*3A
$GPGSV,3,1,12,17,68,350,38,28,62,063,37,04,36,191,40,27,34,309,26*72
$GPGSV,3,2,12,08,30,164,32,01,21,043,24,09,16,319,,20,13,087,28*71
$GPGSV,3,3,12,26,11,236,23,02,09,205,,15,06,279,,32,03,062,*7C
$GPRMC,055220.000,A,3353.7522,N,09832.0247,W,0.18,347.00,310312,,,D*77
$GPGGA,055221.000,3353.7523,N,09832.0248,W,2,08,0.9,316.5,M,-23.7,M,0.8,0000*4A
$GPGSA,A,3,08,26,20,28,04,01,17,27,,,,,1.7,0.9,1.4*3A
$GPRMC,055221.000,A,3353.7523,N,09832.0248,W,0.28,335.79,310312,,,D*70
$GPGGA,055222.000,3353.7525,N,09832.0249,W,2,08,0.9,316.1,M,-23.7,M,1.8,0000*4B
$GPGSA,A,3,08,26,20,28,04,01,17,27,,,,,1.7,0.9,1.4*3A
$GPRMC,055222.000,A,3353.7525,N,09832.0249,W,0.21,348.28,310312,,,D*73
$GPGGA,055223.000,3353.7525,N,09832.0250,W,2,08,0.9,315.7,M,-23.7,M,0.8,0000*46
$GPGSA,A,3,08,26,20,28,04,01,17,27,,,,,1.7,0.9,1.4*3A
$GPRMC,055223.000,A,3353.7525,N,09832.0250,W,0.21,327.01,310312,,,D*78
$GPGGA,055224.000,3353.7526,N,09832.0251,W,2,08,0.9,315.3,M,-23.7,M,1.8,0000*46
$GPGSA,A,3,08,26,20,28,04,01,17,27,,,,,1.7,0.9,1.4*3A
$GPRMC,055224.000,A,3353.7526,N,09832.0251,W,0.32,284.34,310312,,,D*71
$GPGGA,055225.000,3353.7527,N,09832.0254,W,2,08,0.9,314.7,M,-23.7,M,0.8,0000*47
$GPGSA,A,3,08,26,20,28,04,01,17,27,,,,,1.7,0.9,1.4*3A
$GPGSV,3,1,12,17,68,350,38,28,62,063,37,04,36,191,40,27,34,309,26*72
$GPGSV,3,2,12,08,30,164,33,01,21,043,24,09,16,319,,20,13,087,29*71
$GPGSV,3,3,12,26,11,236,24,02,09,205,,15,06,279,,32,03,062,*7B
$GPRMC,055225.000,A,3353.7527,N,09832.0254,W,0.14,316.63,310312,,,D*78
$GPGGA,055226.000,3353.7528,N,09832.0255,W,2,08,0.9,314.3,M,-23.7,M,1.8,0000*4F
$GPGSA,A,3,08,26,20,28,04,01,17,27,,,,,1.7,0.9,1.4*3A
$GPRMC,055226.000,A,3353.7528,N,09832.0255,W,0.21,311.57,310312,,,D*73
$GPGGA,055227.000,3353.7529,N,09832.0257,W,2,08,0.9,313.9,M,-23.7,M,0.8,0000*41
$GPGSA,A,3,08,26,20,28,04,01,17,27,,,,,1.7,0.9,1.4*3A
$GPRMC,055227.000,A,3353.7529,N,09832.0257,W,0.10,280.60,310312,,,D*7E
$GPGGA,055228.000,3353.7529,N,09832.0257,W,2,08,0.9,313.6,M,-23.7,M,0.8,0000*41
$GPGSA,A,3,08,26,20,28,04,01,17,27,,,,,1.7,0.9,1.4*3A
$GPRMC,055228.000,A,3353.7529,N,09832.0257,W,0.09,22.71,310312,,,D*43
$GPGGA,055229.000,3353.7529,N,09832.0257,W,2,08,0.9,313.3,M,-23.7,M,0.8,0000*45
$GPGSA,A,3,08,26,20,28,04,01,17,27,,,,,1.7,0.9,1.4*3A
$GPRMC,055229.000,A,3353.7529,N,09832.0257,W,0.15,28.14,310312,,,D*46
$GPGGA,055230.000,3353.7530,N,09832.0257,W,2,08,0.9,313.1,M,-23.7,M,1.8,0000*46
$GPGSA,A,3,08,26,20,28,04,01,17,27,,,,,1.7,0.9,1.4*3A
$GPGSV,3,1,12,17,68,350,38,28,62,063,37,04,36,191,40,27,34,309,26*72
$GPGSV,3,2,12,08,30,164,33,01,21,043,23,09,16,319,,20,13,087,29*76
$GPGSV,3,3,12,26,11,236,25,02,09,205,,15,06,279,,32,03,062,*7A
$GPRMC,055230.000,A,3353.7530,N,09832.0257,W,0.14,29.66,310312,,,D*43
$GPGGA,055231.000,3353.7530,N,09832.0257,W,2,08,0.9,312.8,M,-23.7,M,2.8,0000*4C
$GPGSA,A,3,08,26,20,28,04,01,17,27,,,,,1.7,0.9,1.4*3A
$GPRMC,055231.000,A,3353.7530,N,09832.0257,W,0.16,292.09,310312,,,D*7B
$GPGGA,055232.000,3353.7531,N,09832.0259,W,2,08,0.9,312.4,M,-23.7,M,3.8,0000*4D
$GPGSA,A,3,08,26,20,28,04,01,17,27,,,,,1.7,0.9,1.4*3A
$GPRMC,055232.000,A,3353.7531,N,09832.0259,W,0.01,154.37,310312,,,D*75
$GPGGA,055233.000,3353.7531,N,09832.0259,W,2,08,0.9,312.3,M,-23.7,M,0.8,0000*48
$GPGSA,A,3,08,26,20,28,04,01,17,27,,,,,1.7,0.9,1.4*3A
$GPRMC,055233.000,A,3353.7531,N,09832.0259,W,0.21,78.20,310312,,,D*4F
$GPGGA,055234.000,3353.7531,N,09832.0257,W,2,08,0.9,312.5,M,-23.7,M,0.8,0000*47
$GPGSA,A,3,08,26,20,28,04,01,17,27,,,,,1.7,0.9,1.4*3A
$GPRMC,055234.000,A,3353.7531,N,09832.0257,W,0.15,63.19,310312,,,D*41
$GPGGA,055235.000,3353.7530,N,09832.0256,W,2,08,0.9,312.8,M,-23.7,M,0.8,0000*4B
$GPGSA,A,3,08,26,20,28,04,01,17,27,,,,,1.7,0.9,1.4*3A
$GPGSV,3,1,12,17,68,350,38,28,62,063,37,04,36,191,40,27,34,309,25*71
$GPGSV,3,2,12,08,30,164,34,01,21,043,21,09,16,319,,20,13,087,29*73
$GPGSV,3,3,12,26,11,236,24,02,09,205,,15,06,279,,32,03,062,*7B
$GPRMC,055235.000,A,3353.7530,N,09832.0256,W,0.10,264.06,310312,,,D*7E
$GPGGA,055236.000,3353.7531,N,09832.0258,W,2,08,0.9,312.4,M,-23.7,M,0.8,0000*4B
$GPGSA,A,3,08,26,20,28,04,01,17,27,,,,,1.7,0.9,1.4*3A
$GPRMC,055236.000,A,3353.7531,N,09832.0258,W,0.12,296.37,310312,,,D*7F
$GPGGA,055237.000,3353.7532,N,09832.0260,W,2,08,0.9,312.1,M,-23.7,M,1.8,0000*46
$GPGSA,A,3,08,26,20,28,04,01,17,27,,,,,1.7,0.9,1.4*3A
$GPRMC,055237.000,A,3353.7532,N,09832.0260,W,0.11,12.00,310312,,,D*4F
$GPGGA,055238.000,3353.7533,N,09832.0261,W,2,08,0.9,311.9,M,-23.7,M,2.8,0000*41
$GPGSA,A,3,08,26,20,28,04,01,17,27,,,,,1.7,0.9,1.4*3A
$GPRMC,055238.000,A,3353.7533,N,09832.0261,W,0.03,306.25,310312,,,D*72
$GPGGA,055239.000,3353.7533,N,09832.0261,W,2,08,0.9,311.9,M,-23.7,M,0.8,0000*42
$GPGSA,A,3,08,26,20,28,04,01,17,27,,,,,1.7,0.9,1.4*3A
$GPRMC,055239.000,A,3353.7533,N,09832.0261,W,0.16,108.49,310312,,,D*71
$GPGGA,055240.000,3353.7533,N,09832.0261,W,2,08,0.9,311.9,M,-23.7,M,0.8,0000*4C
$GPGSA,A,3,08,26,20,28,04,01,17,27,,,,,1.7,0.9,1.4*3A
$GPGSV,3,1,12,17,68,350,38,28,62,063,37,04,36,191,40,27,34,309,25*71
$GPGSV,3,2,12,08,30,164,34,01,21,043,21,09,16,319,,20,13,087,29*73
$GPGSV,3,3,12,26,11,236,24,02,09,205,,15,06,279,,32,03,062,*7B
$GPRMC,055240.000,A,3353.7533,N,09832.0261,W,0.10,110.26,310312,,,D*79
$GPGGA,055241.000,3353.7533,N,09832.0261,W,2,08,0.9,311.9,M,-23.7,M,0.8,0000*4D
$GPGSA,A,3,08,26,20,28,04,01,17,27,,,,,1.7,0.9,1.4*3A
$GPRMC,055241.000,A,3353.7533,N,09832.0261,W,0.15,246.50,310312,,,D*7C
$GPGGA,055242.000,3353.7533,N,09832.0261,W,2,08,0.9,312.0,M,-23.7,M,1.8,0000*45
$GPGSA,A,3,08,26,20,28,04,01,17,27,,,,,1.7,0.9,1.4*3A
$GPRMC,055242.000,A,3353.7533,N,09832.0261,W,0.11,119.27,310312,,,D*72
$GPGGA,055243.000,3353.7532,N,09832.0261,W,2,08,0.9,312.2,M,-23.7,M,2.8,0000*44
$GPGSA,A,3,08,26,20,28,04,01,17,27,,,,,1.7,0.9,1.4*3A
$GPRMC,055243.000,A,3353.7532,N,09832.0261,W,0.13,135.79,310312,,,D*75
$GPGGA,055244.000,3353.7531,N,09832.0260,W,2,08,0.9,312.5,M,-23.7,M,0.8,0000*44
$GPGSA,A,3,08,26,20,28,04,01,17,27,,,,,1.7,0.9,1.4*3A
$GPRMC,055244.000,A,3353.7531,N,09832.0260,W,0.20,123.57,310312,,,D*7B
$GPGGA,055245.000,3353.7531,N,09832.0260,W,2,08,0.9,312.5,M,-23.7,M,0.8,0000*45
$GPGSA,A,3,08,26,20,28,04,01,17,27,,,,,1.7,0.9,1.4*3A
$GPGSV,3,1,12,17,68,350,37,28,62,063,37,04,36,191,40,27,34,309,26*7D
$GPGSV,3,2,12,08,30,164,35,01,21,043,20,09,16,319,,20,13,087,29*73
$GPGSV,3,3,12,26,11,236,23,02,09,205,,15,06,279,,32,03,062,*7C
$GPRMC,055245.000,A,3353.7531,N,09832.0260,W,0.05,335.25,310312,,,D*7D
$GPGGA,055246.000,3353.7531,N,09832.0259,W,2,08,0.9,312.6,M,-23.7,M,0.8,0000*4F
$GPGSA,A,3,08,26,20,28,04,01,17,27,,,,,1.7,0.9,1.4*3A
$GPRMC,055246.000,A,3353.7531,N,09832.0259,W,0.07,316.12,310312,,,D*73
$GPGGA,055247.000,3353.7531,N,09832.0259,W,2,08,0.9,312.7,M,-23.7,M,0.8,0000*4F
$GPGSA,A,3,08,26,20,28,04,01,17,27,,,,,1.7,0.9,1.4*3A
$GPRMC,055247.000,A,3353.7531,N,09832.0259,W,0.20,73.99,310312,,,D*44
$GPGGA,055248.000,3353.7531,N,09832.0258,W,2,08,0.9,312.8,M,-23.7,M,1.8,0000*4F
$GPGSA,A,3,08,26,20,28,04,01,17,27,,,,,1.7,0.9,1.4*3A
$GPRMC,055248.000,A,3353.7531,N,09832.0258,W,0.07,286.54,310312,,,D*76
$GPGGA,055249.000,3353.7531,N,09832.0258,W,2,08,0.9,313.0,M,-23.7,M,2.8,0000*44
$GPGSA,A,3,08,26,20,28,04,01,17,27,,,,,1.7,0.9,1.4*3A
$GPRMC,055249.000,A,3353.7531,N,09832.0258,W,0.19,95.67,310312,,,D*48
$GPGGA,055250.000,3353.7531,N,09832.0258,W,2,08,0.9,313.0,M,-23.7,M,0.8,0000*4E
$GPGSA,A,3,08,26,20,28,04,01,17,27,,,,,1.7,0.9,1.4*3A
$GPGSV,3,1,12,17,68,350,37,28,62,063,37,04,36,191,40,27,34,309,26*7D
$GPGSV,3,2,12,08,30,164,35,01,20,042,19,09,17,319,,20,13,087,29*78
$GPGSV,3,3,12,26,11,236,22,02,09,205,,15,06,279,,32,03,062,*7D
$GPRMC,055250.000,A,3353.7531,N,09832.0258,W,0.08,351.50,310312,,,D*7F
$GPGGA,055251.000,3353.7531,N,09832.0258,W,2,08,0.9,312.9,M,-23.7,M,0.8,0000*47
$GPGSA,A,3,08,26,20,28,04,01,17,27,,,,,1.7,0.9,1.4*3A
$GPRMC,055251.000,A,3353.7531,N,09832.0258,W,0.08,38.02,310312,,,D*45
$GPGGA,055252.000,3353.7531,N,09832.0258,W,2,08,0.9,312.8,M,-23.7,M,0.8,0000*45
$GPGSA,A,3,08,26,20,28,04,01,17,27,,,,,1.7,0.9,1.4*3A
$GPRMC,055252.000,A,3353.7531,N,09832.0258,W,0.08,287.93,310312,,,D*78
$GPGGA,055253.000,3353.7531,N,09832.0259,W,2,08,0.9,312.7,M,-23.7,M,0.8,0000*4A
$GPGSA,A,3,08,26,20,28,04,01,17,27,,,,,1.7,0.9,1.4*3A
$GPRMC,055253.000,A,3353.7531,N,09832.0259,W,0.22,258.53,310312,,,D*7E
$GPGGA,055254.000,3353.7531,N,09832.0259,W,2,08,0.9,312.7,M,-23.7,M,1.8,0000*4C
$GPGSA,A,3,08,26,20,28,04,01,17,27,,,,,1.7,0.9,1.4*3A
$GPRMC,055254.000,A,3353.7531,N,09832.0259,W,0.14,70.58,310312,,,D*4F
$GPGGA,055255.000,3353.7531,N,09832.0259,W,2,08,0.9,312.7,M,-23.7,M,2.8,0000*4E
$GPGSA,A,3,08,26,20,28,04,01,17,27,,,,,1.7,0.9,1.4*3A
$GPGSV,3,1,12,17,68,350,38,28,62,063,37,04,36,191,40,27,34,309,26*72
$GPGSV,3,2,12,08,30,164,35,01,20,042,20,09,17,319,,20,13,087,29*72
$GPGSV,3,3,12,26,11,236,21,02,09,205,,15,06,279,,32,03,062,*7E
$GPRMC,055255.000,A,3353.7531,N,09832.0259,W,0.20,64.93,310312,,,D*4B
$GPGGA,055256.000,3353.7531,N,09832.0259,W,2,08,0.9,312.7,M,-23.7,M,3.8,0000*4C
$GPGSA,A,3,08,26,20,28,04,01,17,27,,,,,1.7,0.9,1.4*3A
$GPRMC,055256.000,A,3353.7531,N,09832.0259,W,0.17,97.16,310312,,,D*4D
$GPGGA,055257.000,3353.7531,N,09832.0259,W,2,08,0.9,312.7,M,-23.7,M,0.8,0000*4E
$GPGSA,A,3,08,26,20,28,04,01,17,27,,,,,1.7,0.9,1.4*3A
$GPRMC,055257.000,A,3353.7531,N,09832.0259,W,0.04,283.27,310312,,,D*7B
$GPGGA,055258.000,3353.7531,N,09832.0259,W,2,08,0.9,312.9,M,-23.7,M,0.8,0000*4F
$GPGSA,A,3,08,26,20,28,04,01,17,27,,,,,1.7,0.9,1.4*3A
$GPRMC,055258.000,A,3353.7531,N,09832.0259,W,0.10,118.98,310312,,,D*74
$GPGGA,055259.000,3353.7531,N,09832.0259,W,2,08,0.9,312.9,M,-23.7,M,0.8,0000*4E
$GPGSA,A,3,08,26,20,28,04,01,17,27,,,,,1.7,0.9,1.4*3A
$GPRMC,055259.000,A,3353.7531,N,09832.0259,W,0.06,9.35,310312,,,D*74
$GPGGA,055300.000,3353.7531,N,09832.0259,W,2,08,0.9,313.0,M,-23.7,M,0.8,0000*4B
$GPGSA,A,3,08,26,20,28,04,01,17,27,,,,,1.7,0.9,1.4*3A
$GPGSV,3,1,12,17,68,350,38,28,62,063,37,04,36,191,40,27,34,309,26*72
$GPGSV,3,2,12,08,30,164,35,01,20,042,21,09,17,319,,20,13,087,28*72
$GPGSV,3,3,12,26,11,236,21,02,09,205,,15,06,279,,32,03,062,*7E
$GPRMC,055300.000,A,3353.7531,N,09832.0259,W,0.08,6.22,310312,,,D*7E
$GPGGA,055301.000,3353.7531,N,09832.0259,W,2,08,0.9,313.2,M,-23.7,M,0.8,0000*48
$GPGSA,A,3,08,26,20,28,04,01,17,27,,,,,1.7,0.9,1.4*3A
$GPRMC,055301.000,A,3353.7531,N,09832.0259,W,0.11,108.39,310312,,,D*72
$GPGGA,055302.000,3353.7531,N,09832.0259,W,2,08,0.9,313.3,M,-23.7,M,1.8,0000*4B
$GPGSA,A,3,08,26,20,28,04,01,17,27,,,,,1.7,0.9,1.4*3A
$GPRMC,055302.000,A,3353.7531,N,09832.0259,W,0.11,240.04,310312,,,D*70
$GPGGA,055303.000,3353.7530,N,09832.0259,W,2,08,0.9,313.3,M,-23.7,M,0.8,0000*4A
$GPGSA,A,3,08,26,20,28,04,01,17,27,,,,,1.7,0.9,1.4*3A
$GPRMC,055303.000,A,3353.7530,N,09832.0259,W,0.07,161.45,310312,,,D*72
$GPGGA,055304.000,3353.7530,N,09832.0260,W,2,08,0.9,313.2,M,-23.7,M,0.8,0000*46
$GPGSA,A,3,08,26,20,28,04,01,17,27,,,,,1.7,0.9,1.4*3A
$GPRMC,055304.000,A,3353.7530,N,09832.0260,W,0.04,280.25,310312,,,D*76
$GPGGA,055305.000,3353.7531,N,09832.0260,W,2,08,0.9,313.1,M,-23.7,M,0.8,0000*45
$GPGSA,A,3,08,26,20,28,04,01,17,27,,,,,1.7,0.9,1.4*3A
$GPGSV,3,1,12,17,68,350,38,28,62,063,37,04,36,191,40,27,34,309,26*72
$GPGSV,3,2,12,08,30,164,35,01,20,042,21,09,17,319,,20,13,087,28*72
$GPGSV,3,3,12,26,11,236,21,02,09,205,,15,06,279,,32,03,062,*7E
$GPRMC,055305.000,A,3353.7531,N,09832.0260,W,0.11,281.67,310312,,,D*75
$GPGGA,055306.000,3353.7531,N,09832.0260,W,2,08,0.9,312.9,M,-23.7,M,1.8,0000*4E
$GPGSA,A,3,08,26,20,28,04,01,17,27,,,,,1.7,0.9,1.4*3A
$GPRMC,055306.000,A,3353.7531,N,09832.0260,W,0.09,1.18,310312,,,D*7D
$GPGGA,055307.000,3353.7531,N,09832.0260,W,2,08,0.9,312.8,M,-23.7,M,2.8,0000*4D
$GPGSA,A,3,08,26,20,28,04,01,17,27,,,,,1.7,0.9,1.4*3A
$GPRMC,055307.000,A,3353.7531,N,09832.0260,W,0.19,66.45,310312,,,D*44
$GPGGA,055308.000,3353.7531,N,09832.0260,W,2,08,0.9,312.6,M,-23.7,M,0.8,0000*4E
$GPGSA,A,3,08,26,20,28,04,01,17,27,,,,,1.7,0.9,1.4*3A
$GPRMC,055308.000,A,3353.7531,N,09832.0260,W,0.23,60.72,310312,,,D*40
$GPGGA,055309.000,3353.7532,N,09832.0260,W,2,08,0.9,312.5,M,-23.7,M,0.8,0000*4F
$GPGSA,A,3,08,26,20,28,04,01,17,27,,,,,1.7,0.9,1.4*3A
$GPRMC,055309.000,A,3353.7532,N,09832.0260,W,0.17,345.47,310312,,,D*77
$GPGGA,055310.000,3353.7532,N,09832.0260,W,2,08,0.9,312.4,M,-23.7,M,0.8,0000*46
$GPGSA,A,3,08,26,20,28,04,01,17,27,,,,,1.7,0.9,1.4*3A
$GPGSV,3,1,12,17,68,350,38,28,62,063,37,04,36,191,40,27,34,309,26*72
$GPGSV,3,2,12,08,30,164,35,01,20,042,20,09,17,319,,20,13,087,28*73
$GPGSV,3,3,12,26,11,236,22,02,09,205,,15,06,279,,32,03,062,*7D
$GPRMC,055310.000,A,3353.7532,N,09832.0260,W,0.17,41.55,310312,,,D*4B
$GPGGA,055311.000,3353.7532,N,09832.0260,W,2,08,0.9,312.5,M,-23.7,M,0.8,0000*46
$GPGSA,A,3,08,26,20,28,04,01,17,27,,,,,1.7,0.9,1.4*3A
$GPRMC,055311.000,A,3353.7532,N,09832.0260,W,0.07,87.74,310312,,,D*42
$GPGGA,055312.000,3353.7533,N,09832.0262,W,2,08,0.9,312.0,M,-23.7,M,1.8,0000*42
$GPGSA,A,3,08,26,20,28,04,01,17,27,,,,,1.7,0.9,1.4*3A
$GPRMC,055312.000,A,3353.7533,N,09832.0262,W,0.06,290.85,310312,,,D*79
$GPGGA,055313.000,3353.7535,N,09832.0266,W,2,08,0.9,311.3,M,-23.7,M,0.8,0000*40
$GPGSA,A,3,08,26,20,28,04,01,17,27,,,,,1.7,0.9,1.4*3A
$GPRMC,055313.000,A,3353.7535,N,09832.0266,W,0.14,273.76,310312,,,D*78
$GPGGA,055314.000,3353.7537,N,09832.0269,W,2,08,0.9,310.6,M,-23.7,M,1.8,0000*4F
$GPGSA,A,3,08,26,20,28,04,01,17,27,,,,,1.7,0.9,1.4*3A
$GPRMC,055314.000,A,3353.7537,N,09832.0269,W,0.17,306.03,310312,,,D*70
$GPGGA,055315.000,3353.7539,N,09832.0273,W,2,08,0.9,309.6,M,-23.7,M,0.8,0000*42
$GPGSA,A,3,08,26,20,28,04,01,17,27,,,,,1.7,0.9,1.4*3A
$GPGSV,3,1,12,17,68,350,38,28,62,063,37,04,36,191,40,27,34,309,26*72
$GPGSV,3,2,12,08,30,164,35,01,20,042,20,09,17,319,,20,13,087,27*7C
$GPGSV,3,3,12,26,11,236,22,02,09,205,,15,06,279,,32,03,062,*7D
$GPRMC,055315.000,A,3353.7539,N,09832.0273,W,0.30,331.75,310312,,,D*74
$GPGGA,055316.000,3353.7541,N,09832.0275,W,2,08,0.9,308.8,M,-23.7,M,0.8,0000*47
$GPGSA,A,3,08,26,20,28,04,01,17,27,,,,,1.7,0.9,1.4*3A
$GPRMC,055316.000,A,3353.7541,N,09832.0275,W,0.25,31.73,310312,,,D*4F
$GPGGA,055317.000,3353.7543,N,09832.0277,W,2,08,0.9,308.1,M,-23.7,M,0.8,0000*4F
$GPGSA,A,3,08,26,20,28,04,01,17,27,,,,,1.7,0.9,1.4*3A
$GPRMC,055317.000,A,3353.7543,N,09832.0277,W,0.22,19.42,310312,,,D*41
$GPGGA,055318.000,3353.7544,N,09832.0279,W,2,08,0.9,307.4,M,-23.7,M,1.8,0000*42
$GPGSA,A,3,08,26,20,28,04,01,17,27,,,,,1.7,0.9,1.4*3A
$GPRMC,055318.000,A,3353.7544,N,09832.0279,W,0.20,334.45,310312,,,D*7E
$GPGGA,055319.000,3353.7545,N,09832.0281,W,2,08,0.9,307.0,M,-23.7,M,2.8,0000*42
$GPGSA,A,3,08,26,20,28,04,01,17,27,,,,,1.7,0.9,1.4*3A
$GPRMC,055319.000,A,3353.7545,N,09832.0281,W,0.21,302.09,310312,,,D*75
$GPGGA,055320.000,3353.7545,N,09832.0281,W,2,08,0.9,306.8,M,-23.7,M,3.8,0000*40
$GPGSA,A,3,08,26,20,28,04,01,17,27,,,,,1.7,0.9,1.4*3A
$GPGSV,3,1,12,17,68,351,38,28,62,064,37,04,36,191,40,27,34,309,25*77
$GPGSV,3,2,12,08,30,164,35,01,20,042,20,09,17,319,,20,13,087,26*7D
$GPGSV,3,3,12,26,11,236,22,02,09,205,,15,06,279,,32,03,062,*7D
$GPRMC,055320.000,A,3353.7545,N,09832.0281,W,0.11,23.91,310312,,,D*4D
$GPGGA,055321.000,3353.7545,N,09832.0282,W,2,08,0.9,306.5,M,-23.7,M,0.8,0000*4C
$GPGSA,A,3,08,26,20,28,04,01,17,27,,,,,1.7,0.9,1.4*3A
$GPRMC,055321.000,A,3353.7545,N,09832.0282,W,0.24,296.34,310312,,,D*7A
$GPGGA,055322.000,3353.7546,N,09832.0283,W,2,08,0.9,306.3,M,-23.7,M,0.8,0000*4B
$GPGSA,A,3,08,26,20,28,04,01,17,27,,,,,1.7,0.9,1.4*3A
$GPRMC,055322.000,A,3353.7546,N,09832.0283,W,0.14,4.96,310312,,,D*79
$GPGGA,055323.000,3353.7547,N,09832.0284,W,2,08,0.9,306.0,M,-23.7,M,0.8,0000*4F
$GPGSA,A,3,08,26,20,28,04,01,17,27,,,,,1.7,0.9,1.4*3A
$GPRMC,055323.000,A,3353.7547,N,09832.0284,W,0.28,45.39,310312,,,D*41
$GPGGA,055324.000,3353.7548,N,09832.0284,W,2,08,0.9,305.6,M,-23.7,M,1.8,0000*43
$GPGSA,A,3,08,26,20,28,04,01,17,27,,,,,1.7,0.9,1.4*3A
$GPRMC,055324.000,A,3353.7548,N,09832.0284,W,0.19,1.28,310312,,,D*7B
$GPGGA,055325.000,3353.7547,N,09832.0283,W,2,08,0.9,305.7,M,-23.7,M,2.8,0000*48
$GPGSA,A,3,08,26,20,28,04,01,17,27,,,,,1.7,0.9,1.4*3A
$GPGSV,3,1,12,17,68,351,38,28,62,064,37,04,36,191,41,27,34,309,25*76
$GPGSV,3,2,12,08,30,164,35,01,20,042,20,09,17,319,19,20,13,087,26*75
$GPGSV,3,3,12,26,11,236,22,02,09,205,,15,06,279,,32,03,062,*7D
$GPRMC,055325.000,A,3353.7547,N,09832.0283,W,0.16,19.24,310312,,,D*48
$GPGGA,055326.000,3353.7547,N,09832.0284,W,2,08,0.9,305.7,M,-23.7,M,3.8,0000*4D
$GPGSA,A,3,08,26,20,28,04,01,17,27,,,,,1.7,0.9,1.4*3A
$GPRMC,055326.000,A,3353.7547,N,09832.0284,W,0.08,337.97,310312,,,D*74
$GPGGA,055327.000,3353.7548,N,09832.0284,W,2,08,0.9,305.7,M,-23.7,M,0.8,0000*40
$GPGSA,A,3,08,26,20,28,04,01,17,27,,,,,1.7,0.9,1.4*3A
$GPRMC,055327.000,A,3353.7548,N,09832.0284,W,0.23,72.20,310312,,,D*4D
$GPGGA,055328.000,3353.7548,N,09832.0282,W,2,08,0.9,305.5,M,-23.7,M,0.8,0000*4B
$GPGSA,A,3,08,26,20,28,04,01,17,27,,,,,1.7,0.9,1.4*3A
$GPRMC,055328.000,A,3353.7548,N,09832.0282,W,0.35,80.54,310312,,,D*4D
$GPGGA,055329.000,3353.7547,N,09832.0280,W,2,08,0.9,305.6,M,-23.7,M,0.8,0000*44
$GPGSA,A,3,08,26,20,28,04,01,17,27,,,,,1.7,0.9,1.4*3A
$GPRMC,055329.000,A,3353.7547,N,09832.0280,W,0.23,104.60,310312,,,D*7C
$GPGGA,055330.000,3353.7546,N,09832.0279,W,2,08,0.9,305.9,M,-23.7,M,0.8,0000*44
$GPGSA,A,3,08,26,20,28,04,01,17,27,,,,,1.7,0.9,1.4*3A
$GPGSV,3,1,12,17,68,351,38,28,62,064,37,04,36,191,41,27,34,309,25*76
$GPGSV,3,2,12,08,30,164,35,01,20,042,20,09,17,319,18,20,13,087,26*74
$GPGSV,3,3,12,26,11,236,22,02,09,205,19,15,06,279,,32,03,062,*75
$GPRMC,055330.000,A,3353.7546,N,09832.0279,W,0.12,144.68,310312,,,D*7D
$GPGGA,055331.000,3353.7545,N,09832.0278,W,2,08,0.9,306.1,M,-23.7,M,0.8,0000*4C
$GPGSA,A,3,08,26,20,28,04,01,17,27,,,,,1.7,0.9,1.4*3A
$GPRMC,055331.000,A,3353.7545,N,09832.0278,W,0.19,134.07,310312,,,D*7B
$GPGGA,055332.000,3353.7544,N,09832.0276,W,2,08,0.9,306.4,M,-23.7,M,1.8,0000*44
$GPGSA,A,3,08,26,20,28,04,01,17,27,,,,,1.7,0.9,1.4*3A
$GPRMC,055332.000,A,3353.7544,N,09832.0276,W,0.32,100.94,310312,,,D*73
$GPGGA,055333.000,3353.7544,N,09832.0275,W,2,08,0.9,306.7,M,-23.7,M,0.8,0000*44
$GPGSA,A,3,08,26,20,28,04,01,17,27,,,,,1.7,0.9,1.4*3A
$GPRMC,055333.000,A,3353.7544,N,09832.0275,W,0.10,234.76,310312,,,D*79
$GPGGA,055334.000,3353.7543,N,09832.0275,W,2,08,0.9,307.1,M,-23.7,M,0.8,0000*43
$GPGSA,A,3,08,26,20,28,04,01,17,27,,,,,1.7,0.9,1.4*3A
$GPRMC,055334.000,A,3353.7543,N,09832.0275,W,0.11,153.03,310312,,,D*78
$GPGGA,055335.000,3353.7542,N,09832.0273,W,2,08,0.9,307.5,M,-23.7,M,0.8,0000*41
$GPGSA,A,3,08,26,20,28,04,01,17,27,,,,,1.7,0.9,1.4*3A
$GPGSV,3,1,12,17,68,351,38,28,62,064,37,04,36,191,41,27,34,309,26*75
$GPGSV,3,2,12,08,30,164,35,01,20,042,20,09,17,319,16,20,13,087,26*7A
$GPGSV,3,3,12,26,11,236,21,02,09,205,,15,06,279,,32,03,062,*7E
$GPRMC,055335.000,A,3353.7542,N,09832.0273,W,0.35,89.87,310312,,,D*42
$GPGGA,055336.000,3353.7542,N,09832.0272,W,2,08,0.9,307.8,M,-23.7,M,1.8,0000*4F
$GPGSA,A,3,08,26,20,28,04,01,17,27,,,,,1.7,0.9,1.4*3A
$GPRMC,055336.000,A,3353.7542,N,09832.0272,W,0.12,95.58,310312,,,D*4A
$GPGGA,055337.000,3353.7541,N,09832.0271,W,2,08,0.9,308.3,M,-23.7,M,2.8,0000*49
$GPGSA,A,3,08,26,20,28,04,01,17,27,,,,,1.7,0.9,1.4*3A
$GPRMC,055337.000,A,3353.7541,N,09832.0271,W,0.07,135.69,310312,,,D*76
$GPGGA,055338.000,3353.7540,N,09832.0270,W,2,08,0.9,308.9,M,-23.7,M,3.8,0000*4D
$GPGSA,A,3,08,26,20,28,04,01,17,27,,,,,1.7,0.9,1.4*3A
$GPRMC,055338.000,A,3353.7540,N,09832.0270,W,0.19,116.93,310312,,,D*72
$GPGGA,055339.000,3353.7539,N,09832.0268,W,2,08,0.9,309.3,M,-23.7,M,0.8,0000*43
$GPGSA,A,3,08,26,20,28,04,01,17,27,,,,,1.7,0.9,1.4*3A
$GPRMC,055339.000,A,3353.7539,N,09832.0268,W,0.22,119.20,310312,,,D*7B
$GPGGA,055340.000,3353.7539,N,09832.0267,W,2,08,0.9,309.4,M,-23.7,M,0.8,0000*45
$GPGSA,A,3,08,26,20,28,04,01,17,27,,,,,1.7,0.9,1.4*3A
$GPGSV,3,1,12,17,68,351,38,28,62,064,37,04,36,191,41,27,34,309,26*75
$GPGSV,3,2,12,08,30,164,35,01,20,042,20,09,17,319,,20,13,087,26*7D
$GPGSV,3,3,12,26,11,236,21,02,09,205,,15,06,279,,32,03,062,*7E
$GPRMC,055340.000,A,3353.7539,N,09832.0267,W,0.12,75.66,310312,,,D*40
$GPGGA,055341.000,3353.7539,N,09832.0266,W,2,08,0.9,309.3,M,-23.7,M,0.8,0000*42
$GPGSA,A,3,08,26,20,28,04,01,17,27,,,,,1.7,0.9,1.4*3A
$GPRMC,055341.000,A,3353.7539,N,09832.0266,W,0.07,84.82,310312,,,D*40
$GPGGA,055342.000,3353.7538,N,09832.0265,W,2,08,0.9,309.4,M,-23.7,M,1.8,0000*45
$GPGSA,A,3,08,26,20,28,04,01,17,27,,,,,1.7,0.9,1.4*3A
$GPRMC,055342.000,A,3353.7538,N,09832.0265,W,0.23,99.95,310312,,,D*4D
$GPGGA,055343.000,3353.7538,N,09832.0263,W,2,08,0.9,309.3,M,-23.7,M,2.8,0000*46
$GPGSA,A,3,08,26,20,28,04,01,17,27,,,,,1.7,0.9,1.4*3A
$GPRMC,055343.000,A,3353.7538,N,09832.0263,W,0.20,90.28,310312,,,D*46
$GPGGA,055344.000,3353.7538,N,09832.0261,W,2,08,0.9,309.1,M,-23.7,M,3.8,0000*40
$GPGSA,A,3,08,26,20,28,04,01,17,27,,,,,1.7,0.9,1.4*3A
$GPRMC,055344.000,A,3353.7538,N,09832.0261,W,0.08,68.24,310312,,,D*42
$GPGGA,055345.000,3353.7538,N,09832.0260,W,2,08,0.9,309.0,M,-23.7,M,0.8,0000*42
$GPGSA,A,3,08,26,20,28,04,01,17,27,,,,,1.7,0.9,1.4*3A
$GPGSV,3,1,12,17,68,351,38,28,62,064,37,04,36,191,41,27,34,309,27*74
$GPGSV,3,2,12,08,30,164,35,01,20,042,20,09,17,319,,20,13,087,26*7D
$GPGSV,3,3,12,26,11,236,22,02,09,205,,15,06,279,,32,03,062,*7D
$GPRMC,055345.000,A,3353.7538,N,09832.0260,W,0.16,70.42,310312,,,D*44
$GPGGA,055346.000,3353.7538,N,09832.0259,W,2,08,0.9,309.0,M,-23.7,M,0.8,0000*4B
$GPGSA,A,3,08,26,20,28,04,01,17,27,,,,,1.7,0.9,1.4*3A
$GPRMC,055346.000,A,3353.7538,N,09832.0259,W,0.03,244.94,310312,,,D*77
$GPGGA,055347.000,3353.7537,N,09832.0258,W,2,08,0.9,309.0,M,-23.7,M,0.8,0000*44
$GPGSA,A,3,08,26,20,28,04,01,17,27,,,,,1.7,0.9,1.4*3A
$GPRMC,055347.000,A,3353.7537,N,09832.0258,W,0.11,290.43,310312,,,D*78
$GPGGA,055348.000,3353.7537,N,09832.0257,W,2,08,0.9,309.1,M,-23.7,M,0.8,0000*45
$GPGSA,A,3,08,26,20,28,04,01,17,27,,,,,1.7,0.9,1.4*3A
$GPRMC,055348.000,A,3353.7537,N,09832.0257,W,0.16,94.32,310312,,,D*4F
$GPGGA,055349.000,3353.7537,N,09832.0256,W,2,08,0.9,308.9,M,-23.7,M,1.8,0000*4D
$GPGSA,A,3,08,26,20,28,04,01,17,27,,,,,1.7,0.9,1.4*3A
$GPRMC,055349.000,A,3353.7537,N,09832.0256,W,0.14,16.32,310312,,,D*47
$GPGGA,055350.000,3353.7538,N,09832.0254,W,2,08,0.9,308.9,M,-23.7,M,2.8,0000*4B
$GPGSA,A,3,08,26,20,28,04,01,17,27,,,,,1.7,0.9,1.4*3A
$GPGSV,3,1,12,17,68,351,38,28,62,064,37,04,36,191,42,27,34,309,27*77
$GPGSV,3,2,12,08,30,164,35,01,20,042,20,09,17,319,,20,13,087,26*7D
$GPGSV,3,3,12,26,11,236,23,02,09,205,,15,06,279,,32,03,062,*7C
$GPRMC,055350.000,A,3353.7538,N,09832.0254,W,0.18,62.66,310312,,,D*4C
$GPGGA,055351.000,3353.7538,N,09832.0253,W,2,08,0.9,308.9,M,-23.7,M,0.8,0000*4F
$GPGSA,A,3,08,26,20,28,04,01,17,27,,,,,1.7,0.9,1.4*3A
$GPRMC,055351.000,A,3353.7538,N,09832.0253,W,0.19,97.81,310312,,,D*48
$GPGGA,055352.000,3353.7538,N,09832.0252,W,2,08,0.9,308.7,M,-23.7,M,0.8,0000*43
$GPGSA,A,3,08,26,20,28,04,01,17,27,,,,,1.7,0.9,1.4*3A
$GPRMC,055352.000,A,3353.7538,N,09832.0252,W,0.06,241.58,310312,,,D*79
$GPGGA,055353.000,3353.7539,N,09832.0253,W,2,08,0.9,308.0,M,-23.7,M,0.8,0000*45
$GPGSA,A,3,08,26,20,28,04,01,17,27,,,,,1.7,0.9,1.4*3A
$GPRMC,055353.000,A,3353.7539,N,09832.0253,W,0.05,354.84,310312,,,D*7F
$GPGGA,055354.000,3353.7539,N,09832.0253,W,2,08,0.9,307.7,M,-23.7,M,1.8,0000*4B
$GPGSA,A,3,08,26,20,28,04,01,17,27,,,,,1.7,0.9,1.4*3A
$GPRMC,055354.000,A,3353.7539,N,09832.0253,W,0.08,92.57,310312,,,D*42
$GPGGA,055355.000,3353.7539,N,09832.0253,W,2,08,0.9,307.4,M,-23.7,M,0.8,0000*48
$GPGSA,A,3,08,26,20,28,04,01,17,27,,,,,1.7,0.9,1.4*3A
$GPGSV,3,1,12,17,68,351,38,28,62,064,37,04,36,191,42,27,34,309,27*77
$GPGSV,3,2,12,08,30,164,35,01,20,042,21,09,17,319,,20,13,087,26*7C
$GPGSV,3,3,12,26,11,236,24,02,09,205,,15,06,279,,32,03,062,*7B
$GPRMC,055355.000,A,3353.7539,N,09832.0253,W,0.04,142.51,310312,,,D*75
$GPGGA,055356.000,3353.7540,N,09832.0252,W,2,08,0.9,307.2,M,-23.7,M,1.8,0000*43
$GPGSA,A,3,08,26,20,28,04,01,17,27,,,,,1.7,0.9,1.4*3A
$GPRMC,055356.000,A,3353.7540,N,09832.0252,W,0.07,118.36,310312,,,D*74
$GPGGA,055357.000,3353.7540,N,09832.0251,W,2,08,0.9,307.0,M,-23.7,M,0.8,0000*42
$GPGSA,A,3,08,26,20,28,04,01,17,27,,,,,1.7,0.9,1.4*3A
$GPRMC,055357.000,A,3353.7540,N,09832.0251,W,0.19,76.33,310312,,,D*45
$GPGGA,055358.000,3353.7540,N,09832.0250,W,2,08,0.9,306.8,M,-23.7,M,1.8,0000*44
$GPGSA,A,3,08,26,20,28,04,01,17,27,,,,,1.7,0.9,1.4*3A
$GPRMC,055358.000,A,3353.7540,N,09832.0250,W,0.12,67.32,310312,,,D*41
$GPGGA,055359.000,3353.7540,N,09832.0249,W,2,08,0.9,306.7,M,-23.7,M,0.8,0000*43
$GPGSA,A,3,08,26,20,28,04,01,17,27,,,,,1.7,0.9,1.4*3A
$GPRMC,055359.000,A,3353.7540,N,09832.0249,W,0.09,302.95,310312,,,D*7F
$GPGGA,055400.000,3353.7540,N,09832.0248,W,2,08,0.9,306.5,M,-23.7,M,1.8,0000*4A
$GPGSA,A,3,08,26,20,28,04,01,17,27,,,,,1.7,0.9,1.4*3A
$GPGSV,3,1,12,17,68,351,38,28,62,064,37,04,36,191,42,27,34,309,28*78
$GPGSV,3,2,12,08,30,164,35,01,20,042,22,09,17,319,,20,13,087,25*7C
$GPGSV,3,3,12,26,11,236,23,02,09,205,,15,06,279,,32,03,062,*7C
$GPRMC,055400.000,A,3353.7540,N,09832.0248,W,0.16,63.52,310312,,,D*44
$GPGGA,055401.000,3353.7540,N,09832.0247,W,2,08,0.9,306.5,M,-23.7,M,0.8,0000*45
$GPGSA,A,3,08,26,20,28,04,01,17,27,,,,,1.7,0.9,1.4*3A
$GPRMC,055401.000,A,3353.7540,N,09832.0247,W,0.23,271.26,310312,,,D*7E
$GPGGA,055402.000,3353.7540,N,09832.0247,W,2,08,0.9,306.5,M,-23.7,M,1.8,0000*47
$GPGSA,A,3,08,26,20,28,04,01,17,27,,,,,1.7,0.9,1.4*3A
$GPRMC,055402.000,A,3353.7540,N,09832.0247,W,0.07,43.21,310312,,,D*4F
$GPGGA,055403.000,3353.7539,N,09832.0245,W,2,08,0.9,306.4,M,-23.7,M,0.8,0000*4A
$GPGSA,A,3,08,26,20,28,04,01,17,27,,,,,1.7,0.9,1.4*3A
$GPRMC,055403.000,A,3353.7539,N,09832.0245,W,0.37,96.11,310312,,,D*4A
$GPGGA,055404.000,3353.7539,N,09832.0243,W,2,08,0.9,306.4,M,-23.7,M,0.8,0000*4B
$GPGSA,A,3,08,26,20,28,04,01,17,27,,,,,1.7,0.9,1.4*3A
$GPRMC,055404.000,A,3353.7539,N,09832.0243,W,0.10,270.15,310312,,,D*70
$GPGGA,055405.000,3353.7539,N,09832.0243,W,2,08,0.9,306.4,M,-23.7,M,0.8,0000*4A
$GPGSA,A,3,08,26,20,28,04,01,17,27,,,,,1.7,0.9,1.4*3A
$GPGSV,3,1,12,17,68,351,38,28,62,064,37,04,36,191,42,27,34,309,28*78
$GPGSV,3,2,12,08,30,164,35,01,20,042,23,09,17,319,,20,13,087,24*7C
$GPGSV,3,3,12,26,11,236,22,02,09,205,,15,06,279,,32,03,062,*7D
$GPRMC,055405.000,A,3353.7539,N,09832.0243,W,0.03,55.77,310312,,,D*42
$GPGGA,055406.000,3353.7539,N,09832.0242,W,2,08,0.9,306.5,M,-23.7,M,0.8,0000*49
$GPGSA,A,3,08,26,20,28,04,01,17,27,,,,,1.7,0.9,1.4*3A
$GPRMC,055406.000,A,3353.7539,N,09832.0242,W,0.03,179.88,310312,,,D*7F
$GPGGA,055407.000,3353.7538,N,09832.0240,W,2,08,0.9,306.6,M,-23.7,M,1.8,0000*49
$GPGSA,A,3,08,26,20,28,04,01,17,27,,,,,1.7,0.9,1.4*3A
$GPRMC,055407.000,A,3353.7538,N,09832.0240,W,0.12,115.86,310312,,,D*79
$GPGGA,055408.000,3353.7538,N,09832.0239,W,2,08,0.9,306.4,M,-23.7,M,2.8,0000*49
$GPGSA,A,3,08,26,20,28,04,01,17,27,,,,,1.7,0.9,1.4*3A
$GPRMC,055408.000,A,3353.7538,N,09832.0239,W,0.17,74.17,310312,,,D*43
$GPGGA,055409.000,3353.7538,N,09832.0238,W,2,08,0.9,306.5,M,-23.7,M,0.8,0000*4A
$GPGSA,A,3,08,26,20,28,04,01,17,27,,,,,1.7,0.9,1.4*3A
$GPRMC,055409.000,A,3353.7538,N,09832.0238,W,0.27,262.86,310312,,,D*7D
$GPGGA,055410.000,3353.7538,N,09832.0238,W,2,08,0.9,306.5,M,-23.7,M,0.8,0000*42
$GPGSA,A,3,08,26,20,28,04,01,17,27,,,,,1.7,0.9,1.4*3A
$GPGSV,3,1,12,17,68,351,38,28,62,064,37,04,36,191,42,27,34,309,28*78
$GPGSV,3,2,12,08,30,164,35,01,20,042,24,09,17,319,,20,13,087,23*7C
$GPGSV,3,3,12,26,11,236,17,02,09,205,,15,06,279,,32,03,062,*7B
$GPRMC,055410.000,A,3353.7538,N,09832.0238,W,0.28,279.00,310312,,,D*7E
$GPGGA,055411.000,3353.7538,N,09832.0238,W,2,08,0.9,306.5,M,-23.7,M,0.8,0000*43
$GPGSA,A,3,08,26,20,28,04,01,17,27,,,,,1.7,0.9,1.4*3A
$GPRMC,055411.000,A,3353.7538,N,09832.0238,W,0.07,320.98,310312,,,D*7E
$GPGGA,055412.000,3353.7538,N,09832.0237,W,2,08,0.9,306.5,M,-23.7,M,1.8,0000*4E
$GPGSA,A,3,08,26,20,28,04,01,17,27,,,,,1.7,0.9,1.4*3A
$GPRMC,055412.000,A,3353.7538,N,09832.0237,W,0.15,311.94,310312,,,D*7F
$GPGGA,055413.000,3353.7538,N,09832.0236,W,2,08,0.9,306.6,M,-23.7,M,0.8,0000*4C
$GPGSA,A,3,08,26,20,28,04,01,17,27,,,,,1.7,0.9,1.4*3A
$GPRMC,055413.000,A,3353.7538,N,09832.0236,W,0.22,293.46,310312,,,D*7F
$GPGGA,055414.000,3353.7538,N,09832.0235,W,2,08,0.9,306.5,M,-23.7,M,1.8,0000*4A
$GPGSA,A,3,08,26,20,28,04,01,17,27,,,,,1.7,0.9,1.4*3A
$GPRMC,055414.000,A,3353.7538,N,09832.0235,W,0.10,21.89,310312,,,D*42
$GPGGA,055415.000,3353.7538,N,09832.0234,W,2,08,0.9,306.6,M,-23.7,M,0.8,0000*48
$GPGSA,A,3,08,26,20,28,04,01,17,27,,,,,1.7,0.9,1.4*3A
$GPGSV,3,1,12,17,68,351,38,28,62,064,36,04,36,191,42,27,34,309,29*78
$GPGSV,3,2,12,08,30,164,35,01,20,042,25,09,17,319,,20,13,087,23*7D
$GPGSV,3,3,12,26,11,236,15,02,09,205,,15,06,279,,32,03,062,*79
$GPRMC,055415.000,A,3353.7538,N,09832.0234,W,0.21,302.18,310312,,,D*7A
$GPGGA,055416.000,3353.7538,N,09832.0233,W,2,08,0.9,306.5,M,-23.7,M,0.8,0000*4F
$GPGSA,A,3,08,26,20,28,04,01,17,27,,,,,1.7,0.9,1.4*3A
$GPRMC,055416.000,A,3353.7538,N,09832.0233,W,0.13,27.01,310312,,,D*43
$GPGGA,055417.000,3353.7538,N,09832.0232,W,2,08,0.9,306.6,M,-23.7,M,0.8,0000*4C
$GPGSA,A,3,08,26,20,28,04,01,17,27,,,,,1.7,0.9,1.4*3A
$GPRMC,055417.000,A,3353.7538,N,09832.0232,W,0.19,281.84,310312,,,D*7A
$GPGGA,055418.000,3353.7537,N,09832.0231,W,2,08,0.9,306.5,M,-23.7,M,0.8,0000*4C
$GPGSA,A,3,08,26,20,28,04,01,17,27,,,,,1.7,0.9,1.4*3A
$GPRMC,055418.000,A,3353.7537,N,09832.0231,W,0.05,11.33,310312,,,D*43
$GPGGA,055419.000,3353.7537,N,09832.0230,W,2,08,0.9,306.5,M,-23.7,M,1.8,0000*4D
$GPGSA,A,3,08,26,20,28,04,01,17,27,,,,,1.7,0.9,1.4*3A
$GPRMC,055419.000,A,3353.7537,N,09832.0230,W,0.06,343.68,310312,,,D*7A
$GPGGA,055420.000,3353.7537,N,09832.0229,W,2,08,0.9,306.4,M,-23.7,M,0.8,0000*4F
$GPGSA,A,3,08,26,20,28,04,01,17,27,,,,,1.7,0.9,1.4*3A
$GPGSV,3,1,12,17,68,351,38,28,62,064,36,04,36,191,42,27,34,309,28*79
$GPGSV,3,2,12,08,30,164,34,01,20,042,26,09,17,319,,20,13,087,23*7F
$GPGSV,3,3,12,26,11,236,13,02,09,205,,15,06,279,,32,03,062,*7F
$GPRMC,055420.000,A,3353.7537,N,09832.0229,W,0.09,59.37,310312,,,D*45
$GPGGA,055421.000,3353.7537,N,09832.0227,W,2,08,0.9,306.2,M,-23.7,M,0.8,0000*46
$GPGSA,A,3,08,26,20,28,04,01,17,27,,,,,1.7,0.9,1.4*3A
$GPRMC,055421.000,A,3353.7537,N,09832.0227,W,0.19,84.72,310312,,,D*4A
$GPGGA,055422.000,3353.7536,N,09832.0226,W,2,07,1.1,306.3,M,-23.7,M,0.8,0000*42
$GPGSA,A,3,08,20,28,04,01,17,27,,,,,,2.1,1.1,1.8*3E
$GPRMC,055422.000,A,3353.7536,N,09832.0226,W,0.05,86.66,310312,,,D*43
$GPGGA,055423.000,3353.7536,N,09832.0224,W,2,07,1.1,306.2,M,-23.7,M,0.8,0000*40
$GPGSA,A,3,08,20,28,04,01,17,27,,,,,,2.1,1.1,1.8*3E
$GPRMC,055423.000,A,3353.7536,N,09832.0224,W,0.28,76.56,310312,,,D*43
$GPGGA,055424.000,3353.7536,N,09832.0222,W,2,07,1.1,306.2,M,-23.7,M,1.8,0000*40
$GPGSA,A,3,08,20,28,04,01,17,27,,,,,,2.1,1.1,1.8*3E
$GPRMC,055424.000,A,3353.7536,N,09832.0222,W,0.10,46.06,310312,,,D*4F
$GPGGA,055425.000,3353.7536,N,09832.0221,W,2,07,1.1,306.3,M,-23.7,M,0.8,0000*42
$GPGSA,A,3,08,20,28,04,01,17,27,,,,,,2.1,1.1,1.8*3E
$GPGSV,3,1,12,17,68,351,38,28,62,064,36,04,36,191,42,27,34,309,29*78
$GPGSV,3,2,12,08,30,164,33,01,20,042,27,09,17,319,,20,13,087,23*79
$GPGSV,3,3,12,26,11,236,,02,09,205,,15,06,279,,32,03,062,*7D
$GPRMC,055425.000,A,3353.7536,N,09832.0221,W,0.07,357.20,310312,,,D*7C
$GPGGA,055426.000,3353.7536,N,09832.0220,W,2,07,1.1,306.3,M,-23.7,M,1.8,0000*41
$GPGSA,A,3,08,20,28,04,01,17,27,,,,,,2.1,1.1,1.8*3E
$GPRMC,055426.000,A,3353.7536,N,09832.0220,W,0.20,73.94,310312,,,D*41
$GPGGA,055427.000,3353.7536,N,09832.0218,W,2,07,1.1,306.2,M,-23.7,M,0.8,0000*4B
$GPGSA,A,3,08,20,28,04,01,17,27,,,,,,2.1,1.1,1.8*3E
$GPRMC,055427.000,A,3353.7536,N,09832.0218,W,0.30,75.90,310312,,,D*48
$GPGGA,055428.000,3353.7536,N,09832.0217,W,2,07,1.1,306.1,M,-23.7,M,0.8,0000*48
$GPGSA,A,3,08,20,28,04,01,17,27,,,,,,2.1,1.1,1.8*3E
$GPRMC,055428.000,A,3353.7536,N,09832.0217,W,0.23,70.28,310312,,,D*4C
$GPGGA,055429.000,3353.7536,N,09832.0215,W,2,07,1.1,306.1,M,-23.7,M,0.8,0000*4B
