$GPGGA,080047.000,3353.7554,N,09832.0243,W,2,07,1.6,318.4,M,-23.7,M,0.8,0000*45
$GPGSA,A,3,04,05,27,17,28,02,10,,,,,,2.8,1.6,2.3*35
$GPRMC,080047.000,A,3353.7554,N,09832.0243,W,0.22,56.95,010412,,,D*4B
$GPGGA,080048.000,3353.7555,N,09832.0245,W,2,07,1.6,317.6,M,-23.7,M,0.8,0000*40
$GPGSA,A,3,04,05,27,17,28,02,10,,,,,,2.8,1.6,2.3*35
$GPGSV,3,1,12,04,75,031,36,02,64,240,32,10,39,130,39,12,39,317,26*75
$GPGSV,3,2,12,09,32,255,,17,32,070,32,27,30,238,23,28,19,137,18*70
$GPGSV,3,3,12,05,10,181,35,20,03,036,,25,00,318,,51,49,195,43*7A
$GPRMC,080048.000,A,3353.7555,N,09832.0245,W,0.29,76.66,010412,,,D*46
$GPGGA,080049.000,3353.7559,N,09832.0252,W,2,07,1.6,315.7,M,-23.7,M,1.8,0000*49
$GPGSA,A,3,04,05,27,17,28,02,10,,,,,,2.8,1.6,2.3*35
$GPRMC,080049.000,A,3353.7559,N,09832.0252,W,0.28,20.53,010412,,,D*49
$GPGGA,080050.000,3353.7560,N,09832.0252,W,2,07,1.6,315.1,M,-23.7,M,2.8,0000*4E
$GPGSA,A,3,04,05,27,17,28,02,10,,,,,,2.9,1.6,2.3*34
$GPRMC,080050.000,A,3353.7560,N,09832.0252,W,0.17,30.86,010412,,,D*4E
$GPGGA,080051.000,3353.7562,N,09832.0257,W,2,07,1.6,313.7,M,-23.7,M,0.8,0000*4A
$GPGSA,A,3,04,05,27,17,28,02,10,,,,,,2.9,1.6,2.3*34
$GPRMC,080051.000,A,3353.7562,N,09832.0257,W,0.26,318.90,010412,,,D*74
$GPGGA,080052.000,3353.7564,N,09832.0258,W,2,07,1.6,313.4,M,-23.7,M,0.8,0000*43
$GPGSA,A,3,04,05,27,17,28,02,10,,,,,,2.9,1.6,2.3*34
$GPRMC,080052.000,A,3353.7564,N,09832.0258,W,0.21,342.24,010412,,,D*79
$GPGGA,080053.000,3353.7566,N,09832.0263,W,2,07,1.6,312.0,M,-23.7,M,0.8,0000*4D
$GPGSA,A,3,04,05,27,17,28,02,10,,,,,,2.9,1.6,2.3*34
$GPGSV,3,1,12,04,75,031,37,02,64,240,32,10,39,130,39,12,39,317,26*74
$GPGSV,3,2,12,09,32,255,,17,32,070,32,27,30,238,23,28,19,137,19*71
$GPGSV,3,3,12,05,10,181,35,20,03,036,,25,00,318,,51,49,195,38*76
$GPRMC,080053.000,A,3353.7566,N,09832.0263,W,0.36,323.95,010412,,,D*79
$GPGGA,080054.000,3353.7570,N,09832.0266,W,2,07,1.6,311.7,M,-23.7,M,1.8,0000*4D
$GPGSA,A,3,04,05,27,17,28,02,10,,,,,,2.9,1.6,2.3*34
$GPRMC,080054.000,A,3353.7570,N,09832.0266,W,0.42,331.95,010412,,,D*7C
$GPGGA,080055.000,3353.7571,N,09832.0265,W,2,08,1.4,311.8,M,-23.7,M,2.8,0000*4F
$GPGSA,A,3,04,05,27,17,09,28,02,10,,,,,2.6,1.4,2.1*32
$GPRMC,080055.000,A,3353.7571,N,09832.0265,W,0.38,348.02,010412,,,D*72
$GPGGA,080056.000,3353.7570,N,09832.0261,W,2,08,1.4,312.6,M,-23.7,M,3.8,0000*45
$GPGSA,A,3,04,05,27,17,09,28,02,10,,,,,2.6,1.4,2.1*32
$GPRMC,080056.000,A,3353.7570,N,09832.0261,W,0.40,327.30,010412,,,D*73
$GPGGA,080057.000,3353.7571,N,09832.0261,W,2,08,1.4,312.3,M,-23.7,M,0.8,0000*43
$GPGSA,A,3,04,05,27,17,09,28,02,10,,,,,2.6,1.4,2.1*32
$GPRMC,080057.000,A,3353.7571,N,09832.0261,W,0.27,345.36,010412,,,D*70
$GPGGA,080058.000,3353.7573,N,09832.0263,W,2,08,1.4,311.6,M,-23.7,M,0.8,0000*4A
$GPGSA,A,3,04,05,27,17,09,28,02,10,,,,,2.6,1.4,2.1*32
$GPGSV,3,1,12,04,75,031,37,02,64,240,32,10,39,130,39,12,39,317,26*74
$GPGSV,3,2,12,09,32,255,17,17,32,070,32,27,30,238,22,28,19,137,20*7C
$GPGSV,3,3,12,05,10,181,35,20,03,036,,25,00,318,,51,49,195,38*76
$GPRMC,080058.000,A,3353.7573,N,09832.0263,W,0.32,352.25,010412,,,D*7F
$GPGGA,080059.000,3353.7574,N,09832.0263,W,2,08,1.4,311.5,M,-23.7,M,0.8,0000*4F
$GPGSA,A,3,04,05,27,17,09,28,02,10,,,,,2.6,1.4,2.1*32
$GPRMC,080059.000,A,3353.7574,N,09832.0263,W,0.21,1.12,010412,,,D*7A
$GPGGA,080100.000,3353.7575,N,09832.0264,W,2,08,1.4,310.9,M,-23.7,M,0.8,0000*49
$GPGSA,A,3,04,05,27,17,09,28,02,10,,,,,2.6,1.4,2.1*32
$GPRMC,080100.000,A,3353.7575,N,09832.0264,W,0.26,21.44,010412,,,D*47
$GPGGA,080101.000,3353.7575,N,09832.0264,W,2,08,1.4,310.4,M,-23.7,M,1.8,0000*44
$GPGSA,A,3,04,05,27,17,09,28,02,10,,,,,2.6,1.4,2.1*32
$GPRMC,080101.000,A,3353.7575,N,09832.0264,W,0.29,35.57,010412,,,D*4E
$GPGGA,080102.000,3353.7578,N,09832.0265,W,2,08,1.4,308.8,M,-23.7,M,2.8,0000*4D
$GPGSA,A,3,04,05,27,17,09,28,02,10,,,,,2.6,1.4,2.1*32
$GPRMC,080102.000,A,3353.7578,N,09832.0265,W,0.20,33.53,010412,,,D*4A
$GPGGA,080103.000,3353.7578,N,09832.0265,W,2,08,1.4,308.3,M,-23.7,M,0.8,0000*45
$GPGSA,A,3,04,05,27,17,09,28,02,10,,,,,2.6,1.4,2.1*32
$GPGSV,3,1,12,04,75,031,37,02,64,240,32,10,39,130,39,12,39,317,25*77
$GPGSV,3,2,12,09,32,255,17,17,32,070,32,27,30,238,22,28,19,137,21*7D
$GPGSV,3,3,12,05,10,181,35,20,03,036,,25,00,318,,51,49,195,38*76
$GPRMC,080103.000,A,3353.7578,N,09832.0265,W,0.10,36.78,010412,,,D*44
$GPGGA,080104.000,3353.7578,N,09832.0264,W,2,08,1.4,308.2,M,-23.7,M,0.8,0000*42
$GPGSA,A,3,04,05,27,17,09,28,02,10,,,,,2.6,1.4,2.1*32
$GPRMC,080104.000,A,3353.7578,N,09832.0264,W,0.21,350.41,010412,,,D*79
$GPGGA,080105.000,3353.7579,N,09832.0264,W,2,08,1.4,308.0,M,-23.7,M,0.8,0000*40
$GPGSA,A,3,04,05,27,17,09,28,02,10,,,,,2.6,1.4,2.1*32
$GPRMC,080105.000,A,3353.7579,N,09832.0264,W,0.28,344.32,010412,,,D*71
$GPGGA,080106.000,3353.7580,N,09832.0264,W,2,08,1.4,307.5,M,-23.7,M,1.8,0000*4E
$GPGSA,A,3,04,05,27,17,09,28,02,10,,,,,2.6,1.4,2.1*32
$GPRMC,080106.000,A,3353.7580,N,09832.0264,W,0.32,334.48,010412,,,D*75
$GPGGA,080107.000,3353.7582,N,09832.0266,W,2,08,1.4,307.3,M,-23.7,M,0.8,0000*48
$GPGSA,A,3,04,05,27,17,09,28,02,10,,,,,2.6,1.4,2.1*32
$GPRMC,080107.000,A,3353.7582,N,09832.0266,W,0.51,306.56,010412,,,D*7F
$GPGGA,080108.000,3353.7584,N,09832.0267,W,2,08,1.4,307.1,M,-23.7,M,0.8,0000*42
$GPGSA,A,3,04,05,27,17,09,28,02,10,,,,,2.6,1.4,2.1*32
$GPGSV,3,1,12,04,75,031,37,02,64,240,33,10,39,130,39,12,39,317,25*76
$GPGSV,3,2,12,09,32,255,19,17,32,070,32,27,30,238,21,28,19,137,22*73
$GPGSV,3,3,12,05,10,181,35,20,03,036,,25,00,318,,51,49,195,38*76
$GPRMC,080108.000,A,3353.7584,N,09832.0267,W,0.56,306.99,010412,,,D*73
$GPGGA,080109.000,3353.7584,N,09832.0266,W,2,08,1.4,307.1,M,-23.7,M,0.8,0000*42
$GPGSA,A,3,04,05,27,17,09,28,02,10,,,,,2.6,1.4,2.1*32
$GPRMC,080109.000,A,3353.7584,N,09832.0266,W,0.27,350.27,010412,,,D*73
$GPGGA,080110.000,3353.7585,N,09832.0264,W,2,08,1.4,307.0,M,-23.7,M,0.8,0000*48
$GPGSA,A,3,04,05,27,17,09,28,02,10,,,,,2.6,1.4,2.1*32
$GPRMC,080110.000,A,3353.7585,N,09832.0264,W,0.34,25.26,010412,,,D*4A
$GPGGA,080111.000,3353.7585,N,09832.0263,W,2,08,1.4,306.7,M,-23.7,M,0.8,0000*48
$GPGSA,A,3,04,05,27,17,09,28,02,10,,,,,2.6,1.4,2.1*32
$GPRMC,080111.000,A,3353.7585,N,09832.0263,W,0.31,356.56,010412,,,D*79
$GPGGA,080112.000,3353.7587,N,09832.0262,W,2,08,1.4,306.8,M,-23.7,M,1.8,0000*46
$GPGSA,A,3,04,05,27,17,09,28,02,10,,,,,2.6,1.4,2.1*32
$GPRMC,080112.000,A,3353.7587,N,09832.0262,W,0.41,68.70,010412,,,D*44
$GPGGA,080113.000,3353.7586,N,09832.0258,W,2,08,1.4,307.3,M,-23.7,M,2.8,0000*46
$GPGSA,A,3,04,05,27,17,09,28,02,10,,,,,2.6,1.4,2.1*32
$GPGSV,3,1,12,04,75,031,37,02,64,240,33,10,39,130,39,12,39,317,26*75
$GPGSV,3,2,12,09,32,255,20,17,32,070,32,27,30,238,20,28,19,137,21*7B
$GPGSV,3,3,12,05,10,181,35,20,03,036,,25,00,318,,51,49,195,38*76
$GPRMC,080113.000,A,3353.7586,N,09832.0258,W,0.38,72.10,010412,,,D*4E
$GPGGA,080114.000,3353.7586,N,09832.0256,W,2,08,1.4,307.4,M,-23.7,M,3.8,0000*49
$GPGSA,A,3,04,05,27,17,09,28,02,10,,,,,2.6,1.4,2.1*32
$GPRMC,080114.000,A,3353.7586,N,09832.0256,W,0.28,66.02,010412,,,D*40
$GPGGA,080115.000,3353.7584,N,09832.0252,W,2,08,1.4,308.1,M,-23.7,M,0.8,0000*47
$GPGSA,A,3,04,05,27,17,09,28,02,10,,,,,2.6,1.4,2.1*32
$GPRMC,080115.000,A,3353.7584,N,09832.0252,W,0.11,83.46,010412,,,D*46
$GPGGA,080116.000,3353.7584,N,09832.0252,W,2,08,1.4,308.3,M,-23.7,M,0.8,0000*46
$GPGSA,A,3,04,05,27,17,09,28,02,10,,,,,2.6,1.4,2.1*32
$GPRMC,080116.000,A,3353.7584,N,09832.0252,W,0.03,77.11,010412,,,D*4F
$GPGGA,080117.000,3353.7582,N,09832.0247,W,2,08,1.4,309.3,M,-23.7,M,0.8,0000*44
$GPGSA,A,3,04,05,27,17,09,28,02,10,,,,,2.6,1.4,2.1*32
$GPRMC,080117.000,A,3353.7582,N,09832.0247,W,0.12,89.23,010412,,,D*4C
$GPGGA,080118.000,3353.7580,N,09832.0244,W,2,08,1.4,309.9,M,-23.7,M,1.8,0000*41
$GPGSA,A,3,04,05,27,17,09,28,02,10,,,,,2.6,1.4,2.1*32
$GPGSV,3,1,12,04,75,031,37,02,65,240,33,10,39,129,39,12,39,317,25*7F
$GPGSV,3,2,12,09,32,255,22,17,32,070,32,27,30,238,20,28,19,137,21*79
$GPGSV,3,3,12,05,10,181,35,20,02,036,,25,00,318,,51,49,195,38*77
$GPRMC,080118.000,A,3353.7580,N,09832.0244,W,0.13,98.38,010412,,,D*49
$GPGGA,080119.000,3353.7580,N,09832.0243,W,2,08,1.4,310.1,M,-23.7,M,2.8,0000*44
$GPGSA,A,3,04,05,27,17,09,28,02,10,,,,,2.6,1.4,2.1*32
$GPRMC,080119.000,A,3353.7580,N,09832.0243,W,0.26,89.85,010412,,,D*4F
$GPGGA,080120.000,3353.7578,N,09832.0238,W,2,08,1.4,311.0,M,-23.7,M,3.8,0000*44
$GPGSA,A,3,04,05,27,17,09,28,02,10,,,,,2.6,1.4,2.1*32
$GPRMC,080120.000,A,3353.7578,N,09832.0238,W,0.16,102.86,010412,,,D*7C
$GPGGA,080121.000,3353.7576,N,09832.0234,W,2,08,1.4,311.7,M,-23.7,M,0.8,0000*43
$GPGSA,A,3,04,05,27,17,09,28,02,10,,,,,2.6,1.4,2.1*32
$GPRMC,080121.000,A,3353.7576,N,09832.0234,W,0.24,95.31,010412,,,D*4D
$GPGGA,080122.000,3353.7577,N,09832.0234,W,2,08,1.4,311.8,M,-23.7,M,0.8,0000*4E
$GPGSA,A,3,04,05,27,17,09,28,02,10,,,,,2.6,1.4,2.1*32
$GPRMC,080122.000,A,3353.7577,N,09832.0234,W,0.18,299.24,010412,,,D*7A
$GPGGA,080123.000,3353.7576,N,09832.0233,W,2,08,1.4,312.1,M,-23.7,M,0.8,0000*43
$GPGSA,A,3,04,05,27,17,09,28,02,10,,,,,2.6,1.4,2.1*32
$GPGSV,3,1,12,04,75,031,37,02,65,240,33,10,39,129,39,12,39,317,24*7E
$GPGSV,3,2,12,09,32,255,23,17,32,070,32,27,30,238,20,28,19,137,21*78
$GPGSV,3,3,12,05,10,181,35,20,02,036,,25,00,318,,51,49,195,38*77
$GPRMC,080123.000,A,3353.7576,N,09832.0233,W,0.08,283.11,010412,,,D*71
$GPGGA,080124.000,3353.7575,N,09832.0231,W,2,08,1.4,312.4,M,-23.7,M,1.8,0000*41
$GPGSA,A,3,04,05,27,17,09,28,02,10,,,,,2.6,1.4,2.1*32
$GPRMC,080124.000,A,3353.7575,N,09832.0231,W,0.21,277.66,010412,,,D*77
$GPGGA,080125.000,3353.7574,N,09832.0228,W,2,08,1.4,313.1,M,-23.7,M,2.8,0000*4E
$GPGSA,A,3,04,05,27,17,09,28,02,10,,,,,2.6,1.4,2.1*32
$GPRMC,080125.000,A,3353.7574,N,09832.0228,W,0.15,287.54,010412,,,D*76
$GPGGA,080126.000,3353.7573,N,09832.0227,W,2,08,1.4,313.3,M,-23.7,M,3.8,0000*46
$GPGSA,A,3,04,05,27,17,09,28,02,10,,,,,2.6,1.4,2.1*32
$GPRMC,080126.000,A,3353.7573,N,09832.0227,W,0.17,300.75,010412,,,D*72
$GPGGA,080127.000,3353.7574,N,09832.0230,W,2,08,1.4,312.7,M,-23.7,M,0.8,0000*40
$GPGSA,A,3,04,05,27,17,09,28,02,10,,,,,2.6,1.4,2.1*32
$GPRMC,080127.000,A,3353.7574,N,09832.0230,W,0.13,285.39,010412,,,D*72
$GPGGA,080128.000,3353.7574,N,09832.0230,W,2,08,1.4,312.6,M,-23.7,M,0.8,0000*4E
$GPGSA,A,3,04,05,27,17,09,28,02,10,,,,,2.6,1.4,2.1*32
$GPGSV,3,1,12,04,75,031,37,02,65,240,32,10,39,129,38,12,39,317,24*7E
$GPGSV,3,2,12,09,32,255,23,17,32,070,31,27,30,238,19,28,19,137,20*70
$GPGSV,3,3,12,05,10,181,36,20,02,036,,25,00,318,,51,49,195,38*74
$GPRMC,080128.000,A,3353.7574,N,09832.0230,W,0.16,307.20,010412,,,D*7B
$GPGGA,080129.000,3353.7574,N,09832.0230,W,2,08,1.4,312.6,M,-23.7,M,0.8,0000*4F
$GPGSA,A,3,04,05,27,17,09,28,02,10,,,,,2.6,1.4,2.1*32
$GPRMC,080129.000,A,3353.7574,N,09832.0230,W,0.21,297.14,010412,,,D*71
$GPGGA,080130.000,3353.7574,N,09832.0230,W,2,08,1.4,312.4,M,-23.7,M,0.8,0000*45
$GPGSA,A,3,04,05,27,17,09,28,02,10,,,,,2.6,1.4,2.1*32
$GPRMC,080130.000,A,3353.7574,N,09832.0230,W,0.10,343.43,010412,,,D*71
$GPGGA,080131.000,3353.7575,N,09832.0231,W,2,08,1.4,311.8,M,-23.7,M,1.8,0000*4A
$GPGSA,A,3,04,05,27,17,09,28,02,10,,,,,2.6,1.4,2.1*32
$GPRMC,080131.000,A,3353.7575,N,09832.0231,W,0.15,70.76,010412,,,D*40
$GPGGA,080132.000,3353.7576,N,09832.0231,W,2,08,1.4,311.3,M,-23.7,M,0.8,0000*40
$GPGSA,A,3,04,05,27,17,09,28,02,10,,,,,2.6,1.4,2.1*32
$GPRMC,080132.000,A,3353.7576,N,09832.0231,W,0.13,65.33,010412,,,D*43
$GPGGA,080133.000,3353.7575,N,09832.0228,W,2,08,1.4,311.7,M,-23.7,M,0.8,0000*4E
$GPGSA,A,3,04,05,27,17,09,28,02,10,,,,,2.6,1.4,2.1*32
$GPGSV,3,1,12,04,75,031,37,02,65,240,30,10,39,129,38,12,39,317,24*7C
$GPGSV,3,2,12,09,32,255,24,17,32,070,31,27,30,238,20,28,19,137,21*7C
$GPGSV,3,3,12,05,10,181,36,20,02,036,,25,00,318,,51,49,195,38*74
$GPRMC,080133.000,A,3353.7575,N,09832.0228,W,0.16,16.58,010412,,,D*45
$GPGGA,080134.000,3353.7575,N,09832.0227,W,2,08,1.4,311.7,M,-23.7,M,0.8,0000*46
$GPGSA,A,3,04,05,27,17,09,28,02,10,,,,,2.6,1.4,2.1*32
$GPRMC,080134.000,A,3353.7575,N,09832.0227,W,0.14,350.03,010412,,,D*70
$GPGGA,080135.000,3353.7574,N,09832.0226,W,2,08,1.4,312.0,M,-23.7,M,0.8,0000*43
$GPGSA,A,3,04,05,27,17,09,28,02,10,,,,,2.6,1.4,2.1*32
$GPRMC,080135.000,A,3353.7574,N,09832.0226,W,0.18,20.56,010412,,,D*49
$GPGGA,080136.000,3353.7574,N,09832.0224,W,2,08,1.4,312.2,M,-23.7,M,1.8,0000*41
$GPGSA,A,3,04,05,27,17,09,28,02,10,,,,,2.6,1.4,2.1*32
$GPRMC,080136.000,A,3353.7574,N,09832.0224,W,0.20,356.91,010412,,,D*7A
$GPGGA,080137.000,3353.7572,N,09832.0220,W,2,08,1.4,313.1,M,-23.7,M,2.8,0000*43
$GPGSA,A,3,04,05,27,17,09,28,02,10,,,,,2.6,1.4,2.1*32
$GPRMC,080137.000,A,3353.7572,N,09832.0220,W,0.06,72.67,010412,,,D*41
$GPGGA,080138.000,3353.7570,N,09832.0217,W,2,08,1.4,313.9,M,-23.7,M,3.8,0000*43
$GPGSA,A,3,04,05,27,17,09,28,02,10,,,,,2.6,1.4,2.1*32
$GPGSV,3,1,12,04,75,031,37,02,65,240,26,10,39,129,38,12,39,317,24*7B
$GPGSV,3,2,12,09,32,255,24,17,32,070,31,27,30,238,20,28,19,137,20*7D
$GPGSV,3,3,12,05,10,181,36,20,02,036,,25,00,318,,51,49,195,38*74
$GPRMC,080138.000,A,3353.7570,N,09832.0217,W,0.05,299.95,010412,,,D*71
$GPGGA,080139.000,3353.7571,N,09832.0219,W,2,08,1.4,313.5,M,-23.7,M,0.8,0000*42
$GPGSA,A,3,04,05,27,17,09,28,02,10,,,,,2.6,1.4,2.1*32
$GPRMC,080139.000,A,3353.7571,N,09832.0219,W,0.31,285.52,010412,,,D*7E
$GPGGA,080140.000,3353.7568,N,09832.0217,W,2,08,1.4,314.6,M,-23.7,M,0.8,0000*4E
$GPGSA,A,3,04,05,27,17,09,28,02,10,,,,,2.6,1.4,2.1*32
$GPRMC,080140.000,A,3353.7568,N,09832.0217,W,0.25,284.54,010412,,,D*74
$GPGGA,080141.000,3353.7570,N,09832.0218,W,2,08,1.4,313.7,M,-23.7,M,0.8,0000*4F
$GPGSA,A,3,04,05,27,17,09,28,02,10,,,,,2.6,1.4,2.1*32
$GPRMC,080141.000,A,3353.7570,N,09832.0218,W,0.25,309.53,010412,,,D*70
$GPGGA,080142.000,3353.7570,N,09832.0216,W,2,08,1.4,314.2,M,-23.7,M,1.8,0000*41
$GPGSA,A,3,04,05,27,17,09,28,02,10,,,,,2.6,1.4,2.1*32
$GPRMC,080142.000,A,3353.7570,N,09832.0216,W,0.23,318.20,010412,,,D*7F
$GPGGA,080143.000,3353.7567,N,09832.0213,W,2,08,1.4,315.5,M,-23.7,M,2.8,0000*46
$GPGSA,A,3,04,05,27,17,09,28,02,10,,,,,2.6,1.4,2.1*32
$GPGSV,3,1,12,04,75,031,37,02,65,240,25,10,39,129,38,12,39,317,24*78
$GPGSV,3,2,12,09,32,255,24,17,32,070,30,27,30,238,20,28,19,137,18*77
$GPGSV,3,3,12,05,10,181,36,20,02,036,,25,00,318,,51,49,195,39*75
$GPRMC,080143.000,A,3353.7567,N,09832.0213,W,0.28,97.16,010412,,,D*47
$GPGGA,080144.000,3353.7564,N,09832.0212,W,2,08,1.4,316.3,M,-23.7,M,3.8,0000*47
$GPGSA,A,3,04,05,27,17,09,28,02,10,,,,,2.6,1.4,2.1*32
$GPRMC,080144.000,A,3353.7564,N,09832.0212,W,0.35,117.60,010412,,,D*76
$GPGGA,080145.000,3353.7563,N,09832.0210,W,2,08,1.4,316.7,M,-23.7,M,0.8,0000*44
$GPGSA,A,3,04,05,27,17,09,28,02,10,,,,,2.6,1.4,2.1*32
$GPRMC,080145.000,A,3353.7563,N,09832.0210,W,0.16,135.47,010412,,,D*76
$GPGGA,080146.000,3353.7560,N,09832.0209,W,2,08,1.4,318.0,M,-23.7,M,0.8,0000*45
$GPGSA,A,3,04,05,27,17,09,28,02,10,,,,,2.6,1.4,2.1*32
$GPRMC,080146.000,A,3353.7560,N,09832.0209,W,0.22,156.68,010412,,,D*71
$GPGGA,080147.000,3353.7559,N,09832.0211,W,2,08,1.4,318.6,M,-23.7,M,0.8,0000*41
$GPGSA,A,3,04,05,27,17,09,28,02,10,,,,,2.6,1.4,2.1*32
$GPRMC,080147.000,A,3353.7559,N,09832.0211,W,0.15,180.35,010412,,,D*74
$GPGGA,080148.000,3353.7559,N,09832.0211,W,2,08,1.4,318.7,M,-23.7,M,0.8,0000*4F
$GPGSA,A,3,04,05,27,17,09,28,02,10,,,,,2.6,1.4,2.1*32
$GPGSV,3,1,12,04,74,031,37,02,65,241,24,10,39,129,38,12,39,317,24*79
$GPGSV,3,2,12,09,32,255,24,17,32,071,30,27,29,237,21,28,19,137,20*7B
$GPGSV,3,3,12,05,11,181,36,20,02,036,,25,00,318,,51,49,195,39*74
$GPRMC,080148.000,A,3353.7559,N,09832.0211,W,0.08,252.01,010412,,,D*7C
$GPGGA,080149.000,3353.7558,N,09832.0208,W,2,08,1.4,319.1,M,-23.7,M,0.8,0000*40
$GPGSA,A,3,04,05,27,17,09,28,02,10,,,,,2.6,1.4,2.1*32
$GPRMC,080149.000,A,3353.7558,N,09832.0208,W,0.09,134.00,010412,,,D*77
$GPGGA,080150.000,3353.7558,N,09832.0207,W,2,08,1.4,319.1,M,-23.7,M,1.8,0000*46
$GPGSA,A,3,04,05,27,17,09,28,02,10,,,,,2.6,1.4,2.1*32
$GPRMC,080150.000,A,3353.7558,N,09832.0207,W,0.23,122.36,010412,,,D*7A
$GPGGA,080151.000,3353.7558,N,09832.0207,W,2,08,1.4,319.1,M,-23.7,M,0.8,0000*46
$GPGSA,A,3,04,05,27,17,09,28,02,10,,,,,2.6,1.4,2.1*32
$GPRMC,080151.000,A,3353.7558,N,09832.0207,W,0.09,241.87,010412,,,D*7F
$GPGGA,080152.000,3353.7559,N,09832.0209,W,2,08,1.4,318.7,M,-23.7,M,0.8,0000*4D
$GPGSA,A,3,04,05,27,17,09,28,02,10,,,,,2.6,1.4,2.1*32
$GPRMC,080152.000,A,3353.7559,N,09832.0209,W,0.15,264.52,010412,,,D*71
$GPGGA,080153.000,3353.7561,N,09832.0212,W,2,08,1.4,318.2,M,-23.7,M,0.8,0000*48
$GPGSA,A,3,04,05,27,17,09,28,02,10,,,,,2.6,1.4,2.1*32
$GPGSV,3,1,12,04,74,031,37,02,65,241,23,10,39,129,38,12,39,317,24*7E
$GPGSV,3,2,12,09,32,255,23,17,32,071,29,27,29,237,22,28,19,137,21*76
$GPGSV,3,3,12,05,11,181,36,20,02,036,,25,00,318,,51,49,195,38*75
$GPRMC,080153.000,A,3353.7561,N,09832.0212,W,0.30,293.62,010412,,,D*7D
$GPGGA,080154.000,3353.7560,N,09832.0208,W,2,08,1.4,318.6,M,-23.7,M,0.8,0000*41
$GPGSA,A,3,04,05,27,17,09,28,02,10,,,,,2.6,1.4,2.1*32
$GPRMC,080154.000,A,3353.7560,N,09832.0208,W,0.10,335.19,010412,,,D*73
$GPGGA,080155.000,3353.7561,N,09832.0206,W,2,08,1.4,318.6,M,-23.7,M,1.8,0000*4E
$GPGSA,A,3,04,05,27,17,09,28,02,10,,,,,2.6,1.4,2.1*32
$GPRMC,080155.000,A,3353.7561,N,09832.0206,W,0.38,297.10,010412,,,D*77
$GPGGA,080156.000,3353.7561,N,09832.0204,W,2,08,1.4,318.8,M,-23.7,M,2.8,0000*42
$GPGSA,A,3,04,05,27,17,09,28,02,10,,,,,2.6,1.4,2.1*32
$GPRMC,080156.000,A,3353.7561,N,09832.0204,W,0.19,306.55,010412,,,D*7D
$GPGGA,080157.000,3353.7561,N,09832.0203,W,2,08,1.4,318.9,M,-23.7,M,0.8,0000*47
$GPGSA,A,3,04,05,27,17,09,28,02,10,,,,,2.6,1.4,2.1*32
$GPRMC,080157.000,A,3353.7561,N,09832.0203,W,0.20,266.62,010412,,,D*72
$GPGGA,080158.000,3353.7561,N,09832.0200,W,2,08,1.4,319.0,M,-23.7,M,0.8,0000*43
$GPGSA,A,3,04,05,27,17,09,28,02,10,,,,,2.6,1.4,2.1*32
$GPGSV,3,1,12,04,74,031,37,02,65,241,22,10,39,129,38,12,39,317,25*7E
$GPGSV,3,2,12,09,32,255,23,17,32,071,30,27,29,237,23,28,19,137,22*7C
$GPGSV,3,3,12,05,11,181,35,20,02,036,,25,00,318,,51,49,195,38*76
$GPRMC,080158.000,A,3353.7561,N,09832.0200,W,0.05,152.43,010412,,,D*7E
$GPGGA,080159.000,3353.7563,N,09832.0202,W,2,08,1.4,318.2,M,-23.7,M,0.8,0000*41
$GPGSA,A,3,04,05,27,17,09,28,02,10,,,,,2.6,1.4,2.1*32
$GPRMC,080159.000,A,3353.7563,N,09832.0202,W,0.09,2.76,010412,,,D*71
$GPGGA,080200.000,3353.7562,N,09832.0199,W,2,08,1.4,318.6,M,-23.7,M,1.8,0000*4B
$GPGSA,A,3,04,05,27,17,09,28,02,10,,,,,2.6,1.4,2.1*32
$GPRMC,080200.000,A,3353.7562,N,09832.0199,W,0.17,32.63,010412,,,D*46
$GPGGA,080201.000,3353.7564,N,09832.0197,W,2,08,1.4,319.3,M,-23.7,M,0.8,0000*47
$GPGSA,A,3,04,05,27,17,09,28,02,10,,,,,2.6,1.4,2.1*32
$GPRMC,080201.000,A,3353.7564,N,09832.0197,W,0.30,56.53,010412,,,D*4B
$GPGGA,080202.000,3353.7566,N,09832.0202,W,2,08,1.4,319.2,M,-23.7,M,0.8,0000*48
$GPGSA,A,3,04,05,27,17,09,28,02,10,,,,,2.6,1.4,2.1*32
$GPRMC,080202.000,A,3353.7566,N,09832.0202,W,0.17,334.37,010412,,,D*75
$GPGGA,080203.000,3353.7569,N,09832.0205,W,2,08,1.4,319.3,M,-23.7,M,0.8,0000*40
$GPGSA,A,3,04,05,27,17,09,28,02,10,,,,,2.6,1.4,2.1*32
$GPGSV,3,1,12,04,74,031,37,02,65,241,23,10,39,129,38,12,39,317,26*7C
$GPGSV,3,2,12,09,32,255,23,17,32,071,31,27,29,237,23,28,19,137,24*7B
$GPGSV,3,3,12,05,11,181,35,20,02,036,,25,00,318,,51,49,195,38*76
$GPRMC,080203.000,A,3353.7569,N,09832.0205,W,0.20,327.01,010412,,,D*7F
$GPGGA,080204.000,3353.7571,N,09832.0208,W,2,08,1.4,318.9,M,-23.7,M,0.8,0000*48
$GPGSA,A,3,04,05,27,17,09,28,02,10,,,,,2.6,1.4,2.1*32
$GPRMC,080204.000,A,3353.7571,N,09832.0208,W,0.18,332.32,010412,,,D*73
$GPGGA,080205.000,3353.7572,N,09832.0209,W,2,08,1.4,318.4,M,-23.7,M,0.8,0000*46
$GPGSA,A,3,04,05,27,17,09,28,02,10,,,,,2.6,1.4,2.1*32
$GPRMC,080205.000,A,3353.7572,N,09832.0209,W,0.34,297.49,010412,,,D*7C
$GPGGA,080206.000,3353.7575,N,09832.0211,W,2,08,1.4,318.3,M,-23.7,M,1.8,0000*4D
$GPGSA,A,3,04,05,27,17,09,28,02,10,,,,,2.6,1.4,2.1*32
$GPRMC,080206.000,A,3353.7575,N,09832.0211,W,0.15,14.72,010412,,,D*43
$GPGGA,080207.000,3353.7577,N,09832.0211,W,2,08,1.4,318.1,M,-23.7,M,2.8,0000*4F
$GPGSA,A,3,04,05,27,17,09,28,02,10,,,,,2.6,1.4,2.1*32
$GPRMC,080207.000,A,3353.7577,N,09832.0211,W,0.22,33.50,010412,,,D*41
$GPGGA,080208.000,3353.7581,N,09832.0210,W,2,08,1.4,317.1,M,-23.7,M,3.8,0000*46
$GPGSA,A,3,04,05,27,17,09,28,02,10,,,,,2.6,1.4,2.1*32
$GPGSV,3,1,12,04,74,031,37,02,65,241,23,10,39,129,38,12,39,317,26*7C
$GPGSV,3,2,12,09,32,255,23,17,32,071,31,27,29,237,23,28,19,137,25*7A
$GPGSV,3,3,12,05,11,181,35,20,02,036,,25,00,318,,51,49,195,38*76
$GPRMC,080208.000,A,3353.7581,N,09832.0210,W,0.25,340.93,010412,,,D*79
$GPGGA,080209.000,3353.7584,N,09832.0211,W,2,08,1.4,316.7,M,-23.7,M,0.8,0000*47
$GPGSA,A,3,04,05,27,17,09,28,02,10,,,,,2.6,1.4,2.1*32
$GPRMC,080209.000,A,3353.7584,N,09832.0211,W,0.47,304.88,010412,,,D*72
$GPGGA,080210.000,3353.7586,N,09832.0213,W,2,08,1.4,316.9,M,-23.7,M,0.8,0000*41
$GPGSA,A,3,04,05,27,17,09,28,02,10,,,,,2.6,1.4,2.1*32
$GPRMC,080210.000,A,3353.7586,N,09832.0213,W,0.21,30.45,010412,,,D*4F
$GPGGA,080211.000,3353.7588,N,09832.0214,W,2,08,1.4,316.9,M,-23.7,M,0.8,0000*49
$GPGSA,A,3,04,05,27,17,09,28,02,10,,,,,2.6,1.4,2.1*32
$GPRMC,080211.000,A,3353.7588,N,09832.0214,W,0.23,35.30,010412,,,D*42
$GPGGA,080212.000,3353.7591,N,09832.0214,W,2,08,1.4,316.7,M,-23.7,M,1.8,0000*4D
$GPGSA,A,3,04,05,27,17,09,28,02,10,,,,,2.6,1.4,2.1*32
$GPRMC,080212.000,A,3353.7591,N,09832.0214,W,0.31,42.42,010412,,,D*4F
$GPGGA,080213.000,3353.7593,N,09832.0213,W,2,08,1.4,316.5,M,-23.7,M,2.8,0000*48
$GPGSA,A,3,04,05,27,17,09,28,02,10,,,,,2.6,1.4,2.1*32
$GPGSV,3,1,12,04,74,031,37,02,65,241,25,10,39,129,39,12,39,317,25*78
$GPGSV,3,2,12,09,32,255,22,17,32,071,31,27,29,237,23,28,19,137,26*78
$GPGSV,3,3,12,05,11,181,35,20,02,036,,25,00,318,,51,49,195,38*76
$GPRMC,080213.000,A,3353.7593,N,09832.0213,W,0.24,34.88,010412,,,D*48
$GPGGA,080214.000,3353.7595,N,09832.0213,W,2,08,1.4,316.3,M,-23.7,M,3.8,0000*4E
$GPGSA,A,3,04,05,27,17,09,28,02,10,,,,,2.6,1.4,2.1*32
$GPRMC,080214.000,A,3353.7595,N,09832.0213,W,0.23,359.05,010412,,,D*73
$GPGGA,080215.000,3353.7597,N,09832.0213,W,2,08,1.4,315.9,M,-23.7,M,0.8,0000*47
$GPGSA,A,3,04,05,27,17,09,28,02,10,,,,,2.6,1.4,2.1*32
$GPRMC,080215.000,A,3353.7597,N,09832.0213,W,0.41,316.58,010412,,,D*77
$GPGGA,080216.000,3353.7600,N,09832.0214,W,2,08,1.4,315.5,M,-23.7,M,0.8,0000*42
$GPGSA,A,3,04,05,27,17,09,28,02,10,,,,,2.6,1.4,2.1*32
$GPRMC,080216.000,A,3353.7600,N,09832.0214,W,0.35,342.12,010412,,,D*72
$GPGGA,080217.000,3353.7602,N,09832.0213,W,2,08,1.4,315.0,M,-23.7,M,0.8,0000*43
$GPGSA,A,3,04,05,27,17,09,28,02,10,,,,,2.6,1.4,2.1*32
$GPRMC,080217.000,A,3353.7602,N,09832.0213,W,0.17,14.37,010412,,,D*41
$GPGGA,080218.000,3353.7604,N,09832.0211,W,2,08,1.4,314.7,M,-23.7,M,1.8,0000*4F
$GPGSA,A,3,04,05,27,17,09,28,02,10,,,,,2.6,1.4,2.1*32
$GPGSV,3,1,12,04,74,031,37,02,65,241,26,10,39,129,39,12,39,317,25*7B
$GPGSV,3,2,12,09,32,255,20,17,31,071,31,27,29,237,23,28,19,137,26*79
$GPGSV,3,3,12,05,11,181,35,20,02,036,,25,00,318,,51,49,195,38*76
$GPRMC,080218.000,A,3353.7604,N,09832.0211,W,0.29,53.04,010412,,,D*44
$GPGGA,080219.000,3353.7605,N,09832.0209,W,2,08,1.4,314.4,M,-23.7,M,2.8,0000*46
$GPGSA,A,3,04,05,27,17,09,28,02,10,,,,,2.6,1.4,2.1*32
$GPRMC,080219.000,A,3353.7605,N,09832.0209,W,0.21,64.21,010412,,,D*46
$GPGGA,080220.000,3353.7606,N,09832.0208,W,2,08,1.4,313.7,M,-23.7,M,0.8,0000*48
$GPGSA,A,3,04,05,27,17,09,28,02,10,,,,,2.6,1.4,2.1*32
$GPRMC,080220.000,A,3353.7606,N,09832.0208,W,0.21,317.36,010412,,,D*7F
$GPGGA,080221.000,3353.7607,N,09832.0211,W,2,08,1.4,312.1,M,-23.7,M,0.8,0000*47
$GPGSA,A,3,04,05,27,17,09,28,02,10,,,,,2.6,1.4,2.1*32
$GPRMC,080221.000,A,3353.7607,N,09832.0211,W,0.19,354.41,010412,,,D*7B
$GPGGA,080222.000,3353.7608,N,09832.0211,W,2,08,1.4,311.6,M,-23.7,M,0.8,0000*4F
$GPGSA,A,3,04,05,27,17,09,28,02,10,,,,,2.6,1.4,2.1*32
$GPRMC,080222.000,A,3353.7608,N,09832.0211,W,0.27,13.40,010412,,,D*4B
$GPGGA,080223.000,3353.7610,N,09832.0211,W,2,08,1.4,311.4,M,-23.7,M,0.8,0000*45
$GPGSA,A,3,04,05,27,17,09,28,02,10,,,,,2.6,1.4,2.1*32
$GPGSV,3,1,12,04,74,031,37,02,65,241,27,10,39,129,39,12,39,317,24*7B
$GPGSV,3,2,12,09,32,255,20,17,31,071,31,27,29,237,22,28,19,137,25*7B
$GPGSV,3,3,12,05,11,181,35,20,02,036,,25,00,318,,51,49,195,38*76
$GPRMC,080223.000,A,3353.7610,N,09832.0211,W,0.49,306.80,010412,,,D*70
$GPGGA,080224.000,3353.7611,N,09832.0211,W,2,08,1.4,311.0,M,-23.7,M,1.8,0000*46
$GPGSA,A,3,04,05,27,17,09,28,02,10,,,,,2.6,1.4,2.1*32
$GPRMC,080224.000,A,3353.7611,N,09832.0211,W,0.33,348.49,010412,,,D*74
$GPGGA,080225.000,3353.7611,N,09832.0211,W,2,08,1.4,310.2,M,-23.7,M,2.8,0000*47
$GPGSA,A,3,04,05,27,17,09,28,02,10,,,,,2.6,1.4,2.1*32
$GPRMC,080225.000,A,3353.7611,N,09832.0211,W,0.26,2.40,010412,,,D*75
$GPGGA,080226.000,3353.7612,N,09832.0210,W,2,08,1.4,310.2,M,-23.7,M,0.8,0000*44
$GPGSA,A,3,04,05,27,17,09,28,02,10,,,,,2.6,1.4,2.1*32
$GPRMC,080226.000,A,3353.7612,N,09832.0210,W,0.38,348.63,010412,,,D*77
$GPGGA,080227.000,3353.7614,N,09832.0210,W,2,08,1.4,310.2,M,-23.7,M,0.8,0000*43
$GPGSA,A,3,04,05,27,17,09,28,02,10,,,,,2.6,1.4,2.1*32
$GPRMC,080227.000,A,3353.7614,N,09832.0210,W,0.30,350.74,010412,,,D*77
$GPGGA,080228.000,3353.7615,N,09832.0210,W,2,08,1.4,310.3,M,-23.7,M,0.8,0000*4C
$GPGSA,A,3,04,05,27,17,09,28,02,10,,,,,2.6,1.4,2.1*32
$GPGSV,3,1,12,04,74,031,37,02,65,241,27,10,39,129,40,12,39,317,24*75
$GPGSV,3,2,12,09,32,255,21,17,31,071,31,27,29,237,21,28,19,137,25*79
$GPGSV,3,3,12,05,11,181,35,20,02,036,,25,00,318,,51,49,195,38*76
$GPRMC,080228.000,A,3353.7615,N,09832.0210,W,0.27,1.83,010412,,,D*70
$GPGGA,080229.000,3353.7616,N,09832.0209,W,2,08,1.4,310.3,M,-23.7,M,0.8,0000*46
$GPGSA,A,3,04,05,27,17,09,28,02,10,,,,,2.6,1.4,2.1*32
$GPRMC,080229.000,A,3353.7616,N,09832.0209,W,0.28,4.34,010412,,,D*7C
$GPGGA,080230.000,3353.7617,N,09832.0208,W,2,08,1.4,310.4,M,-23.7,M,1.8,0000*48
$GPGSA,A,3,04,05,27,17,09,28,02,10,,,,,2.6,1.4,2.1*32
$GPRMC,080230.000,A,3353.7617,N,09832.0208,W,0.34,54.40,010412,,,D*4F
$GPGGA,080231.000,3353.7615,N,09832.0205,W,2,08,1.4,310.0,M,-23.7,M,2.8,0000*41
$GPGSA,A,3,04,05,27,17,09,28,02,10,,,,,2.6,1.4,2.1*32
$GPRMC,080231.000,A,3353.7615,N,09832.0205,W,0.25,68.67,010412,,,D*4B
$GPGGA,080232.000,3353.7614,N,09832.0203,W,2,08,1.4,309.8,M,-23.7,M,3.8,0000*44
$GPGSA,A,3,04,05,27,17,09,28,02,10,,,,,2.6,1.4,2.1*32
$GPRMC,080232.000,A,3353.7614,N,09832.0203,W,0.24,46.08,010412,,,D*4B
$GPGGA,080233.000,3353.7613,N,09832.0203,W,2,08,1.4,309.4,M,-23.7,M,0.8,0000*4D
$GPGSA,A,3,04,05,27,17,09,28,02,10,,,,,2.6,1.4,2.1*32
$GPGSV,3,1,12,04,74,031,36,02,65,241,27,10,39,129,40,12,39,317,24*74
$GPGSV,3,2,12,09,32,255,20,17,31,071,31,27,29,237,20,28,19,137,24*78
$GPGSV,3,3,12,05,11,181,34,20,02,036,,25,00,318,,51,49,195,38*77
$GPRMC,080233.000,A,3353.7613,N,09832.0203,W,0.27,300.59,010412,,,D*7B
$GPGGA,080234.000,3353.7610,N,09832.0202,W,2,08,1.4,309.0,M,-23.7,M,0.8,0000*4C
$GPGSA,A,3,04,05,27,17,09,28,02,10,,,,,2.6,1.4,2.1*32
$GPRMC,080234.000,A,3353.7610,N,09832.0202,W,0.06,25.88,010412,,,D*45
$GPGGA,080235.000,3353.7608,N,09832.0200,W,2,08,1.4,308.8,M,-23.7,M,0.8,0000*4F
$GPGSA,A,3,04,05,27,17,09,28,02,10,,,,,2.6,1.4,2.1*32
$GPRMC,080235.000,A,3353.7608,N,09832.0200,W,0.40,68.70,010412,,,D*43
$GPGGA,080236.000,3353.7605,N,09832.0198,W,2,08,1.4,308.5,M,-23.7,M,0.8,0000*4E
$GPGSA,A,3,04,05,27,17,09,28,02,10,,,,,2.6,1.4,2.1*32
$GPRMC,080236.000,A,3353.7605,N,09832.0198,W,0.38,77.13,010412,,,D*4B
$GPGGA,080237.000,3353.7603,N,09832.0196,W,2,08,1.4,308.1,M,-23.7,M,0.8,0000*43
$GPGSA,A,3,04,05,27,17,09,28,02,10,,,,,2.6,1.4,2.1*32
$GPRMC,080237.000,A,3353.7603,N,09832.0196,W,0.29,68.45,010412,,,D*4F
$GPGGA,080238.000,3353.7600,N,09832.0194,W,2,08,1.4,307.6,M,-23.7,M,1.8,0000*44
$GPGSA,A,3,04,05,27,17,09,28,02,10,,,,,2.6,1.4,2.1*32
$GPGSV,3,1,12,04,74,031,36,02,65,241,27,10,39,129,40,12,39,317,24*74
$GPGSV,3,2,12,09,32,255,17,17,31,071,32,27,29,237,19,28,19,137,24*75
$GPGSV,3,3,12,05,11,181,34,20,02,036,,25,00,318,,51,49,195,38*77
$GPRMC,080238.000,A,3353.7600,N,09832.0194,W,0.35,71.95,010412,,,D*49
$GPGGA,080239.000,3353.7598,N,09832.0193,W,2,08,1.4,307.5,M,-23.7,M,0.8,0000*42
$GPGSA,A,3,04,05,27,17,09,28,02,10,,,,,2.6,1.4,2.1*32
$GPRMC,080239.000,A,3353.7598,N,09832.0193,W,0.28,50.56,010412,,,D*4D
$GPGGA,080240.000,3353.7597,N,09832.0193,W,2,08,1.4,307.3,M,-23.7,M,0.8,0000*45
$GPGSA,A,3,04,05,27,17,09,28,02,10,,,,,2.6,1.4,2.1*32
$GPRMC,080240.000,A,3353.7597,N,09832.0193,W,0.19,27.41,010412,,,D*48
$GPGGA,080241.000,3353.7593,N,09832.0195,W,2,08,1.4,307.6,M,-23.7,M,0.8,0000*43
$GPGSA,A,3,04,05,27,17,09,28,02,10,,,,,2.6,1.4,2.1*32
$GPRMC,080241.000,A,3353.7593,N,09832.0195,W,0.04,72.04,010412,,,D*46
$GPGGA,080242.000,3353.7591,N,09832.0197,W,2,08,1.4,307.7,M,-23.7,M,1.8,0000*40
$GPGSA,A,3,04,05,27,17,09,28,02,10,,,,,2.6,1.4,2.1*32
$GPRMC,080242.000,A,3353.7591,N,09832.0197,W,0.12,108.87,010412,,,D*75
$GPGGA,080243.000,3353.7589,N,09832.0199,W,2,08,1.4,307.6,M,-23.7,M,0.8,0000*46
$GPGSA,A,3,04,05,27,17,09,28,02,10,,,,,2.6,1.4,2.1*32
$GPGSV,3,1,12,04,74,031,36,02,65,241,27,10,39,129,40,12,39,317,24*74
$GPGSV,3,2,12,09,32,255,16,17,31,071,32,27,29,237,20,28,19,137,24*7E
$GPGSV,3,3,12,05,11,181,34,20,02,036,,25,00,318,,51,49,195,38*77
$GPRMC,080243.000,A,3353.7589,N,09832.0199,W,0.29,259.49,010412,,,D*7E
$GPGGA,080244.000,3353.7587,N,09832.0201,W,2,08,1.4,307.6,M,-23.7,M,1.8,0000*4C
$GPGSA,A,3,04,05,27,17,09,28,02,10,,,,,2.6,1.4,2.1*32
$GPRMC,080244.000,A,3353.7587,N,09832.0201,W,0.12,238.93,010412,,,D*7D
$GPGGA,080245.000,3353.7586,N,09832.0203,W,2,08,1.4,307.7,M,-23.7,M,0.8,0000*4E
$GPGSA,A,3,04,05,27,17,09,28,02,10,,,,,2.6,1.4,2.1*32
$GPRMC,080245.000,A,3353.7586,N,09832.0203,W,0.09,99.12,010412,,,D*45
$GPGGA,080246.000,3353.7584,N,09832.0203,W,2,08,1.4,307.6,M,-23.7,M,0.8,0000*4E
$GPGSA,A,3,04,05,27,17,09,28,02,10,,,,,2.6,1.4,2.1*32
$GPRMC,080246.000,A,3353.7584,N,09832.0203,W,0.33,98.24,010412,,,D*49
$GPGGA,080247.000,3353.7583,N,09832.0204,W,2,08,1.4,307.5,M,-23.7,M,0.8,0000*4C
$GPGSA,A,3,04,05,27,17,09,28,02,10,,,,,2.6,1.4,2.1*32
$GPRMC,080247.000,A,3353.7583,N,09832.0204,W,0.07,47.78,010412,,,D*44
$GPGGA,080248.000,3353.7582,N,09832.0205,W,2,08,1.4,307.6,M,-23.7,M,1.8,0000*41
$GPGSA,A,3,04,05,27,17,09,28,02,10,,,,,2.6,1.4,2.1*32
$GPGSV,3,1,12,04,74,031,36,02,65,241,28,10,40,129,41,12,39,317,24*74
$GPGSV,3,2,12,09,32,254,15,17,31,071,33,27,29,237,21,28,19,137,24*7C
$GPGSV,3,3,12,05,11,181,34,20,02,035,,25,01,318,,51,49,195,38*75
$GPRMC,080248.000,A,3353.7582,N,09832.0205,W,0.10,40.77,010412,,,D*45
$GPGGA,080249.000,3353.7582,N,09832.0206,W,2,08,1.4,307.6,M,-23.7,M,0.8,0000*42
$GPGSA,A,3,04,05,27,17,09,28,02,10,,,,,2.6,1.4,2.1*32
$GPRMC,080249.000,A,3353.7582,N,09832.0206,W,0.06,30.45,010412,,,D*46
$GPGGA,080250.000,3353.7582,N,09832.0207,W,2,08,1.4,307.8,M,-23.7,M,1.8,0000*44
$GPGSA,A,3,04,05,27,17,09,28,02,10,,,,,2.6,1.4,2.1*32
$GPRMC,080250.000,A,3353.7582,N,09832.0207,W,0.09,28.64,010412,,,D*4A
$GPGGA,080251.000,3353.7582,N,09832.0208,W,2,08,1.4,307.9,M,-23.7,M,0.8,0000*4A
$GPGSA,A,3,04,05,27,17,09,28,02,10,,,,,2.6,1.4,2.1*32
$GPRMC,080251.000,A,3353.7582,N,09832.0208,W,0.08,302.88,010412,,,D*7C
$GPGGA,080252.000,3353.7582,N,09832.0210,W,2,08,1.4,308.0,M,-23.7,M,0.8,0000*46
$GPGSA,A,3,04,05,27,17,09,28,02,10,,,,,2.6,1.4,2.1*32
$GPRMC,080252.000,A,3353.7582,N,09832.0210,W,0.13,353.71,010412,,,D*7E
$GPGGA,080253.000,3353.7582,N,09832.0211,W,2,08,1.4,308.1,M,-23.7,M,0.8,0000*47
$GPGSA,A,3,04,05,27,17,09,28,02,10,,,,,2.6,1.4,2.1*32
$GPGSV,3,1,12,04,74,031,36,02,65,241,28,10,40,129,41,12,39,317,24*74
$GPGSV,3,2,12,09,32,254,16,17,31,071,33,27,29,237,22,28,19,137,25*7D
$GPGSV,3,3,12,05,11,181,34,20,02,035,,25,01,318,,51,49,195,38*75
$GPRMC,080253.000,A,3353.7582,N,09832.0211,W,0.05,214.81,010412,,,D*74
$GPGGA,080254.000,3353.7582,N,09832.0212,W,2,08,1.4,308.2,M,-23.7,M,1.8,0000*41
$GPGSA,A,3,04,05,27,17,09,28,02,10,,,,,2.6,1.4,2.1*32
$GPRMC,080254.000,A,3353.7582,N,09832.0212,W,0.09,131.95,010412,,,D*7D
$GPGGA,080255.000,3353.7582,N,09832.0214,W,2,08,1.4,308.3,M,-23.7,M,2.8,0000*44
$GPGSA,A,3,04,05,27,17,09,28,02,10,,,,,2.6,1.4,2.1*32
$GPRMC,080255.000,A,3353.7582,N,09832.0214,W,0.18,265.53,010412,,,D*72
$GPGGA,080256.000,3353.7583,N,09832.0216,W,2,08,1.4,308.3,M,-23.7,M,3.8,0000*45
$GPGSA,A,3,04,05,27,17,09,28,02,10,,,,,2.6,1.4,2.1*32
$GPRMC,080256.000,A,3353.7583,N,09832.0216,W,0.11,232.82,010412,,,D*75
$GPGGA,080257.000,3353.7582,N,09832.0217,W,2,08,1.4,308.4,M,-23.7,M,0.8,0000*40
$GPGSA,A,3,04,05,27,17,09,28,02,10,,,,,2.6,1.4,2.1*32
$GPRMC,080257.000,A,3353.7582,N,09832.0217,W,0.08,159.08,010412,,,D*70
$GPGGA,080258.000,3353.7583,N,09832.0218,W,2,08,1.4,308.5,M,-23.7,M,0.8,0000*40
$GPGSA,A,3,04,05,27,17,09,28,02,10,,,,,2.6,1.4,2.1*32
$GPGSV,3,1,12,04,74,031,36,02,65,241,28,10,40,129,41,12,39,317,24*74
$GPGSV,3,2,12,09,32,254,16,17,31,071,33,27,29,237,23,28,19,137,27*7E
$GPGSV,3,3,12,05,11,181,34,20,02,035,,25,01,318,,51,49,195,38*75
$GPRMC,080258.000,A,3353.7583,N,09832.0218,W,0.07,191.74,010412,,,D*71
$GPGGA,080259.000,3353.7583,N,09832.0220,W,2,08,1.4,308.5,M,-23.7,M,0.8,0000*4A
$GPGSA,A,3,04,05,27,17,09,28,02,10,,,,,2.6,1.4,2.1*32
$GPRMC,080259.000,A,3353.7583,N,09832.0220,W,0.10,297.55,010412,,,D*7B
$GPGGA,080300.000,3353.7583,N,09832.0221,W,2,08,1.4,308.6,M,-23.7,M,1.8,0000*44
$GPGSA,A,3,04,05,27,17,09,28,02,10,,,,,2.6,1.4,2.1*32
$GPRMC,080300.000,A,3353.7583,N,09832.0221,W,0.08,13.90,010412,,,D*49
$GPGGA,080301.000,3353.7584,N,09832.0222,W,2,08,1.4,308.7,M,-23.7,M,2.8,0000*43
$GPGSA,A,3,04,05,27,17,09,28,02,10,,,,,2.6,1.4,2.1*32
$GPRMC,080301.000,A,3353.7584,N,09832.0222,W,0.15,293.72,010412,,,D*76
$GPGGA,080302.000,3353.7584,N,09832.0224,W,2,08,1.4,308.8,M,-23.7,M,3.8,0000*48
$GPGSA,A,3,04,05,27,17,09,28,02,10,,,,,2.6,1.4,2.1*32
$GPRMC,080302.000,A,3353.7584,N,09832.0224,W,0.14,308.91,010412,,,D*7C
$GPGGA,080303.000,3353.7585,N,09832.0225,W,2,08,1.4,308.7,M,-23.7,M,0.8,0000*45
$GPGSA,A,3,04,05,27,17,09,28,02,10,,,,,2.6,1.4,2.1*32
$GPGSV,3,1,12,04,74,031,36,02,65,241,28,10,40,129,40,12,39,317,25*74
$GPGSV,3,2,12,09,32,254,16,17,31,071,33,27,29,237,23,28,19,137,29*70
$GPGSV,3,3,12,05,11,181,34,20,02,035,,25,01,318,,51,49,195,38*75
$GPRMC,080303.000,A,3353.7585,N,09832.0225,W,0.33,273.42,010412,,,D*7B
$GPGGA,080304.000,3353.7585,N,09832.0227,W,2,08,1.4,308.7,M,-23.7,M,0.8,0000*40
$GPGSA,A,3,04,05,27,17,09,28,02,10,,,,,2.6,1.4,2.1*32
$GPRMC,080304.000,A,3353.7585,N,09832.0227,W,0.45,274.77,010412,,,D*7E
$GPGGA,080305.000,3353.7585,N,09832.0230,W,2,08,1.4,308.6,M,-23.7,M,0.8,0000*46
$GPGSA,A,3,04,05,27,17,09,28,02,10,,,,,2.6,1.4,2.1*32
$GPRMC,080305.000,A,3353.7585,N,09832.0230,W,0.34,269.86,010412,,,D*7D
$GPGGA,080306.000,3353.7586,N,09832.0231,W,2,08,1.4,308.6,M,-23.7,M,0.8,0000*47
$GPGSA,A,3,04,05,27,17,09,28,02,10,,,,,2.6,1.4,2.1*32
$GPRMC,080306.000,A,3353.7586,N,09832.0231,W,0.11,266.31,010412,,,D*78
$GPGGA,080307.000,3353.7586,N,09832.0231,W,2,08,1.4,308.6,M,-23.7,M,1.8,0000*47
$GPGSA,A,3,04,05,27,17,09,28,02,10,,,,,2.6,1.4,2.1*32
$GPRMC,080307.000,A,3353.7586,N,09832.0231,W,0.16,76.52,010412,,,D*48
$GPGGA,080308.000,3353.7586,N,09832.0231,W,2,08,1.4,308.6,M,-23.7,M,2.8,0000*4B
$GPGSA,A,3,04,05,27,17,09,28,02,10,,,,,2.6,1.4,2.1*32
$GPGSV,3,1,12,04,74,031,36,02,65,242,29,10,40,129,40,12,40,317,25*78
$GPGSV,3,2,12,09,32,254,17,17,31,071,33,27,29,237,23,28,19,137,30*79
$GPGSV,3,3,12,05,11,181,34,20,02,035,,25,01,318,,51,49,195,38*75
$GPRMC,080308.000,A,3353.7586,N,09832.0231,W,0.02,144.80,010412,,,D*7D
$GPGGA,080309.000,3353.7586,N,09832.0231,W,2,08,1.4,308.7,M,-23.7,M,0.8,0000*49
$GPGSA,A,3,04,05,27,17,09,28,02,10,,,,,2.6,1.4,2.1*32
$GPRMC,080309.000,A,3353.7586,N,09832.0231,W,0.32,81.46,010412,,,D*4D
$GPGGA,080310.000,3353.7586,N,09832.0230,W,2,08,1.4,308.7,M,-23.7,M,0.8,0000*40
$GPGSA,A,3,04,05,27,17,09,28,02,10,,,,,2.6,1.4,2.1*32
$GPRMC,080310.000,A,3353.7586,N,09832.0230,W,0.35,84.46,010412,,,D*46
$GPGGA,080311.000,3353.7587,N,09832.0230,W,2,08,1.4,308.6,M,-23.7,M,0.8,0000*41
$GPGSA,A,3,04,05,27,17,09,28,02,10,,,,,2.6,1.4,2.1*32
$GPRMC,080311.000,A,3353.7587,N,09832.0230,W,0.12,53.28,010412,,,D*41
$GPGGA,080312.000,3353.7587,N,09832.0230,W,2,08,1.4,308.6,M,-23.7,M,1.8,0000*43
$GPGSA,A,3,04,05,27,17,09,28,02,10,,,,,2.6,1.4,2.1*32
$GPRMC,080312.000,A,3353.7587,N,09832.0230,W,0.21,77.83,010412,,,D*45
$GPGGA,080313.000,3353.7588,N,09832.0231,W,2,08,1.4,308.4,M,-23.7,M,2.8,0000*4D
$GPGSA,A,3,04,05,27,17,09,28,02,10,,,,,2.6,1.4,2.1*32
$GPGSV,3,1,12,04,74,031,37,02,65,242,30,10,40,129,40,12,40,317,26*72
$GPGSV,3,2,12,09,32,254,17,17,31,071,33,27,29,237,19,28,19,137,30*70
$GPGSV,3,3,12,05,11,181,34,20,02,035,,25,01,318,,51,49,195,38*75
$GPRMC,080313.000,A,3353.7588,N,09832.0231,W,0.20,286.70,010412,,,D*7B
$GPGGA,080314.000,3353.7589,N,09832.0232,W,2,08,1.4,308.1,M,-23.7,M,3.8,0000*4C
$GPGSA,A,3,04,05,27,17,09,28,02,10,,,,,2.6,1.4,2.1*32
$GPRMC,080314.000,A,3353.7589,N,09832.0232,W,0.35,284.71,010412,,,D*79
$GPGGA,080315.000,3353.7589,N,09832.0233,W,2,08,1.4,307.9,M,-23.7,M,0.8,0000*48
$GPGSA,A,3,04,05,27,17,09,28,02,10,,,,,2.6,1.4,2.1*32
$GPRMC,080315.000,A,3353.7589,N,09832.0233,W,0.40,282.80,010412,,,D*73
$GPGGA,080316.000,3353.7590,N,09832.0235,W,2,08,1.4,307.7,M,-23.7,M,0.8,0000*4B
$GPGSA,A,3,04,05,27,17,09,28,02,10,,,,,2.6,1.4,2.1*32
$GPRMC,080316.000,A,3353.7590,N,09832.0235,W,0.18,300.98,010412,,,D*71
$GPGGA,080317.000,3353.7590,N,09832.0235,W,2,08,1.4,307.6,M,-23.7,M,0.8,0000*4B
$GPGSA,A,3,04,05,27,17,09,28,02,10,,,,,2.6,1.4,2.1*32
$GPRMC,080317.000,A,3353.7590,N,09832.0235,W,0.09,352.33,010412,,,D*76
$GPGGA,080318.000,3353.7590,N,09832.0235,W,2,08,1.4,307.5,M,-23.7,M,1.8,0000*46
$GPGSA,A,3,04,05,27,17,09,28,02,10,,,,,2.6,1.4,2.1*32
$GPGSV,3,1,12,04,74,031,37,02,65,242,30,10,40,128,39,12,40,317,26*7D
$GPGSV,3,2,12,09,32,254,17,17,31,071,33,27,29,237,19,28,18,137,31*70
$GPGSV,3,3,12,05,11,180,35,20,02,035,,25,01,318,,51,49,195,38*75
$GPRMC,080318.000,A,3353.7590,N,09832.0235,W,0.06,9.29,010412,,,D*70
$GPGGA,080319.000,3353.7590,N,09832.0235,W,2,08,1.4,307.5,M,-23.7,M,0.8,0000*46
$GPGSA,A,3,04,05,27,17,09,28,02,10,,,,,2.6,1.4,2.1*32
$GPRMC,080319.000,A,3353.7590,N,09832.0235,W,0.05,22.63,010412,,,D*45
$GPGGA,080320.000,3353.7590,N,09832.0235,W,2,08,1.4,307.6,M,-23.7,M,1.8,0000*4E
$GPGSA,A,3,04,05,27,17,09,28,02,10,,,,,2.6,1.4,2.1*32
$GPRMC,080320.000,A,3353.7590,N,09832.0235,W,0.21,70.89,010412,,,D*4A
$GPGGA,080321.000,3353.7590,N,09832.0233,W,2,08,1.4,307.7,M,-23.7,M,0.8,0000*49
$GPGSA,A,3,04,05,27,17,09,28,02,10,,,,,2.6,1.4,2.1*32
$GPRMC,080321.000,A,3353.7590,N,09832.0233,W,0.42,74.76,010412,,,D*4C
$GPGGA,080322.000,3353.7590,N,09832.0232,W,2,08,1.4,307.7,M,-23.7,M,0.8,0000*4B
$GPGSA,A,3,04,05,27,17,09,28,02,10,,,,,2.6,1.4,2.1*32
$GPRMC,080322.000,A,3353.7590,N,09832.0232,W,0.35,75.59,010412,,,D*42
$GPGGA,080323.000,3353.7591,N,09832.0231,W,2,08,1.4,307.8,M,-23.7,M,0.8,0000*47
$GPGSA,A,3,04,05,27,17,09,28,02,10,,,,,2.6,1.4,2.1*32
$GPGSV,3,1,12,04,74,031,36,02,65,242,31,10,40,128,39,12,40,317,26*7D
$GPGSV,3,2,12,09,32,254,18,17,31,071,34,27,29,237,20,28,18,137,31*72
$GPGSV,3,3,12,05,11,180,35,20,02,035,,25,01,318,,51,49,195,38*75
$GPRMC,080323.000,A,3353.7591,N,09832.0231,W,0.19,70.93,010412,,,D*4C
$GPGGA,080324.000,3353.7591,N,09832.0231,W,2,08,1.4,307.7,M,-23.7,M,0.8,0000*4F
$GPGSA,A,3,04,05,27,17,09,28,02,10,,,,,2.6,1.4,2.1*32
$GPRMC,080324.000,A,3353.7591,N,09832.0231,W,0.10,290.58,010412,,,D*79
$GPGGA,080325.000,3353.7591,N,09832.0232,W,2,08,1.4,307.6,M,-23.7,M,1.8,0000*4D
$GPGSA,A,3,04,05,27,17,09,28,02,10,,,,,2.6,1.4,2.1*32
$GPRMC,080325.000,A,3353.7591,N,09832.0232,W,0.10,274.15,010412,,,D*78
$GPGGA,080326.000,3353.7591,N,09832.0231,W,2,08,1.4,307.7,M,-23.7,M,2.8,0000*4F
$GPGSA,A,3,04,05,27,17,09,28,02,10,,,,,2.6,1.4,2.1*32
$GPRMC,080326.000,A,3353.7591,N,09832.0231,W,0.26,81.48,010412,,,D*4D
$GPGGA,080327.000,3353.7591,N,09832.0231,W,2,08,1.4,307.7,M,-23.7,M,0.8,0000*4C
$GPGSA,A,3,04,05,27,17,09,28,02,10,,,,,2.6,1.4,2.1*32
$GPRMC,080327.000,A,3353.7591,N,09832.0231,W,0.09,277.43,010412,,,D*71
$GPGGA,080328.000,3353.7590,N,09832.0231,W,2,08,1.4,307.8,M,-23.7,M,0.8,0000*4D
$GPGSA,A,3,04,05,27,17,09,28,02,10,,,,,2.6,1.4,2.1*32
$GPGSV,3,1,12,04,74,031,37,02,65,242,31,10,40,128,39,12,40,317,26*7C
$GPGSV,3,2,12,09,32,254,19,17,31,071,34,27,29,237,20,28,18,137,32*70
$GPGSV,3,3,12,05,11,180,35,20,02,035,,25,01,318,,51,49,195,38*75
$GPRMC,080328.000,A,3353.7590,N,09832.0231,W,0.05,127.43,010412,,,D*75
$GPGGA,080329.000,3353.7590,N,09832.0231,W,2,08,1.4,307.7,M,-23.7,M,0.8,0000*43
$GPGSA,A,3,04,05,27,17,09,28,02,10,,,,,2.6,1.4,2.1*32
$GPRMC,080329.000,A,3353.7590,N,09832.0231,W,0.29,283.32,010412,,,D*71
$GPGGA,080330.000,3353.7590,N,09832.0232,W,2,08,1.4,307.7,M,-23.7,M,1.8,0000*49
$GPGSA,A,3,04,05,27,17,09,28,02,10,,,,,2.6,1.4,2.1*32
$GPRMC,080330.000,A,3353.7590,N,09832.0232,W,0.16,295.48,010412,,,D*7C
$GPGGA,080331.000,3353.7590,N,09832.0232,W,2,08,1.4,307.7,M,-23.7,M,0.8,0000*49
$GPGSA,A,3,04,05,27,17,09,28,02,10,,,,,2.6,1.4,2.1*32
$GPRMC,080331.000,A,3353.7590,N,09832.0232,W,0.07,330.09,010412,,,D*76
$GPGGA,080332.000,3353.7590,N,09832.0232,W,2,08,1.4,307.7,M,-23.7,M,1.8,0000*4B
$GPGSA,A,3,04,05,27,17,09,28,02,10,,,,,2.6,1.4,2.1*32
$GPRMC,080332.000,A,3353.7590,N,09832.0232,W,0.15,334.62,010412,,,D*7F
$GPGGA,080333.000,3353.7591,N,09832.0233,W,2,08,1.4,307.7,M,-23.7,M,0.8,0000*4B
$GPGSA,A,3,04,05,27,17,09,28,02,10,,,,,2.6,1.4,2.1*32
$GPGSV,3,1,12,04,74,031,37,02,65,242,31,10,40,128,39,12,40,317,26*7C
$GPGSV,3,2,12,09,32,254,20,17,31,071,35,27,29,237,20,28,18,137,32*7B
$GPGSV,3,3,12,05,11,180,35,20,02,035,,25,01,318,,51,49,195,38*75
$GPRMC,080333.000,A,3353.7591,N,09832.0233,W,0.18,351.70,010412,,,D*73
$GPGGA,080334.000,3353.7591,N,09832.0232,W,2,08,1.4,307.6,M,-23.7,M,0.8,0000*4C
$GPGSA,A,3,04,05,27,17,09,28,02,10,,,,,2.6,1.4,2.1*32
$GPRMC,080334.000,A,3353.7591,N,09832.0232,W,0.19,358.88,010412,,,D*7A
$GPGGA,080335.000,3353.7591,N,09832.0232,W,2,08,1.4,307.6,M,-23.7,M,0.8,0000*4D
$GPGSA,A,3,04,05,27,17,09,28,02,10,,,,,2.6,1.4,2.1*32
$GPRMC,080335.000,A,3353.7591,N,09832.0232,W,0.06,356.97,010412,,,D*75
$GPGGA,080336.000,3353.7591,N,09832.0233,W,2,08,1.4,307.6,M,-23.7,M,0.8,0000*4F
$GPGSA,A,3,04,05,27,17,09,28,02,10,,,,,2.6,1.4,2.1*32
$GPRMC,080336.000,A,3353.7591,N,09832.0233,W,0.26,288.73,010412,,,D*7D
$GPGGA,080337.000,3353.7591,N,09832.0233,W,2,08,1.4,307.6,M,-23.7,M,1.8,0000*4F
$GPGSA,A,3,04,05,27,17,09,28,02,10,,,,,2.6,1.4,2.1*32
$GPRMC,080337.000,A,3353.7591,N,09832.0233,W,0.11,55.84,010412,,,D*42
$GPGGA,080338.000,3353.7590,N,09832.0232,W,2,08,1.4,307.7,M,-23.7,M,2.8,0000*42
$GPGSA,A,3,04,05,27,17,09,28,02,10,,,,,2.6,1.4,2.1*32
$GPGSV,3,1,12,04,74,031,37,02,65,242,31,10,40,128,39,12,40,317,26*7C
$GPGSV,3,2,12,09,32,254,19,17,31,071,35,27,29,237,19,28,18,137,32*7B
$GPGSV,3,3,12,05,11,180,35,20,02,035,,25,01,318,,51,49,195,38*75
$GPRMC,080338.000,A,3353.7590,N,09832.0232,W,0.11,94.93,010412,,,D*46
$GPGGA,080339.000,3353.7590,N,09832.0232,W,2,08,1.4,307.8,M,-23.7,M,0.8,0000*4E
$GPGSA,A,3,04,05,27,17,09,28,02,10,,,,,2.6,1.4,2.1*32
$GPRMC,080339.000,A,3353.7590,N,09832.0232,W,0.11,110.65,010412,,,D*73
$GPGGA,080340.000,3353.7589,N,09832.0231,W,2,08,1.4,308.0,M,-23.7,M,0.8,0000*4C
$GPGSA,A,3,04,05,27,17,09,28,02,10,,,,,2.6,1.4,2.1*32
$GPRMC,080340.000,A,3353.7589,N,09832.0231,W,0.11,79.80,010412,,,D*43
$GPGGA,080341.000,3353.7589,N,09832.0231,W,2,08,1.4,308.0,M,-23.7,M,0.8,0000*4D
$GPGSA,A,3,04,05,27,17,09,28,02,10,,,,,2.6,1.4,2.1*32
$GPRMC,080341.000,A,3353.7589,N,09832.0231,W,0.11,331.05,010412,,,D*70
$GPGGA,080342.000,3353.7589,N,09832.0231,W,2,08,1.4,308.2,M,-23.7,M,1.8,0000*4D
$GPGSA,A,3,04,05,27,17,09,28,02,10,,,,,2.6,1.4,2.1*32
$GPRMC,080342.000,A,3353.7589,N,09832.0231,W,0.21,72.73,010412,,,D*45
$GPGGA,080343.000,3353.7589,N,09832.0231,W,2,08,1.4,308.2,M,-23.7,M,2.8,0000*4F
$GPGSA,A,3,04,05,27,17,09,28,02,10,,,,,2.6,1.4,2.1*32
$GPGSV,3,1,12,04,74,031,37,02,65,242,31,10,40,128,40,12,40,317,26*72
$GPGSV,3,2,12,09,32,254,19,17,31,071,35,27,29,237,18,28,18,137,31*79
$GPGSV,3,3,12,05,11,180,35,20,02,035,,25,01,318,,51,49,195,38*75
$GPRMC,080343.000,A,3353.7589,N,09832.0231,W,0.07,312.56,010412,,,D*72
$GPGGA,080344.000,3353.7589,N,09832.0231,W,2,08,1.4,308.1,M,-23.7,M,3.8,0000*4A
$GPGSA,A,3,04,05,27,17,09,28,02,10,,,,,2.6,1.4,2.1*32
$GPRMC,080344.000,A,3353.7589,N,09832.0231,W,0.32,283.27,010412,,,D*7C
$GPGGA,080345.000,3353.7589,N,09832.0232,W,2,08,1.4,308.0,M,-23.7,M,0.8,0000*4A
$GPGSA,A,3,04,05,27,17,09,28,02,10,,,,,2.6,1.4,2.1*32
$GPRMC,080345.000,A,3353.7589,N,09832.0232,W,0.28,299.45,010412,,,D*7A
$GPGGA,080346.000,3353.7589,N,09832.0233,W,2,08,1.4,307.9,M,-23.7,M,0.8,0000*4E
$GPGSA,A,3,04,05,27,17,09,28,02,10,,,,,2.6,1.4,2.1*32
$GPRMC,080346.000,A,3353.7589,N,09832.0233,W,0.16,313.70,010412,,,D*70
$GPGGA,080347.000,3353.7589,N,09832.0232,W,2,08,1.4,307.9,M,-23.7,M,0.8,0000*4E
$GPGSA,A,3,04,05,27,17,09,28,02,10,,,,,2.6,1.4,2.1*32
$GPRMC,080347.000,A,3353.7589,N,09832.0232,W,0.16,82.31,010412,,,D*4E
$GPGGA,080348.000,3353.7589,N,09832.0231,W,2,08,1.4,308.0,M,-23.7,M,1.8,0000*45
$GPGSA,A,3,04,05,27,17,09,28,02,10,,,,,2.6,1.4,2.1*32
$GPGSV,3,1,12,04,74,031,37,02,65,242,31,10,40,128,40,12,40,317,26*72
$GPGSV,3,2,12,09,32,254,18,17,31,071,35,27,29,237,18,28,18,137,31*78
$GPGSV,3,3,12,05,11,180,35,20,02,035,,25,01,318,,51,49,195,38*75
$GPRMC,080348.000,A,3353.7589,N,09832.0231,W,0.21,85.68,010412,,,D*4D
$GPGGA,080349.000,3353.7589,N,09832.0232,W,2,08,1.4,307.9,M,-23.7,M,0.8,0000*40
$GPGSA,A,3,04,05,27,17,09,28,02,10,,,,,2.6,1.4,2.1*32
$GPRMC,080349.000,A,3353.7589,N,09832.0232,W,0.22,280.51,010412,,,D*71
$GPGGA,080350.000,3353.7588,N,09832.0232,W,2,08,1.4,307.9,M,-23.7,M,1.8,0000*48
$GPGSA,A,3,04,05,27,17,09,28,02,10,,,,,2.6,1.4,2.1*32
$GPRMC,080350.000,A,3353.7588,N,09832.0232,W,0.11,66.52,010412,,,D*41
$GPGGA,080351.000,3353.7588,N,09832.0231,W,2,08,1.4,308.0,M,-23.7,M,0.8,0000*4D
$GPGSA,A,3,04,05,27,17,09,28,02,10,,,,,2.6,1.4,2.1*32
$GPRMC,080351.000,A,3353.7588,N,09832.0231,W,0.04,96.05,010412,,,D*4A
$GPGGA,080352.000,3353.7587,N,09832.0231,W,2,08,1.4,308.2,M,-23.7,M,0.8,0000*43
$GPGSA,A,3,04,05,27,17,09,28,02,10,,,,,2.6,1.4,2.1*32
$GPRMC,080352.000,A,3353.7587,N,09832.0231,W,0.18,95.91,010412,,,D*45
$GPGGA,080353.000,3353.7587,N,09832.0230,W,2,08,1.4,308.3,M,-23.7,M,0.8,0000*42
$GPGSA,A,3,04,05,27,17,09,28,02,10,,,,,2.6,1.4,2.1*32
$GPGSV,3,1,12,04,74,031,37,02,65,242,30,10,40,128,40,12,40,317,26*73
$GPGSV,3,2,12,09,32,254,14,17,31,071,36,27,29,237,19,28,18,137,31*76
$GPGSV,3,3,12,05,11,180,35,20,02,035,,25,01,318,,51,49,195,38*75
$GPRMC,080353.000,A,3353.7587,N,09832.0230,W,0.12,58.52,010412,,,D*41
$GPGGA,080354.000,3353.7587,N,09832.0231,W,2,08,1.4,308.3,M,-23.7,M,0.8,0000*44
$GPGSA,A,3,04,05,27,17,09,28,02,10,,,,,2.6,1.4,2.1*32
$GPRMC,080354.000,A,3353.7587,N,09832.0231,W,0.24,293.37,010412,,,D*74
$GPGGA,080355.000,3353.7587,N,09832.0232,W,2,08,1.4,308.2,M,-23.7,M,0.8,0000*47
$GPGSA,A,3,04,05,27,17,09,28,02,10,,,,,2.6,1.4,2.1*32
$GPRMC,080355.000,A,3353.7587,N,09832.0232,W,0.31,287.58,010412,,,D*7E
$GPGGA,080356.000,3353.7587,N,09832.0233,W,2,08,1.4,308.1,M,-23.7,M,0.8,0000*46
$GPGSA,A,3,04,05,27,17,09,28,02,10,,,,,2.6,1.4,2.1*32
$GPRMC,080356.000,A,3353.7587,N,09832.0233,W,0.37,287.78,010412,,,D*78
$GPGGA,080357.000,3353.7588,N,09832.0234,W,2,08,1.4,308.0,M,-23.7,M,0.8,0000*4E
$GPGSA,A,3,04,05,27,17,09,28,02,10,,,,,2.6,1.4,2.1*32
$GPRMC,080357.000,A,3353.7588,N,09832.0234,W,0.36,302.91,010412,,,D*7B
$GPGGA,080358.000,3353.7588,N,09832.0235,W,2,08,1.4,307.9,M,-23.7,M,0.8,0000*46
$GPGSA,A,3,04,05,27,17,09,28,02,10,,,,,2.6,1.4,2.1*32
$GPGSV,3,1,12,04,73,032,37,02,66,242,30,12,40,317,26,10,40,128,40*74
$GPGSV,3,2,12,09,32,254,15,17,31,072,36,27,29,237,19,28,18,137,30*75
$GPGSV,3,3,12,05,12,180,34,20,02,035,,25,01,318,,51,49,195,38*77
$GPRMC,080358.000,A,3353.7588,N,09832.0235,W,0.27,328.42,010412,,,D*73
$GPGGA,080359.000,3353.7588,N,09832.0235,W,2,08,1.4,307.8,M,-23.7,M,0.8,0000*46
$GPGSA,A,3,04,05,27,17,09,28,02,10,,,,,2.6,1.4,2.1*32
$GPRMC,080359.000,A,3353.7588,N,09832.0235,W,0.24,289.61,010412,,,D*7A
$GPGGA,080400.000,3353.7588,N,09832.0235,W,2,08,1.4,307.8,M,-23.7,M,1.8,0000*4C
$GPGSA,A,3,04,05,27,17,09,28,02,10,,,,,2.6,1.4,2.1*32
$GPRMC,080400.000,A,3353.7588,N,09832.0235,W,0.24,74.82,010412,,,D*4C
$GPGGA,080401.000,3353.7587,N,09832.0234,W,2,08,1.4,308.0,M,-23.7,M,2.8,0000*47
$GPGSA,A,3,04,05,27,17,09,28,02,10,,,,,2.6,1.4,2.1*32
$GPRMC,080401.000,A,3353.7587,N,09832.0234,W,0.32,86.72,010412,,,D*46
$GPGGA,080402.000,3353.7587,N,09832.0234,W,2,08,1.4,307.9,M,-23.7,M,3.8,0000*43
$GPGSA,A,3,04,05,27,17,09,28,02,10,,,,,2.6,1.4,2.1*32
$GPRMC,080402.000,A,3353.7587,N,09832.0234,W,0.10,296.44,010412,,,D*73
$GPGGA,080403.000,3353.7587,N,09832.0234,W,2,08,1.4,307.8,M,-23.7,M,0.8,0000*40
$GPGSA,A,3,04,05,27,17,09,28,02,10,,,,,2.6,1.4,2.1*32
$GPGSV,3,1,12,04,73,032,37,02,66,242,30,12,40,317,27,10,40,128,40*75
$GPGSV,3,2,12,09,32,254,18,17,31,072,36,27,29,237,20,28,18,137,31*73
$GPGSV,3,3,12,05,12,180,34,20,02,035,,25,01,318,,51,49,195,38*77
$GPRMC,080403.000,A,3353.7587,N,09832.0234,W,0.33,274.64,010412,,,D*7D
$GPGGA,080404.000,3353.7587,N,09832.0235,W,2,08,1.4,307.7,M,-23.7,M,0.8,0000*49
$GPGSA,A,3,04,05,27,17,09,28,02,10,,,,,2.6,1.4,2.1*32
$GPRMC,080404.000,A,3353.7587,N,09832.0235,W,0.33,276.55,010412,,,D*7B
$GPGGA,080405.000,3353.7587,N,09832.0236,W,2,08,1.4,307.7,M,-23.7,M,0.8,0000*4B
$GPGSA,A,3,04,05,27,17,09,28,02,10,,,,,2.6,1.4,2.1*32
$GPRMC,080405.000,A,3353.7587,N,09832.0236,W,0.22,301.79,010412,,,D*76
$GPGGA,080406.000,3353.7587,N,09832.0236,W,2,08,1.4,307.7,M,-23.7,M,1.8,0000*49
$GPGSA,A,3,04,05,27,17,09,28,02,10,,,,,2.6,1.4,2.1*32
$GPRMC,080406.000,A,3353.7587,N,09832.0236,W,0.17,20.55,010412,,,D*4D
$GPGGA,080407.000,3353.7586,N,09832.0235,W,2,08,1.4,307.9,M,-23.7,M,2.8,0000*47
$GPGSA,A,3,04,05,27,17,09,28,02,10,,,,,2.6,1.4,2.1*32
$GPRMC,080407.000,A,3353.7586,N,09832.0235,W,0.25,62.40,010412,,,D*4D
$GPGGA,080408.000,3353.7586,N,09832.0235,W,2,08,1.4,308.0,M,-23.7,M,3.8,0000*4F
$GPGSA,A,3,04,05,27,17,09,28,02,10,,,,,2.6,1.4,2.1*32
$GPGSV,3,1,12,04,73,032,37,02,66,242,30,12,40,317,28,10,40,128,40*7A
$GPGSV,3,2,12,09,32,254,19,17,31,072,37,27,29,237,20,28,18,137,31*73
$GPGSV,3,3,12,05,12,180,34,20,02,035,,25,01,318,,51,49,195,38*77
$GPRMC,080408.000,A,3353.7586,N,09832.0235,W,0.07,14.33,010412,,,D*47
$GPGGA,080409.000,3353.7586,N,09832.0235,W,2,08,1.4,307.9,M,-23.7,M,0.8,0000*4B
$GPGSA,A,3,04,05,27,17,09,28,02,10,,,,,2.6,1.4,2.1*32
$GPRMC,080409.000,A,3353.7586,N,09832.0235,W,0.19,334.76,010412,,,D*79
$GPGGA,080410.000,3353.7586,N,09832.0234,W,2,08,1.4,308.0,M,-23.7,M,0.8,0000*44
$GPGSA,A,3,04,05,27,17,09,28,02,10,,,,,2.6,1.4,2.1*32
$GPRMC,080410.000,A,3353.7586,N,09832.0234,W,0.30,69.31,010412,,,D*43
$GPGGA,080411.000,3353.7586,N,09832.0234,W,2,08,1.4,308.1,M,-23.7,M,0.8,0000*44
$GPGSA,A,3,04,05,27,17,09,28,02,10,,,,,2.6,1.4,2.1*32
$GPRMC,080411.000,A,3353.7586,N,09832.0234,W,0.14,83.91,010412,,,D*4A
$GPGGA,080412.000,3353.7585,N,09832.0233,W,2,08,1.4,308.2,M,-23.7,M,1.8,0000*41
$GPGSA,A,3,04,05,27,17,09,28,02,10,,,,,2.6,1.4,2.1*32
$GPRMC,080412.000,A,3353.7585,N,09832.0233,W,0.28,87.71,010412,,,D*48
$GPGGA,080413.000,3353.7585,N,09832.0232,W,2,08,1.4,308.3,M,-23.7,M,0.8,0000*41
$GPGSA,A,3,04,05,27,17,09,28,02,10,,,,,2.6,1.4,2.1*32
$GPGSV,3,1,12,04,73,032,37,02,66,242,30,12,40,317,28,10,40,128,40*7A
$GPGSV,3,2,12,09,32,254,21,17,31,072,37,27,29,237,20,28,18,137,32*7B
$GPGSV,3,3,12,05,12,180,34,20,02,035,,25,01,318,,51,49,195,38*77
$GPRMC,080413.000,A,3353.7585,N,09832.0232,W,0.10,115.09,010412,,,D*76
$GPGGA,080414.000,3353.7585,N,09832.0233,W,2,08,1.4,308.3,M,-23.7,M,0.8,0000*47
$GPGSA,A,3,04,05,27,17,09,28,02,10,,,,,2.6,1.4,2.1*32
$GPRMC,080414.000,A,3353.7585,N,09832.0233,W,0.09,281.41,010412,,,D*7A
$GPGGA,080415.000,3353.7584,N,09832.0233,W,2,08,1.4,308.4,M,-23.7,M,0.8,0000*40
$GPGSA,A,3,04,05,27,17,09,28,02,10,,,,,2.6,1.4,2.1*32
$GPRMC,080415.000,A,3353.7584,N,09832.0233,W,0.08,210.82,010412,,,D*7C
$GPGGA,080416.000,3353.7583,N,09832.0233,W,2,08,1.4,308.5,M,-23.7,M,0.8,0000*45
$GPGSA,A,3,04,05,27,17,09,28,02,10,,,,,2.6,1.4,2.1*32
$GPRMC,080416.000,A,3353.7583,N,09832.0233,W,0.09,87.09,010412,,,D*46
$GPGGA,080417.000,3353.7583,N,09832.0232,W,2,08,1.4,308.6,M,-23.7,M,0.8,0000*46
$GPGSA,A,3,04,05,27,17,09,28,02,10,,,,,2.6,1.4,2.1*32
$GPRMC,080417.000,A,3353.7583,N,09832.0232,W,0.24,69.39,010412,,,D*4A
$GPGGA,080418.000,3353.7583,N,09832.0232,W,2,08,1.4,308.7,M,-23.7,M,0.8,0000*48
$GPGSA,A,3,04,05,27,17,09,28,02,10,,,,,2.6,1.4,2.1*32
$GPGSV,3,1,12,04,73,032,37,02,66,242,30,12,40,317,28,10,40,128,40*7A
$GPGSV,3,2,12,09,31,254,22,17,31,072,36,27,29,236,21,28,18,137,32*7A
$GPGSV,3,3,12,05,12,180,33,20,02,035,,25,01,318,,51,49,195,38*70
$GPRMC,080418.000,A,3353.7583,N,09832.0232,W,0.10,7.35,010412,,,D*76
$GPGGA,080419.000,3353.7583,N,09832.0232,W,2,08,1.4,308.7,M,-23.7,M,1.8,0000*48
$GPGSA,A,3,04,05,27,17,09,28,02,10,,,,,2.6,1.4,2.1*32
$GPRMC,080419.000,A,3353.7583,N,09832.0232,W,0.13,344.31,010412,,,D*74
$GPGGA,080420.000,3353.7583,N,09832.0232,W,2,08,1.4,308.9,M,-23.7,M,2.8,0000*4F
$GPGSA,A,3,04,05,27,17,09,28,02,10,,,,,2.6,1.4,2.1*32
$GPRMC,080420.000,A,3353.7583,N,09832.0232,W,0.24,70.86,010412,,,D*42
$GPGGA,080421.000,3353.7583,N,09832.0231,W,2,08,1.4,308.9,M,-23.7,M,0.8,0000*4F
$GPGSA,A,3,04,05,27,17,09,28,02,10,,,,,2.6,1.4,2.1*32
$GPRMC,080421.000,A,3353.7583,N,09832.0231,W,0.08,314.18,010412,,,D*78
$GPGGA,080422.000,3353.7583,N,09832.0232,W,2,08,1.4,308.9,M,-23.7,M,0.8,0000*4F
$GPGSA,A,3,04,05,27,17,09,28,02,10,,,,,2.6,1.4,2.1*32
$GPRMC,080422.000,A,3353.7583,N,09832.0232,W,0.12,296.86,010412,,,D*7F
$GPGGA,080423.000,3353.7583,N,09832.0232,W,2,08,1.4,308.9,M,-23.7,M,0.8,0000*4E
$GPGSA,A,3,04,05,27,17,09,28,02,10,,,,,2.6,1.4,2.1*32
$GPGSV,3,1,12,04,73,032,37,02,66,242,30,12,40,317,28,10,40,128,39*74
$GPGSV,3,2,12,09,31,254,22,17,31,072,36,27,29,236,21,28,18,137,32*7A
$GPGSV,3,3,12,05,12,180,33,20,02,035,,25,01,318,,51,49,195,38*70
$GPRMC,080423.000,A,3353.7583,N,09832.0232,W,0.04,137.12,010412,,,D*7C
$GPGGA,080424.000,3353.7583,N,09832.0232,W,2,08,1.4,309.0,M,-23.7,M,1.8,0000*40
$GPGSA,A,3,04,05,27,17,09,28,02,10,,,,,2.6,1.4,2.1*32
$GPRMC,080424.000,A,3353.7583,N,09832.0232,W,0.11,106.77,010412,,,D*7E
$GPGGA,080425.000,3353.7582,N,09832.0232,W,2,08,1.4,309.1,M,-23.7,M,2.8,0000*42
$GPGSA,A,3,04,05,27,17,09,28,02,10,,,,,2.6,1.4,2.1*32
$GPRMC,080425.000,A,3353.7582,N,09832.0232,W,0.13,96.04,010412,,,D*40
$GPGGA,080426.000,3353.7582,N,09832.0232,W,2,08,1.4,309.2,M,-23.7,M,3.8,0000*43
$GPGSA,A,3,04,05,27,17,09,28,02,10,,,,,2.6,1.4,2.1*32
$GPRMC,080426.000,A,3353.7582,N,09832.0232,W,0.07,85.25,010412,,,D*47
$GPGGA,080427.000,3353.7582,N,09832.0232,W,2,08,1.4,309.2,M,-23.7,M,0.8,0000*41
$GPGSA,A,3,04,05,27,17,09,28,02,10,,,,,2.6,1.4,2.1*32
$GPRMC,080427.000,A,3353.7582,N,09832.0232,W,0.17,268.10,010412,,,D*70
$GPGGA,080428.000,3353.7581,N,09832.0233,W,2,08,1.4,309.2,M,-23.7,M,0.8,0000*4C
$GPGSA,A,3,04,05,27,17,09,28,02,10,,,,,2.6,1.4,2.1*32
$GPGSV,3,1,12,04,73,032,37,02,66,242,30,12,40,317,28,10,40,128,39*74
$GPGSV,3,2,12,09,31,254,22,17,31,072,36,27,29,236,21,28,18,137,32*7A
$GPGSV,3,3,12,05,12,180,33,20,02,035,,25,01,318,,51,49,195,38*70
$GPRMC,080428.000,A,3353.7581,N,09832.0233,W,0.06,258.07,010412,,,D*78
$GPGGA,080429.000,3353.7581,N,09832.0233,W,2,08,1.4,309.2,M,-23.7,M,0.8,0000*4D
$GPGSA,A,3,04,05,27,17,09,28,02,10,,,,,2.6,1.4,2.1*32
$GPRMC,080429.000,A,3353.7581,N,09832.0233,W,0.09,76.60,010412,,,D*49
$GPGGA,080430.000,3353.7581,N,09832.0233,W,2,08,1.4,309.2,M,-23.7,M,1.8,0000*44
$GPGSA,A,3,04,05,27,17,09,28,02,10,,,,,2.6,1.4,2.1*32
$GPRMC,080430.000,A,3353.7581,N,09832.0233,W,0.12,41.40,010412,,,D*4D
$GPGGA,080431.000,3353.7581,N,09832.0233,W,2,08,1.4,309.2,M,-23.7,M,2.8,0000*46
$GPGSA,A,3,04,05,27,17,09,28,02,10,,,,,2.6,1.4,2.1*32
$GPRMC,080431.000,A,3353.7581,N,09832.0233,W,0.06,338.61,010412,,,D*77
$GPGGA,080432.000,3353.7581,N,09832.0233,W,2,08,1.4,309.2,M,-23.7,M,3.8,0000*44
$GPGSA,A,3,04,05,27,17,09,28,02,10,,,,,2.6,1.4,2.1*32
$GPRMC,080432.000,A,3353.7581,N,09832.0233,W,0.08,348.30,010412,,,D*79
$GPGGA,080433.000,3353.7581,N,09832.0233,W,2,09,1.1,309.2,M,-23.7,M,0.8,0000*42
$GPGSA,A,3,04,05,12,27,17,09,28,02,10,,,,2.2,1.1,1.9*3B
$GPGSV,3,1,12,04,73,032,37,02,66,242,30,12,40,317,27,10,40,128,39*7B
$GPGSV,3,2,12,09,31,254,23,17,31,072,35,27,29,236,23,28,18,137,32*7A
$GPGSV,3,3,12,05,12,180,32,20,02,035,,25,01,318,,51,49,195,38*71
$GPRMC,080433.000,A,3353.7581,N,09832.0233,W,0.06,342.76,010412,,,D*7E
$GPGGA,080434.000,3353.7582,N,09832.0233,W,2,09,1.1,309.1,M,-23.7,M,0.8,0000*45
$GPGSA,A,3,04,05,12,27,17,09,28,02,10,,,,2.2,1.1,1.9*3B
$GPRMC,080434.000,A,3353.7582,N,09832.0233,W,0.10,45.58,010412,,,D*45
$GPGGA,080435.000,3353.7581,N,09832.0233,W,2,09,1.1,309.1,M,-23.7,M,0.8,0000*47
$GPGSA,A,3,04,05,12,27,17,09,28,02,10,,,,2.2,1.1,1.9*3B
$GPRMC,080435.000,A,3353.7581,N,09832.0233,W,0.01,49.97,010412,,,D*48
$GPGGA,080436.000,3353.7581,N,09832.0233,W,2,09,1.1,309.0,M,-23.7,M,0.8,0000*45
$GPGSA,A,3,04,05,12,27,17,09,28,02,10,,,,2.2,1.1,1.9*3B
$GPRMC,080436.000,A,3353.7581,N,09832.0233,W,0.08,90.27,010412,,,D*4D
$GPGGA,080437.000,3353.7581,N,09832.0233,W,2,09,1.1,309.0,M,-23.7,M,1.8,0000*45
$GPGSA,A,3,04,05,12,27,17,09,28,02,10,,,,2.2,1.1,1.9*3B
$GPRMC,080437.000,A,3353.7581,N,09832.0233,W,0.06,113.18,010412,,,D*74
$GPGGA,080438.000,3353.7581,N,09832.0233,W,2,09,1.1,308.9,M,-23.7,M,2.8,0000*41
$GPGSA,A,3,04,05,12,27,17,09,28,02,10,,,,2.2,1.1,1.9*3B
$GPGSV,3,1,12,04,73,032,37,02,66,243,30,12,40,317,27,10,40,128,38*7B
$GPGSV,3,2,12,09,31,254,24,17,31,072,35,27,28,236,24,28,18,137,31*78
$GPGSV,3,3,12,05,12,180,32,20,01,035,,25,01,318,,51,49,195,38*72
$GPRMC,080438.000,A,3353.7581,N,09832.0233,W,0.05,17.67,010412,,,D*45
$GPGGA,080439.000,3353.7580,N,09832.0233,W,2,09,1.1,308.9,M,-23.7,M,0.8,0000*43
$GPGSA,A,3,04,05,12,27,17,09,28,02,10,,,,2.2,1.1,1.9*3B
$GPRMC,080439.000,A,3353.7580,N,09832.0233,W,0.20,115.46,010412,,,D*72
$GPGGA,080440.000,3353.7580,N,09832.0233,W,2,09,1.1,308.9,M,-23.7,M,0.8,0000*4D
$GPGSA,A,3,04,05,12,27,17,09,28,02,10,,,,2.2,1.1,1.9*3B
$GPRMC,080440.000,A,3353.7580,N,09832.0233,W,0.14,221.20,010412,,,D*7F
$GPGGA,080441.000,3353.7579,N,09832.0233,W,2,09,1.1,308.9,M,-23.7,M,0.8,0000*4A
$GPGSA,A,3,04,05,12,27,17,09,28,02,10,,,,2.2,1.1,1.9*3B
$GPRMC,080441.000,A,3353.7579,N,09832.0233,W,0.11,58.47,010412,,,D*40
$GPGGA,080442.000,3353.7579,N,09832.0233,W,2,09,1.1,309.0,M,-23.7,M,1.8,0000*40
$GPGSA,A,3,04,05,12,27,17,09,28,02,10,,,,2.2,1.1,1.9*3B
$GPRMC,080442.000,A,3353.7579,N,09832.0233,W,0.21,80.55,010412,,,D*46
$GPGGA,080443.000,3353.7579,N,09832.0233,W,2,09,1.1,309.0,M,-23.7,M,2.8,0000*42
$GPGSA,A,3,04,05,12,27,17,09,28,02,10,,,,2.2,1.1,1.9*3B
$GPGSV,3,1,12,04,73,032,37,02,66,243,30,12,40,317,26,10,40,128,38*7A
$GPGSV,3,2,12,09,31,254,23,17,31,072,35,27,28,236,24,28,18,137,31*7F
$GPGSV,3,3,12,05,12,180,31,20,01,035,,25,01,318,,51,49,195,38*71
$GPRMC,080443.000,A,3353.7579,N,09832.0233,W,0.06,246.28,010412,,,D*70
$GPGGA,080444.000,3353.7579,N,09832.0233,W,2,09,1.1,309.1,M,-23.7,M,0.8,0000*46
$GPGSA,A,3,04,05,12,27,17,09,28,02,10,,,,2.2,1.1,1.9*3B
$GPRMC,080444.000,A,3353.7579,N,09832.0233,W,0.03,340.02,010412,,,D*7D
$GPGGA,080445.000,3353.7579,N,09832.0234,W,2,09,1.1,309.0,M,-23.7,M,0.8,0000*41
$GPGSA,A,3,04,05,12,27,17,09,28,02,10,,,,2.2,1.1,1.9*3B
$GPRMC,080445.000,A,3353.7579,N,09832.0234,W,0.08,285.50,010412,,,D*7F
$GPGGA,080446.000,3353.7578,N,09832.0234,W,2,09,1.1,309.0,M,-23.7,M,0.8,0000*43
$GPGSA,A,3,04,05,12,27,17,09,28,02,10,,,,2.2,1.1,1.9*3B
$GPRMC,080446.000,A,3353.7578,N,09832.0234,W,0.05,28.40,010412,,,D*44
$GPGGA,080447.000,3353.7578,N,09832.0234,W,2,09,1.1,309.0,M,-23.7,M,0.8,0000*42
$GPGSA,A,3,04,05,12,27,17,09,28,02,10,,,,2.2,1.1,1.9*3B
$GPRMC,080447.000,A,3353.7578,N,09832.0234,W,0.15,63.27,010412,,,D*4A
$GPGGA,080448.000,3353.7578,N,09832.0234,W,2,09,1.1,309.0,M,-23.7,M,1.8,0000*4C
