$GPGGA,010635.000,3352.5635,N,09833.5673,W,2,09,1.0,306.5,M,-23.7,M,1.8,0000*4C
$GPGSA,A,3,13,03,06,07,19,23,10,28,08,,,,1.9,1.0,1.6*36
$GPRMC,010635.000,A,3352.5635,N,09833.5673,W,0.07,73.21,020412,,,D*49
$GPGGA,010636.000,3352.5636,N,09833.5673,W,2,09,1.0,306.5,M,-23.7,M,2.8,0000*4F
$GPGSA,A,3,13,03,06,07,19,23,10,28,08,,,,1.9,1.0,1.6*36
$GPRMC,010636.000,A,3352.5636,N,09833.5673,W,0.07,127.48,020412,,,D*76
$GPGGA,010637.000,3352.5636,N,09833.5673,W,2,09,1.0,306.6,M,-23.7,M,3.8,0000*4C
$GPGSA,A,3,13,03,06,07,19,23,10,28,08,,,,1.9,1.0,1.6*36
$GPGSV,3,1,12,13,77,214,29,07,54,329,41,19,53,115,37,23,48,166,26*7A
$GPGSV,3,2,12,03,41,059,38,06,29,050,34,08,22,301,33,10,18,267,36*71
$GPGSV,3,3,12,16,16,049,,28,11,242,30,11,11,149,25,05,02,317,*73
$GPRMC,010637.000,A,3352.5636,N,09833.5673,W,0.11,139.60,020412,,,D*75
$GPGGA,010638.000,3352.5636,N,09833.5674,W,2,09,1.0,306.7,M,-23.7,M,4.8,0000*42
$GPGSA,A,3,13,03,06,07,19,23,10,28,08,,,,1.9,1.0,1.6*36
$GPRMC,010638.000,A,3352.5636,N,09833.5674,W,0.10,145.16,020412,,,D*76
$GPGGA,010639.000,3352.5636,N,09833.5674,W,2,09,1.0,306.7,M,-23.7,M,5.8,0000*42
$GPGSA,A,3,13,03,06,07,19,23,10,28,08,,,,1.9,1.0,1.6*36
$GPRMC,010639.000,A,3352.5636,N,09833.5674,W,0.07,120.01,020412,,,D*74
$GPGGA,010640.000,3352.5636,N,09833.5674,W,2,09,1.0,306.8,M,-23.7,M,6.8,0000*40
$GPGSA,A,3,13,03,06,07,19,23,10,28,08,,,,1.9,1.0,1.6*36
$GPRMC,010640.000,A,3352.5636,N,09833.5674,W,0.08,138.07,020412,,,D*7A
$GPGGA,010641.000,3352.5636,N,09833.5674,W,2,09,1.0,306.8,M,-23.7,M,7.8,0000*40
$GPGSA,A,3,13,03,06,07,19,23,10,28,08,,,,1.9,1.0,1.6*36
$GPRMC,010641.000,A,3352.5636,N,09833.5674,W,0.13,135.09,020412,,,D*72
$GPGGA,010642.000,3352.5636,N,09833.5674,W,2,09,1.0,306.9,M,-23.7,M,8.8,0000*4D
$GPGSA,A,3,13,03,06,07,19,23,10,28,08,,,,1.9,1.0,1.6*36
$GPGSV,3,1,12,13,77,214,29,07,54,329,41,19,53,115,37,23,48,166,26*7A
$GPGSV,3,2,12,03,41,059,38,06,29,050,34,08,22,301,32,10,18,267,36*70
$GPGSV,3,3,12,16,16,049,,28,11,242,30,11,11,149,25,05,02,317,*73
$GPRMC,010642.000,A,3352.5636,N,09833.5674,W,0.12,144.64,020412,,,D*7D
$GPGGA,010643.000,3352.5636,N,09833.5674,W,2,09,1.0,306.9,M,-23.7,M,9.8,0000*4D
$GPGSA,A,3,13,03,06,07,19,23,10,28,08,,,,1.9,1.0,1.6*36
$GPRMC,010643.000,A,3352.5636,N,09833.5674,W,0.08,117.37,020412,,,D*77
$GPGGA,010644.000,3352.5636,N,09833.5674,W,2,09,1.0,306.9,M,-23.7,M,10.8,0000*72
$GPGSA,A,3,13,03,06,07,19,23,10,28,08,,,,1.9,1.0,1.6*36
$GPRMC,010644.000,A,3352.5636,N,09833.5674,W,0.10,141.27,020412,,,D*7B
$GPGGA,010645.000,3352.5636,N,09833.5674,W,2,09,1.0,307.0,M,-23.7,M,11.8,0000*7A
$GPGSA,A,3,13,03,06,07,19,23,10,28,08,,,,1.9,1.0,1.6*36
$GPRMC,010645.000,A,3352.5636,N,09833.5674,W,0.13,133.96,020412,,,D*76
$GPGGA,010646.000,3352.5636,N,09833.5675,W,2,09,1.0,307.0,M,-23.7,M,12.8,0000*7B
$GPGSA,A,3,13,03,06,07,19,23,10,28,08,,,,1.9,1.0,1.6*36
$GPRMC,010646.000,A,3352.5636,N,09833.5675,W,0.05,43.50,020412,,,D*4F
$GPGGA,010647.000,3352.5636,N,09833.5675,W,2,09,1.0,307.0,M,-23.7,M,13.8,0000*7B
$GPGSA,A,3,13,03,06,07,19,23,10,28,08,,,,1.9,1.0,1.6*36
$GPGSV,3,1,12,13,77,214,29,07,54,329,41,19,53,115,37,23,48,166,26*7A
$GPGSV,3,2,12,03,41,059,38,06,29,050,34,08,22,301,32,10,18,267,36*70
$GPGSV,3,3,12,16,16,049,,28,11,242,29,11,11,149,25,05,02,317,*7B
$GPRMC,010647.000,A,3352.5636,N,09833.5675,W,0.09,115.92,020412,,,D*7E
$GPGGA,010648.000,3352.5636,N,09833.5675,W,2,09,1.0,307.0,M,-23.7,M,14.8,0000*73
$GPGSA,A,3,13,03,06,07,19,23,10,28,08,,,,1.9,1.0,1.6*36
$GPRMC,010648.000,A,3352.5636,N,09833.5675,W,0.08,105.76,020412,,,D*7B
$GPGGA,010649.000,3352.5636,N,09833.5675,W,2,09,1.0,307.0,M,-23.7,M,15.8,0000*73
$GPGSA,A,3,13,03,06,07,19,23,10,28,08,,,,1.9,1.0,1.6*36
$GPRMC,010649.000,A,3352.5636,N,09833.5675,W,0.16,151.98,020412,,,D*74
$GPGGA,010650.000,3352.5636,N,09833.5675,W,2,09,1.0,307.1,M,-23.7,M,16.8,0000*79
$GPGSA,A,3,13,03,06,07,19,23,10,28,08,,,,1.9,1.0,1.6*36
$GPRMC,010650.000,A,3352.5636,N,09833.5675,W,0.11,93.87,020412,,,D*4A
$GPGGA,010651.000,3352.5636,N,09833.5675,W,2,09,1.0,307.1,M,-23.7,M,17.8,0000*79
$GPGSA,A,3,13,03,06,07,19,23,10,28,08,,,,1.9,1.0,1.6*36
$GPRMC,010651.000,A,3352.5636,N,09833.5675,W,0.11,88.20,020412,,,D*4C
$GPGGA,010652.000,3352.5636,N,09833.5675,W,1,09,1.0,307.2,M,-23.7,M,18.8,0000*75
$GPGSA,A,3,13,03,06,07,19,23,10,28,08,,,,1.9,1.0,1.6*36
$GPGSV,3,1,12,13,77,214,30,07,54,329,40,19,53,115,37,23,48,166,27*72
$GPGSV,3,2,12,03,41,059,38,06,29,050,34,08,22,301,31,10,18,267,36*73
$GPGSV,3,3,12,16,16,049,,28,11,242,24,11,11,149,25,05,02,317,*76
$GPRMC,010652.000,A,3352.5636,N,09833.5675,W,0.15,160.91,020412,,,A*73
$GPGGA,010653.000,3352.5636,N,09833.5675,W,1,09,1.0,307.2,M,-23.7,M,18.8,0000*74
$GPGSA,A,3,13,03,06,07,19,23,10,28,08,,,,1.9,1.0,1.6*36
$GPRMC,010653.000,A,3352.5636,N,09833.5675,W,0.19,161.54,020412,,,A*76
$GPGGA,010654.000,3352.5635,N,09833.5675,W,1,09,1.0,307.2,M,-23.7,M,18.8,0000*70
$GPGSA,A,3,13,03,06,07,19,23,10,28,08,,,,1.9,1.0,1.6*36
$GPRMC,010654.000,A,3352.5635,N,09833.5675,W,0.14,143.60,020412,,,A*78
$GPGGA,010655.000,3352.5635,N,09833.5675,W,1,09,1.0,307.2,M,-23.7,M,18.8,0000*71
$GPGSA,A,3,13,03,06,07,19,23,10,28,08,,,,1.9,1.0,1.6*36
$GPRMC,010655.000,A,3352.5635,N,09833.5675,W,0.13,132.41,020412,,,A*7B
$GPGGA,010656.000,3352.5635,N,09833.5674,W,1,09,1.0,307.2,M,-23.7,M,18.8,0000*73
$GPGSA,A,3,13,03,06,07,19,23,10,28,08,,,,1.9,1.0,1.6*36
$GPRMC,010656.000,A,3352.5635,N,09833.5674,W,0.12,139.31,020412,,,A*74
$GPGGA,010657.000,3352.5635,N,09833.5674,W,1,09,1.0,307.2,M,-23.7,M,18.8,0000*72
$GPGSA,A,3,13,03,06,07,19,23,10,28,08,,,,1.9,1.0,1.6*36
$GPGSV,3,1,12,13,77,214,30,07,54,329,40,19,53,115,37,23,48,166,28*7D
$GPGSV,3,2,12,03,41,059,38,06,29,050,34,08,22,301,31,10,18,267,36*73
$GPGSV,3,3,12,16,16,049,,28,11,242,24,11,11,149,25,05,02,317,*76
$GPRMC,010657.000,A,3352.5635,N,09833.5674,W,0.13,129.26,020412,,,A*73
$GPGGA,010658.000,3352.5635,N,09833.5674,W,1,09,1.0,307.2,M,-23.7,M,18.8,0000*7D
$GPGSA,A,3,13,03,06,07,19,23,10,28,08,,,,1.9,1.0,1.6*36
$GPRMC,010658.000,A,3352.5635,N,09833.5674,W,0.13,140.26,020412,,,A*73
$GPGGA,010659.000,3352.5635,N,09833.5676,W,2,09,1.0,307.7,M,-23.7,M,0.8,0000*41
$GPGSA,A,3,13,03,06,07,19,23,10,28,08,,,,1.9,1.0,1.6*36
$GPRMC,010659.000,A,3352.5635,N,09833.5676,W,0.12,141.95,020412,,,D*7D
$GPGGA,010700.000,3352.5635,N,09833.5676,W,2,09,1.0,307.8,M,-23.7,M,1.8,0000*42
$GPGSA,A,3,13,03,06,07,19,23,10,28,08,,,,1.9,1.0,1.6*36
$GPRMC,010700.000,A,3352.5635,N,09833.5676,W,0.14,130.07,020412,,,D*7B
$GPGGA,010701.000,3352.5635,N,09833.5676,W,2,09,1.0,307.8,M,-23.7,M,2.8,0000*40
$GPGSA,A,3,13,03,06,07,19,23,10,28,08,,,,1.9,1.0,1.6*36
$GPRMC,010701.000,A,3352.5635,N,09833.5676,W,0.12,112.76,020412,,,D*7A
$GPGGA,010702.000,3352.5635,N,09833.5676,W,2,09,1.0,307.8,M,-23.7,M,3.8,0000*42
$GPGSA,A,3,13,03,06,07,19,23,10,28,08,,,,1.9,1.0,1.6*36
$GPGSV,3,1,12,13,77,214,30,07,54,329,40,19,53,115,37,23,48,166,29*7C
$GPGSV,3,2,12,03,41,059,38,06,29,050,34,08,22,301,30,10,18,267,36*72
$GPGSV,3,3,12,16,16,049,,28,11,242,24,11,11,149,26,05,02,317,*75
$GPRMC,010702.000,A,3352.5635,N,09833.5676,W,0.19,170.95,020412,,,D*7B
$GPGGA,010703.000,3352.5635,N,09833.5677,W,2,09,1.0,307.9,M,-23.7,M,4.8,0000*44
$GPGSA,A,3,13,03,06,07,19,23,10,28,08,,,,1.9,1.0,1.6*36
$GPRMC,010703.000,A,3352.5635,N,09833.5677,W,0.11,111.71,020412,,,D*7E
$GPGGA,010704.000,3352.5635,N,09833.5677,W,2,09,1.0,308.0,M,-23.7,M,5.8,0000*44
$GPGSA,A,3,13,03,06,07,19,23,10,28,08,,,,1.9,1.0,1.6*36
$GPRMC,010704.000,A,3352.5635,N,09833.5677,W,0.14,138.58,020412,,,D*7C
$GPGGA,010705.000,3352.5634,N,09833.5677,W,2,09,1.0,308.1,M,-23.7,M,6.8,0000*46
$GPGSA,A,3,13,03,06,07,19,23,10,28,08,,,,1.9,1.0,1.6*36
$GPRMC,010705.000,A,3352.5634,N,09833.5677,W,0.13,110.43,020412,,,D*7B
$GPGGA,010706.000,3352.5635,N,09833.5677,W,2,09,1.0,308.1,M,-23.7,M,7.8,0000*45
$GPGSA,A,3,13,03,06,07,19,23,10,28,08,,,,1.9,1.0,1.6*36
$GPRMC,010706.000,A,3352.5635,N,09833.5677,W,0.12,130.64,020412,,,D*7F
$GPGGA,010707.000,3352.5635,N,09833.5677,W,2,09,1.0,308.2,M,-23.7,M,8.8,0000*48
$GPGSA,A,3,13,03,06,07,19,23,10,28,08,,,,1.9,1.0,1.6*36
$GPGSV,3,1,12,13,77,214,30,07,54,329,40,19,53,115,37,23,48,166,30*74
$GPGSV,3,2,12,03,41,059,38,06,29,050,35,08,22,301,30,10,18,267,36*73
$GPGSV,3,3,12,16,16,049,,28,11,242,25,11,11,149,26,05,02,317,*74
$GPRMC,010707.000,A,3352.5635,N,09833.5677,W,0.13,114.18,020412,,,D*72
$GPGGA,010708.000,3352.5634,N,09833.5677,W,2,09,1.0,308.2,M,-23.7,M,9.8,0000*47
$GPGSA,A,3,13,03,06,07,19,23,10,28,08,,,,1.9,1.0,1.6*36
$GPRMC,010708.000,A,3352.5634,N,09833.5677,W,0.17,167.32,020412,,,D*74
$GPGGA,010709.000,3352.5634,N,09833.5677,W,2,09,1.0,308.2,M,-23.7,M,10.8,0000*7E
$GPGSA,A,3,13,03,06,07,19,23,10,28,08,,,,1.9,1.0,1.6*36
$GPRMC,010709.000,A,3352.5634,N,09833.5677,W,0.13,105.80,020412,,,D*7C
$GPGGA,010710.000,3352.5634,N,09833.5677,W,2,09,1.0,308.3,M,-23.7,M,11.8,0000*76
$GPGSA,A,3,13,03,06,07,19,23,10,28,08,,,,1.9,1.0,1.6*36
$GPRMC,010710.000,A,3352.5634,N,09833.5677,W,0.12,124.29,020412,,,D*75
$GPGGA,010711.000,3352.5634,N,09833.5677,W,2,09,1.0,308.3,M,-23.7,M,12.8,0000*74
$GPGSA,A,3,13,03,06,07,19,23,10,28,08,,,,1.9,1.0,1.6*36
$GPRMC,010711.000,A,3352.5634,N,09833.5677,W,0.12,136.78,020412,,,D*73
$GPGGA,010712.000,3352.5634,N,09833.5677,W,2,09,1.0,308.4,M,-23.7,M,13.8,0000*71
$GPGSA,A,3,13,03,06,07,19,23,10,28,08,,,,1.9,1.0,1.6*36
$GPGSV,3,1,12,13,77,214,29,07,54,329,40,19,53,115,37,23,48,166,31*7D
$GPGSV,3,2,12,03,41,059,38,06,29,050,35,08,22,301,30,10,18,267,36*73
$GPGSV,3,3,12,16,16,049,,28,11,242,25,11,11,149,26,05,02,317,*74
$GPRMC,010712.000,A,3352.5634,N,09833.5677,W,0.12,131.79,020412,,,D*76
$GPGGA,010713.000,3352.5634,N,09833.5677,W,2,09,1.0,308.4,M,-23.7,M,14.8,0000*77
$GPGSA,A,3,13,03,06,07,19,23,10,28,08,,,,1.9,1.0,1.6*36
$GPRMC,010713.000,A,3352.5634,N,09833.5677,W,0.15,144.59,020412,,,D*70
$GPGGA,010714.000,3352.5634,N,09833.5677,W,2,09,1.0,308.4,M,-23.7,M,15.8,0000*71
$GPGSA,A,3,13,03,06,07,19,23,10,28,08,,,,1.9,1.0,1.6*36
$GPRMC,010714.000,A,3352.5634,N,09833.5677,W,0.12,137.74,020412,,,D*7B
$GPGGA,010715.000,3352.5634,N,09833.5677,W,2,09,1.0,308.5,M,-23.7,M,16.8,0000*72
$GPGSA,A,3,13,03,06,07,19,23,10,28,08,,,,1.9,1.0,1.6*36
$GPRMC,010715.000,A,3352.5634,N,09833.5677,W,0.15,143.01,020412,,,D*7C
$GPGGA,010716.000,3352.5634,N,09833.5677,W,2,09,1.0,308.5,M,-23.7,M,17.8,0000*70
$GPGSA,A,3,13,03,06,07,19,23,10,28,08,,,,1.9,1.0,1.6*36
$GPRMC,010716.000,A,3352.5634,N,09833.5677,W,0.11,109.84,020412,,,D*78
$GPGGA,010717.000,3352.5634,N,09833.5677,W,1,09,1.0,308.5,M,-23.7,M,18.8,0000*7D
$GPGSA,A,3,13,03,06,07,19,23,10,28,08,,,,1.9,1.0,1.6*36
$GPGSV,3,1,12,13,77,214,21,07,54,329,40,19,53,115,37,23,48,166,32*76
$GPGSV,3,2,12,03,41,059,38,06,29,050,34,08,22,301,29,10,18,267,36*7A
$GPGSV,3,3,12,16,16,049,,28,11,242,25,11,11,149,25,05,02,317,*77
$GPRMC,010717.000,A,3352.5634,N,09833.5677,W,0.14,137.44,020412,,,A*78
$GPGGA,010718.000,3352.5634,N,09833.5677,W,1,09,1.0,308.5,M,-23.7,M,18.8,0000*72
$GPGSA,A,3,13,03,06,07,19,23,10,28,08,,,,1.9,1.0,1.6*36
$GPRMC,010718.000,A,3352.5634,N,09833.5677,W,0.12,96.59,020412,,,A*47
$GPGGA,010719.000,3352.5634,N,09833.5677,W,1,09,1.0,308.4,M,-23.7,M,18.8,0000*72
$GPGSA,A,3,13,03,06,07,19,23,10,28,08,,,,1.9,1.0,1.6*36
$GPRMC,010719.000,A,3352.5634,N,09833.5677,W,0.11,98.35,020412,,,A*41
$GPGGA,010720.000,3352.5634,N,09833.5676,W,1,09,1.0,308.4,M,-23.7,M,18.8,0000*79
$GPGSA,A,3,13,03,06,07,19,23,10,28,08,,,,1.9,1.0,1.6*36
$GPRMC,010720.000,A,3352.5634,N,09833.5676,W,0.11,92.27,020412,,,A*43
$GPGGA,010721.000,3352.5634,N,09833.5676,W,1,09,1.0,308.3,M,-23.7,M,18.8,0000*7F
$GPGSA,A,3,13,03,06,07,19,23,10,28,08,,,,1.9,1.0,1.6*36
$GPRMC,010721.000,A,3352.5634,N,09833.5676,W,0.13,125.68,020412,,,A*76
$GPGGA,010722.000,3352.5634,N,09833.5676,W,1,09,1.0,308.3,M,-23.7,M,18.8,0000*7C
$GPGSA,A,3,13,03,06,07,19,23,10,28,08,,,,1.9,1.0,1.6*36
$GPGSV,3,1,12,13,77,214,21,07,54,329,40,19,53,115,36,23,48,166,33*76
$GPGSV,3,2,12,03,41,059,38,06,29,050,34,08,22,301,29,10,18,267,36*7A
$GPGSV,3,3,12,16,16,049,,28,11,242,26,11,11,149,25,05,02,317,*74
$GPRMC,010722.000,A,3352.5634,N,09833.5676,W,0.16,135.66,020412,,,A*7F
$GPGGA,010723.000,3352.5634,N,09833.5676,W,1,09,1.0,308.3,M,-23.7,M,18.8,0000*7D
$GPGSA,A,3,13,03,06,07,19,23,10,28,08,,,,1.9,1.0,1.6*36
$GPRMC,010723.000,A,3352.5634,N,09833.5676,W,0.12,103.73,020412,,,A*7B
$GPGGA,010724.000,3352.5634,N,09833.5675,W,1,09,1.0,308.2,M,-23.7,M,18.8,0000*78
$GPGSA,A,3,13,03,06,07,19,23,10,28,08,,,,1.9,1.0,1.6*36
$GPRMC,010724.000,A,3352.5634,N,09833.5675,W,0.11,97.30,020412,,,A*47
$GPGGA,010725.000,3352.5634,N,09833.5675,W,1,09,1.0,308.2,M,-23.7,M,18.8,0000*79
$GPGSA,A,3,13,03,06,07,19,23,10,28,08,,,,1.9,1.0,1.6*36
$GPRMC,010725.000,A,3352.5634,N,09833.5675,W,0.11,104.62,020412,,,A*7A
$GPGGA,010726.000,3352.5634,N,09833.5675,W,1,09,1.0,308.1,M,-23.7,M,18.8,0000*79
$GPGSA,A,3,13,03,06,07,19,23,10,28,08,,,,1.9,1.0,1.6*36
$GPRMC,010726.000,A,3352.5634,N,09833.5675,W,0.12,84.71,020412,,,A*41
$GPGGA,010727.000,3352.5634,N,09833.5675,W,1,09,1.0,308.1,M,-23.7,M,18.8,0000*78
$GPGSA,A,3,13,03,06,07,19,23,10,28,08,,,,1.9,1.0,1.6*36
$GPGSV,3,1,12,13,77,214,21,07,54,329,40,19,53,115,36,23,48,166,34*71
$GPGSV,3,2,12,03,41,059,38,06,29,050,34,08,22,301,29,10,18,267,36*7A
$GPGSV,3,3,12,16,16,049,,28,11,242,27,11,11,149,24,05,02,317,*74
$GPRMC,010727.000,A,3352.5634,N,09833.5675,W,0.14,127.06,020412,,,A*7E
$GPGGA,010728.000,3352.5634,N,09833.5675,W,1,09,1.0,308.1,M,-23.7,M,18.8,0000*77
$GPGSA,A,3,13,03,06,07,19,23,10,28,08,,,,1.9,1.0,1.6*36
$GPRMC,010728.000,A,3352.5634,N,09833.5675,W,0.14,129.38,020412,,,A*72
$GPGGA,010729.000,3352.5633,N,09833.5675,W,1,09,1.0,308.1,M,-23.7,M,18.8,0000*71
$GPGSA,A,3,13,03,06,07,19,23,10,28,08,,,,1.9,1.0,1.6*36
$GPRMC,010729.000,A,3352.5633,N,09833.5675,W,0.16,139.56,020412,,,A*7F
$GPGGA,010730.000,3352.5633,N,09833.5674,W,1,09,1.0,308.1,M,-23.7,M,18.8,0000*78
$GPGSA,A,3,13,03,06,07,19,23,10,28,08,,,,1.9,1.0,1.6*36
$GPRMC,010730.000,A,3352.5633,N,09833.5674,W,0.12,99.44,020412,,,A*4A
$GPGGA,010731.000,3352.5633,N,09833.5674,W,1,09,1.0,308.1,M,-23.7,M,18.8,0000*79
$GPGSA,A,3,13,03,06,07,19,23,10,28,08,,,,1.9,1.0,1.6*36
$GPRMC,010731.000,A,3352.5633,N,09833.5674,W,0.14,128.19,020412,,,A*7E
$GPGGA,010732.000,3352.5633,N,09833.5674,W,1,09,1.0,308.1,M,-23.7,M,18.8,0000*7A
$GPGSA,A,3,13,03,06,07,19,23,10,28,08,,,,1.9,1.0,1.6*36
$GPGSV,3,1,12,13,77,214,22,07,54,329,40,19,53,115,35,23,48,166,34*71
$GPGSV,3,2,12,03,41,059,38,06,29,050,33,08,22,301,30,10,18,267,36*75
$GPGSV,3,3,12,16,16,049,,28,11,242,27,11,11,149,24,05,02,317,*74
$GPRMC,010732.000,A,3352.5633,N,09833.5674,W,0.16,136.08,020412,,,A*70
$GPGGA,010733.000,3352.5633,N,09833.5674,W,1,09,1.0,308.2,M,-23.7,M,18.8,0000*78
$GPGSA,A,3,13,03,06,07,19,23,10,28,08,,,,1.9,1.0,1.6*36
$GPRMC,010733.000,A,3352.5633,N,09833.5674,W,0.11,108.14,020412,,,A*76
$GPGGA,010734.000,3352.5633,N,09833.5674,W,1,09,1.0,308.2,M,-23.7,M,18.8,0000*7F
$GPGSA,A,3,13,03,06,07,19,23,10,28,08,,,,1.9,1.0,1.6*36
$GPRMC,010734.000,A,3352.5633,N,09833.5674,W,0.12,96.83,020412,,,A*4A
$GPGGA,010735.000,3352.5633,N,09833.5674,W,1,09,1.0,308.1,M,-23.7,M,18.8,0000*7D
$GPGSA,A,3,13,03,06,07,19,23,10,28,08,,,,1.9,1.0,1.6*36
$GPRMC,010735.000,A,3352.5633,N,09833.5674,W,0.12,81.17,020412,,,A*40
$GPGGA,010736.000,3352.5633,N,09833.5674,W,1,09,1.0,308.1,M,-23.7,M,18.8,0000*7E
$GPGSA,A,3,13,03,06,07,19,23,10,28,08,,,,1.9,1.0,1.6*36
$GPRMC,010736.000,A,3352.5633,N,09833.5674,W,0.12,86.27,020412,,,A*47
$GPGGA,010737.000,3352.5634,N,09833.5674,W,1,09,1.0,308.1,M,-23.7,M,18.8,0000*78
$GPGSA,A,3,13,03,06,07,19,23,10,28,08,,,,1.9,1.0,1.6*36
$GPGSV,3,1,12,13,77,214,21,07,54,329,41,19,53,115,35,23,48,166,34*73
$GPGSV,3,2,12,03,41,059,39,06,29,050,33,08,22,301,30,10,18,267,36*74
$GPGSV,3,3,12,16,16,049,,28,11,242,27,11,11,149,24,05,02,317,*74
$GPRMC,010737.000,A,3352.5634,N,09833.5674,W,0.12,90.69,020412,,,A*4C
$GPGGA,010738.000,3352.5634,N,09833.5673,W,1,09,1.0,308.1,M,-23.7,M,18.8,0000*70
$GPGSA,A,3,13,03,06,07,19,23,10,28,08,,,,1.9,1.0,1.6*36
$GPRMC,010738.000,A,3352.5634,N,09833.5673,W,0.12,97.64,020412,,,A*4E
$GPGGA,010739.000,3352.5634,N,09833.5673,W,1,09,1.0,308.1,M,-23.7,M,18.8,0000*71
$GPGSA,A,3,13,03,06,07,19,23,10,28,08,,,,1.9,1.0,1.6*36
$GPRMC,010739.000,A,3352.5634,N,09833.5673,W,0.15,134.79,020412,,,A*7C
$GPGGA,010740.000,3352.5633,N,09833.5673,W,1,09,1.0,308.1,M,-23.7,M,18.8,0000*78
$GPGSA,A,3,13,03,06,07,19,23,10,28,08,,,,1.9,1.0,1.6*36
$GPRMC,010740.000,A,3352.5633,N,09833.5673,W,0.18,134.27,020412,,,A*73
$GPGGA,010741.000,3352.5633,N,09833.5673,W,1,09,1.0,308.1,M,-23.7,M,18.8,0000*79
$GPGSA,A,3,13,03,06,07,19,23,10,28,08,,,,1.9,1.0,1.6*36
$GPRMC,010741.000,A,3352.5633,N,09833.5673,W,0.17,140.37,020412,,,A*7F
$GPGGA,010742.000,3352.5633,N,09833.5673,W,1,09,1.0,308.2,M,-23.7,M,18.8,0000*79
$GPGSA,A,3,13,03,06,07,19,23,10,28,08,,,,1.9,1.0,1.6*36
$GPGSV,3,1,12,13,77,214,21,07,54,329,41,19,53,115,35,23,48,166,34*73
$GPGSV,3,2,12,03,41,059,39,06,29,050,33,08,22,301,31,10,18,267,36*75
$GPGSV,3,3,12,16,16,049,,28,11,242,26,11,11,149,23,05,02,317,*72
$GPRMC,010742.000,A,3352.5633,N,09833.5673,W,0.16,124.26,020412,,,A*7F
$GPGGA,010743.000,3352.5633,N,09833.5673,W,1,09,1.0,308.3,M,-23.7,M,18.8,0000*79
$GPGSA,A,3,13,03,06,07,19,23,10,28,08,,,,1.9,1.0,1.6*36
$GPRMC,010743.000,A,3352.5633,N,09833.5673,W,0.14,108.67,020412,,,A*77
$GPGGA,010744.000,3352.5633,N,09833.5673,W,1,09,1.0,308.4,M,-23.7,M,18.8,0000*79
$GPGSA,A,3,13,03,06,07,19,23,10,28,08,,,,1.9,1.0,1.6*36
$GPRMC,010744.000,A,3352.5633,N,09833.5673,W,0.15,118.16,020412,,,A*76
$GPGGA,010745.000,3352.5632,N,09833.5673,W,1,09,1.0,308.4,M,-23.7,M,18.8,0000*79
$GPGSA,A,3,13,03,06,07,19,23,10,28,08,,,,1.9,1.0,1.6*36
$GPRMC,010745.000,A,3352.5632,N,09833.5673,W,0.19,140.55,020412,,,A*70
$GPGGA,010746.000,3352.5632,N,09833.5673,W,1,09,1.0,308.5,M,-23.7,M,18.8,0000*7B
$GPGSA,A,3,13,03,06,07,19,23,10,28,08,,,,1.9,1.0,1.6*36
$GPRMC,010746.000,A,3352.5632,N,09833.5673,W,0.13,117.13,020412,,,A*79
$GPGGA,010747.000,3352.5632,N,09833.5673,W,1,09,1.0,308.6,M,-23.7,M,18.8,0000*79
$GPGSA,A,3,13,03,06,07,19,23,10,28,08,,,,1.9,1.0,1.6*36
$GPGSV,3,1,12,13,77,214,22,07,54,329,41,19,53,115,35,23,48,166,34*70
$GPGSV,3,2,12,03,41,059,39,06,29,050,33,08,22,301,31,10,18,267,36*75
$GPGSV,3,3,12,16,16,049,,28,11,242,26,11,11,149,22,05,02,317,*73
$GPRMC,010747.000,A,3352.5632,N,09833.5673,W,0.12,127.81,020412,,,A*71
$GPGGA,010748.000,3352.5632,N,09833.5673,W,1,09,1.0,308.6,M,-23.7,M,18.8,0000*76
$GPGSA,A,3,13,03,06,07,19,23,10,28,08,,,,1.9,1.0,1.6*36
$GPRMC,010748.000,A,3352.5632,N,09833.5673,W,0.12,99.39,020412,,,A*49
$GPGGA,010749.000,3352.5632,N,09833.5673,W,1,09,1.0,308.7,M,-23.7,M,18.8,0000*76
$GPGSA,A,3,13,03,06,07,19,23,10,28,08,,,,1.9,1.0,1.6*36
$GPRMC,010749.000,A,3352.5632,N,09833.5673,W,0.15,122.88,020412,,,A*74
$GPGGA,010750.000,3352.5632,N,09833.5673,W,1,09,1.0,308.7,M,-23.7,M,18.8,0000*7E
$GPGSA,A,3,13,03,06,07,19,23,10,28,08,,,,1.9,1.0,1.6*36
$GPRMC,010750.000,A,3352.5632,N,09833.5673,W,0.20,152.09,020412,,,A*74
$GPGGA,010751.000,3352.5631,N,09833.5673,W,1,10,1.0,308.8,M,-23.7,M,77.8,0000*72
$GPGSA,A,3,13,03,16,06,07,19,23,10,28,08,,,1.7,1.0,1.4*3D
$GPRMC,010751.000,A,3352.5631,N,09833.5673,W,0.21,154.86,020412,,,A*76
$GPGGA,010752.000,3352.5631,N,09833.5673,W,1,10,1.0,308.9,M,-23.7,M,77.8,0000*70
$GPGSA,A,3,13,03,16,06,07,19,23,10,28,08,,,1.7,1.0,1.4*3D
$GPGSV,3,1,12,13,77,214,22,07,54,329,41,19,53,115,34,23,48,166,34*71
$GPGSV,3,2,12,03,41,059,39,06,29,050,33,08,22,301,32,10,18,267,36*76
$GPGSV,3,3,12,16,16,049,16,28,11,242,25,11,11,149,21,05,02,317,*74
$GPRMC,010752.000,A,3352.5631,N,09833.5673,W,0.14,155.76,020412,,,A*7D
$GPGGA,010753.000,3352.5631,N,09833.5673,W,1,10,1.0,308.9,M,-23.7,M,77.8,0000*71
$GPGSA,A,3,13,03,16,06,07,19,23,10,28,08,,,1.7,1.0,1.4*3D
$GPRMC,010753.000,A,3352.5631,N,09833.5673,W,0.11,81.17,020412,,,A*46
$GPGGA,010754.000,3352.5631,N,09833.5673,W,1,10,1.0,309.0,M,-23.7,M,77.8,0000*7E
$GPGSA,A,3,13,03,16,06,07,19,23,10,28,08,,,1.7,1.0,1.4*3D
$GPRMC,010754.000,A,3352.5631,N,09833.5673,W,0.11,139.44,020412,,,A*75
$GPGGA,010755.000,3352.5631,N,09833.5673,W,1,10,1.0,309.0,M,-23.7,M,77.8,0000*7F
$GPGSA,A,3,13,03,16,06,07,19,23,10,28,08,,,1.7,1.0,1.4*3D
$GPRMC,010755.000,A,3352.5631,N,09833.5673,W,0.13,128.77,020412,,,A*76
$GPGGA,010756.000,3352.5631,N,09833.5673,W,1,10,1.0,309.1,M,-23.7,M,77.8,0000*7D
$GPGSA,A,3,13,03,16,06,07,19,23,10,28,08,,,1.7,1.0,1.4*3D
$GPRMC,010756.000,A,3352.5631,N,09833.5673,W,0.22,160.83,020412,,,A*70
$GPGGA,010757.000,3352.5630,N,09833.5673,W,1,10,1.0,309.2,M,-23.7,M,77.8,0000*7E
$GPGSA,A,3,13,03,16,06,07,19,23,10,28,08,,,1.7,1.0,1.4*3D
$GPGSV,3,1,12,13,77,214,22,07,54,329,41,19,53,115,34,23,48,166,34*71
$GPGSV,3,2,12,03,41,059,39,06,29,050,32,08,22,301,32,10,18,267,35*74
$GPGSV,3,3,12,16,16,049,15,28,11,242,20,11,11,149,20,05,02,317,*73
$GPRMC,010757.000,A,3352.5630,N,09833.5673,W,0.11,129.12,020412,,,A*75
$GPGGA,010758.000,3352.5630,N,09833.5673,W,1,09,1.1,309.3,M,-23.7,M,77.8,0000*79
$GPGSA,A,3,13,03,16,06,07,19,23,10,08,,,,2.0,1.1,1.7*31
$GPRMC,010758.000,A,3352.5630,N,09833.5673,W,0.20,161.32,020412,,,A*76
$GPGGA,010759.000,3352.5630,N,09833.5673,W,1,09,1.1,309.4,M,-23.7,M,77.8,0000*7F
$GPGSA,A,3,13,03,16,06,07,19,23,10,08,,,,2.0,1.1,1.7*31
$GPRMC,010759.000,A,3352.5630,N,09833.5673,W,0.21,151.22,020412,,,A*74
$GPGGA,010800.000,3352.5629,N,09833.5673,W,1,09,1.1,309.4,M,-23.7,M,77.8,0000*74
$GPGSA,A,3,13,03,16,06,07,19,23,10,08,,,,2.0,1.1,1.7*31
$GPRMC,010800.000,A,3352.5629,N,09833.5673,W,0.20,139.40,020412,,,A*74
$GPGGA,010801.000,3352.5629,N,09833.5673,W,1,09,1.1,309.5,M,-23.7,M,77.8,0000*74
$GPGSA,A,3,13,03,16,06,07,19,23,10,08,,,,2.0,1.1,1.7*31
$GPRMC,010801.000,A,3352.5629,N,09833.5673,W,0.18,94.35,020412,,,A*4A
$GPGGA,010802.000,3352.5629,N,09833.5672,W,1,09,1.1,309.5,M,-23.7,M,77.8,0000*76
$GPGSA,A,3,13,03,16,06,07,19,23,10,08,,,,2.0,1.1,1.7*31
$GPGSV,3,1,12,13,77,214,23,07,54,329,41,19,53,115,34,23,48,166,33*77
$GPGSV,3,2,12,03,41,059,39,06,29,050,32,08,22,301,33,10,18,267,35*75
$GPGSV,3,3,12,16,16,049,15,28,11,242,,11,11,149,19,05,02,317,*7B
$GPRMC,010802.000,A,3352.5629,N,09833.5672,W,0.17,95.39,020412,,,A*4A
$GPGGA,010803.000,3352.5629,N,09833.5672,W,1,09,1.1,309.5,M,-23.7,M,77.8,0000*77
$GPGSA,A,3,13,03,16,06,07,19,23,10,08,,,,2.0,1.1,1.7*31
$GPRMC,010803.000,A,3352.5629,N,09833.5672,W,0.13,92.76,020412,,,A*43
$GPGGA,010804.000,3352.5629,N,09833.5672,W,1,09,1.1,309.5,M,-23.7,M,77.8,0000*70
$GPGSA,A,3,13,03,16,06,07,19,23,10,08,,,,2.0,1.1,1.7*31
$GPRMC,010804.000,A,3352.5629,N,09833.5672,W,0.17,100.15,020412,,,A*7F
$GPGGA,010805.000,3352.5629,N,09833.5672,W,1,09,1.1,309.4,M,-23.7,M,77.8,0000*70
$GPGSA,A,3,13,03,16,06,07,19,23,10,08,,,,2.0,1.1,1.7*31
$GPRMC,010805.000,A,3352.5629,N,09833.5672,W,0.18,103.31,020412,,,A*74
$GPGGA,010806.000,3352.5630,N,09833.5672,W,1,10,1.0,309.4,M,-23.7,M,77.8,0000*72
$GPGSA,A,3,13,03,16,06,07,19,23,10,28,08,,,1.7,1.0,1.4*3D
$GPRMC,010806.000,A,3352.5630,N,09833.5672,W,0.19,90.01,020412,,,A*46
$GPGGA,010807.000,3352.5629,N,09833.5671,W,1,09,1.1,309.4,M,-23.7,M,77.8,0000*71
$GPGSA,A,3,13,03,16,06,07,19,23,10,08,,,,2.0,1.1,1.7*31
$GPGSV,3,1,12,13,77,214,24,07,54,329,41,19,53,115,34,23,48,166,33*70
$GPGSV,3,2,12,03,41,059,39,06,29,050,32,08,22,301,33,10,18,267,34*74
$GPGSV,3,3,12,16,16,049,15,28,11,242,20,11,11,149,17,05,02,317,*77
$GPRMC,010807.000,A,3352.5629,N,09833.5671,W,0.19,109.24,020412,,,A*7A
$GPGGA,010808.000,3352.5630,N,09833.5671,W,1,09,1.1,309.3,M,-23.7,M,77.8,0000*71
$GPGSA,A,3,13,03,16,06,07,19,23,10,08,,,,2.0,1.1,1.7*31
$GPRMC,010808.000,A,3352.5630,N,09833.5671,W,0.17,86.31,020412,,,A*41
$GPGGA,010809.000,3352.5630,N,09833.5671,W,1,09,1.1,309.2,M,-23.7,M,77.8,0000*71
$GPGSA,A,3,13,03,16,06,07,19,23,10,08,,,,2.0,1.1,1.7*31
$GPRMC,010809.000,A,3352.5630,N,09833.5671,W,0.18,111.32,020412,,,A*73
$GPGGA,010810.000,3352.5629,N,09833.5671,W,1,09,1.1,309.2,M,-23.7,M,77.8,0000*71
$GPGSA,A,3,13,03,16,06,07,19,23,10,08,,,,2.0,1.1,1.7*31
$GPRMC,010810.000,A,3352.5629,N,09833.5671,W,0.18,109.09,020412,,,A*72
$GPGGA,010811.000,3352.5629,N,09833.5671,W,1,09,1.1,309.1,M,-23.7,M,77.8,0000*73
$GPGSA,A,3,13,03,16,06,07,19,23,10,08,,,,2.0,1.1,1.7*31
$GPRMC,010811.000,A,3352.5629,N,09833.5671,W,0.17,103.28,020412,,,A*75
$GPGGA,010812.000,3352.5629,N,09833.5671,W,1,10,1.0,309.0,M,-23.7,M,77.8,0000*78
$GPGSA,A,3,13,03,16,06,07,19,23,10,28,08,,,1.7,1.0,1.4*3D
$GPGSV,3,1,12,13,77,214,25,07,54,329,41,19,53,115,34,23,48,166,33*71
$GPGSV,3,2,12,03,41,059,39,06,29,050,32,08,22,301,34,10,18,267,34*73
$GPGSV,3,3,12,16,16,049,15,28,11,242,23,11,11,149,16,05,02,317,*75
$GPRMC,010812.000,A,3352.5629,N,09833.5671,W,0.15,116.38,020412,,,A*71
$GPGGA,010813.000,3352.5629,N,09833.5670,W,1,10,1.0,308.9,M,-23.7,M,77.8,0000*70
$GPGSA,A,3,13,03,16,06,07,19,23,10,28,08,,,1.7,1.0,1.4*3D
$GPRMC,010813.000,A,3352.5629,N,09833.5670,W,0.16,110.50,020412,,,A*7A
$GPGGA,010814.000,3352.5630,N,09833.5670,W,1,10,1.0,308.8,M,-23.7,M,77.8,0000*7E
$GPGSA,A,3,13,03,16,06,07,19,23,10,28,08,,,1.7,1.0,1.4*3D
$GPRMC,010814.000,A,3352.5630,N,09833.5670,W,0.20,83.39,020412,,,A*44
$GPGGA,010815.000,3352.5629,N,09833.5670,W,1,10,1.0,308.7,M,-23.7,M,77.8,0000*78
$GPGSA,A,3,13,03,16,06,07,19,23,10,28,08,,,1.7,1.0,1.4*3D
$GPRMC,010815.000,A,3352.5629,N,09833.5670,W,0.17,126.79,020412,,,A*73
$GPGGA,010816.000,3352.5629,N,09833.5670,W,1,10,1.0,308.7,M,-23.7,M,77.8,0000*7B
$GPGSA,A,3,13,03,16,06,07,19,23,10,28,08,,,1.7,1.0,1.4*3D
$GPRMC,010816.000,A,3352.5629,N,09833.5670,W,0.11,107.08,020412,,,A*73
$GPGGA,010817.000,3352.5630,N,09833.5670,W,1,09,1.0,308.6,M,-23.7,M,77.8,0000*7B
$GPGSA,A,3,13,03,06,07,19,23,10,28,08,,,,2.0,1.0,1.7*3D
$GPGSV,3,1,12,13,76,210,26,07,54,331,41,19,54,113,34,23,47,166,33*70
$GPGSV,3,2,12,03,41,058,39,06,28,050,32,08,23,302,34,10,17,266,34*7F
$GPGSV,3,3,12,16,15,049,,28,12,243,23,11,11,148,16,05,02,316,*70
$GPRMC,010817.000,A,3352.5630,N,09833.5670,W,0.14,92.83,020412,,,A*41
$GPGGA,010818.000,3352.5630,N,09833.5670,W,1,09,1.0,308.6,M,-23.7,M,77.8,0000*74
$GPGSA,A,3,13,03,06,07,19,23,10,28,08,,,,2.0,1.0,1.7*3D
$GPRMC,010818.000,A,3352.5630,N,09833.5670,W,0.14,107.13,020412,,,A*7A
$GPGGA,010819.000,3352.5629,N,09833.5670,W,1,09,1.0,308.5,M,-23.7,M,77.8,0000*7E
$GPGSA,A,3,13,03,06,07,19,23,10,28,08,,,,2.0,1.0,1.7*3D
$GPRMC,010819.000,A,3352.5629,N,09833.5670,W,0.17,149.72,020412,,,A*7D
$GPGGA,010820.000,3352.5629,N,09833.5670,W,1,09,1.0,308.5,M,-23.7,M,77.8,0000*74
$GPGSA,A,3,13,03,06,07,19,23,10,28,08,,,,2.0,1.0,1.7*3D
$GPRMC,010820.000,A,3352.5629,N,09833.5670,W,0.20,162.79,020412,,,A*71
$GPGGA,010821.000,3352.5629,N,09833.5671,W,1,09,1.0,308.4,M,-23.7,M,77.8,0000*75
$GPGSA,A,3,13,03,06,07,19,23,10,28,08,,,,2.0,1.0,1.7*3D
$GPRMC,010821.000,A,3352.5629,N,09833.5671,W,0.19,157.36,020412,,,A*76
$GPGGA,010822.000,3352.5628,N,09833.5671,W,1,09,1.0,308.3,M,-23.7,M,77.8,0000*70
$GPGSA,A,3,13,03,06,07,19,23,10,28,08,,,,2.0,1.0,1.7*3D
$GPGSV,3,1,12,13,76,210,27,07,54,331,41,19,54,113,34,23,47,166,33*71
$GPGSV,3,2,12,03,41,058,39,06,28,050,32,08,23,302,34,10,17,266,34*7F
$GPGSV,3,3,12,16,15,049,,28,12,243,23,11,11,148,16,05,02,316,*70
$GPRMC,010822.000,A,3352.5628,N,09833.5671,W,0.22,163.23,020412,,,A*7F
$GPGGA,010823.000,3352.5628,N,09833.5671,W,1,09,1.0,308.3,M,-23.7,M,77.8,0000*71
$GPGSA,A,3,13,03,06,07,19,23,10,28,08,,,,2.0,1.0,1.7*3D
$GPRMC,010823.000,A,3352.5628,N,09833.5671,W,0.14,125.07,020412,,,A*7F
$GPGGA,010824.000,3352.5628,N,09833.5671,W,1,09,1.0,308.2,M,-23.7,M,77.8,0000*77
$GPGSA,A,3,13,03,06,07,19,23,10,28,08,,,,2.0,1.0,1.7*3D
$GPRMC,010824.000,A,3352.5628,N,09833.5671,W,0.17,149.11,020412,,,A*76
$GPGGA,010825.000,3352.5628,N,09833.5671,W,1,09,1.0,308.1,M,-23.7,M,77.8,0000*75
$GPGSA,A,3,13,03,06,07,19,23,10,28,08,,,,2.0,1.0,1.7*3D
$GPRMC,010825.000,A,3352.5628,N,09833.5671,W,0.14,116.13,020412,,,A*7C
$GPGGA,010826.000,3352.5629,N,09833.5671,W,1,09,1.0,308.0,M,-23.7,M,77.8,0000*76
$GPGSA,A,3,13,03,06,07,19,23,10,28,08,,,,2.0,1.0,1.7*3D
$GPRMC,010826.000,A,3352.5629,N,09833.5671,W,0.17,76.39,020412,,,A*42
$GPGGA,010827.000,3352.5629,N,09833.5671,W,1,09,1.0,307.9,M,-23.7,M,77.8,0000*71
$GPGSA,A,3,13,03,06,07,19,23,10,28,08,,,,2.0,1.0,1.7*3D
$GPGSV,3,1,12,13,76,210,28,07,54,331,41,19,54,113,33,23,47,166,34*7E
$GPGSV,3,2,12,03,41,058,39,06,28,050,32,08,23,302,34,10,17,266,33*78
$GPGSV,3,3,12,16,15,049,,28,12,243,23,11,11,148,15,05,02,316,*73
$GPRMC,010827.000,A,3352.5629,N,09833.5671,W,0.11,122.36,020412,,,A*7A
$GPGGA,010828.000,3352.5630,N,09833.5671,W,1,09,1.0,307.8,M,-23.7,M,77.8,0000*77
$GPGSA,A,3,13,03,06,07,19,23,10,28,08,,,,2.0,1.0,1.7*3D
$GPRMC,010828.000,A,3352.5630,N,09833.5671,W,0.15,78.15,020412,,,A*46
$GPGGA,010829.000,3352.5632,N,09833.5670,W,1,09,1.0,307.7,M,-23.7,M,77.8,0000*7A
$GPGSA,A,3,13,03,06,07,19,23,10,28,08,,,,2.0,1.0,1.7*3D
$GPRMC,010829.000,A,3352.5632,N,09833.5670,W,0.17,68.88,020412,,,A*43
$GPGGA,010830.000,3352.5633,N,09833.5670,W,1,09,1.0,307.5,M,-23.7,M,77.8,0000*71
$GPGSA,A,3,13,03,06,07,19,23,10,28,08,,,,2.0,1.0,1.7*3D
$GPRMC,010830.000,A,3352.5633,N,09833.5670,W,0.13,140.57,020412,,,A*77
$GPGGA,010831.000,3352.5635,N,09833.5670,W,1,09,1.0,307.4,M,-23.7,M,77.8,0000*77
$GPGSA,A,3,13,03,06,07,19,23,10,28,08,,,,2.0,1.0,1.7*3D
$GPRMC,010831.000,A,3352.5635,N,09833.5670,W,0.15,88.87,020412,,,A*4E
$GPGGA,010832.000,3352.5636,N,09833.5670,W,1,09,1.0,307.2,M,-23.7,M,77.8,0000*71
$GPGSA,A,3,13,03,06,07,19,23,10,28,08,,,,2.0,1.0,1.7*3D
$GPGSV,3,1,12,13,76,210,29,07,54,331,41,19,54,113,33,23,47,166,34*7F
$GPGSV,3,2,12,03,41,058,39,06,28,050,32,08,23,302,34,10,17,266,33*78
$GPGSV,3,3,12,16,15,049,,28,12,243,22,11,11,148,15,05,02,316,*72
$GPRMC,010832.000,A,3352.5636,N,09833.5670,W,0.16,72.93,020412,,,A*4D
$GPGGA,010833.000,3352.5638,N,09833.5670,W,1,09,1.0,307.1,M,-23.7,M,77.8,0000*7D
$GPGSA,A,3,13,03,06,07,19,23,10,28,08,,,,2.0,1.0,1.7*3D
$GPRMC,010833.000,A,3352.5638,N,09833.5670,W,0.17,73.91,020412,,,A*40
$GPGGA,010834.000,3352.5639,N,09833.5670,W,1,09,1.0,307.0,M,-23.7,M,77.8,0000*7A
$GPGSA,A,3,13,03,06,07,19,23,10,28,08,,,,2.0,1.0,1.7*3D
$GPRMC,010834.000,A,3352.5639,N,09833.5670,W,0.14,141.65,020412,,,A*7E
$GPGGA,010835.000,3352.5641,N,09833.5670,W,1,09,1.0,306.8,M,-23.7,M,77.8,0000*7D
$GPGSA,A,3,13,03,06,07,19,23,10,28,08,,,,2.0,1.0,1.7*3D
$GPRMC,010835.000,A,3352.5641,N,09833.5670,W,0.16,151.88,020412,,,A*70
$GPGGA,010836.000,3352.5642,N,09833.5670,W,1,09,1.0,306.7,M,-23.7,M,77.8,0000*72
$GPGSA,A,3,13,03,06,07,19,23,10,28,08,,,,2.0,1.0,1.7*3D
$GPRMC,010836.000,A,3352.5642,N,09833.5670,W,0.15,152.24,020412,,,A*76
$GPGGA,010837.000,3352.5643,N,09833.5669,W,1,09,1.0,306.5,M,-23.7,M,77.8,0000*78
$GPGSA,A,3,13,03,06,07,19,23,10,28,08,,,,2.0,1.0,1.7*3D
$GPGSV,3,1,12,13,76,210,29,07,54,331,41,19,54,113,32,23,47,166,34*7E
$GPGSV,3,2,12,03,41,058,39,06,28,050,33,08,23,302,35,10,17,266,33*78
$GPGSV,3,3,12,16,15,049,,28,12,243,21,11,11,148,14,05,02,316,*70
$GPRMC,010837.000,A,3352.5643,N,09833.5669,W,0.13,100.88,020412,,,A*79
$GPGGA,010838.000,3352.5645,N,09833.5669,W,1,09,1.0,306.4,M,-23.7,M,77.8,0000*70
$GPGSA,A,3,13,03,06,07,19,23,10,28,08,,,,2.0,1.0,1.7*3D
$GPRMC,010838.000,A,3352.5645,N,09833.5669,W,0.15,96.65,020412,,,A*4B
$GPGGA,010839.000,3352.5647,N,09833.5669,W,1,09,1.0,306.3,M,-23.7,M,77.8,0000*74
$GPGSA,A,3,13,03,06,07,19,23,10,28,08,,,,2.0,1.0,1.7*3D
$GPRMC,010839.000,A,3352.5647,N,09833.5669,W,0.16,81.15,020412,,,A*4A
$GPGGA,010840.000,3352.5648,N,09833.5669,W,1,08,1.1,306.2,M,-23.7,M,77.8,0000*74
$GPGSA,A,3,13,03,06,07,19,23,10,08,,,,,2.3,1.1,2.0*31
$GPRMC,010840.000,A,3352.5648,N,09833.5669,W,0.12,110.07,020412,,,A*75
$GPGGA,010841.000,3352.5667,N,09833.5672,W,2,08,1.1,306.2,M,-23.7,M,0.8,0000*41
$GPGSA,A,3,13,03,06,07,19,23,10,08,,,,,2.3,1.1,2.0*31
$GPRMC,010841.000,A,3352.5667,N,09833.5672,W,0.14,128.39,020412,,,D*76
$GPGGA,010842.000,3352.5668,N,09833.5672,W,2,08,1.1,306.1,M,-23.7,M,0.8,0000*4E
$GPGSA,A,3,13,03,06,07,19,23,10,08,,,,,2.3,1.1,2.0*31
$GPGSV,3,1,12,13,76,210,30,07,54,331,41,19,54,113,32,23,47,166,34*76
$GPGSV,3,2,12,03,41,058,39,06,28,050,33,08,23,302,35,10,17,266,33*78
$GPGSV,3,3,12,16,15,049,,28,12,243,,11,11,148,13,05,02,316,*74
$GPRMC,010842.000,A,3352.5668,N,09833.5672,W,0.13,122.80,020412,,,D*75
$GPGGA,010843.000,3352.5668,N,09833.5671,W,2,08,1.1,306.1,M,-23.7,M,0.8,0000*4C
$GPGSA,A,3,13,03,06,07,19,23,10,08,,,,,2.3,1.1,2.0*31
$GPRMC,010843.000,A,3352.5668,N,09833.5671,W,0.14,125.84,020412,,,D*73
$GPGGA,010844.000,3352.5669,N,09833.5671,W,2,08,1.1,306.0,M,-23.7,M,1.8,0000*4A
$GPGSA,A,3,13,03,06,07,19,23,10,08,,,,,2.3,1.1,2.0*31
$GPRMC,010844.000,A,3352.5669,N,09833.5671,W,0.12,116.31,020412,,,D*7D
$GPGGA,010845.000,3352.5670,N,09833.5671,W,2,08,1.1,306.0,M,-23.7,M,2.8,0000*40
$GPGSA,A,3,13,03,06,07,19,23,10,08,,,,,2.3,1.1,2.0*31
$GPRMC,010845.000,A,3352.5670,N,09833.5671,W,0.14,129.17,020412,,,D*7A
$GPGGA,010846.000,3352.5671,N,09833.5671,W,2,08,1.1,306.0,M,-23.7,M,0.8,0000*40
$GPGSA,A,3,13,03,06,07,19,23,10,08,,,,,2.3,1.1,2.0*31
$GPRMC,010846.000,A,3352.5671,N,09833.5671,W,0.14,122.48,020412,,,D*79
$GPGGA,010847.000,3352.5671,N,09833.5671,W,2,08,1.1,306.0,M,-23.7,M,0.8,0000*41
$GPGSA,A,3,13,03,06,07,19,23,10,08,,,,,2.3,1.1,2.0*31
$GPGSV,3,1,12,13,76,209,30,07,54,331,41,19,54,113,32,23,46,166,34*7F
$GPGSV,3,2,12,03,41,057,39,06,28,049,33,08,23,302,35,10,17,265,33*7C
$GPGSV,3,3,12,16,15,049,,28,12,243,,11,11,148,13,05,02,316,*74
$GPRMC,010847.000,A,3352.5671,N,09833.5671,W,0.12,133.77,020412,,,D*72
$GPGGA,010848.000,3352.5672,N,09833.5671,W,2,08,1.1,306.0,M,-23.7,M,1.8,0000*4C
$GPGSA,A,3,13,03,06,07,19,23,10,08,,,,,2.3,1.1,2.0*31
$GPRMC,010848.000,A,3352.5672,N,09833.5671,W,0.12,142.39,020412,,,D*72
$GPGGA,010849.000,3352.5672,N,09833.5671,W,2,08,1.1,305.9,M,-23.7,M,2.8,0000*44
$GPGSA,A,3,13,03,06,07,19,23,10,08,,,,,2.3,1.1,2.0*31
$GPRMC,010849.000,A,3352.5672,N,09833.5671,W,0.12,121.43,020412,,,D*7B
$GPGGA,010850.000,3352.5673,N,09833.5671,W,2,08,1.1,305.9,M,-23.7,M,0.8,0000*4F
$GPGSA,A,3,13,03,06,07,19,23,10,08,,,,,2.3,1.1,2.0*31
$GPRMC,010850.000,A,3352.5673,N,09833.5671,W,0.13,145.66,020412,,,D*76
$GPGGA,010851.000,3352.5673,N,09833.5671,W,2,08,1.1,305.9,M,-23.7,M,0.8,0000*4E
$GPGSA,A,3,13,03,06,07,19,23,10,08,,,,,2.3,1.1,2.0*31
$GPRMC,010851.000,A,3352.5673,N,09833.5671,W,0.12,132.04,020412,,,D*72
$GPGGA,010852.000,3352.5673,N,09833.5671,W,2,09,1.0,305.9,M,-23.7,M,0.8,0000*4D
$GPGSA,A,3,13,03,28,06,07,19,23,10,08,,,,2.0,1.0,1.7*3D
$GPGSV,3,1,12,13,76,209,30,07,54,331,41,19,54,113,32,23,46,166,35*7E
$GPGSV,3,2,12,03,41,057,39,06,28,049,33,08,23,302,34,10,17,265,33*7D
$GPGSV,3,3,12,16,15,049,,28,12,243,15,11,11,148,20,05,02,316,*70
$GPRMC,010852.000,A,3352.5673,N,09833.5671,W,0.12,103.18,020412,,,D*7E
$GPGGA,010853.000,3352.5674,N,09833.5671,W,2,09,1.0,305.9,M,-23.7,M,0.8,0000*4B
$GPGSA,A,3,13,03,28,06,07,19,23,10,08,,,,2.0,1.0,1.7*3D
$GPRMC,010853.000,A,3352.5674,N,09833.5671,W,0.20,108.18,020412,,,D*72
$GPGGA,010854.000,3352.5674,N,09833.5670,W,2,09,1.0,305.9,M,-23.7,M,1.8,0000*4C
$GPGSA,A,3,13,03,28,06,07,19,23,10,08,,,,2.0,1.0,1.7*3D
$GPRMC,010854.000,A,3352.5674,N,09833.5670,W,0.19,108.56,020412,,,D*74
$GPGGA,010855.000,3352.5674,N,09833.5670,W,2,09,1.0,305.9,M,-23.7,M,2.8,0000*4E
$GPGSA,A,3,13,03,28,06,07,19,23,10,08,,,,2.0,1.0,1.7*3D
$GPRMC,010855.000,A,3352.5674,N,09833.5670,W,0.21,105.64,020412,,,D*72
$GPGGA,010856.000,3352.5675,N,09833.5669,W,2,09,1.0,305.9,M,-23.7,M,3.8,0000*45
$GPGSA,A,3,13,03,28,06,07,19,23,10,08,,,,2.0,1.0,1.7*3D
$GPRMC,010856.000,A,3352.5675,N,09833.5669,W,0.20,106.17,020412,,,D*7E
$GPGGA,010857.000,3352.5675,N,09833.5669,W,2,08,1.1,305.8,M,-23.7,M,0.8,0000*46
$GPGSA,A,3,13,03,06,07,19,23,10,08,,,,,2.3,1.1,1.9*3B
$GPGSV,3,1,12,13,76,209,31,07,54,331,41,19,54,113,31,23,46,166,35*7C
$GPGSV,3,2,12,03,41,057,40,06,28,049,33,08,23,302,34,10,17,265,33*73
$GPGSV,3,3,12,16,15,049,,28,12,243,,11,11,148,20,05,02,316,*74
$GPRMC,010857.000,A,3352.5675,N,09833.5669,W,0.21,130.21,020412,,,D*7E
$GPGGA,010858.000,3352.5675,N,09833.5669,W,2,08,1.1,305.8,M,-23.7,M,0.8,0000*49
$GPGSA,A,3,13,03,06,07,19,23,10,08,,,,,2.3,1.1,1.9*3B
$GPRMC,010858.000,A,3352.5675,N,09833.5669,W,0.20,128.83,020412,,,D*71
$GPGGA,010859.000,3352.5675,N,09833.5669,W,2,08,1.1,305.7,M,-23.7,M,0.8,0000*47
$GPGSA,A,3,13,03,06,07,19,23,10,08,,,,,2.3,1.1,1.9*3B
$GPRMC,010859.000,A,3352.5675,N,09833.5669,W,0.10,136.86,020412,,,D*79
$GPGGA,010900.000,3352.5675,N,09833.5669,W,2,08,1.1,305.7,M,-23.7,M,1.8,0000*4B
$GPGSA,A,3,13,03,06,07,19,23,10,08,,,,,2.3,1.1,1.9*3B
$GPRMC,010900.000,A,3352.5675,N,09833.5669,W,0.08,139.32,020412,,,D*7D
$GPGGA,010901.000,3352.5675,N,09833.5669,W,2,08,1.1,305.7,M,-23.7,M,2.8,0000*49
$GPGSA,A,3,13,03,06,07,19,23,10,08,,,,,2.3,1.1,1.9*3B
$GPRMC,010901.000,A,3352.5675,N,09833.5669,W,0.09,138.69,020412,,,D*72
$GPGGA,010902.000,3352.5675,N,09833.5669,W,2,08,1.1,305.7,M,-23.7,M,3.8,0000*4B
$GPGSA,A,3,13,03,06,07,19,23,10,08,,,,,2.3,1.1,1.9*3B
$GPGSV,3,1,12,13,76,209,31,07,54,331,41,19,54,113,31,23,46,166,35*7C
$GPGSV,3,2,12,03,41,057,40,06,28,049,33,08,23,302,34,10,17,265,33*73
$GPGSV,3,3,12,16,15,049,,28,12,243,,11,11,148,21,05,02,316,*75
$GPRMC,010902.000,A,3352.5675,N,09833.5669,W,0.10,140.18,020412,,,D*70
$GPGGA,010903.000,3352.5676,N,09833.5669,W,2,08,1.1,305.7,M,-23.7,M,4.8,0000*4E
$GPGSA,A,3,13,03,06,07,19,23,10,08,,,,,2.3,1.1,1.9*3B
$GPRMC,010903.000,A,3352.5676,N,09833.5669,W,0.09,132.83,020412,,,D*7D
$GPGGA,010904.000,3352.5676,N,09833.5669,W,2,08,1.1,305.7,M,-23.7,M,0.8,0000*4D
$GPGSA,A,3,13,03,06,07,19,23,10,08,,,,,2.3,1.1,1.9*3B
$GPRMC,010904.000,A,3352.5676,N,09833.5669,W,0.09,133.72,020412,,,D*75
$GPGGA,010905.000,3352.5676,N,09833.5670,W,2,08,1.1,305.8,M,-23.7,M,1.8,0000*4A
$GPGSA,A,3,13,03,06,07,19,23,10,08,,,,,2.3,1.1,1.9*3B
$GPRMC,010905.000,A,3352.5676,N,09833.5670,W,0.11,149.95,020412,,,D*71
$GPGGA,010906.000,3352.5676,N,09833.5670,W,2,08,1.1,305.8,M,-23.7,M,2.8,0000*4A
$GPGSA,A,3,13,03,06,07,19,23,10,08,,,,,2.3,1.1,1.9*3B
$GPRMC,010906.000,A,3352.5676,N,09833.5670,W,0.10,132.05,020412,,,D*76
$GPGGA,010907.000,3352.5676,N,09833.5670,W,2,08,1.1,305.8,M,-23.7,M,0.8,0000*49
$GPGSA,A,3,13,03,06,07,19,23,10,08,,,,,2.3,1.1,1.9*3B
$GPGSV,3,1,12,13,76,209,32,07,54,331,41,19,54,113,31,23,46,166,35*7F
$GPGSV,3,2,12,03,41,057,40,06,28,049,32,08,23,302,34,10,17,265,34*75
$GPGSV,3,3,12,16,15,049,,28,12,243,,11,11,148,21,05,02,316,*75
$GPRMC,010907.000,A,3352.5676,N,09833.5670,W,0.11,141.57,020412,,,D*75
$GPGGA,010908.000,3352.5676,N,09833.5670,W,2,08,1.1,305.9,M,-23.7,M,1.8,0000*46
$GPGSA,A,3,13,03,06,07,19,23,10,08,,,,,2.3,1.1,1.9*3B
$GPRMC,010908.000,A,3352.5676,N,09833.5670,W,0.09,140.59,020412,,,D*7C
$GPGGA,010909.000,3352.5676,N,09833.5670,W,2,08,1.1,305.9,M,-23.7,M,0.8,0000*46
$GPGSA,A,3,13,03,06,07,19,23,10,08,,,,,2.3,1.1,1.9*3B
$GPRMC,010909.000,A,3352.5676,N,09833.5670,W,0.10,137.27,020412,,,D*7C
$GPGGA,010910.000,3352.5676,N,09833.5671,W,2,08,1.1,305.7,M,-23.7,M,0.8,0000*41
$GPGSA,A,3,13,03,06,07,19,23,10,08,,,,,2.3,1.1,1.9*3B
$GPRMC,010910.000,A,3352.5676,N,09833.5671,W,0.08,134.57,020412,,,D*78
$GPGGA,010911.000,3352.5675,N,09833.5671,W,2,08,1.1,305.4,M,-23.7,M,0.8,0000*40
$GPGSA,A,3,13,03,06,07,19,23,10,08,,,,,2.3,1.1,1.9*3B
$GPRMC,010911.000,A,3352.5675,N,09833.5671,W,0.15,131.19,020412,,,D*79
$GPGGA,010912.000,3352.5675,N,09833.5672,W,2,08,1.1,305.2,M,-23.7,M,1.8,0000*47
$GPGSA,A,3,13,03,06,07,19,23,10,08,,,,,2.3,1.1,1.9*3B
$GPGSV,3,1,12,13,76,209,33,07,54,331,41,19,54,113,31,23,46,166,35*7E
$GPGSV,3,2,12,03,41,057,40,06,28,049,32,08,23,302,34,10,17,265,34*75
$GPGSV,3,3,12,16,15,049,,28,12,243,,11,11,148,22,05,02,316,*76
$GPRMC,010912.000,A,3352.5675,N,09833.5672,W,0.12,124.88,020412,,,D*72
$GPGGA,010913.000,3352.5675,N,09833.5672,W,2,08,1.1,304.9,M,-23.7,M,2.8,0000*4F
$GPGSA,A,3,13,03,06,07,19,23,10,08,,,,,2.3,1.1,1.9*3B
$GPRMC,010913.000,A,3352.5675,N,09833.5672,W,0.14,131.76,020412,,,D*70
$GPGGA,010914.000,3352.5675,N,09833.5672,W,2,08,1.1,304.7,M,-23.7,M,3.8,0000*47
$GPGSA,A,3,13,03,06,07,19,23,10,08,,,,,2.3,1.1,1.9*3B
$GPRMC,010914.000,A,3352.5675,N,09833.5672,W,0.15,126.28,020412,,,D*7B
$GPGGA,010915.000,3352.5675,N,09833.5673,W,2,08,1.1,304.5,M,-23.7,M,0.8,0000*46
$GPGSA,A,3,13,03,06,07,19,23,10,08,,,,,2.3,1.1,1.9*3B
$GPRMC,010915.000,A,3352.5675,N,09833.5673,W,0.13,118.68,020412,,,D*74
$GPGGA,010916.000,3352.5675,N,09833.5673,W,2,08,1.1,304.2,M,-23.7,M,0.8,0000*42
$GPGSA,A,3,13,03,06,07,19,23,10,08,,,,,2.3,1.1,1.9*3B
$GPRMC,010916.000,A,3352.5675,N,09833.5673,W,0.13,122.73,020412,,,D*74
$GPGGA,010917.000,3352.5675,N,09833.5673,W,2,08,1.1,304.0,M,-23.7,M,0.8,0000*41
$GPGSA,A,3,13,03,06,07,19,23,10,08,,,,,2.2,1.1,1.9*3A
$GPGSV,3,1,12,13,76,209,33,07,55,331,41,19,54,112,31,23,46,166,35*7E
$GPGSV,3,2,12,03,40,057,40,06,28,049,32,08,23,302,33,10,17,265,34*73
$GPGSV,3,3,12,16,15,050,,28,12,243,,11,12,148,23,05,02,316,*7C
$GPRMC,010917.000,A,3352.5675,N,09833.5673,W,0.15,118.85,020412,,,D*73
$GPGGA,010918.000,3352.5675,N,09833.5673,W,2,08,1.1,303.8,M,-23.7,M,1.8,0000*40
$GPGSA,A,3,13,03,06,07,19,23,10,08,,,,,2.2,1.1,1.9*3A
$GPRMC,010918.000,A,3352.5675,N,09833.5673,W,0.15,111.90,020412,,,D*71
$GPGGA,010919.000,3352.5675,N,09833.5673,W,2,08,1.1,303.6,M,-23.7,M,2.8,0000*4C
$GPGSA,A,3,13,03,06,07,19,23,10,08,,,,,2.2,1.1,1.9*3A
$GPRMC,010919.000,A,3352.5675,N,09833.5673,W,0.16,115.17,020412,,,D*78
$GPGGA,010920.000,3352.5675,N,09833.5673,W,2,08,1.1,303.4,M,-23.7,M,3.8,0000*45
$GPGSA,A,3,13,03,06,07,19,23,10,08,,,,,2.2,1.1,1.9*3A
$GPRMC,010920.000,A,3352.5675,N,09833.5673,W,0.16,117.31,020412,,,D*74
$GPGGA,010921.000,3352.5675,N,09833.5673,W,2,08,1.1,303.2,M,-23.7,M,0.8,0000*41
$GPGSA,A,3,13,03,06,07,19,23,10,08,,,,,2.2,1.1,1.9*3A
$GPRMC,010921.000,A,3352.5675,N,09833.5673,W,0.17,128.20,020412,,,D*78
$GPGGA,010922.000,3352.5674,N,09833.5673,W,2,08,1.1,303.1,M,-23.7,M,0.8,0000*40
$GPGSA,A,3,13,03,06,07,19,23,10,08,,,,,2.2,1.1,1.9*3A
$GPGSV,3,1,12,13,76,209,33,07,55,331,42,19,54,112,31,23,46,166,36*7E
$GPGSV,3,2,12,03,40,057,40,06,28,049,32,08,23,302,33,10,17,265,35*72
$GPGSV,3,3,12,16,15,050,,28,12,243,,11,12,148,24,05,02,316,*7B
$GPRMC,010922.000,A,3352.5674,N,09833.5673,W,0.16,126.11,020412,,,D*77
$GPGGA,010923.000,3352.5674,N,09833.5673,W,2,08,1.1,302.8,M,-23.7,M,0.8,0000*49
$GPGSA,A,3,13,03,06,07,19,23,10,08,,,,,2.2,1.1,1.9*3A
$GPRMC,010923.000,A,3352.5674,N,09833.5673,W,0.15,142.20,020412,,,D*75
$GPGGA,010924.000,3352.5674,N,09833.5674,W,2,08,1.1,302.6,M,-23.7,M,0.8,0000*47
$GPGSA,A,3,13,03,06,07,19,23,10,08,,,,,2.2,1.1,1.9*3A
$GPRMC,010924.000,A,3352.5674,N,09833.5674,W,0.14,145.68,020412,,,D*7F
$GPGGA,010925.000,3352.5674,N,09833.5674,W,2,09,1.0,302.4,M,-23.7,M,1.8,0000*45
$GPGSA,A,3,13,03,28,06,07,19,23,10,08,,,,2.0,1.0,1.7*3D
$GPRMC,010925.000,A,3352.5674,N,09833.5674,W,0.18,161.26,020412,,,D*7E
$GPGGA,010926.000,3352.5673,N,09833.5674,W,2,09,1.0,302.2,M,-23.7,M,2.8,0000*44
$GPGSA,A,3,13,03,28,06,07,19,23,10,08,,,,2.0,1.0,1.7*3D
$GPRMC,010926.000,A,3352.5673,N,09833.5674,W,0.13,128.61,020412,,,D*7F
$GPGGA,010927.000,3352.5673,N,09833.5674,W,2,09,1.0,302.1,M,-23.7,M,0.8,0000*44
$GPGSA,A,3,13,03,28,06,07,19,23,10,08,,,,2.0,1.0,1.7*3D
$GPGSV,3,1,12,13,76,209,34,07,55,331,42,19,54,112,31,23,46,166,35*7A
$GPGSV,3,2,12,03,40,057,40,06,28,049,32,08,23,302,33,10,17,265,35*72
$GPGSV,3,3,12,16,15,050,,28,12,243,22,11,12,148,25,05,02,316,*7A
$GPRMC,010927.000,A,3352.5673,N,09833.5674,W,0.12,122.05,020412,,,D*77
$GPGGA,010928.000,3352.5673,N,09833.5674,W,2,09,1.0,301.8,M,-23.7,M,0.8,0000*41
$GPGSA,A,3,13,03,28,06,07,19,23,10,08,,,,2.0,1.0,1.7*3D
$GPRMC,010928.000,A,3352.5673,N,09833.5674,W,0.13,162.56,020412,,,D*7B
$GPGGA,010929.000,3352.5673,N,09833.5675,W,2,09,1.0,301.6,M,-23.7,M,0.8,0000*4F
$GPGSA,A,3,13,03,28,06,07,19,23,10,08,,,,2.0,1.0,1.7*3D
$GPRMC,010929.000,A,3352.5673,N,09833.5675,W,0.15,140.93,020412,,,D*74
$GPGGA,010930.000,3352.5673,N,09833.5675,W,2,08,1.1,301.4,M,-23.7,M,0.8,0000*45
$GPGSA,A,3,13,03,06,07,19,23,10,08,,,,,2.2,1.1,1.9*3A
$GPRMC,010930.000,A,3352.5673,N,09833.5675,W,0.15,113.28,020412,,,D*7A
$GPGGA,010931.000,3352.5673,N,09833.5675,W,2,08,1.1,301.3,M,-23.7,M,0.8,0000*43
$GPGSA,A,3,13,03,06,07,19,23,10,08,,,,,2.2,1.1,1.9*3A
$GPRMC,010931.000,A,3352.5673,N,09833.5675,W,0.13,102.93,020412,,,D*7D
$GPGGA,010932.000,3352.5673,N,09833.5674,W,2,08,1.1,301.2,M,-23.7,M,1.8,0000*41
$GPGSA,A,3,13,03,06,07,19,23,10,08,,,,,2.2,1.1,1.9*3A
$GPGSV,3,1,12,13,76,209,34,07,55,331,42,19,54,112,30,23,46,166,35*7B
$GPGSV,3,2,12,03,40,057,40,06,28,049,32,08,23,302,32,10,17,265,36*70
$GPGSV,3,3,12,16,15,050,,28,12,243,,11,12,148,25,05,02,316,*7A
$GPRMC,010932.000,A,3352.5673,N,09833.5674,W,0.16,118.59,020412,,,D*77
$GPGGA,010933.000,3352.5673,N,09833.5674,W,2,08,1.1,301.0,M,-23.7,M,0.8,0000*43
$GPGSA,A,3,13,03,06,07,19,23,10,08,,,,,2.2,1.1,1.9*3A
$GPRMC,010933.000,A,3352.5673,N,09833.5674,W,0.16,121.10,020412,,,D*71
$GPGGA,010934.000,3352.5673,N,09833.5674,W,2,08,1.1,300.9,M,-23.7,M,0.8,0000*4C
$GPGSA,A,3,13,03,06,07,19,23,10,08,,,,,2.2,1.1,1.9*3A
$GPRMC,010934.000,A,3352.5673,N,09833.5674,W,0.16,127.51,020412,,,D*75
$GPGGA,010935.000,3352.5673,N,09833.5674,W,2,08,1.1,300.8,M,-23.7,M,0.8,0000*4C
$GPGSA,A,3,13,03,06,07,19,23,10,08,,,,,2.2,1.1,1.9*3A
$GPRMC,010935.000,A,3352.5673,N,09833.5674,W,0.16,148.81,020412,,,D*70
$GPGGA,010936.000,3352.5672,N,09833.5674,W,2,08,1.1,300.7,M,-23.7,M,0.8,0000*41
$GPGSA,A,3,13,03,06,07,19,23,10,08,,,,,2.2,1.1,1.9*3A
$GPRMC,010936.000,A,3352.5672,N,09833.5674,W,0.16,148.58,020412,,,D*76
$GPGGA,010937.000,3352.5672,N,09833.5674,W,2,09,1.1,300.7,M,-23.7,M,1.8,0000*40
$GPGSA,A,3,13,03,06,07,19,23,10,16,08,,,,2.0,1.1,1.7*31
$GPGSV,3,1,12,13,76,209,34,07,55,331,42,19,54,112,29,23,46,166,35*73
$GPGSV,3,2,12,03,40,057,39,06,28,049,32,08,23,302,31,10,17,265,36*7D
$GPGSV,3,3,12,16,15,050,13,28,12,243,,11,12,148,26,05,02,316,*7B
$GPRMC,010937.000,A,3352.5672,N,09833.5674,W,0.14,155.11,020412,,,D*74
$GPGGA,010938.000,3352.5671,N,09833.5674,W,2,09,1.1,300.6,M,-23.7,M,0.8,0000*4C
$GPGSA,A,3,13,03,06,07,19,23,10,16,08,,,,2.0,1.1,1.7*31
$GPRMC,010938.000,A,3352.5671,N,09833.5674,W,0.16,166.66,020412,,,D*7A
$GPGGA,010939.000,3352.5671,N,09833.5675,W,2,09,1.1,300.6,M,-23.7,M,0.8,0000*4C
$GPGSA,A,3,13,03,06,07,19,23,10,16,08,,,,2.0,1.1,1.7*31
$GPRMC,010939.000,A,3352.5671,N,09833.5675,W,0.14,164.32,020412,,,D*7B
$GPGGA,010940.000,3352.5671,N,09833.5675,W,2,09,1.1,300.6,M,-23.7,M,0.8,0000*42
$GPGSA,A,3,13,03,06,07,19,23,10,16,08,,,,2.0,1.1,1.7*31
$GPRMC,010940.000,A,3352.5671,N,09833.5675,W,0.13,173.01,020412,,,D*74
$GPGGA,010941.000,3352.5670,N,09833.5675,W,2,10,1.0,300.5,M,-23.7,M,0.8,0000*48
$GPGSA,A,3,13,03,28,06,07,19,23,10,16,08,,,1.7,1.0,1.4*3D
$GPRMC,010941.000,A,3352.5670,N,09833.5675,W,0.21,178.99,020412,,,D*7F
$GPGGA,010942.000,3352.5670,N,09833.5675,W,2,10,1.0,300.3,M,-23.7,M,1.8,0000*4C
$GPGSA,A,3,13,03,28,06,07,19,23,10,16,08,,,1.7,1.0,1.4*3D
$GPGSV,3,1,12,13,76,209,34,07,55,331,42,19,54,112,25,23,46,166,34*7E
$GPGSV,3,2,12,03,40,057,39,06,28,049,31,08,23,302,31,10,17,265,36*7E
$GPGSV,3,3,12,16,15,050,13,28,12,243,24,11,12,148,26,05,02,316,*7D
$GPRMC,010942.000,A,3352.5670,N,09833.5675,W,0.20,149.86,020412,,,D*71
$GPGGA,010943.000,3352.5670,N,09833.5675,W,2,10,1.0,300.2,M,-23.7,M,2.8,0000*4F
$GPGSA,A,3,13,03,28,06,07,19,23,10,16,08,,,1.7,1.0,1.4*3D
$GPRMC,010943.000,A,3352.5670,N,09833.5675,W,0.17,114.02,020412,,,D*70
$GPGGA,010944.000,3352.5670,N,09833.5675,W,2,10,1.0,300.1,M,-23.7,M,0.8,0000*49
$GPGSA,A,3,13,03,28,06,07,19,23,10,16,08,,,1.7,1.0,1.4*3D
$GPRMC,010944.000,A,3352.5670,N,09833.5675,W,0.16,93.10,020412,,,D*4B
$GPGGA,010945.000,3352.5670,N,09833.5674,W,2,10,1.0,299.9,M,-23.7,M,0.8,0000*40
$GPGSA,A,3,13,03,28,06,07,19,23,10,16,08,,,1.7,1.0,1.4*3D
$GPRMC,010945.000,A,3352.5670,N,09833.5674,W,0.17,127.35,020412,,,D*73
$GPGGA,010946.000,3352.5669,N,09833.5674,W,2,10,1.0,300.0,M,-23.7,M,0.8,0000*43
$GPGSA,A,3,13,03,28,06,07,19,23,10,16,08,,,1.7,1.0,1.4*3D
$GPRMC,010946.000,A,3352.5669,N,09833.5674,W,0.17,106.50,020412,,,D*78
$GPGGA,010947.000,3352.5669,N,09833.5674,W,2,10,1.0,300.1,M,-23.7,M,0.8,0000*43
$GPGSA,A,3,13,03,28,06,07,19,23,10,16,08,,,1.7,1.0,1.4*3D
$GPGSV,3,1,12,13,76,209,34,07,55,331,42,19,54,112,25,23,46,166,34*7E
$GPGSV,3,2,12,03,40,057,39,06,28,049,31,08,23,302,31,10,17,265,36*7E
$GPGSV,3,3,12,16,15,050,12,28,12,243,24,11,12,148,26,05,02,316,*7C
$GPRMC,010947.000,A,3352.5669,N,09833.5674,W,0.22,114.68,020412,,,D*77
$GPGGA,010948.000,3352.5668,N,09833.5674,W,2,09,1.0,300.2,M,-23.7,M,1.8,0000*47
$GPGSA,A,3,13,03,28,06,07,19,23,10,08,,,,2.0,1.0,1.7*3D
$GPRMC,010948.000,A,3352.5668,N,09833.5674,W,0.17,119.49,020412,,,D*71
$GPGGA,010949.000,3352.5668,N,09833.5673,W,2,09,1.0,300.2,M,-23.7,M,0.8,0000*40
$GPGSA,A,3,13,03,28,06,07,19,23,10,08,,,,2.0,1.0,1.7*3D
$GPRMC,010949.000,A,3352.5668,N,09833.5673,W,0.18,121.96,020412,,,D*71
$GPGGA,010950.000,3352.5668,N,09833.5673,W,2,09,1.0,300.3,M,-23.7,M,1.8,0000*48
$GPGSA,A,3,13,03,28,06,07,19,23,10,08,,,,2.0,1.0,1.7*3D
$GPRMC,010950.000,A,3352.5668,N,09833.5673,W,0.19,130.13,020412,,,D*75
$GPGGA,010951.000,3352.5667,N,09833.5673,W,2,09,1.0,300.3,M,-23.7,M,0.8,0000*47
$GPGSA,A,3,13,03,28,06,07,19,23,10,08,,,,2.0,1.0,1.7*3D
$GPRMC,010951.000,A,3352.5667,N,09833.5673,W,0.15,115.67,020412,,,D*73
$GPGGA,010952.000,3352.5667,N,09833.5673,W,2,09,1.0,300.4,M,-23.7,M,0.8,0000*43
$GPGSA,A,3,13,03,28,06,07,19,23,10,08,,,,2.0,1.0,1.7*3D
$GPGSV,3,1,12,13,76,209,35,07,55,331,42,19,54,112,25,23,46,166,35*7E
$GPGSV,3,2,12,03,40,057,39,06,28,049,31,08,23,302,31,10,17,265,37*7F
$GPGSV,3,3,12,16,15,050,,28,12,243,25,11,12,148,25,05,02,316,*7D
$GPRMC,010952.000,A,3352.5667,N,09833.5673,W,0.18,140.69,020412,,,D*73
$GPGGA,010953.000,3352.5666,N,09833.5673,W,2,09,1.0,300.4,M,-23.7,M,0.8,0000*43
$GPGSA,A,3,13,03,28,06,07,19,23,10,08,,,,2.0,1.0,1.7*3D
$GPRMC,010953.000,A,3352.5666,N,09833.5673,W,0.23,163.39,020412,,,D*7F
$GPGGA,010954.000,3352.5666,N,09833.5673,W,2,09,1.0,300.3,M,-23.7,M,1.8,0000*42
$GPGSA,A,3,13,03,28,06,07,19,23,10,08,,,,2.0,1.0,1.7*3D
$GPRMC,010954.000,A,3352.5666,N,09833.5673,W,0.15,140.99,020412,,,D*76
$GPGGA,010955.000,3352.5666,N,09833.5673,W,2,09,1.0,300.2,M,-23.7,M,0.8,0000*43
$GPGSA,A,3,13,03,28,06,07,19,23,10,08,,,,2.0,1.0,1.7*3D
$GPRMC,010955.000,A,3352.5666,N,09833.5673,W,0.17,137.17,020412,,,D*73
$GPGGA,010956.000,3352.5666,N,09833.5672,W,2,09,1.0,300.2,M,-23.7,M,1.8,0000*40
$GPGSA,A,3,13,03,28,06,07,19,23,10,08,,,,2.0,1.0,1.7*3D
$GPRMC,010956.000,A,3352.5666,N,09833.5672,W,0.16,135.70,020412,,,D*73
$GPGGA,010957.000,3352.5665,N,09833.5672,W,2,09,1.0,300.1,M,-23.7,M,0.8,0000*40
$GPGSA,A,3,13,03,28,06,07,19,23,10,08,,,,2.0,1.0,1.7*3D
$GPGSV,3,1,12,13,76,209,35,07,55,331,42,19,54,112,24,23,46,166,35*7F
$GPGSV,3,2,12,03,40,057,39,06,28,049,31,08,23,302,31,10,17,265,37*7F
$GPGSV,3,3,12,16,15,050,,28,12,243,25,11,12,148,25,05,02,316,*7D
$GPRMC,010957.000,A,3352.5665,N,09833.5672,W,0.25,140.81,020412,,,D*7D
$GPGGA,010958.000,3352.5665,N,09833.5672,W,2,09,1.0,300.1,M,-23.7,M,0.8,0000*4F
$GPGSA,A,3,13,03,28,06,07,19,23,10,08,,,,2.0,1.0,1.7*3D
$GPRMC,010958.000,A,3352.5665,N,09833.5672,W,0.19,136.43,020412,,,D*72
$GPGGA,010959.000,3352.5665,N,09833.5672,W,2,09,1.0,300.1,M,-23.7,M,0.8,0000*4E
$GPGSA,A,3,13,03,28,06,07,19,23,10,08,,,,2.0,1.0,1.7*3D
$GPRMC,010959.000,A,3352.5665,N,09833.5672,W,0.14,120.24,020412,,,D*78
$GPGGA,011000.000,3352.5665,N,09833.5671,W,2,09,1.0,300.1,M,-23.7,M,1.8,0000*48
$GPGSA,A,3,13,03,28,06,07,19,23,10,08,,,,2.0,1.0,1.7*3D
$GPRMC,011000.000,A,3352.5665,N,09833.5671,W,0.15,121.66,020412,,,D*79
$GPGGA,011001.000,3352.5665,N,09833.5671,W,2,09,1.0,300.1,M,-23.7,M,0.8,0000*48
$GPGSA,A,3,13,03,28,06,07,19,23,10,08,,,,2.0,1.0,1.7*3D
$GPRMC,011001.000,A,3352.5665,N,09833.5671,W,0.11,102.70,020412,,,D*7A
$GPGGA,011002.000,3352.5664,N,09833.5671,W,2,09,1.0,300.3,M,-23.7,M,1.8,0000*49
$GPGSA,A,3,13,03,28,06,07,19,23,10,08,,,,2.0,1.0,1.7*3D
$GPGSV,3,1,12,13,76,209,35,07,55,331,42,19,54,112,24,23,46,166,36*7C
$GPGSV,3,2,12,03,40,057,40,06,28,049,31,08,23,302,31,10,17,265,37*71
$GPGSV,3,3,12,16,15,050,,28,12,243,25,11,12,148,19,05,02,316,*72
$GPRMC,011002.000,A,3352.5664,N,09833.5671,W,0.20,109.45,020412,,,D*77
$GPGGA,011003.000,3352.5664,N,09833.5671,W,2,09,1.0,300.4,M,-23.7,M,0.8,0000*4E
$GPGSA,A,3,13,03,28,06,07,19,23,10,08,,,,2.0,1.0,1.7*3D
$GPRMC,011003.000,A,3352.5664,N,09833.5671,W,0.12,111.50,020412,,,D*7A
$GPGGA,011004.000,3352.5664,N,09833.5671,W,2,09,1.0,300.5,M,-23.7,M,0.8,0000*48
$GPGSA,A,3,13,03,28,06,07,19,23,10,08,,,,2.0,1.0,1.7*3D
$GPRMC,011004.000,A,3352.5664,N,09833.5671,W,0.20,150.33,020412,,,D*7C
$GPGGA,011005.000,3352.5664,N,09833.5671,W,2,09,1.0,300.7,M,-23.7,M,0.8,0000*4B
$GPGSA,A,3,13,03,28,06,07,19,23,10,08,,,,2.0,1.0,1.7*3D
$GPRMC,011005.000,A,3352.5664,N,09833.5671,W,0.20,145.68,020412,,,D*77
$GPGGA,011006.000,3352.5664,N,09833.5671,W,2,09,1.0,300.8,M,-23.7,M,1.8,0000*46
$GPGSA,A,3,13,03,28,06,07,19,23,10,08,,,,2.0,1.0,1.7*3D
$GPRMC,011006.000,A,3352.5664,N,09833.5671,W,0.20,159.95,020412,,,D*7B
$GPGGA,011007.000,3352.5663,N,09833.5671,W,2,09,1.0,300.8,M,-23.7,M,2.8,0000*43
$GPGSA,A,3,13,03,28,06,07,19,23,10,08,,,,2.0,1.0,1.7*3D
$GPGSV,3,1,12,13,76,209,35,07,55,331,42,19,54,112,23,23,46,166,36*7B
$GPGSV,3,2,12,03,40,057,40,06,28,049,31,08,23,302,31,10,17,265,37*71
$GPGSV,3,3,12,16,15,050,,28,12,243,25,11,12,148,19,05,02,316,*72
$GPRMC,011007.000,A,3352.5663,N,09833.5671,W,0.12,173.74,020412,,,D*7B
$GPGGA,011008.000,3352.5663,N,09833.5671,W,2,09,1.0,300.9,M,-23.7,M,0.8,0000*4F
$GPGSA,A,3,13,03,28,06,07,19,23,10,08,,,,2.0,1.0,1.7*3D
$GPRMC,011008.000,A,3352.5663,N,09833.5671,W,0.21,140.89,020412,,,D*76
$GPGGA,011009.000,3352.5663,N,09833.5671,W,2,09,1.0,301.1,M,-23.7,M,0.8,0000*47
$GPGSA,A,3,13,03,28,06,07,19,23,10,08,,,,2.0,1.0,1.7*3D
$GPRMC,011009.000,A,3352.5663,N,09833.5671,W,0.22,131.11,020412,,,D*73
$GPGGA,011010.000,3352.5663,N,09833.5671,W,2,09,1.0,301.2,M,-23.7,M,0.8,0000*4C
$GPGSA,A,3,13,03,28,06,07,19,23,10,08,,,,2.0,1.0,1.7*3D
$GPRMC,011010.000,A,3352.5663,N,09833.5671,W,0.11,154.76,020412,,,D*79
$GPGGA,011011.000,3352.5662,N,09833.5671,W,2,09,1.0,301.3,M,-23.7,M,0.8,0000*4D
$GPGSA,A,3,13,03,28,06,07,19,23,10,08,,,,2.0,1.0,1.7*3D
$GPRMC,011011.000,A,3352.5662,N,09833.5671,W,0.25,147.87,020412,,,D*72
$GPGGA,011012.000,3352.5662,N,09833.5670,W,2,09,1.0,301.4,M,-23.7,M,1.8,0000*49
$GPGSA,A,3,13,03,28,06,07,19,23,10,08,,,,2.0,1.0,1.7*3D
$GPGSV,3,1,12,13,76,209,35,07,55,331,42,19,54,112,23,23,46,166,36*7B
$GPGSV,3,2,12,03,40,057,40,06,28,049,32,08,23,302,31,10,17,265,37*72
$GPGSV,3,3,12,16,15,050,,28,12,243,25,11,12,148,18,05,02,316,*73
$GPRMC,011012.000,A,3352.5662,N,09833.5670,W,0.20,124.04,020412,,,D*7B
$GPGGA,011013.000,3352.5662,N,09833.5670,W,2,09,1.0,301.4,M,-23.7,M,2.8,0000*4B
$GPGSA,A,3,13,03,28,06,07,19,23,10,08,,,,2.0,1.0,1.7*3D
$GPRMC,011013.000,A,3352.5662,N,09833.5670,W,0.22,150.17,020412,,,D*79
$GPGGA,011014.000,3352.5662,N,09833.5670,W,2,09,1.0,301.4,M,-23.7,M,3.8,0000*4D
$GPGSA,A,3,13,03,28,06,07,19,23,10,08,,,,2.0,1.0,1.7*3D
$GPRMC,011014.000,A,3352.5662,N,09833.5670,W,0.18,127.47,020412,,,D*72
$GPGGA,011015.000,3352.5661,N,09833.5670,W,2,09,1.0,301.5,M,-23.7,M,0.8,0000*4D
$GPGSA,A,3,13,03,28,06,07,19,23,10,08,,,,2.0,1.0,1.7*3D
$GPRMC,011015.000,A,3352.5661,N,09833.5670,W,0.20,125.22,020412,,,D*7A
$GPGGA,011016.000,3352.5661,N,09833.5669,W,2,09,1.0,301.6,M,-23.7,M,0.8,0000*45
$GPGSA,A,3,13,03,28,06,07,19,23,10,08,,,,2.0,1.0,1.7*3D
$GPRMC,011016.000,A,3352.5661,N,09833.5669,W,0.23,130.32,020412,,,D*77
$GPGGA,011017.000,3352.5661,N,09833.5669,W,2,09,1.0,301.7,M,-23.7,M,0.8,0000*45
$GPGSA,A,3,13,03,28,06,07,19,23,10,08,,,,2.0,1.0,1.7*3D
$GPGSV,3,1,12,13,76,209,35,07,55,331,42,19,54,112,23,23,46,166,36*7B
$GPGSV,3,2,12,03,40,057,40,06,28,049,32,08,23,302,31,10,17,265,37*72
$GPGSV,3,3,12,16,15,050,,28,12,243,25,11,12,148,17,05,02,316,*7C
$GPRMC,011017.000,A,3352.5661,N,09833.5669,W,0.14,143.26,020412,,,D*73
$GPGGA,011018.000,3352.5661,N,09833.5669,W,2,09,1.0,301.9,M,-23.7,M,1.8,0000*45
$GPGSA,A,3,13,03,28,06,07,19,23,10,08,,,,2.0,1.0,1.7*3D
$GPRMC,011018.000,A,3352.5661,N,09833.5669,W,0.15,140.02,020412,,,D*78
$GPGGA,011019.000,3352.5661,N,09833.5669,W,2,09,1.0,302.0,M,-23.7,M,2.8,0000*4D
$GPGSA,A,3,13,03,28,06,07,19,23,10,08,,,,2.0,1.0,1.7*3D
$GPRMC,011019.000,A,3352.5661,N,09833.5669,W,0.11,137.50,020412,,,D*7A
$GPGGA,011020.000,3352.5661,N,09833.5670,W,2,09,1.0,302.2,M,-23.7,M,3.8,0000*4C
$GPGSA,A,3,13,03,28,06,07,19,23,10,08,,,,2.0,1.0,1.7*3D
$GPRMC,011020.000,A,3352.5661,N,09833.5670,W,0.06,105.14,020412,,,D*7F
$GPGGA,011021.000,3352.5661,N,09833.5670,W,2,09,1.0,302.3,M,-23.7,M,0.8,0000*4F
$GPGSA,A,3,13,03,28,06,07,19,23,10,08,,,,2.0,1.0,1.7*3D
$GPRMC,011021.000,A,3352.5661,N,09833.5670,W,0.10,136.96,020412,,,D*73
$GPGGA,011022.000,3352.5661,N,09833.5670,W,2,09,1.0,302.5,M,-23.7,M,0.8,0000*4A
$GPGSA,A,3,13,03,28,06,07,19,23,10,08,,,,2.0,1.0,1.7*3D
$GPGSV,3,1,12,13,76,209,35,07,55,331,42,19,54,112,20,23,46,166,37*79
$GPGSV,3,2,12,03,40,057,40,06,28,049,32,08,23,302,32,10,17,265,37*71
$GPGSV,3,3,12,16,15,050,,28,12,243,26,11,12,148,18,05,02,316,*70
$GPRMC,011022.000,A,3352.5661,N,09833.5670,W,0.10,135.24,020412,,,D*7A
$GPGGA,011023.000,3352.5661,N,09833.5670,W,2,09,1.0,302.6,M,-23.7,M,0.8,0000*48
$GPGSA,A,3,13,03,28,06,07,19,23,10,08,,,,2.0,1.0,1.7*3D
$GPRMC,011023.000,A,3352.5661,N,09833.5670,W,0.28,136.03,020412,,,D*76
$GPGGA,011024.000,3352.5661,N,09833.5669,W,2,09,1.0,302.6,M,-23.7,M,1.8,0000*46
$GPGSA,A,3,13,03,28,06,07,19,23,10,08,,,,2.0,1.0,1.7*3D
$GPRMC,011024.000,A,3352.5661,N,09833.5669,W,0.29,136.11,020412,,,D*7B
$GPGGA,011025.000,3352.5660,N,09833.5669,W,2,09,1.0,302.6,M,-23.7,M,2.8,0000*45
$GPGSA,A,3,13,03,28,06,07,19,23,10,08,,,,2.0,1.0,1.7*3D
$GPRMC,011025.000,A,3352.5660,N,09833.5669,W,0.22,124.30,020412,,,D*70
$GPGGA,011026.000,3352.5660,N,09833.5669,W,2,09,1.0,302.6,M,-23.7,M,3.8,0000*47
$GPGSA,A,3,13,03,28,06,07,19,23,10,08,,,,2.0,1.0,1.7*3D
$GPRMC,011026.000,A,3352.5660,N,09833.5669,W,0.20,124.10,020412,,,D*73
$GPGGA,011027.000,3352.5660,N,09833.5668,W,2,09,1.0,302.6,M,-23.7,M,0.8,0000*44
$GPGSA,A,3,13,03,28,06,07,19,23,10,08,,,,2.0,1.0,1.7*3D
$GPGSV,3,1,12,13,76,209,36,07,55,331,42,19,54,112,19,23,46,166,37*70
$GPGSV,3,2,12,03,40,057,40,06,28,049,32,08,23,302,32,10,17,265,37*71
$GPGSV,3,3,12,16,15,050,,28,12,243,27,11,12,148,19,05,02,316,*70
$GPRMC,011027.000,A,3352.5660,N,09833.5668,W,0.18,109.44,020412,,,D*76
$GPGGA,011028.000,3352.5660,N,09833.5668,W,2,09,1.0,302.6,M,-23.7,M,0.8,0000*4B
$GPGSA,A,3,13,03,28,06,07,19,23,10,08,,,,2.0,1.0,1.7*3D
$GPRMC,011028.000,A,3352.5660,N,09833.5668,W,0.19,115.60,020412,,,D*73
$GPGGA,011029.000,3352.5660,N,09833.5668,W,2,09,1.0,302.7,M,-23.7,M,0.8,0000*4B
$GPGSA,A,3,13,03,28,06,07,19,23,10,08,,,,2.0,1.0,1.7*3D
$GPRMC,011029.000,A,3352.5660,N,09833.5668,W,0.06,117.43,020412,,,D*7F
$GPGGA,011030.000,3352.5660,N,09833.5668,W,2,09,1.0,302.9,M,-23.7,M,1.8,0000*4C
$GPGSA,A,3,13,03,28,06,07,19,23,10,08,,,,2.0,1.0,1.7*3D
$GPRMC,011030.000,A,3352.5660,N,09833.5668,W,0.13,130.89,020412,,,D*70
$GPGGA,011031.000,3352.5660,N,09833.5668,W,2,09,1.0,303.0,M,-23.7,M,0.8,0000*44
$GPGSA,A,3,13,03,28,06,07,19,23,10,08,,,,2.0,1.0,1.7*3D
$GPRMC,011031.000,A,3352.5660,N,09833.5668,W,0.12,136.34,020412,,,D*70
$GPGGA,011032.000,3352.5661,N,09833.5668,W,2,09,1.0,303.1,M,-23.7,M,1.8,0000*46
$GPGSA,A,3,13,03,28,06,07,19,23,10,08,,,,2.0,1.0,1.7*3D
$GPGSV,3,1,12,13,76,209,36,07,55,331,42,19,54,112,20,23,46,166,37*7A
$GPGSV,3,2,12,03,40,057,40,06,28,049,32,08,23,302,32,10,17,265,37*71
$GPGSV,3,3,12,16,15,050,,28,12,243,27,11,12,148,20,05,02,316,*7A
$GPRMC,011032.000,A,3352.5661,N,09833.5668,W,0.05,104.18,020412,,,D*7B
$GPGGA,011033.000,3352.5660,N,09833.5668,W,2,09,1.0,303.3,M,-23.7,M,0.8,0000*45
