$GPGGA,010829.000,3353.7599,N,09832.0241,W,2,08,1.4,336.7,M,-23.7,M,0.8,0000*4D
$GPGSA,A,3,03,16,06,07,23,19,11,13,,,,,2.3,1.4,1.8*31
$GPGSV,3,1,12,13,78,219,37,07,53,328,30,19,53,117,34,23,49,166,36*76
$GPGSV,3,2,12,03,42,060,26,06,30,051,32,08,22,300,,10,18,268,*73
$GPGSV,3,3,12,16,17,048,28,28,10,241,17,11,10,150,26,05,01,318,*78
$GPRMC,010829.000,A,3353.7599,N,09832.0241,W,0.28,111.91,010412,,,D*7D
$GPGGA,010830.000,3353.7599,N,09832.0240,W,2,08,1.4,336.8,M,-23.7,M,1.8,0000*4A
$GPGSA,A,3,03,16,06,07,23,19,11,13,,,,,2.3,1.4,1.8*31
$GPRMC,010830.000,A,3353.7599,N,09832.0240,W,0.22,99.05,010412,,,D*42
$GPGGA,010831.000,3353.7599,N,09832.0240,W,2,08,1.4,336.9,M,-23.7,M,2.8,0000*49
$GPGSA,A,3,03,16,06,07,23,19,11,13,,,,,2.3,1.4,1.8*31
$GPRMC,010831.000,A,3353.7599,N,09832.0240,W,0.20,93.68,010412,,,D*40
$GPGGA,010832.000,3353.7599,N,09832.0240,W,2,08,1.4,336.9,M,-23.7,M,3.8,0000*4B
$GPGSA,A,3,03,16,06,07,23,19,11,13,,,,,2.3,1.4,1.8*31
$GPRMC,010832.000,A,3353.7599,N,09832.0240,W,0.14,94.93,010412,,,D*47
$GPGGA,010833.000,3353.7599,N,09832.0240,W,2,08,1.4,336.9,M,-23.7,M,0.8,0000*49
$GPGSA,A,3,03,16,06,07,23,19,11,13,,,,,2.3,1.4,1.8*31
$GPRMC,010833.000,A,3353.7599,N,09832.0240,W,0.16,78.80,010412,,,D*44
$GPGGA,010834.000,3353.7599,N,09832.0240,W,2,08,1.4,336.9,M,-23.7,M,0.8,0000*4E
$GPGSA,A,3,03,16,06,07,23,19,11,13,,,,,2.3,1.4,1.8*31
$GPGSV,3,1,12,13,78,219,38,07,53,328,31,19,53,117,36,23,49,166,37*7B
$GPGSV,3,2,12,03,42,060,28,06,30,051,33,08,22,300,,10,18,268,*7C
$GPGSV,3,3,12,16,17,048,29,28,10,241,18,11,10,150,26,05,01,318,*76
$GPRMC,010834.000,A,3353.7599,N,09832.0240,W,0.11,58.13,010412,,,D*4C
$GPGGA,010835.000,3353.7600,N,09832.0240,W,2,08,1.4,337.0,M,-23.7,M,0.8,0000*44
$GPGSA,A,3,03,16,06,07,23,19,11,13,,,,,2.3,1.4,1.8*31
$GPRMC,010835.000,A,3353.7600,N,09832.0240,W,0.16,81.01,010412,,,D*4E
$GPGGA,010836.000,3353.7600,N,09832.0240,W,2,08,1.4,337.0,M,-23.7,M,0.8,0000*47
$GPGSA,A,3,03,16,06,07,23,19,11,13,,,,,2.3,1.4,1.8*31
$GPRMC,010836.000,A,3353.7600,N,09832.0240,W,0.15,64.15,010412,,,D*40
$GPGGA,010837.000,3353.7600,N,09832.0240,W,2,08,1.4,337.0,M,-23.7,M,0.8,0000*46
$GPGSA,A,3,03,16,06,07,23,19,11,13,,,,,2.3,1.4,1.8*31
$GPRMC,010837.000,A,3353.7600,N,09832.0240,W,0.19,81.75,010412,,,D*40
$GPGGA,010838.000,3353.7600,N,09832.0239,W,2,08,1.4,337.0,M,-23.7,M,1.8,0000*46
$GPGSA,A,3,03,16,06,07,23,19,11,13,,,,,2.3,1.4,1.8*31
$GPRMC,010838.000,A,3353.7600,N,09832.0239,W,0.16,72.82,010412,,,D*4A
$GPGGA,010839.000,3353.7600,N,09832.0239,W,2,08,1.4,337.1,M,-23.7,M,0.8,0000*47
$GPGSA,A,3,03,16,06,07,23,19,11,13,,,,,2.3,1.4,1.8*31
$GPGSV,3,1,12,13,78,219,38,07,53,328,32,19,53,117,36,23,49,166,37*78
$GPGSV,3,2,12,03,42,060,29,06,30,051,34,08,22,300,,10,18,268,*7A
$GPGSV,3,3,12,16,17,048,29,28,10,241,19,11,10,150,26,05,01,318,*77
$GPRMC,010839.000,A,3353.7600,N,09832.0239,W,0.17,87.41,010412,,,D*4F
$GPGGA,010840.000,3353.7600,N,09832.0238,W,2,08,1.4,337.1,M,-23.7,M,0.8,0000*48
$GPGSA,A,3,03,16,06,07,23,19,11,13,,,,,2.3,1.4,1.8*31
$GPRMC,010840.000,A,3353.7600,N,09832.0238,W,0.19,87.37,010412,,,D*4F
$GPGGA,010841.000,3353.7600,N,09832.0238,W,2,08,1.4,337.1,M,-23.7,M,0.8,0000*49
$GPGSA,A,3,03,16,06,07,23,19,11,13,,,,,2.3,1.4,1.8*31
$GPRMC,010841.000,A,3353.7600,N,09832.0238,W,0.12,103.87,010412,,,D*73
$GPGGA,010842.000,3353.7600,N,09832.0238,W,2,08,1.4,337.2,M,-23.7,M,0.8,0000*49
$GPGSA,A,3,03,16,06,07,23,19,11,13,,,,,2.3,1.4,1.8*31
$GPRMC,010842.000,A,3353.7600,N,09832.0238,W,0.07,92.75,010412,,,D*40
$GPGGA,010843.000,3353.7600,N,09832.0238,W,2,08,1.4,337.2,M,-23.7,M,1.8,0000*49
$GPGSA,A,3,03,16,06,07,23,19,11,13,,,,,2.3,1.4,1.8*31
$GPRMC,010843.000,A,3353.7600,N,09832.0238,W,0.09,101.80,010412,,,D*7E
$GPGGA,010844.000,3353.7600,N,09832.0238,W,2,08,1.4,337.3,M,-23.7,M,0.8,0000*4E
$GPGSA,A,3,03,16,06,07,23,19,11,13,,,,,2.3,1.4,1.8*31
$GPGSV,3,1,12,13,78,219,39,07,53,328,32,19,53,117,36,23,49,166,37*79
$GPGSV,3,2,12,03,42,060,30,06,30,051,34,08,22,300,,10,18,268,*72
$GPGSV,3,3,12,16,17,048,30,28,10,241,18,11,10,150,25,05,01,318,*7D
$GPRMC,010844.000,A,3353.7600,N,09832.0238,W,0.08,100.44,010412,,,D*71
$GPGGA,010845.000,3353.7600,N,09832.0238,W,2,08,1.5,337.4,M,-23.7,M,0.8,0000*49
$GPGSA,A,3,03,16,06,07,23,19,11,13,,,,,2.3,1.5,1.8*30
$GPRMC,010845.000,A,3353.7600,N,09832.0238,W,0.03,75.24,010412,,,D*4E
$GPGGA,010846.000,3353.7600,N,09832.0238,W,2,08,1.5,337.5,M,-23.7,M,0.8,0000*4B
$GPGSA,A,3,03,16,06,07,23,19,11,13,,,,,2.3,1.5,1.8*30
$GPRMC,010846.000,A,3353.7600,N,09832.0238,W,0.11,347.53,010412,,,D*7C
$GPGGA,010847.000,3353.7600,N,09832.0238,W,2,08,1.5,337.5,M,-23.7,M,0.8,0000*4A
$GPGSA,A,3,03,16,06,07,23,19,11,13,,,,,2.3,1.5,1.8*30
$GPRMC,010847.000,A,3353.7600,N,09832.0238,W,0.14,85.18,010412,,,D*4A
$GPGGA,010848.000,3353.7600,N,09832.0238,W,2,08,1.5,337.6,M,-23.7,M,1.8,0000*47
$GPGSA,A,3,03,16,06,07,23,19,11,13,,,,,2.3,1.5,1.8*30
$GPRMC,010848.000,A,3353.7600,N,09832.0238,W,0.14,80.91,010412,,,D*41
$GPGGA,010849.000,3353.7601,N,09832.0237,W,2,08,1.5,337.6,M,-23.7,M,2.8,0000*4B
$GPGSA,A,3,03,16,06,07,23,19,11,13,,,,,2.3,1.5,1.8*30
$GPGSV,3,1,12,13,78,219,39,07,53,328,32,19,53,117,36,23,49,166,37*79
$GPGSV,3,2,12,03,42,060,31,06,30,051,34,08,22,300,,10,18,268,*73
$GPGSV,3,3,12,16,17,048,31,28,10,241,17,11,10,150,25,05,01,318,*73
$GPRMC,010849.000,A,3353.7601,N,09832.0237,W,0.14,83.28,010412,,,D*4F
$GPGGA,010850.000,3353.7601,N,09832.0237,W,2,08,1.5,337.6,M,-23.7,M,3.8,0000*42
$GPGSA,A,3,03,16,06,07,23,19,11,13,,,,,2.3,1.5,1.8*30
$GPRMC,010850.000,A,3353.7601,N,09832.0237,W,0.15,86.92,010412,,,D*42
$GPGGA,010851.000,3353.7600,N,09832.0236,W,2,08,1.5,337.6,M,-23.7,M,0.8,0000*40
$GPGSA,A,3,03,16,06,07,23,19,11,13,,,,,2.3,1.5,1.8*30
$GPRMC,010851.000,A,3353.7600,N,09832.0236,W,0.20,98.24,010412,,,D*47
$GPGGA,010852.000,3353.7600,N,09832.0236,W,2,08,1.5,337.6,M,-23.7,M,0.8,0000*43
$GPGSA,A,3,03,16,06,07,23,19,11,13,,,,,2.3,1.5,1.8*30
$GPRMC,010852.000,A,3353.7600,N,09832.0236,W,0.19,107.32,010412,,,D*7E
$GPGGA,010853.000,3353.7600,N,09832.0235,W,2,08,1.5,337.7,M,-23.7,M,0.8,0000*40
$GPGSA,A,3,03,16,06,07,23,19,11,13,,,,,2.3,1.5,1.8*30
$GPRMC,010853.000,A,3353.7600,N,09832.0235,W,0.05,99.21,010412,,,D*45
$GPGGA,010854.000,3353.7600,N,09832.0235,W,2,08,1.5,337.9,M,-23.7,M,1.8,0000*48
$GPGSA,A,3,03,16,06,07,23,19,11,13,,,,,2.3,1.5,1.8*30
$GPGSV,3,1,12,13,78,219,39,07,53,328,32,19,53,117,36,23,49,166,36*78
$GPGSV,3,2,12,03,42,060,31,06,30,051,34,08,22,300,,10,18,268,*73
$GPGSV,3,3,12,16,17,048,31,28,10,241,17,11,10,150,24,05,01,318,*72
$GPRMC,010854.000,A,3353.7600,N,09832.0235,W,0.09,53.23,010412,,,D*4A
$GPGGA,010855.000,3353.7600,N,09832.0235,W,2,08,1.5,338.0,M,-23.7,M,2.8,0000*4C
$GPGSA,A,3,03,16,06,07,23,19,11,13,,,,,2.3,1.5,1.8*30
$GPRMC,010855.000,A,3353.7600,N,09832.0235,W,0.08,43.56,010412,,,D*49
$GPGGA,010856.000,3353.7600,N,09832.0235,W,2,08,1.5,338.1,M,-23.7,M,3.8,0000*4F
$GPGSA,A,3,03,16,06,07,23,19,11,13,,,,,2.3,1.5,1.8*30
$GPRMC,010856.000,A,3353.7600,N,09832.0235,W,0.08,96.89,010412,,,D*40
$GPGGA,010857.000,3353.7600,N,09832.0235,W,2,08,1.5,338.2,M,-23.7,M,0.8,0000*4E
$GPGSA,A,3,03,16,06,07,23,19,11,13,,,,,2.3,1.5,1.8*30
$GPRMC,010857.000,A,3353.7600,N,09832.0235,W,0.09,45.68,010412,,,D*41
$GPGGA,010858.000,3353.7600,N,09832.0235,W,2,08,1.5,338.4,M,-23.7,M,0.8,0000*47
$GPGSA,A,3,03,16,06,07,23,19,11,13,,,,,2.3,1.5,1.8*30
$GPRMC,010858.000,A,3353.7600,N,09832.0235,W,0.09,20.43,010412,,,D*44
$GPGGA,010859.000,3353.7600,N,09832.0235,W,2,08,1.5,338.4,M,-23.7,M,0.8,0000*46
$GPGSA,A,3,03,16,06,07,23,19,11,13,,,,,2.3,1.5,1.8*30
$GPGSV,3,1,12,13,78,219,39,07,53,328,32,19,53,117,36,23,49,166,36*78
$GPGSV,3,2,12,03,42,060,31,06,30,051,33,08,22,300,,10,18,268,*74
$GPGSV,3,3,12,16,17,048,31,28,10,241,16,11,10,150,24,05,01,318,*73
$GPRMC,010859.000,A,3353.7600,N,09832.0235,W,0.12,90.00,010412,,,D*43
$GPGGA,010900.000,3353.7600,N,09832.0235,W,2,08,1.5,338.5,M,-23.7,M,0.8,0000*4A
$GPGSA,A,3,03,16,06,07,23,19,11,13,,,,,2.3,1.5,1.8*30
$GPRMC,010900.000,A,3353.7600,N,09832.0235,W,0.15,109.37,010412,,,D*7C
$GPGGA,010901.000,3353.7600,N,09832.0234,W,2,08,1.5,338.4,M,-23.7,M,0.8,0000*4B
$GPGSA,A,3,03,16,06,07,23,19,11,13,,,,,2.3,1.5,1.8*30
$GPRMC,010901.000,A,3353.7600,N,09832.0234,W,0.16,117.26,010412,,,D*70
$GPGGA,010902.000,3353.7600,N,09832.0234,W,2,08,1.5,338.3,M,-23.7,M,1.8,0000*4E
$GPGSA,A,3,03,16,06,07,23,19,11,13,,,,,2.3,1.5,1.8*30
$GPRMC,010902.000,A,3353.7600,N,09832.0234,W,0.20,134.03,010412,,,D*70
$GPGGA,010903.000,3353.7600,N,09832.0234,W,2,08,1.5,338.5,M,-23.7,M,0.8,0000*48
$GPGSA,A,3,03,16,06,07,23,19,11,13,,,,,2.3,1.5,1.8*30
$GPRMC,010903.000,A,3353.7600,N,09832.0234,W,0.09,79.70,010412,,,D*46
$GPGGA,010904.000,3353.7599,N,09832.0234,W,2,08,1.5,338.3,M,-23.7,M,0.8,0000*4A
$GPGSA,A,3,03,16,06,07,23,19,11,13,,,,,2.3,1.5,1.8*30
$GPGSV,3,1,12,13,78,219,38,07,53,328,32,19,53,117,36,23,49,166,37*78
$GPGSV,3,2,12,03,42,060,31,06,30,051,33,08,22,300,,10,18,268,*74
$GPGSV,3,3,12,16,17,048,31,28,10,241,17,11,10,150,24,05,01,318,*72
$GPRMC,010904.000,A,3353.7599,N,09832.0234,W,0.30,132.88,010412,,,D*71
$GPGGA,010905.000,3353.7599,N,09832.0233,W,2,08,1.5,338.4,M,-23.7,M,0.8,0000*4B
$GPGSA,A,3,03,16,06,07,23,19,11,13,,,,,2.3,1.5,1.8*30
$GPRMC,010905.000,A,3353.7599,N,09832.0233,W,0.09,81.14,010412,,,D*41
$GPGGA,010906.000,3353.7599,N,09832.0233,W,2,08,1.5,338.6,M,-23.7,M,1.8,0000*4B
$GPGSA,A,3,03,16,06,07,23,19,11,13,,,,,2.3,1.5,1.8*30
$GPRMC,010906.000,A,3353.7599,N,09832.0233,W,0.09,50.04,010412,,,D*4F
$GPGGA,010907.000,3353.7599,N,09832.0233,W,2,08,1.5,338.6,M,-23.7,M,2.8,0000*49
$GPGSA,A,3,03,16,06,07,23,19,11,13,,,,,2.3,1.5,1.8*30
$GPRMC,010907.000,A,3353.7599,N,09832.0233,W,0.13,110.92,010412,,,D*7F
$GPGGA,010908.000,3353.7599,N,09832.0233,W,2,08,1.5,338.5,M,-23.7,M,3.8,0000*44
$GPGSA,A,3,03,16,06,07,23,19,11,13,,,,,2.3,1.5,1.8*30
$GPRMC,010908.000,A,3353.7599,N,09832.0233,W,0.17,122.59,010412,,,D*72
$GPGGA,010909.000,3353.7599,N,09832.0233,W,2,08,1.5,338.5,M,-23.7,M,0.8,0000*46
$GPGSA,A,3,03,16,06,07,23,19,11,13,,,,,2.3,1.5,1.8*30
$GPGSV,3,1,12,13,78,219,38,07,53,328,32,19,53,117,36,23,49,166,37*78
$GPGSV,3,2,12,03,42,060,30,06,30,051,34,08,22,300,,10,18,268,*72
$GPGSV,3,3,12,16,17,048,31,28,10,241,18,11,10,150,24,05,01,318,*7D
$GPRMC,010909.000,A,3353.7599,N,09832.0233,W,0.06,32.37,010412,,,D*4B
$GPGGA,010910.000,3353.7600,N,09832.0233,W,2,08,1.5,338.7,M,-23.7,M,0.8,0000*4F
$GPGSA,A,3,03,16,06,07,23,19,11,13,,,,,2.3,1.5,1.8*30
$GPRMC,010910.000,A,3353.7600,N,09832.0233,W,0.10,4.04,010412,,,D*72
$GPGGA,010911.000,3353.7599,N,09832.0233,W,2,08,1.5,338.6,M,-23.7,M,0.8,0000*4C
$GPGSA,A,3,03,16,06,07,23,19,11,13,,,,,2.3,1.5,1.8*30
$GPRMC,010911.000,A,3353.7599,N,09832.0233,W,0.15,135.45,010412,,,D*73
$GPGGA,010912.000,3353.7599,N,09832.0233,W,2,08,1.5,338.5,M,-23.7,M,1.8,0000*4D
$GPGSA,A,3,03,16,06,07,23,19,11,13,,,,,2.3,1.5,1.8*30
$GPRMC,010912.000,A,3353.7599,N,09832.0233,W,0.17,138.24,010412,,,D*78
$GPGGA,010913.000,3353.7599,N,09832.0233,W,2,08,1.5,338.6,M,-23.7,M,0.8,0000*4E
$GPGSA,A,3,03,16,06,07,23,19,11,13,,,,,2.3,1.5,1.8*30
$GPRMC,010913.000,A,3353.7599,N,09832.0233,W,0.03,83.92,010412,,,D*40
$GPGGA,010914.000,3353.7599,N,09832.0233,W,2,08,1.5,338.7,M,-23.7,M,1.8,0000*49
$GPGSA,A,3,03,16,06,07,23,19,11,13,,,,,2.3,1.5,1.8*30
$GPGSV,3,1,12,13,78,219,38,07,53,328,32,19,53,117,36,23,49,166,37*78
$GPGSV,3,2,12,03,42,060,30,06,30,051,34,08,22,300,,10,18,268,*72
$GPGSV,3,3,12,16,17,048,31,28,10,241,17,11,10,150,24,05,01,318,*72
$GPRMC,010914.000,A,3353.7599,N,09832.0233,W,0.08,356.23,010412,,,D*7D
$GPGGA,010915.000,3353.7600,N,09832.0232,W,2,08,1.5,338.9,M,-23.7,M,0.8,0000*45
$GPGSA,A,3,03,16,06,07,23,19,11,13,,,,,2.3,1.5,1.8*30
$GPRMC,010915.000,A,3353.7600,N,09832.0232,W,0.08,57.21,010412,,,D*4E
$GPGGA,010916.000,3353.7599,N,09832.0232,W,2,08,1.5,338.9,M,-23.7,M,0.8,0000*45
$GPGSA,A,3,03,16,06,07,23,19,11,13,,,,,2.3,1.5,1.8*30
$GPRMC,010916.000,A,3353.7599,N,09832.0232,W,0.24,132.74,010412,,,D*72
$GPGGA,010917.000,3353.7599,N,09832.0232,W,2,08,1.5,339.0,M,-23.7,M,0.8,0000*4C
$GPGSA,A,3,03,16,06,07,23,19,11,13,,,,,2.3,1.5,1.8*30
$GPRMC,010917.000,A,3353.7599,N,09832.0232,W,0.10,45.31,010412,,,D*44
$GPGGA,010918.000,3353.7600,N,09832.0231,W,2,08,1.5,339.2,M,-23.7,M,1.8,0000*40
$GPGSA,A,3,03,16,06,07,23,19,11,13,,,,,2.3,1.5,1.8*30
$GPRMC,010918.000,A,3353.7600,N,09832.0231,W,0.13,63.45,010412,,,D*4F
$GPGGA,010919.000,3353.7600,N,09832.0231,W,2,08,1.5,339.3,M,-23.7,M,0.8,0000*41
$GPGSA,A,3,03,16,06,07,23,19,11,13,,,,,2.3,1.5,1.8*30
$GPGSV,3,1,12,13,78,219,39,07,53,328,32,19,53,117,36,23,49,166,37*79
$GPGSV,3,2,12,03,42,060,30,06,30,051,33,08,22,300,,10,18,268,*75
$GPGSV,3,3,12,16,17,048,31,28,10,241,16,11,10,150,24,05,01,318,*73
$GPRMC,010919.000,A,3353.7600,N,09832.0231,W,0.16,46.67,010412,,,D*4C
$GPGGA,010920.000,3353.7600,N,09832.0231,W,2,08,1.5,339.4,M,-23.7,M,1.8,0000*4D
$GPGSA,A,3,03,16,06,07,23,19,11,13,,,,,2.3,1.5,1.8*30
$GPRMC,010920.000,A,3353.7600,N,09832.0231,W,0.18,100.23,010412,,,D*7B
$GPGGA,010921.000,3353.7600,N,09832.0230,W,2,08,1.5,339.4,M,-23.7,M,0.8,0000*4C
$GPGSA,A,3,03,16,06,07,23,19,11,13,,,,,2.3,1.5,1.8*30
$GPRMC,010921.000,A,3353.7600,N,09832.0230,W,0.15,63.89,010412,,,D*42
$GPGGA,010922.000,3353.7601,N,09832.0230,W,2,08,1.5,339.4,M,-23.7,M,0.8,0000*4E
$GPGSA,A,3,03,16,06,07,23,19,11,13,,,,,2.3,1.5,1.8*30
$GPRMC,010922.000,A,3353.7601,N,09832.0230,W,0.11,54.35,010412,,,D*47
$GPGGA,010923.000,3353.7601,N,09832.0230,W,2,08,1.5,339.6,M,-23.7,M,0.8,0000*4D
$GPGSA,A,3,03,16,06,07,23,19,11,13,,,,,2.3,1.5,1.8*30
$GPRMC,010923.000,A,3353.7601,N,09832.0230,W,0.06,81.19,010412,,,D*46
$GPGGA,010924.000,3353.7601,N,09832.0230,W,2,08,1.5,339.6,M,-23.7,M,0.8,0000*4A
$GPGSA,A,3,03,16,06,07,23,19,11,13,,,,,2.3,1.5,1.8*30
$GPGSV,3,1,12,13,78,219,39,07,53,328,32,19,53,117,36,23,49,166,37*79
$GPGSV,3,2,12,03,42,060,30,06,30,051,33,08,22,300,,10,18,268,*75
$GPGSV,3,3,12,16,17,048,31,28,10,241,18,11,10,150,24,05,01,318,*7D
$GPRMC,010924.000,A,3353.7601,N,09832.0230,W,0.07,123.58,010412,,,D*7C
$GPGGA,010925.000,3353.7601,N,09832.0230,W,2,08,1.5,339.8,M,-23.7,M,0.8,0000*45
$GPGSA,A,3,03,16,06,07,23,19,11,13,,,,,2.3,1.5,1.8*30
$GPRMC,010925.000,A,3353.7601,N,09832.0230,W,0.05,48.62,010412,,,D*4A
$GPGGA,010926.000,3353.7601,N,09832.0230,W,2,08,1.5,340.0,M,-23.7,M,1.8,0000*41
$GPGSA,A,3,03,16,06,07,23,19,11,13,,,,,2.3,1.5,1.8*30
$GPRMC,010926.000,A,3353.7601,N,09832.0230,W,0.09,3.96,010412,,,D*71
$GPGGA,010927.000,3353.7601,N,09832.0230,W,2,08,1.5,339.9,M,-23.7,M,0.8,0000*46
$GPGSA,A,3,03,16,06,07,23,19,11,13,,,,,2.3,1.5,1.8*30
$GPRMC,010927.000,A,3353.7601,N,09832.0230,W,0.24,132.35,010412,,,D*75
$GPGGA,010928.000,3353.7600,N,09832.0230,W,2,08,1.5,339.8,M,-23.7,M,0.8,0000*49
$GPGSA,A,3,03,16,06,07,23,19,11,13,,,,,2.3,1.5,1.8*30
$GPRMC,010928.000,A,3353.7600,N,09832.0230,W,0.31,141.00,010412,,,D*7D
$GPGGA,010929.000,3353.7600,N,09832.0230,W,2,08,1.5,339.8,M,-23.7,M,0.8,0000*48
$GPGSA,A,3,03,16,06,07,23,19,11,13,,,,,2.3,1.5,1.8*30
$GPGSV,3,1,12,13,78,219,39,07,53,328,32,19,53,117,36,23,49,166,37*79
$GPGSV,3,2,12,03,42,060,31,06,30,051,33,08,22,300,,10,18,268,*74
$GPGSV,3,3,12,16,17,048,31,28,10,241,23,11,10,150,23,05,01,318,*72
$GPRMC,010929.000,A,3353.7600,N,09832.0230,W,0.17,106.36,010412,,,D*7E
$GPGGA,010930.000,3353.7600,N,09832.0230,W,2,08,1.5,339.6,M,-23.7,M,1.8,0000*4F
$GPGSA,A,3,03,16,06,07,23,19,11,13,,,,,2.3,1.5,1.8*30
$GPRMC,010930.000,A,3353.7600,N,09832.0230,W,0.25,131.53,010412,,,D*70
$GPGGA,010931.000,3353.7600,N,09832.0230,W,2,08,1.5,339.7,M,-23.7,M,2.8,0000*4C
$GPGSA,A,3,03,16,06,07,23,19,11,13,,,,,2.4,1.5,1.8*37
$GPRMC,010931.000,A,3353.7600,N,09832.0230,W,0.07,50.71,010412,,,D*47
$GPGGA,010932.000,3353.7600,N,09832.0229,W,2,08,1.5,339.8,M,-23.7,M,3.8,0000*49
$GPGSA,A,3,03,16,06,07,23,19,11,13,,,,,2.4,1.5,1.8*37
$GPRMC,010932.000,A,3353.7600,N,09832.0229,W,0.13,41.25,010412,,,D*48
$GPGGA,010933.000,3353.7601,N,09832.0229,W,2,08,1.5,340.0,M,-23.7,M,0.8,0000*4C
$GPGSA,A,3,03,16,06,07,23,19,11,13,,,,,2.4,1.5,1.8*37
$GPRMC,010933.000,A,3353.7601,N,09832.0229,W,0.18,3.31,010412,,,D*70
$GPGGA,010934.000,3353.7601,N,09832.0229,W,2,08,1.5,340.2,M,-23.7,M,0.8,0000*49
$GPGSA,A,3,03,16,06,07,23,19,11,13,,,,,2.4,1.5,1.8*37
$GPGSV,3,1,12,13,78,219,39,07,53,328,33,19,53,117,36,23,49,166,37*78
$GPGSV,3,2,12,03,42,060,31,06,30,051,33,08,22,300,,10,18,268,*74
$GPGSV,3,3,12,16,17,048,31,28,10,241,24,11,10,150,23,05,01,318,*75
$GPRMC,010934.000,A,3353.7601,N,09832.0229,W,0.15,21.66,010412,,,D*48
$GPGGA,010935.000,3353.7602,N,09832.0228,W,2,08,1.5,340.5,M,-23.7,M,0.8,0000*4D
$GPGSA,A,3,03,16,06,07,23,19,11,13,,,,,2.4,1.5,1.8*37
$GPRMC,010935.000,A,3353.7602,N,09832.0228,W,0.14,355.43,010412,,,D*7D
$GPGGA,010936.000,3353.7602,N,09832.0228,W,2,08,1.5,340.8,M,-23.7,M,1.8,0000*42
$GPGSA,A,3,03,16,06,07,23,19,11,13,,,,,2.4,1.5,1.8*37
$GPRMC,010936.000,A,3353.7602,N,09832.0228,W,0.16,4.91,010412,,,D*74
$GPGGA,010937.000,3353.7602,N,09832.0228,W,2,08,1.5,340.8,M,-23.7,M,2.8,0000*40
$GPGSA,A,3,03,16,06,07,23,19,11,13,,,,,2.4,1.5,1.8*37
$GPRMC,010937.000,A,3353.7602,N,09832.0228,W,0.19,122.41,010412,,,D*72
$GPGGA,010938.000,3353.7602,N,09832.0228,W,2,08,1.5,340.7,M,-23.7,M,3.8,0000*41
$GPGSA,A,3,03,16,06,07,23,19,11,13,,,,,2.4,1.5,1.8*37
$GPRMC,010938.000,A,3353.7602,N,09832.0228,W,0.22,139.72,010412,,,D*7F
$GPGGA,010939.000,3353.7602,N,09832.0228,W,2,08,1.5,341.0,M,-23.7,M,0.8,0000*45
$GPGSA,A,3,03,16,06,07,23,19,11,13,,,,,2.4,1.5,1.8*37
$GPGSV,3,1,12,13,78,219,39,07,53,328,32,19,53,117,36,23,49,166,37*79
$GPGSV,3,2,12,03,42,060,32,06,30,051,33,08,22,300,,10,18,268,*77
$GPGSV,3,3,12,16,17,048,30,28,10,241,23,11,10,150,22,05,01,318,*72
$GPRMC,010939.000,A,3353.7602,N,09832.0228,W,0.10,65.28,010412,,,D*48
$GPGGA,010940.000,3353.7602,N,09832.0227,W,2,08,1.5,341.2,M,-23.7,M,0.8,0000*46
$GPGSA,A,3,03,16,06,07,23,19,11,13,,,,,2.4,1.5,1.8*37
$GPRMC,010940.000,A,3353.7602,N,09832.0227,W,0.11,83.81,010412,,,D*43
$GPGGA,010941.000,3353.7602,N,09832.0227,W,2,08,1.5,341.3,M,-23.7,M,0.8,0000*46
$GPGSA,A,3,03,16,06,07,23,19,11,13,,,,,2.4,1.5,1.8*37
$GPRMC,010941.000,A,3353.7602,N,09832.0227,W,0.18,69.41,010412,,,D*43
$GPGGA,010942.000,3353.7602,N,09832.0226,W,2,08,1.5,341.5,M,-23.7,M,1.8,0000*43
$GPGSA,A,3,03,16,06,07,23,19,11,13,,,,,2.4,1.5,1.8*37
$GPRMC,010942.000,A,3353.7602,N,09832.0226,W,0.21,68.92,010412,,,D*44
$GPGGA,010943.000,3353.7603,N,09832.0225,W,2,08,1.5,341.6,M,-23.7,M,2.8,0000*40
$GPGSA,A,3,03,16,06,07,23,19,11,13,,,,,2.4,1.5,1.8*37
$GPRMC,010943.000,A,3353.7603,N,09832.0225,W,0.19,64.62,010412,,,D*4F
$GPGGA,010944.000,3353.7603,N,09832.0225,W,2,08,1.5,341.8,M,-23.7,M,3.8,0000*48
$GPGSA,A,3,03,16,06,07,23,19,11,13,,,,,2.4,1.5,1.8*37
$GPGSV,3,1,12,13,78,219,39,07,53,328,32,19,53,117,37,23,49,166,36*79
$GPGSV,3,2,12,03,42,060,32,06,30,051,33,08,22,300,,10,18,268,*77
$GPGSV,3,3,12,16,17,048,30,28,10,241,22,11,10,150,16,05,01,318,*74
$GPRMC,010944.000,A,3353.7603,N,09832.0225,W,0.20,63.44,010412,,,D*41
$GPGGA,010945.000,3353.7604,N,09832.0224,W,2,08,1.5,342.0,M,-23.7,M,0.8,0000*47
$GPGSA,A,3,03,16,06,07,23,19,11,13,,,,,2.4,1.5,1.8*37
$GPRMC,010945.000,A,3353.7604,N,09832.0224,W,0.22,29.36,010412,,,D*4F
$GPGGA,010946.000,3353.7603,N,09832.0226,W,2,08,1.5,341.8,M,-23.7,M,0.8,0000*4A
$GPGSA,A,3,03,16,06,07,23,19,11,13,,,,,2.4,1.5,1.8*37
$GPRMC,010946.000,A,3353.7603,N,09832.0226,W,0.18,41.03,010412,,,D*48
$GPGGA,010947.000,3353.7603,N,09832.0227,W,2,08,1.5,341.4,M,-23.7,M,0.8,0000*46
$GPGSA,A,3,03,16,06,07,23,19,11,13,,,,,2.4,1.5,1.8*37
$GPRMC,010947.000,A,3353.7603,N,09832.0227,W,0.14,133.37,010412,,,D*77
$GPGGA,010948.000,3353.7602,N,09832.0229,W,2,08,1.5,340.9,M,-23.7,M,0.8,0000*4A
$GPGSA,A,3,03,16,06,07,23,19,11,13,,,,,2.4,1.5,1.8*37
$GPRMC,010948.000,A,3353.7602,N,09832.0229,W,0.22,146.94,010412,,,D*79
$GPGGA,010949.000,3353.7601,N,09832.0230,W,2,08,1.5,340.5,M,-23.7,M,0.8,0000*4C
$GPGSA,A,3,03,16,06,07,23,19,11,13,,,,,2.4,1.5,1.8*37
$GPGSV,3,1,12,13,78,219,39,07,53,328,32,19,53,117,37,23,49,166,36*79
$GPGSV,3,2,12,03,42,060,32,06,30,051,33,08,22,300,16,10,18,268,*70
$GPGSV,3,3,12,16,17,048,30,28,10,241,18,11,10,150,18,05,01,318,*73
$GPRMC,010949.000,A,3353.7601,N,09832.0230,W,0.17,168.40,010412,,,D*70
$GPGGA,010950.000,3353.7600,N,09832.0232,W,2,08,1.5,340.1,M,-23.7,M,1.8,0000*42
$GPGSA,A,3,03,16,06,07,23,19,11,13,,,,,2.4,1.5,1.8*37
$GPRMC,010950.000,A,3353.7600,N,09832.0232,W,0.18,172.22,010412,,,D*7B
$GPGGA,010951.000,3353.7599,N,09832.0233,W,2,08,1.5,339.9,M,-23.7,M,0.8,0000*46
$GPGSA,A,3,03,16,06,07,23,19,11,13,,,,,2.4,1.5,1.8*37
$GPRMC,010951.000,A,3353.7599,N,09832.0233,W,0.11,181.48,010412,,,D*71
$GPGGA,010952.000,3353.7599,N,09832.0233,W,2,08,1.5,339.8,M,-23.7,M,0.8,0000*44
$GPGSA,A,3,03,16,06,07,23,19,11,13,,,,,2.4,1.5,1.8*37
$GPRMC,010952.000,A,3353.7599,N,09832.0233,W,0.06,231.26,010412,,,D*74
$GPGGA,010953.000,3353.7599,N,09832.0234,W,2,08,1.5,339.8,M,-23.7,M,0.8,0000*42
$GPGSA,A,3,03,16,06,07,23,19,11,13,,,,,2.4,1.5,1.8*37
$GPRMC,010953.000,A,3353.7599,N,09832.0234,W,0.05,7.84,010412,,,D*7E
$GPGGA,010954.000,3353.7599,N,09832.0235,W,2,08,1.5,339.5,M,-23.7,M,1.8,0000*48
$GPGSA,A,3,03,16,06,07,23,19,11,13,,,,,2.4,1.5,1.8*37
$GPGSV,3,1,12,13,78,219,38,07,53,328,31,19,53,117,37,23,49,166,36*7B
$GPGSV,3,2,12,03,42,060,33,06,30,051,33,08,22,300,16,10,18,268,*71
$GPGSV,3,3,12,16,17,048,30,28,10,241,18,11,10,150,23,05,01,318,*7B
$GPRMC,010954.000,A,3353.7599,N,09832.0235,W,0.10,127.00,010412,,,D*73
$GPGGA,010955.000,3353.7599,N,09832.0235,W,2,08,1.5,339.2,M,-23.7,M,0.8,0000*4F
$GPGSA,A,3,03,16,06,07,23,19,11,13,,,,,2.4,1.5,1.8*37
$GPRMC,010955.000,A,3353.7599,N,09832.0235,W,0.15,141.94,010412,,,D*7A
$GPGGA,010956.000,3353.7598,N,09832.0236,W,2,08,1.5,339.1,M,-23.7,M,1.8,0000*4C
$GPGSA,A,3,03,16,06,07,23,19,11,13,,,,,2.4,1.5,1.8*37
$GPRMC,010956.000,A,3353.7598,N,09832.0236,W,0.04,7.97,010412,,,D*7B
$GPGGA,010957.000,3353.7599,N,09832.0236,W,2,08,1.5,339.0,M,-23.7,M,0.8,0000*4C
$GPGSA,A,3,03,16,06,07,23,19,11,13,,,,,2.4,1.5,1.8*37
$GPRMC,010957.000,A,3353.7599,N,09832.0236,W,0.16,342.39,010412,,,D*7E
$GPGGA,010958.000,3353.7599,N,09832.0237,W,2,08,1.5,338.9,M,-23.7,M,0.8,0000*4A
$GPGSA,A,3,03,16,06,07,23,19,11,13,,,,,2.4,1.5,1.8*37
$GPRMC,010958.000,A,3353.7599,N,09832.0237,W,0.04,52.63,010412,,,D*4E
$GPGGA,010959.000,3353.7599,N,09832.0237,W,2,08,1.5,338.9,M,-23.7,M,0.8,0000*4B
$GPGSA,A,3,03,16,06,07,23,19,11,13,,,,,2.4,1.5,1.8*37
$GPGSV,3,1,12,13,78,219,38,07,53,328,31,19,53,117,37,23,49,166,35*78
$GPGSV,3,2,12,03,42,060,33,06,30,051,33,08,22,300,15,10,18,268,*72
$GPGSV,3,3,12,16,17,048,31,28,10,241,17,11,10,150,24,05,01,318,*72
$GPRMC,010959.000,A,3353.7599,N,09832.0237,W,0.06,322.94,010412,,,D*71
$GPGGA,011000.000,3353.7599,N,09832.0238,W,2,08,1.5,338.9,M,-23.7,M,1.8,0000*41
$GPGSA,A,3,03,16,06,07,23,19,11,13,,,,,2.4,1.5,1.8*37
$GPRMC,011000.000,A,3353.7599,N,09832.0238,W,0.07,325.60,010412,,,D*77
$GPGGA,011001.000,3353.7599,N,09832.0239,W,2,08,1.5,338.7,M,-23.7,M,0.8,0000*4E
$GPGSA,A,3,03,16,06,07,23,19,11,13,,,,,2.4,1.5,1.8*37
$GPRMC,011001.000,A,3353.7599,N,09832.0239,W,0.06,173.29,010412,,,D*7A
$GPGGA,011002.000,3353.7599,N,09832.0239,W,2,08,1.5,338.5,M,-23.7,M,1.8,0000*4E
$GPGSA,A,3,03,16,06,07,23,19,11,13,,,,,2.4,1.5,1.8*37
$GPRMC,011002.000,A,3353.7599,N,09832.0239,W,0.01,27.25,010412,,,D*42
$GPGGA,011003.000,3353.7599,N,09832.0239,W,2,08,1.5,338.2,M,-23.7,M,0.8,0000*49
$GPGSA,A,3,03,16,06,07,23,19,11,13,,,,,2.4,1.5,1.8*37
$GPRMC,011003.000,A,3353.7599,N,09832.0239,W,0.06,146.51,010412,,,D*71
$GPGGA,011004.000,3353.7598,N,09832.0239,W,2,08,1.5,338.2,M,-23.7,M,0.8,0000*4F
$GPGSA,A,3,03,16,06,07,23,19,11,13,,,,,2.4,1.5,1.8*37
$GPGSV,3,1,12,13,78,219,38,07,53,328,31,19,53,117,37,23,49,166,35*78
$GPGSV,3,2,12,03,42,060,33,06,30,051,33,08,22,300,14,10,18,268,*73
$GPGSV,3,3,12,16,17,048,31,28,10,241,17,11,10,150,25,05,01,318,*73
$GPRMC,011004.000,A,3353.7598,N,09832.0239,W,0.06,170.41,010412,,,D*73
$GPGGA,011005.000,3353.7598,N,09832.0239,W,2,08,1.5,337.9,M,-23.7,M,0.8,0000*4A
$GPGSA,A,3,03,16,06,07,23,19,11,13,,,,,2.4,1.5,1.8*37
$GPRMC,011005.000,A,3353.7598,N,09832.0239,W,0.07,90.91,010412,,,D*41
$GPGGA,011006.000,3353.7598,N,09832.0240,W,2,08,1.5,337.9,M,-23.7,M,0.8,0000*47
$GPGSA,A,3,03,16,06,07,23,19,11,13,,,,,2.4,1.5,1.8*37
$GPRMC,011006.000,A,3353.7598,N,09832.0240,W,0.04,46.46,010412,,,D*4E
$GPGGA,011007.000,3353.7598,N,09832.0239,W,2,08,1.5,337.7,M,-23.7,M,1.8,0000*47
$GPGSA,A,3,03,16,06,07,23,19,11,13,,,,,2.4,1.5,1.8*37
$GPRMC,011007.000,A,3353.7598,N,09832.0239,W,0.08,70.27,010412,,,D*4F
$GPGGA,011008.000,3353.7598,N,09832.0240,W,2,08,1.5,337.6,M,-23.7,M,2.8,0000*44
$GPGSA,A,3,03,16,06,07,23,19,11,13,,,,,2.4,1.5,1.9*36
$GPRMC,011008.000,A,3353.7598,N,09832.0240,W,0.06,82.67,010412,,,D*49
$GPGGA,011009.000,3353.7598,N,09832.0240,W,2,08,1.5,337.5,M,-23.7,M,0.8,0000*44
$GPGSA,A,3,03,16,06,07,23,19,11,13,,,,,2.4,1.5,1.9*36
$GPGSV,3,1,12,13,78,219,37,07,53,328,31,19,53,117,37,23,49,166,34*76
$GPGSV,3,2,12,03,42,060,33,06,30,051,34,08,22,300,14,10,18,268,*74
$GPGSV,3,3,12,16,17,048,31,28,10,241,18,11,10,150,25,05,01,318,*7C
$GPRMC,011009.000,A,3353.7598,N,09832.0240,W,0.07,33.64,010412,,,D*40
$GPGGA,011010.000,3353.7598,N,09832.0239,W,2,08,1.5,337.3,M,-23.7,M,0.8,0000*44
$GPGSA,A,3,03,16,06,07,23,19,11,13,,,,,2.4,1.5,1.9*36
$GPRMC,011010.000,A,3353.7598,N,09832.0239,W,0.07,29.28,010412,,,D*45
$GPGGA,011011.000,3353.7598,N,09832.0239,W,2,08,1.5,337.1,M,-23.7,M,0.8,0000*47
$GPGSA,A,3,03,16,06,07,23,19,11,13,,,,,2.4,1.5,1.9*36
$GPRMC,011011.000,A,3353.7598,N,09832.0239,W,0.05,98.75,010412,,,D*44
$GPGGA,011012.000,3353.7597,N,09832.0240,W,2,08,1.5,336.9,M,-23.7,M,0.8,0000*4C
$GPGSA,A,3,03,16,06,07,23,19,11,13,,,,,2.4,1.5,1.9*36
$GPRMC,011012.000,A,3353.7597,N,09832.0240,W,0.01,147.06,010412,,,D*75
$GPGGA,011013.000,3353.7597,N,09832.0240,W,2,08,1.5,336.8,M,-23.7,M,1.8,0000*4D
$GPGSA,A,3,03,16,06,07,23,19,11,13,,,,,2.4,1.5,1.9*36
$GPRMC,011013.000,A,3353.7597,N,09832.0240,W,0.02,80.96,010412,,,D*44
$GPGGA,011014.000,3353.7597,N,09832.0240,W,2,08,1.5,336.6,M,-23.7,M,2.8,0000*47
$GPGSA,A,3,03,16,06,07,23,19,11,13,,,,,2.4,1.5,1.9*36
$GPGSV,3,1,12,13,78,219,37,07,53,328,32,19,53,117,37,23,49,166,34*75
$GPGSV,3,2,12,03,42,060,32,06,30,051,34,08,22,300,14,10,18,268,*75
$GPGSV,3,3,12,16,17,048,32,28,10,241,18,11,10,150,25,05,01,318,*7F
$GPRMC,011014.000,A,3353.7597,N,09832.0240,W,0.03,145.02,010412,,,D*77
$GPGGA,011015.000,3353.7597,N,09832.0239,W,2,08,1.5,336.5,M,-23.7,M,0.8,0000*49
$GPGSA,A,3,03,16,06,07,23,19,11,13,,,,,2.4,1.5,1.9*36
$GPRMC,011015.000,A,3353.7597,N,09832.0239,W,0.10,111.41,010412,,,D*7C
$GPGGA,011016.000,3353.7596,N,09832.0239,W,2,08,1.5,336.4,M,-23.7,M,0.8,0000*4A
$GPGSA,A,3,03,16,06,07,23,19,11,13,,,,,2.4,1.5,1.9*36
$GPRMC,011016.000,A,3353.7596,N,09832.0239,W,0.06,125.87,010412,,,D*74
$GPGGA,011017.000,3353.7596,N,09832.0239,W,2,08,1.5,336.3,M,-23.7,M,0.8,0000*4C
$GPGSA,A,3,03,16,06,07,23,19,11,13,,,,,2.4,1.5,1.9*36
$GPRMC,011017.000,A,3353.7596,N,09832.0239,W,0.11,83.87,010412,,,D*4E
$GPGGA,011018.000,3353.7596,N,09832.0238,W,2,08,1.5,336.3,M,-23.7,M,0.8,0000*42
$GPGSA,A,3,03,16,06,07,23,19,11,13,,,,,2.4,1.5,1.9*36
$GPRMC,011018.000,A,3353.7596,N,09832.0238,W,0.12,80.68,010412,,,D*41
$GPGGA,011019.000,3353.7596,N,09832.0238,W,2,08,1.5,336.2,M,-23.7,M,1.8,0000*43
$GPGSA,A,3,03,16,06,07,23,19,11,13,,,,,2.4,1.5,1.9*36
$GPGSV,3,1,12,13,77,213,37,07,54,329,31,19,53,115,37,23,48,166,34*76
$GPGSV,3,2,12,03,41,058,32,06,29,050,34,08,23,301,12,10,18,266,*7C
$GPGSV,3,3,12,16,16,049,32,28,11,242,17,11,11,149,25,05,02,317,*77
$GPRMC,011019.000,A,3353.7596,N,09832.0238,W,0.12,85.98,010412,,,D*4A
$GPGGA,011020.000,3353.7595,N,09832.0237,W,2,08,1.5,336.2,M,-23.7,M,2.8,0000*46
$GPGSA,A,3,03,16,06,07,23,19,11,13,,,,,2.4,1.5,1.9*36
$GPRMC,011020.000,A,3353.7595,N,09832.0237,W,0.13,80.49,010412,,,D*44
$GPGGA,011021.000,3353.7595,N,09832.0236,W,2,08,1.5,336.1,M,-23.7,M,0.8,0000*47
$GPGSA,A,3,03,16,06,07,23,19,11,13,,,,,2.4,1.5,1.9*36
$GPRMC,011021.000,A,3353.7595,N,09832.0236,W,0.08,64.25,010412,,,D*4E
$GPGGA,011022.000,3353.7596,N,09832.0237,W,2,08,1.5,336.3,M,-23.7,M,0.8,0000*44
$GPGSA,A,3,03,16,06,07,23,19,11,13,,,,,2.4,1.5,1.9*36
$GPRMC,011022.000,A,3353.7596,N,09832.0237,W,0.08,51.42,010412,,,D*48
$GPGGA,011023.000,3353.7596,N,09832.0237,W,2,08,1.5,336.4,M,-23.7,M,0.8,0000*42
$GPGSA,A,3,03,16,06,07,23,19,11,13,,,,,2.4,1.5,1.9*36
$GPRMC,011023.000,A,3353.7596,N,09832.0237,W,0.05,69.19,010412,,,D*41
$GPGGA,011024.000,3353.7597,N,09832.0237,W,2,08,1.5,336.6,M,-23.7,M,1.8,0000*47
$GPGSA,A,3,03,16,06,07,23,19,11,13,,,,,2.4,1.5,1.9*36
$GPGSV,3,1,12,13,77,213,37,07,54,329,32,19,53,115,37,23,48,166,34*75
$GPGSV,3,2,12,03,41,058,31,06,29,050,34,08,23,301,,10,18,266,*7C
$GPGSV,3,3,12,16,16,049,31,28,11,242,18,11,11,149,25,05,02,317,*7B
$GPRMC,011024.000,A,3353.7597,N,09832.0237,W,0.04,89.09,010412,,,D*49
$GPGGA,011025.000,3353.7597,N,09832.0236,W,2,08,1.5,336.8,M,-23.7,M,2.8,0000*4A
$GPGSA,A,3,03,16,06,07,23,19,11,13,,,,,2.4,1.5,1.9*36
$GPRMC,011025.000,A,3353.7597,N,09832.0236,W,0.07,110.29,010412,,,D*79
$GPGGA,011026.000,3353.7598,N,09832.0236,W,2,08,1.5,337.1,M,-23.7,M,0.8,0000*4C
$GPGSA,A,3,03,16,06,07,23,19,11,13,,,,,2.4,1.5,1.9*36
$GPRMC,011026.000,A,3353.7598,N,09832.0236,W,0.12,0.52,010412,,,D*7D
$GPGGA,011027.000,3353.7598,N,09832.0236,W,2,08,1.5,337.4,M,-23.7,M,0.8,0000*48
$GPGSA,A,3,03,16,06,07,23,19,11,13,,,,,2.4,1.5,1.9*36
$GPRMC,011027.000,A,3353.7598,N,09832.0236,W,0.13,109.11,010412,,,D*72
$GPGGA,011028.000,3353.7598,N,09832.0235,W,2,08,1.5,337.7,M,-23.7,M,0.8,0000*47
$GPGSA,A,3,03,16,06,07,23,19,11,13,,,,,2.4,1.5,1.9*36
$GPRMC,011028.000,A,3353.7598,N,09832.0235,W,0.12,77.13,010412,,,D*45
$GPGGA,011029.000,3353.7599,N,09832.0234,W,2,08,1.5,337.9,M,-23.7,M,0.8,0000*48
$GPGSA,A,3,03,16,06,07,23,19,11,13,,,,,2.4,1.5,1.9*36
$GPGSV,3,1,12,13,77,213,37,07,54,329,32,19,53,115,37,23,48,166,34*75
$GPGSV,3,2,12,03,41,058,31,06,29,050,34,08,23,301,,10,18,266,*7C
$GPGSV,3,3,12,16,16,049,31,28,11,242,18,11,11,149,24,05,02,317,*7A
$GPRMC,011029.000,A,3353.7599,N,09832.0234,W,0.21,39.21,010412,,,D*4F
$GPGGA,011030.000,3353.7599,N,09832.0234,W,2,08,1.5,338.1,M,-23.7,M,1.8,0000*46
$GPGSA,A,3,03,16,06,07,23,19,11,13,,,,,2.4,1.5,1.9*36
$GPRMC,011030.000,A,3353.7599,N,09832.0234,W,0.18,77.37,010412,,,D*40
$GPGGA,011031.000,3353.7600,N,09832.0233,W,2,08,1.5,338.2,M,-23.7,M,2.8,0000*43
$GPGSA,A,3,03,16,06,07,23,19,11,13,,,,,2.4,1.5,1.9*36
$GPRMC,011031.000,A,3353.7600,N,09832.0233,W,0.21,83.73,010412,,,D*44
$GPGGA,011032.000,3353.7600,N,09832.0233,W,2,08,1.5,338.3,M,-23.7,M,0.8,0000*43
$GPGSA,A,3,03,16,06,07,23,19,11,13,,,,,2.4,1.5,1.9*36
$GPRMC,011032.000,A,3353.7600,N,09832.0233,W,0.23,101.38,010412,,,D*71
$GPGGA,011033.000,3353.7600,N,09832.0233,W,2,08,1.5,338.3,M,-23.7,M,0.8,0000*42
$GPGSA,A,3,03,16,06,07,23,19,11,13,,,,,2.4,1.5,1.9*36
$GPRMC,011033.000,A,3353.7600,N,09832.0233,W,0.15,101.54,010412,,,D*7F
$GPGGA,011034.000,3353.7600,N,09832.0233,W,2,08,1.5,338.5,M,-23.7,M,0.8,0000*43
$GPGSA,A,3,03,16,06,07,23,19,11,13,,,,,2.4,1.5,1.9*36
$GPGSV,3,1,12,13,77,213,37,07,54,329,32,19,53,115,37,23,48,166,34*75
$GPGSV,3,2,12,03,41,058,31,06,29,050,34,08,23,301,,10,18,266,*7C
$GPGSV,3,3,12,16,16,049,31,28,11,242,17,11,11,149,24,05,02,317,*75
$GPRMC,011034.000,A,3353.7600,N,09832.0233,W,0.15,29.57,010412,,,D*40
$GPGGA,011035.000,3353.7601,N,09832.0233,W,2,08,1.5,338.6,M,-23.7,M,0.8,0000*40
$GPGSA,A,3,03,16,06,07,23,19,11,13,,,,,2.4,1.5,1.9*36
$GPRMC,011035.000,A,3353.7601,N,09832.0233,W,0.14,125.63,010412,,,D*7B
$GPGGA,011036.000,3353.7601,N,09832.0232,W,2,08,1.5,338.8,M,-23.7,M,1.8,0000*4D
$GPGSA,A,3,03,16,06,07,23,19,11,13,,,,,2.4,1.5,1.9*36
$GPRMC,011036.000,A,3353.7601,N,09832.0232,W,0.12,29.42,010412,,,D*41
$GPGGA,011037.000,3353.7601,N,09832.0232,W,2,08,1.5,339.0,M,-23.7,M,2.8,0000*46
$GPGSA,A,3,03,16,06,07,23,19,11,13,,,,,2.4,1.5,1.9*36
$GPRMC,011037.000,A,3353.7601,N,09832.0232,W,0.10,96.51,010412,,,D*44
$GPGGA,011038.000,3353.7601,N,09832.0232,W,2,08,1.5,339.1,M,-23.7,M,3.8,0000*49
$GPGSA,A,3,03,16,06,07,23,19,11,13,,,,,2.4,1.5,1.9*36
$GPRMC,011038.000,A,3353.7601,N,09832.0232,W,0.13,122.85,010412,,,D*7F
$GPGGA,011039.000,3353.7601,N,09832.0231,W,2,08,1.5,339.3,M,-23.7,M,0.8,0000*4A
$GPGSA,A,3,03,16,06,07,23,19,11,13,,,,,2.4,1.5,1.9*36
$GPGSV,3,1,12,13,77,213,37,07,54,329,32,19,53,115,37,23,48,166,35*74
$GPGSV,3,2,12,03,41,058,31,06,29,050,34,08,23,301,,10,18,266,20*7E
$GPGSV,3,3,12,16,16,049,31,28,11,242,15,11,11,149,24,05,02,317,*77
$GPRMC,011039.000,A,3353.7601,N,09832.0231,W,0.12,80.92,010412,,,D*43
$GPGGA,011040.000,3353.7602,N,09832.0231,W,2,08,1.5,339.6,M,-23.7,M,0.8,0000*42
$GPGSA,A,3,03,16,06,07,23,19,11,13,,,,,2.4,1.5,1.9*36
$GPRMC,011040.000,A,3353.7602,N,09832.0231,W,0.14,79.96,010412,,,D*4A
$GPGGA,011041.000,3353.7602,N,09832.0230,W,2,08,1.5,339.8,M,-23.7,M,0.8,0000*4C
$GPGSA,A,3,03,16,06,07,23,19,11,13,,,,,2.4,1.5,1.9*36
$GPRMC,011041.000,A,3353.7602,N,09832.0230,W,0.15,69.48,010412,,,D*49
$GPGGA,011042.000,3353.7602,N,09832.0230,W,2,08,1.5,340.0,M,-23.7,M,0.8,0000*49
$GPGSA,A,3,03,16,06,07,23,19,11,13,,,,,2.4,1.5,1.9*36
$GPRMC,011042.000,A,3353.7602,N,09832.0230,W,0.17,49.55,010412,,,D*46
$GPGGA,011043.000,3353.7602,N,09832.0229,W,2,08,1.5,340.2,M,-23.7,M,1.8,0000*43
$GPGSA,A,3,03,16,06,07,23,19,11,13,,,,,2.4,1.5,1.9*36
$GPRMC,011043.000,A,3353.7602,N,09832.0229,W,0.19,65.29,010412,,,D*44
$GPGGA,011044.000,3353.7602,N,09832.0229,W,2,08,1.5,340.2,M,-23.7,M,2.8,0000*47
$GPGSA,A,3,03,16,06,07,23,19,11,13,,,,,2.4,1.5,1.9*36
$GPGSV,3,1,12,13,77,213,37,07,54,329,33,19,53,115,37,23,48,166,35*75
$GPGSV,3,2,12,03,41,058,30,06,29,050,34,08,23,301,,10,18,266,20*7F
$GPGSV,3,3,12,16,16,049,30,28,11,242,,11,11,149,23,05,02,317,*75
$GPRMC,011044.000,A,3353.7602,N,09832.0229,W,0.23,120.67,010412,,,D*70
$GPGGA,011045.000,3353.7602,N,09832.0229,W,2,08,1.5,340.3,M,-23.7,M,3.8,0000*46
$GPGSA,A,3,03,16,06,07,23,19,11,13,,,,,2.4,1.5,1.9*36
$GPRMC,011045.000,A,3353.7602,N,09832.0229,W,0.18,105.26,010412,,,D*7B
$GPGGA,011046.000,3353.7602,N,09832.0228,W,2,08,1.5,340.4,M,-23.7,M,0.8,0000*40
$GPGSA,A,3,03,16,06,07,23,19,11,13,,,,,2.4,1.5,1.9*36
$GPRMC,011046.000,A,3353.7602,N,09832.0228,W,0.15,91.23,010412,,,D*4D
$GPGGA,011047.000,3353.7602,N,09832.0228,W,2,08,1.5,340.7,M,-23.7,M,0.8,0000*42
$GPGSA,A,3,03,16,06,07,23,19,11,13,,,,,2.4,1.5,1.9*36
$GPRMC,011047.000,A,3353.7602,N,09832.0228,W,0.14,48.09,010412,,,D*41
$GPGGA,011048.000,3353.7603,N,09832.0227,W,2,08,1.5,341.0,M,-23.7,M,1.8,0000*44
$GPGSA,A,3,03,16,06,07,23,19,11,13,,,,,2.4,1.5,1.9*36
$GPRMC,011048.000,A,3353.7603,N,09832.0227,W,0.19,36.73,010412,,,D*49
$GPGGA,011049.000,3353.7602,N,09832.0226,W,2,08,1.5,341.0,M,-23.7,M,0.8,0000*44
$GPGSA,A,3,03,16,06,07,23,19,11,13,,,,,2.4,1.5,1.9*36
$GPGSV,3,1,12,13,77,213,36,07,54,329,33,19,53,115,37,23,48,166,35*74
$GPGSV,3,2,12,03,41,058,29,06,29,050,34,08,23,301,,10,18,266,19*7D
$GPGSV,3,3,12,16,16,049,31,28,11,242,,11,11,149,22,05,02,317,*75
$GPRMC,011049.000,A,3353.7602,N,09832.0226,W,0.29,121.83,010412,,,D*73
$GPGGA,011050.000,3353.7602,N,09832.0226,W,2,08,1.5,341.0,M,-23.7,M,0.8,0000*4C
$GPGSA,A,3,03,16,06,07,23,19,11,13,,,,,2.4,1.5,1.9*36
$GPRMC,011050.000,A,3353.7602,N,09832.0226,W,0.33,134.95,010412,,,D*73
$GPGGA,011051.000,3353.7601,N,09832.0226,W,2,08,1.5,341.0,M,-23.7,M,0.8,0000*4E
$GPGSA,A,3,03,16,06,07,23,19,11,13,,,,,2.4,1.5,1.9*36
$GPRMC,011051.000,A,3353.7601,N,09832.0226,W,0.22,127.15,010412,,,D*7B
$GPGGA,011052.000,3353.7601,N,09832.0226,W,2,08,1.5,340.9,M,-23.7,M,0.8,0000*45
$GPGSA,A,3,03,16,06,07,23,19,11,13,,,,,2.4,1.5,1.9*36
$GPRMC,011052.000,A,3353.7601,N,09832.0226,W,0.28,144.61,010412,,,D*74
$GPGGA,011053.000,3353.7600,N,09832.0226,W,2,08,1.5,340.7,M,-23.7,M,0.8,0000*4B
$GPGSA,A,3,03,16,06,07,23,19,11,13,,,,,2.4,1.5,1.9*36
$GPRMC,011053.000,A,3353.7600,N,09832.0226,W,0.24,144.27,010412,,,D*7A
$GPGGA,011054.000,3353.7600,N,09832.0226,W,2,08,1.5,340.4,M,-23.7,M,1.8,0000*4E
$GPGSA,A,3,03,16,06,07,23,19,11,13,,,,,2.4,1.5,1.9*36
$GPGSV,3,1,12,13,77,213,36,07,54,329,34,19,53,115,38,23,48,166,34*7D
$GPGSV,3,2,12,03,41,058,29,06,29,050,34,08,23,301,,10,18,266,18*7C
$GPGSV,3,3,12,16,16,049,31,28,11,242,,11,11,149,22,05,02,317,*75
$GPRMC,011054.000,A,3353.7600,N,09832.0226,W,0.27,153.69,010412,,,D*72
$GPGGA,011055.000,3353.7599,N,09832.0226,W,2,08,1.5,340.4,M,-23.7,M,0.8,0000*4D
$GPGSA,A,3,03,16,06,07,23,19,11,13,,,,,2.4,1.5,1.9*36
$GPRMC,011055.000,A,3353.7599,N,09832.0226,W,0.04,149.88,010412,,,D*75
$GPGGA,011056.000,3353.7600,N,09832.0226,W,2,08,1.5,340.6,M,-23.7,M,1.8,0000*4E
$GPGSA,A,3,03,16,06,07,23,19,11,13,,,,,2.4,1.5,1.9*36
$GPRMC,011056.000,A,3353.7600,N,09832.0226,W,0.12,344.00,010412,,,D*7D
$GPGGA,011057.000,3353.7600,N,09832.0226,W,2,08,1.5,340.4,M,-23.7,M,0.8,0000*4C
$GPGSA,A,3,03,16,06,07,23,19,11,13,,,,,2.4,1.5,1.9*36
$GPRMC,011057.000,A,3353.7600,N,09832.0226,W,0.12,155.09,010412,,,D*77
$GPGGA,011058.000,3353.7600,N,09832.0226,W,2,08,1.5,340.5,M,-23.7,M,0.8,0000*42
$GPGSA,A,3,03,16,06,07,23,19,11,13,,,,,2.4,1.5,1.9*36
$GPRMC,011058.000,A,3353.7600,N,09832.0226,W,0.03,339.64,010412,,,D*7B
$GPGGA,011059.000,3353.7600,N,09832.0226,W,2,08,1.5,340.6,M,-23.7,M,0.8,0000*40
$GPGSA,A,3,03,16,06,07,23,19,11,13,,,,,2.4,1.5,1.9*36
$GPGSV,3,1,12,13,77,213,36,07,54,329,34,19,53,115,38,23,48,166,34*7D
$GPGSV,3,2,12,03,41,058,28,06,29,050,34,08,23,301,,10,18,266,17*72
$GPGSV,3,3,12,16,16,049,31,28,11,242,,11,11,149,21,05,02,317,*76
$GPRMC,011059.000,A,3353.7600,N,09832.0226,W,0.08,296.02,010412,,,D*75
$GPGGA,011100.000,3353.7601,N,09832.0226,W,2,08,1.5,340.9,M,-23.7,M,1.8,0000*42
$GPGSA,A,3,03,16,06,07,23,19,11,13,,,,,2.4,1.5,1.9*36
$GPRMC,011100.000,A,3353.7601,N,09832.0226,W,0.15,332.43,010412,,,D*7F
$GPGGA,011101.000,3353.7601,N,09832.0226,W,2,08,1.5,340.8,M,-23.7,M,2.8,0000*41
$GPGSA,A,3,03,16,06,07,23,19,11,13,,,,,2.4,1.5,1.9*36
$GPRMC,011101.000,A,3353.7601,N,09832.0226,W,0.11,163.01,010412,,,D*7A
$GPGGA,011102.000,3353.7601,N,09832.0227,W,2,08,1.5,340.8,M,-23.7,M,3.8,0000*42
$GPGSA,A,3,03,16,06,07,23,19,11,13,,,,,2.4,1.5,1.9*36
$GPRMC,011102.000,A,3353.7601,N,09832.0227,W,0.08,181.70,010412,,,D*7A
$GPGGA,011103.000,3353.7600,N,09832.0227,W,2,08,1.5,340.8,M,-23.7,M,0.8,0000*41
$GPGSA,A,3,03,16,06,07,23,19,11,13,,,,,2.4,1.5,1.9*36
$GPRMC,011103.000,A,3353.7600,N,09832.0227,W,0.19,153.30,010412,,,D*71
$GPGGA,011104.000,3353.7600,N,09832.0226,W,2,08,1.5,341.0,M,-23.7,M,0.8,0000*4E
$GPGSA,A,3,03,16,06,07,23,19,11,13,,,,,2.4,1.5,1.9*36
$GPGSV,3,1,12,13,77,213,36,07,54,329,34,19,53,115,38,23,48,166,34*7D
$GPGSV,3,2,12,03,41,058,27,06,29,050,34,08,23,301,,10,18,266,17*7D
$GPGSV,3,3,12,16,16,049,31,28,11,242,,11,11,149,21,05,02,317,*76
$GPRMC,011104.000,A,3353.7600,N,09832.0226,W,0.03,340.57,010412,,,D*7D
$GPGGA,011105.000,3353.7600,N,09832.0226,W,2,08,1.5,341.2,M,-23.7,M,0.8,0000*4D
$GPGSA,A,3,03,16,06,07,23,19,11,13,,,,,2.4,1.5,1.9*36
$GPRMC,011105.000,A,3353.7600,N,09832.0226,W,0.07,67.47,010412,,,D*4F
$GPGGA,011106.000,3353.7600,N,09832.0225,W,2,08,1.5,341.4,M,-23.7,M,1.8,0000*4A
$GPGSA,A,3,03,16,06,07,23,19,11,13,,,,,2.4,1.5,1.9*36
$GPRMC,011106.000,A,3353.7600,N,09832.0225,W,0.11,51.89,010412,,,D*4F
$GPGGA,011107.000,3353.7600,N,09832.0225,W,2,08,1.5,341.3,M,-23.7,M,0.8,0000*4D
$GPGSA,A,3,03,16,06,07,23,19,11,13,,,,,2.4,1.5,1.9*36
$GPRMC,011107.000,A,3353.7600,N,09832.0225,W,0.27,137.75,010412,,,D*79
$GPGGA,011108.000,3353.7600,N,09832.0225,W,2,08,1.5,341.2,M,-23.7,M,1.8,0000*42
$GPGSA,A,3,03,16,06,07,23,19,11,13,,,,,2.4,1.5,1.9*36
$GPRMC,011108.000,A,3353.7600,N,09832.0225,W,0.30,137.58,010412,,,D*7F
$GPGGA,011109.000,3353.7599,N,09832.0225,W,2,08,1.5,341.0,M,-23.7,M,0.8,0000*43
$GPGSA,A,3,03,16,06,07,23,19,11,13,,,,,2.4,1.5,1.9*36
$GPGSV,3,1,12,13,77,213,36,07,54,329,34,19,53,115,38,23,48,166,34*7D
$GPGSV,3,2,12,03,41,058,26,06,29,050,34,08,23,301,,10,18,266,16*7D
$GPGSV,3,3,12,16,16,049,32,28,11,242,,11,11,149,21,05,02,317,*75
$GPRMC,011109.000,A,3353.7599,N,09832.0225,W,0.22,154.09,010412,,,D*7F
$GPGGA,011110.000,3353.7599,N,09832.0225,W,2,08,1.5,341.1,M,-23.7,M,0.8,0000*4A
$GPGSA,A,3,03,16,06,07,23,19,11,13,,,,,2.4,1.5,1.9*36
$GPRMC,011110.000,A,3353.7599,N,09832.0225,W,0.05,322.90,010412,,,D*71
$GPGGA,011111.000,3353.7600,N,09832.0224,W,2,08,1.5,341.4,M,-23.7,M,0.8,0000*4C
$GPGSA,A,3,03,16,06,07,23,19,11,13,,,,,2.4,1.5,1.9*36
$GPRMC,011111.000,A,3353.7600,N,09832.0224,W,0.16,327.10,010412,,,D*7D
$GPGGA,011112.000,3353.7601,N,09832.0224,W,2,08,1.5,341.7,M,-23.7,M,1.8,0000*4C
$GPGSA,A,3,03,16,06,07,23,19,11,13,,,,,2.4,1.5,1.9*36
$GPRMC,011112.000,A,3353.7601,N,09832.0224,W,0.21,336.70,010412,,,D*7D
$GPGGA,011113.000,3353.7602,N,09832.0224,W,2,08,1.5,342.0,M,-23.7,M,2.8,0000*49
$GPGSA,A,3,03,16,06,07,23,19,11,13,,,,,2.4,1.5,1.9*36
$GPRMC,011113.000,A,3353.7602,N,09832.0224,W,0.21,346.51,010412,,,D*7B
$GPGGA,011114.000,3353.7602,N,09832.0224,W,2,08,1.5,342.2,M,-23.7,M,3.8,0000*4D
$GPGSA,A,3,03,16,06,07,23,19,11,13,,,,,2.4,1.5,1.9*36
$GPGSV,3,1,12,13,77,213,35,07,54,329,34,19,53,115,38,23,48,166,34*7E
$GPGSV,3,2,12,03,41,058,26,06,29,050,33,08,23,301,,10,18,266,14*78
$GPGSV,3,3,12,16,16,049,32,28,11,242,,11,11,149,21,05,02,317,*75
$GPRMC,011114.000,A,3353.7602,N,09832.0224,W,0.10,12.16,010412,,,D*4F
$GPGGA,011115.000,3353.7602,N,09832.0224,W,2,08,1.5,342.2,M,-23.7,M,0.8,0000*4F
$GPGSA,A,3,03,16,06,07,23,19,11,13,,,,,2.4,1.5,1.9*36
$GPRMC,011115.000,A,3353.7602,N,09832.0224,W,0.18,118.90,010412,,,D*73
$GPGGA,011116.000,3353.7602,N,09832.0223,W,2,08,1.5,342.4,M,-23.7,M,0.8,0000*4D
$GPGSA,A,3,03,16,06,07,23,19,11,13,,,,,2.4,1.5,1.9*36
$GPRMC,011116.000,A,3353.7602,N,09832.0223,W,0.11,56.33,010412,,,D*4C
$GPGGA,011117.000,3353.7602,N,09832.0222,W,2,08,1.5,342.7,M,-23.7,M,0.8,0000*4E
$GPGSA,A,3,03,16,06,07,23,19,11,13,,,,,2.4,1.5,1.9*36
$GPRMC,011117.000,A,3353.7602,N,09832.0222,W,0.16,30.14,010412,,,D*4E
$GPGGA,011118.000,3353.7602,N,09832.0222,W,2,08,1.5,342.6,M,-23.7,M,1.8,0000*41
$GPGSA,A,3,03,16,06,07,23,19,11,13,,,,,2.4,1.5,1.9*36
$GPRMC,011118.000,A,3353.7602,N,09832.0222,W,0.26,124.33,010412,,,D*73
$GPGGA,011119.000,3353.7602,N,09832.0221,W,2,08,1.5,342.8,M,-23.7,M,2.8,0000*4E
$GPGSA,A,3,03,16,06,07,23,19,11,13,,,,,2.4,1.5,1.9*36
$GPGSV,3,1,12,13,77,213,35,07,54,329,33,19,53,115,38,23,48,166,34*79
$GPGSV,3,2,12,03,41,058,26,06,29,050,33,08,23,301,,10,18,266,*7D
$GPGSV,3,3,12,16,16,049,32,28,11,242,,11,11,149,21,05,02,317,*75
$GPRMC,011119.000,A,3353.7602,N,09832.0221,W,0.15,61.27,010412,,,D*44
$GPGGA,011120.000,3353.7602,N,09832.0221,W,2,08,1.5,342.8,M,-23.7,M,3.8,0000*45
$GPGSA,A,3,03,16,06,07,23,19,11,13,,,,,2.4,1.5,1.9*36
$GPRMC,011120.000,A,3353.7602,N,09832.0221,W,0.21,117.57,010412,,,D*7E
$GPGGA,011121.000,3353.7602,N,09832.0221,W,2,08,1.5,342.9,M,-23.7,M,0.8,0000*46
$GPGSA,A,3,03,16,06,07,23,19,11,13,,,,,2.4,1.5,1.9*36
$GPRMC,011121.000,A,3353.7602,N,09832.0221,W,0.12,34.20,010412,,,D*4F
$GPGGA,011122.000,3353.7602,N,09832.0221,W,2,08,1.5,342.8,M,-23.7,M,0.8,0000*44
$GPGSA,A,3,03,16,06,07,23,19,11,13,,,,,2.4,1.5,1.9*36
$GPRMC,011122.000,A,3353.7602,N,09832.0221,W,0.16,119.76,010412,,,D*75
$GPGGA,011123.000,3353.7602,N,09832.0221,W,2,08,1.5,342.8,M,-23.7,M,0.8,0000*45
$GPGSA,A,3,03,16,06,07,23,19,11,13,,,,,2.4,1.5,1.9*36
$GPRMC,011123.000,A,3353.7602,N,09832.0221,W,0.07,113.66,010412,,,D*7F
$GPGGA,011124.000,3353.7602,N,09832.0221,W,2,08,1.5,342.7,M,-23.7,M,1.8,0000*4C
$GPGSA,A,3,03,16,06,07,23,19,11,13,,,,,2.4,1.5,1.9*36
$GPGSV,3,1,12,13,77,213,35,07,54,329,33,19,53,115,38,23,48,166,34*79
$GPGSV,3,2,12,03,41,058,26,06,29,050,32,08,23,301,,10,18,266,*7C
$GPGSV,3,3,12,16,16,049,32,28,11,242,,11,11,149,21,05,02,317,*75
$GPRMC,011124.000,A,3353.7602,N,09832.0221,W,0.19,149.12,010412,,,D*7B
$GPGGA,011125.000,3353.7602,N,09832.0221,W,2,08,1.5,342.9,M,-23.7,M,0.8,0000*42
$GPGSA,A,3,03,16,06,07,23,19,11,13,,,,,2.4,1.5,1.9*36
$GPRMC,011125.000,A,3353.7602,N,09832.0221,W,0.09,1.62,010412,,,D*71
$GPGGA,011126.000,3353.7603,N,09832.0220,W,2,08,1.5,342.9,M,-23.7,M,0.8,0000*41
$GPGSA,A,3,03,16,06,07,23,19,11,13,,,,,2.4,1.5,1.9*36
$GPRMC,011126.000,A,3353.7603,N,09832.0220,W,0.12,5.01,010412,,,D*79
$GPGGA,011127.000,3353.7603,N,09832.0220,W,2,08,1.5,342.7,M,-23.7,M,0.8,0000*4E
$GPGSA,A,3,03,16,06,07,23,19,11,13,,,,,2.4,1.5,1.9*36
$GPRMC,011127.000,A,3353.7603,N,09832.0220,W,0.12,126.76,010412,,,D*78
$GPGGA,011128.000,3353.7603,N,09832.0219,W,2,08,1.5,342.7,M,-23.7,M,0.8,0000*4B
$GPGSA,A,3,03,16,06,07,23,19,11,13,,,,,2.4,1.5,1.9*36
$GPRMC,011128.000,A,3353.7603,N,09832.0219,W,0.09,34.43,010412,,,D*43
$GPGGA,011129.000,3353.7603,N,09832.0219,W,2,08,1.5,342.6,M,-23.7,M,0.8,0000*4B
$GPGSA,A,3,03,16,06,07,23,19,11,13,,,,,2.4,1.5,1.9*36
$GPGSV,3,1,12,13,77,213,35,07,54,329,33,19,53,115,38,23,48,166,34*79
$GPGSV,3,2,12,03,41,058,27,06,29,050,32,08,23,301,,10,18,266,*7D
$GPGSV,3,3,12,16,16,049,32,28,11,242,,11,11,149,21,05,02,317,*75
$GPRMC,011129.000,A,3353.7603,N,09832.0219,W,0.11,78.04,010412,,,D*40
$GPGGA,011130.000,3353.7603,N,09832.0219,W,2,08,1.5,342.3,M,-23.7,M,0.8,0000*46
$GPGSA,A,3,03,16,06,07,23,19,11,13,,,,,2.4,1.5,1.9*36
$GPRMC,011130.000,A,3353.7603,N,09832.0219,W,0.24,138.63,010412,,,D*7A
$GPGGA,011131.000,3353.7603,N,09832.0218,W,2,08,1.5,341.9,M,-23.7,M,1.8,0000*4E
$GPGSA,A,3,03,16,06,07,23,19,11,13,,,,,2.4,1.5,1.9*36
$GPRMC,011131.000,A,3353.7603,N,09832.0218,W,0.22,148.04,010412,,,D*7A
$GPGGA,011132.000,3353.7603,N,09832.0218,W,2,08,1.5,341.9,M,-23.7,M,2.8,0000*4E
$GPGSA,A,3,03,16,06,07,23,19,11,13,,,,,2.4,1.5,1.9*36
$GPRMC,011132.000,A,3353.7603,N,09832.0218,W,0.06,81.18,010412,,,D*46
$GPGGA,011133.000,3353.7603,N,09832.0217,W,2,08,1.5,341.9,M,-23.7,M,0.8,0000*42
$GPGSA,A,3,03,16,06,07,23,19,11,13,,,,,2.4,1.5,1.9*36
$GPRMC,011133.000,A,3353.7603,N,09832.0217,W,0.06,44.81,010412,,,D*41
$GPGGA,011134.000,3353.7603,N,09832.0217,W,2,08,1.5,341.8,M,-23.7,M,0.8,0000*44
$GPGSA,A,3,03,16,06,07,23,19,11,13,,,,,2.4,1.5,1.9*36
$GPGSV,3,1,12,13,77,213,34,07,54,329,33,19,53,115,39,23,48,166,34*79
$GPGSV,3,2,12,03,41,058,26,06,29,050,31,08,23,301,,10,18,266,*7F
$GPGSV,3,3,12,16,16,049,32,28,11,242,,11,11,149,21,05,02,317,*75
$GPRMC,011134.000,A,3353.7603,N,09832.0217,W,0.07,96.65,010412,,,D*42
$GPGGA,011135.000,3353.7603,N,09832.0217,W,2,08,1.5,341.8,M,-23.7,M,0.8,0000*45
$GPGSA,A,3,03,16,06,07,23,19,11,13,,,,,2.4,1.5,1.9*36
$GPRMC,011135.000,A,3353.7603,N,09832.0217,W,0.03,23.59,010412,,,D*46
$GPGGA,011136.000,3353.7603,N,09832.0217,W,2,08,1.5,341.5,M,-23.7,M,1.8,0000*4A
$GPGSA,A,3,03,16,06,07,23,19,11,13,,,,,2.4,1.5,1.9*36
$GPRMC,011136.000,A,3353.7603,N,09832.0217,W,0.18,160.56,010412,,,D*76
$GPGGA,011137.000,3353.7603,N,09832.0217,W,2,08,1.5,341.4,M,-23.7,M,0.8,0000*4B
$GPGSA,A,3,03,16,06,07,23,19,11,13,,,,,2.4,1.5,1.9*36
$GPRMC,011137.000,A,3353.7603,N,09832.0217,W,0.10,153.94,010412,,,D*71
$GPGGA,011138.000,3353.7602,N,09832.0217,W,2,08,1.5,341.1,M,-23.7,M,0.8,0000*40
$GPGSA,A,3,03,16,06,07,23,19,11,13,,,,,2.4,1.5,1.9*36
$GPRMC,011138.000,A,3353.7602,N,09832.0217,W,0.15,174.33,010412,,,D*72
$GPGGA,011139.000,3353.7602,N,09832.0217,W,2,08,1.5,340.9,M,-23.7,M,0.8,0000*48
$GPGSA,A,3,03,16,06,07,23,19,11,13,,,,,2.4,1.5,1.9*36
$GPGSV,3,1,12,13,77,213,34,07,54,329,33,19,53,115,39,23,48,166,34*79
$GPGSV,3,2,12,03,41,058,26,06,29,050,31,08,23,301,,10,18,266,*7F
$GPGSV,3,3,12,16,16,049,32,28,11,242,,11,11,149,21,05,02,317,*75
$GPRMC,011139.000,A,3353.7602,N,09832.0217,W,0.10,186.86,010412,,,D*75
$GPGGA,011140.000,3353.7602,N,09832.0217,W,2,08,1.5,340.9,M,-23.7,M,0.8,0000*46
$GPGSA,A,3,03,16,06,07,23,19,11,13,,,,,2.4,1.5,1.9*36
$GPRMC,011140.000,A,3353.7602,N,09832.0217,W,0.04,333.95,010412,,,D*70
$GPGGA,011141.000,3353.7602,N,09832.0217,W,2,08,1.5,340.9,M,-23.7,M,0.8,0000*47
$GPGSA,A,3,03,16,06,07,23,19,11,13,,,,,2.4,1.5,1.9*36
$GPRMC,011141.000,A,3353.7602,N,09832.0217,W,0.09,327.10,010412,,,D*74
$GPGGA,011142.000,3353.7602,N,09832.0217,W,2,08,1.5,340.7,M,-23.7,M,1.8,0000*4B
$GPGSA,A,3,03,16,06,07,23,19,11,13,,,,,2.4,1.5,1.9*36
$GPRMC,011142.000,A,3353.7602,N,09832.0217,W,0.01,23.88,010412,,,D*49
$GPGGA,011143.000,3353.7602,N,09832.0217,W,2,08,1.5,340.4,M,-23.7,M,2.8,0000*4A
$GPGSA,A,3,03,16,06,07,23,19,11,13,,,,,2.4,1.5,1.9*36
$GPRMC,011143.000,A,3353.7602,N,09832.0217,W,0.16,177.19,010412,,,D*76
$GPGGA,011144.000,3353.7602,N,09832.0217,W,2,08,1.5,340.2,M,-23.7,M,3.8,0000*4A
$GPGSA,A,3,03,16,06,07,23,19,11,13,,,,,2.4,1.5,1.9*36
$GPGSV,3,1,12,13,77,213,33,07,54,329,33,19,53,115,39,23,48,166,35*7F
$GPGSV,3,2,12,03,41,058,26,06,29,050,31,08,23,301,,10,18,266,*7F
$GPGSV,3,3,12,16,16,049,31,28,11,242,,11,11,149,21,05,02,317,*76
$GPRMC,011144.000,A,3353.7602,N,09832.0217,W,0.09,204.37,010412,,,D*74
$GPGGA,011145.000,3353.7602,N,09832.0217,W,2,08,1.5,340.2,M,-23.7,M,0.8,0000*48
$GPGSA,A,3,03,16,06,07,23,19,11,13,,,,,2.4,1.5,1.9*36
$GPRMC,011145.000,A,3353.7602,N,09832.0217,W,0.04,310.63,010412,,,D*7D
$GPGGA,011146.000,3353.7601,N,09832.0218,W,2,08,1.5,340.0,M,-23.7,M,0.8,0000*45
$GPGSA,A,3,03,16,06,07,23,19,11,13,,,,,2.4,1.5,1.9*36
$GPRMC,011146.000,A,3353.7601,N,09832.0218,W,0.12,186.15,010412,,,D*79
$GPGGA,011147.000,3353.7601,N,09832.0219,W,2,08,1.5,339.8,M,-23.7,M,0.8,0000*43
$GPGSA,A,3,03,16,06,07,23,19,11,13,,,,,2.4,1.5,1.9*36
$GPRMC,011147.000,A,3353.7601,N,09832.0219,W,0.19,172.19,010412,,,D*75
$GPGGA,011148.000,3353.7600,N,09832.0219,W,2,08,1.5,339.9,M,-23.7,M,1.8,0000*4D
$GPGSA,A,3,03,16,06,07,23,19,11,13,,,,,2.4,1.5,1.9*36
$GPRMC,011148.000,A,3353.7600,N,09832.0219,W,0.03,188.02,010412,,,D*7F
$GPGGA,011149.000,3353.7600,N,09832.0219,W,2,08,1.5,339.9,M,-23.7,M,2.8,0000*4F
$GPGSA,A,3,03,16,06,07,23,19,11,13,,,,,2.4,1.5,1.9*36
$GPGSV,3,1,12,13,77,213,33,07,54,329,32,19,53,115,39,23,48,166,35*7E
$GPGSV,3,2,12,03,41,058,27,06,29,050,31,08,23,301,,10,18,266,*7E
$GPGSV,3,3,12,16,16,049,31,28,11,242,,11,11,149,21,05,02,317,*76
$GPRMC,011149.000,A,3353.7600,N,09832.0219,W,0.01,175.23,010412,,,D*7D
$GPGGA,011150.000,3353.7600,N,09832.0219,W,2,08,1.5,339.7,M,-23.7,M,3.8,0000*48
$GPGSA,A,3,03,16,06,07,23,19,11,13,,,,,2.4,1.5,1.9*36
$GPRMC,011150.000,A,3353.7600,N,09832.0219,W,0.20,162.24,010412,,,D*77
$GPGGA,011151.000,3353.7599,N,09832.0219,W,2,08,1.5,339.7,M,-23.7,M,0.8,0000*49
$GPGSA,A,3,03,16,06,07,23,19,11,13,,,,,2.4,1.5,1.9*36
$GPRMC,011151.000,A,3353.7599,N,09832.0219,W,0.08,142.59,010412,,,D*77
$GPGGA,011152.000,3353.7599,N,09832.0220,W,2,08,1.5,339.6,M,-23.7,M,0.8,0000*41
$GPGSA,A,3,03,16,06,07,23,19,11,13,,,,,2.4,1.5,1.9*36
$GPRMC,011152.000,A,3353.7599,N,09832.0220,W,0.19,158.97,010412,,,D*77
$GPGGA,011153.000,3353.7598,N,09832.0220,W,2,08,1.5,339.4,M,-23.7,M,0.8,0000*43
$GPGSA,A,3,03,16,06,07,23,19,11,13,,,,,2.4,1.5,1.9*36
$GPRMC,011153.000,A,3353.7598,N,09832.0220,W,0.26,166.80,010412,,,D*70
$GPGGA,011154.000,3353.7597,N,09832.0220,W,2,08,1.5,339.4,M,-23.7,M,1.8,0000*4A
$GPGSA,A,3,03,16,06,07,23,19,11,13,,,,,2.4,1.5,1.9*36
$GPGSV,3,1,12,13,77,213,32,07,54,329,32,19,53,115,39,23,48,166,36*7C
$GPGSV,3,2,12,03,41,058,27,06,29,050,31,08,23,301,,10,18,266,*7E
$GPGSV,3,3,12,16,16,049,30,28,11,242,,11,11,149,20,05,02,317,*76
$GPRMC,011154.000,A,3353.7597,N,09832.0220,W,0.06,193.19,010412,,,D*70
$GPGGA,011155.000,3353.7597,N,09832.0221,W,2,08,1.5,339.5,M,-23.7,M,2.8,0000*48
$GPGSA,A,3,03,16,06,07,23,19,11,13,,,,,2.4,1.5,1.9*36
$GPRMC,011155.000,A,3353.7597,N,09832.0221,W,0.02,272.85,010412,,,D*7D
$GPGGA,011156.000,3353.7597,N,09832.0221,W,2,08,1.5,339.5,M,-23.7,M,0.8,0000*49
$GPGSA,A,3,03,16,06,07,23,19,11,13,,,,,2.4,1.5,1.9*36
$GPRMC,011156.000,A,3353.7597,N,09832.0221,W,0.11,159.82,010412,,,D*71
$GPGGA,011157.000,3353.7597,N,09832.0221,W,2,08,1.5,339.5,M,-23.7,M,0.8,0000*48
$GPGSA,A,3,03,16,06,07,23,19,11,13,,,,,2.4,1.5,1.9*36
$GPRMC,011157.000,A,3353.7597,N,09832.0221,W,0.06,211.09,010412,,,D*7A
$GPGGA,011158.000,3353.7597,N,09832.0222,W,2,08,1.5,339.5,M,-23.7,M,0.8,0000*44
$GPGSA,A,3,03,16,06,07,23,19,11,13,,,,,2.4,1.5,1.9*36
$GPRMC,011158.000,A,3353.7597,N,09832.0222,W,0.04,297.86,010412,,,D*7D
$GPGGA,011159.000,3353.7597,N,09832.0222,W,2,08,1.5,339.6,M,-23.7,M,0.8,0000*46
$GPGSA,A,3,03,16,06,07,23,19,11,13,,,,,2.4,1.5,1.9*36
$GPGSV,3,1,12,13,77,213,32,07,54,329,31,19,53,115,40,23,48,166,36*71
$GPGSV,3,2,12,03,41,058,28,06,29,050,31,08,23,301,14,10,18,266,*74
$GPGSV,3,3,12,16,16,049,30,28,11,242,,11,11,149,20,05,02,317,*76
$GPRMC,011159.000,A,3353.7597,N,09832.0222,W,0.04,274.11,010412,,,D*7F
$GPGGA,011200.000,3353.7597,N,09832.0222,W,2,08,1.5,339.8,M,-23.7,M,1.8,0000*46
$GPGSA,A,3,03,16,06,07,23,19,11,13,,,,,2.4,1.5,1.9*36
$GPRMC,011200.000,A,3353.7597,N,09832.0222,W,0.06,311.23,010412,,,D*71
$GPGGA,011201.000,3353.7597,N,09832.0222,W,2,08,1.5,339.9,M,-23.7,M,0.8,0000*47
$GPGSA,A,3,03,16,06,07,23,19,11,13,,,,,2.4,1.5,1.9*36
$GPRMC,011201.000,A,3353.7597,N,09832.0222,W,0.07,1.88,010412,,,D*72
$GPGGA,011202.000,3353.7597,N,09832.0223,W,2,08,1.5,339.9,M,-23.7,M,1.8,0000*44
$GPGSA,A,3,03,16,06,07,23,19,11,13,,,,,2.4,1.5,1.9*36
$GPRMC,011202.000,A,3353.7597,N,09832.0223,W,0.05,178.95,010412,,,D*71
$GPGGA,011203.000,3353.7597,N,09832.0223,W,2,08,1.5,339.9,M,-23.7,M,0.8,0000*44
$GPGSA,A,3,03,16,06,07,23,19,11,13,,,,,2.4,1.5,1.9*36
$GPRMC,011203.000,A,3353.7597,N,09832.0223,W,0.21,142.98,010412,,,D*72
$GPGGA,011204.000,3353.7596,N,09832.0223,W,2,08,1.5,339.7,M,-23.7,M,0.8,0000*4C
$GPGSA,A,3,03,16,06,07,23,19,11,13,,,,,2.4,1.5,1.9*36
$GPGSV,3,1,12,13,77,213,31,07,54,329,31,19,53,115,40,23,48,166,36*72
$GPGSV,3,2,12,03,41,058,28,06,29,050,31,08,23,301,16,10,18,266,*76
$GPGSV,3,3,12,16,16,049,29,28,11,242,,11,11,149,20,05,02,317,*7E
$GPRMC,011204.000,A,3353.7596,N,09832.0223,W,0.25,147.00,010412,,,D*74
$GPGGA,011205.000,3353.7596,N,09832.0223,W,2,08,1.5,339.9,M,-23.7,M,0.8,0000*43
$GPGSA,A,3,03,16,06,07,23,19,11,13,,,,,2.4,1.5,1.9*36
$GPRMC,011205.000,A,3353.7596,N,09832.0223,W,0.03,79.97,010412,,,D*43
$GPGGA,011206.000,3353.7596,N,09832.0223,W,2,08,1.5,340.1,M,-23.7,M,1.8,0000*47
$GPGSA,A,3,03,16,06,07,23,19,11,13,,,,,2.4,1.5,1.9*36
$GPRMC,011206.000,A,3353.7596,N,09832.0223,W,0.05,34.69,010412,,,D*4E
$GPGGA,011207.000,3353.7596,N,09832.0223,W,2,08,1.5,340.4,M,-23.7,M,2.8,0000*40
$GPGSA,A,3,03,16,06,07,23,19,11,13,,,,,2.4,1.5,1.9*36
$GPRMC,011207.000,A,3353.7596,N,09832.0223,W,0.10,36.27,010412,,,D*43
$GPGGA,011208.000,3353.7596,N,09832.0224,W,2,08,1.5,340.4,M,-23.7,M,0.8,0000*4A
$GPGSA,A,3,03,16,06,07,23,19,11,13,,,,,2.4,1.5,1.9*36
$GPRMC,011208.000,A,3353.7596,N,09832.0224,W,0.08,144.09,010412,,,D*7A
$GPGGA,011209.000,3353.7596,N,09832.0224,W,2,08,1.5,340.5,M,-23.7,M,0.8,0000*4A
$GPGSA,A,3,03,16,06,07,23,19,11,13,,,,,2.4,1.5,1.9*36
$GPGSV,3,1,12,13,77,213,31,07,54,329,30,19,53,115,40,23,48,166,37*72
$GPGSV,3,2,12,03,41,058,29,06,29,050,31,08,23,301,15,10,18,266,*74
$GPGSV,3,3,12,16,16,049,27,28,11,242,,11,11,149,20,05,02,317,*70
$GPRMC,011209.000,A,3353.7596,N,09832.0224,W,0.04,22.81,010412,,,D*46
$GPGGA,011210.000,3353.7597,N,09832.0225,W,2,08,1.5,340.5,M,-23.7,M,0.8,0000*42
$GPGSA,A,3,03,16,06,07,23,19,11,13,,,,,2.4,1.5,1.9*36
$GPRMC,011210.000,A,3353.7597,N,09832.0225,W,0.05,258.30,010412,,,D*7A
$GPGGA,011211.000,3353.7596,N,09832.0226,W,2,08,1.5,340.5,M,-23.7,M,0.8,0000*41
$GPGSA,A,3,03,16,06,07,23,19,11,13,,,,,2.4,1.5,1.9*36
$GPRMC,011211.000,A,3353.7596,N,09832.0226,W,0.06,182.95,010412,,,D*71
$GPGGA,011212.000,3353.7597,N,09832.0226,W,2,08,1.5,340.5,M,-23.7,M,0.8,0000*43
$GPGSA,A,3,03,16,06,07,23,19,11,13,,,,,2.4,1.5,1.9*36
$GPRMC,011212.000,A,3353.7597,N,09832.0226,W,0.13,25.72,010412,,,D*42
$GPGGA,011213.000,3353.7597,N,09832.0226,W,2,08,1.5,340.3,M,-23.7,M,1.8,0000*45
$GPGSA,A,3,03,16,06,07,23,19,11,13,,,,,2.4,1.5,1.9*36
$GPRMC,011213.000,A,3353.7597,N,09832.0226,W,0.11,178.42,010412,,,D*7B
$GPGGA,011214.000,3353.7596,N,09832.0227,W,2,08,1.5,340.1,M,-23.7,M,2.8,0000*43
$GPGSA,A,3,03,16,06,07,23,19,11,13,,,,,2.4,1.5,1.9*36
$GPGSV,3,1,12,13,77,213,32,07,54,329,30,19,53,115,40,23,48,166,37*71
$GPGSV,3,2,12,03,41,058,30,06,29,050,31,08,23,301,,10,18,266,*78
$GPGSV,3,3,12,16,16,049,24,28,11,242,,11,11,149,20,05,02,317,*73
$GPRMC,011214.000,A,3353.7596,N,09832.0227,W,0.16,190.81,010412,,,D*72
$GPGGA,011215.000,3353.7596,N,09832.0226,W,2,08,1.5,340.1,M,-23.7,M,0.8,0000*41
$GPGSA,A,3,03,16,06,07,23,19,11,13,,,,,2.4,1.5,1.9*36
$GPRMC,011215.000,A,3353.7596,N,09832.0226,W,0.18,162.78,010412,,,D*77
$GPGGA,011216.000,3353.7597,N,09832.0225,W,2,08,1.5,340.4,M,-23.7,M,0.8,0000*45
$GPGSA,A,3,03,16,06,07,23,19,11,13,,,,,2.4,1.5,1.9*36
$GPRMC,011216.000,A,3353.7597,N,09832.0225,W,0.08,165.55,010412,,,D*7F
$GPGGA,011217.000,3353.7597,N,09832.0224,W,2,08,1.5,340.7,M,-23.7,M,0.8,0000*46
$GPGSA,A,3,03,16,06,07,23,19,11,13,,,,,2.4,1.5,1.9*36
$GPRMC,011217.000,A,3353.7597,N,09832.0224,W,0.04,162.66,010412,,,D*74
$GPGGA,011218.000,3353.7598,N,09832.0224,W,2,08,1.5,341.0,M,-23.7,M,1.8,0000*41
$GPGSA,A,3,03,16,06,07,23,19,11,13,,,,,2.4,1.5,1.9*36
$GPRMC,011218.000,A,3353.7598,N,09832.0224,W,0.02,345.17,010412,,,D*73
$GPGGA,011219.000,3353.7598,N,09832.0223,W,2,08,1.5,341.4,M,-23.7,M,0.8,0000*42
$GPGSA,A,3,03,16,06,07,23,19,11,13,,,,,2.4,1.5,1.9*36
$GPGSV,3,1,12,13,77,213,32,07,54,329,30,19,53,115,40,23,48,166,37*71
$GPGSV,3,2,12,03,41,058,30,06,29,050,32,08,23,301,,10,18,266,*7B
$GPGSV,3,3,12,16,16,049,24,28,11,242,,11,11,149,21,05,02,317,*72
$GPRMC,011219.000,A,3353.7598,N,09832.0223,W,0.06,16.80,010412,,,D*4A
$GPGGA,011220.000,3353.7599,N,09832.0222,W,2,08,1.5,341.8,M,-23.7,M,1.8,0000*45
$GPGSA,A,3,03,16,06,07,23,19,11,13,,,,,2.4,1.5,1.9*36
$GPRMC,011220.000,A,3353.7599,N,09832.0222,W,0.03,141.42,010412,,,D*78
$GPGGA,011221.000,3353.7599,N,09832.0222,W,2,08,1.5,342.2,M,-23.7,M,0.8,0000*4C
$GPGSA,A,3,03,16,06,07,23,19,11,13,,,,,2.4,1.5,1.9*36
$GPRMC,011221.000,A,3353.7599,N,09832.0222,W,0.07,299.49,010412,,,D*70
$GPGGA,011222.000,3353.7600,N,09832.0222,W,2,08,1.5,342.4,M,-23.7,M,0.8,0000*4A
$GPGSA,A,3,03,16,06,07,23,19,11,13,,,,,2.4,1.5,1.9*36
$GPRMC,011222.000,A,3353.7600,N,09832.0222,W,0.02,144.67,010412,,,D*7A
$GPGGA,011223.000,3353.7600,N,09832.0222,W,2,08,1.5,342.4,M,-23.7,M,0.8,0000*4B
$GPGSA,A,3,03,16,06,07,23,19,11,13,,,,,2.4,1.5,1.9*36
$GPRMC,011223.000,A,3353.7600,N,09832.0222,W,0.20,98.02,010412,,,D*48
$GPGGA,011224.000,3353.7600,N,09832.0221,W,2,08,1.5,342.5,M,-23.7,M,1.8,0000*4F
$GPGSA,A,3,03,16,06,07,23,19,11,13,,,,,2.4,1.5,1.9*36
$GPGSV,3,1,12,13,77,213,32,07,54,329,30,19,53,115,40,23,48,166,37*71
$GPGSV,3,2,12,03,41,058,31,06,29,050,32,08,23,301,,10,18,266,*7A
$GPGSV,3,3,12,16,16,049,23,28,11,242,,11,11,149,21,05,02,317,*75
$GPRMC,011224.000,A,3353.7600,N,09832.0221,W,0.16,62.41,010412,,,D*4B
$GPGGA,011225.000,3353.7600,N,09832.0221,W,2,08,1.5,342.6,M,-23.7,M,0.8,0000*4C
$GPGSA,A,3,03,16,06,07,23,19,11,13,,,,,2.4,1.5,1.9*36
$GPRMC,011225.000,A,3353.7600,N,09832.0221,W,0.12,159.02,010412,,,D*70
$GPGGA,011226.000,3353.7600,N,09832.0221,W,2,08,1.5,342.8,M,-23.7,M,1.8,0000*40
$GPGSA,A,3,03,16,06,07,23,19,11,13,,,,,2.4,1.5,1.9*36
$GPRMC,011226.000,A,3353.7600,N,09832.0221,W,0.14,178.74,010412,,,D*77
$GPGGA,011227.000,3353.7600,N,09832.0220,W,2,08,1.5,342.7,M,-23.7,M,0.8,0000*4E
$GPGSA,A,3,03,16,06,07,23,19,11,13,,,,,2.4,1.5,1.9*36
$GPRMC,011227.000,A,3353.7600,N,09832.0220,W,0.21,136.84,010412,,,D*74
$GPGGA,011228.000,3353.7600,N,09832.0220,W,2,08,1.5,343.0,M,-23.7,M,0.8,0000*47
$GPGSA,A,3,03,16,06,07,23,19,11,13,,,,,2.4,1.5,1.9*36
$GPRMC,011228.000,A,3353.7600,N,09832.0220,W,0.08,98.97,010412,,,D*47
$GPGGA,011229.000,3353.7600,N,09832.0220,W,2,08,1.5,343.0,M,-23.7,M,0.8,0000*46
$GPGSA,A,3,03,16,06,07,23,19,11,13,,,,,2.4,1.5,1.9*36
$GPGSV,3,1,12,13,77,213,32,07,54,329,30,19,53,115,40,23,48,166,37*71
$GPGSV,3,2,12,03,41,058,31,06,29,050,33,08,23,301,,10,18,266,*7B
$GPGSV,3,3,12,16,16,049,22,28,11,242,,11,11,149,23,05,02,317,*76
$GPRMC,011229.000,A,3353.7600,N,09832.0220,W,0.10,95.57,010412,,,D*4E
