$GPGGA,112748.000,3353.7570,N,09832.0235,W,2,07,1.7,301.5,M,-23.7,M,1.8,0000*49
$GPGSA,A,3,15,05,29,26,12,02,25,,,,,,4.4,1.7,4.1*39
$GPGSV,3,1,12,05,61,045,27,29,53,320,28,25,39,241,31,02,31,068,38*75
$GPGSV,3,2,12,26,28,128,33,12,24,196,27,21,15,278,,15,15,169,30*77
$GPGSV,3,3,12,18,06,223,17,10,06,043,25,04,00,082,,51,49,195,39*77
$GPRMC,112748.000,A,3353.7570,N,09832.0235,W,0.20,322.77,010412,,,D*70
$GPGGA,112749.000,3353.7572,N,09832.0237,W,2,07,1.7,301.4,M,-23.7,M,2.8,0000*4A
$GPGSA,A,3,15,05,29,26,12,02,25,,,,,,4.4,1.7,4.1*39
$GPRMC,112749.000,A,3353.7572,N,09832.0237,W,0.16,329.45,010412,,,D*7E
$GPGGA,112750.000,3353.7574,N,09832.0239,W,2,07,1.7,301.3,M,-23.7,M,3.8,0000*4C
$GPGSA,A,3,15,05,29,26,12,02,25,,,,,,4.4,1.7,4.1*39
$GPRMC,112750.000,A,3353.7574,N,09832.0239,W,0.22,318.43,010412,,,D*7D
$GPGGA,112751.000,3353.7576,N,09832.0240,W,2,07,1.7,301.4,M,-23.7,M,0.8,0000*45
$GPGSA,A,3,15,05,29,26,12,02,25,,,,,,4.4,1.7,4.1*39
$GPRMC,112751.000,A,3353.7576,N,09832.0240,W,0.14,336.81,010412,,,D*77
$GPGGA,112752.000,3353.7577,N,09832.0242,W,2,07,1.7,301.5,M,-23.7,M,0.8,0000*44
$GPGSA,A,3,15,05,29,26,12,02,25,,,,,,4.4,1.7,4.1*39
$GPRMC,112752.000,A,3353.7577,N,09832.0242,W,0.18,340.66,010412,,,D*73
$GPGGA,112753.000,3353.7579,N,09832.0244,W,2,07,1.7,301.8,M,-23.7,M,0.8,0000*40
$GPGSA,A,3,15,05,29,26,12,02,25,,,,,,4.4,1.7,4.1*39
$GPGSV,3,1,12,05,61,045,26,29,53,320,27,25,39,241,30,02,31,068,38*7A
$GPGSV,3,2,12,26,28,128,33,12,24,196,27,21,15,278,,15,15,169,30*77
$GPGSV,3,3,12,18,06,223,18,10,06,043,25,04,00,082,,51,49,195,38*79
$GPRMC,112753.000,A,3353.7579,N,09832.0244,W,0.14,315.64,010412,,,D*74
$GPGGA,112754.000,3353.7580,N,09832.0245,W,2,07,1.8,302.2,M,-23.7,M,1.8,0000*47
$GPGSA,A,3,15,05,29,26,12,02,25,,,,,,4.4,1.8,4.1*36
$GPRMC,112754.000,A,3353.7580,N,09832.0245,W,0.14,303.89,010412,,,D*70
$GPGGA,112755.000,3353.7580,N,09832.0246,W,2,07,1.8,302.5,M,-23.7,M,2.8,0000*41
$GPGSA,A,3,15,05,29,26,12,02,25,,,,,,4.4,1.8,4.1*36
$GPRMC,112755.000,A,3353.7580,N,09832.0246,W,0.07,293.01,010412,,,D*78
$GPGGA,112756.000,3353.7581,N,09832.0248,W,2,07,1.8,302.8,M,-23.7,M,3.8,0000*41
$GPGSA,A,3,15,05,29,26,12,02,25,,,,,,4.4,1.8,4.1*36
$GPRMC,112756.000,A,3353.7581,N,09832.0248,W,0.09,309.09,010412,,,D*70
$GPGGA,112757.000,3353.7581,N,09832.0249,W,2,07,1.8,303.0,M,-23.7,M,0.8,0000*4B
$GPGSA,A,3,15,05,29,26,12,02,25,,,,,,4.4,1.8,4.1*36
$GPRMC,112757.000,A,3353.7581,N,09832.0249,W,0.10,272.48,010412,,,D*70
$GPGGA,112758.000,3353.7581,N,09832.0250,W,2,07,1.8,303.2,M,-23.7,M,0.8,0000*4E
$GPGSA,A,3,15,05,29,26,12,02,25,,,,,,4.4,1.8,4.1*36
$GPGSV,3,1,12,05,61,045,26,29,53,320,27,25,39,241,29,02,31,068,38*72
$GPGSV,3,2,12,26,28,128,32,12,24,196,27,21,15,278,,15,15,169,30*76
$GPGSV,3,3,12,18,06,223,18,10,06,043,24,04,00,082,,51,49,195,38*78
$GPRMC,112758.000,A,3353.7581,N,09832.0250,W,0.14,261.90,010412,,,D*74
$GPGGA,112759.000,3353.7581,N,09832.0251,W,2,07,1.8,303.6,M,-23.7,M,0.8,0000*4A
$GPGSA,A,3,15,05,29,26,12,02,25,,,,,,4.4,1.8,4.1*36
$GPRMC,112759.000,A,3353.7581,N,09832.0251,W,0.07,321.49,010412,,,D*77
$GPGGA,112800.000,3353.7581,N,09832.0252,W,2,07,1.8,304.0,M,-23.7,M,1.8,0000*4A
$GPGSA,A,3,15,05,29,26,12,02,25,,,,,,4.5,1.8,4.1*37
$GPRMC,112800.000,A,3353.7581,N,09832.0252,W,0.07,307.71,010412,,,D*78
$GPGGA,112801.000,3353.7580,N,09832.0252,W,2,07,1.8,304.3,M,-23.7,M,2.8,0000*4A
$GPGSA,A,3,15,05,29,26,12,02,25,,,,,,4.5,1.8,4.1*37
$GPRMC,112801.000,A,3353.7580,N,09832.0252,W,0.06,308.87,010412,,,D*7F
$GPGGA,112802.000,3353.7580,N,09832.0253,W,2,07,1.8,304.7,M,-23.7,M,3.8,0000*4D
$GPGSA,A,3,15,05,29,26,12,02,25,,,,,,4.5,1.8,4.1*37
$GPRMC,112802.000,A,3353.7580,N,09832.0253,W,0.06,295.25,010412,,,D*70
$GPGGA,112803.000,3353.7580,N,09832.0253,W,2,07,1.8,305.2,M,-23.7,M,0.8,0000*4B
$GPGSA,A,3,15,05,29,26,12,02,25,,,,,,4.5,1.8,4.1*37
$GPGSV,3,1,12,05,61,045,26,29,53,320,27,25,39,241,29,02,31,068,38*72
$GPGSV,3,2,12,26,28,128,32,12,24,196,27,21,15,278,,15,15,169,30*76
$GPGSV,3,3,12,18,06,223,17,10,06,043,24,04,00,082,,51,49,195,38*77
$GPRMC,112803.000,A,3353.7580,N,09832.0253,W,0.04,79.70,010412,,,D*43
$GPGGA,112804.000,3353.7580,N,09832.0253,W,2,07,1.8,305.6,M,-23.7,M,0.8,0000*48
$GPGSA,A,3,15,05,29,26,12,02,25,,,,,,4.5,1.8,4.1*37
$GPRMC,112804.000,A,3353.7580,N,09832.0253,W,0.05,3.55,010412,,,D*7F
$GPGGA,112805.000,3353.7579,N,09832.0254,W,2,07,1.8,306.2,M,-23.7,M,0.8,0000*4F
$GPGSA,A,3,15,05,29,26,12,02,25,,,,,,4.5,1.8,4.1*37
$GPRMC,112805.000,A,3353.7579,N,09832.0254,W,0.04,245.82,010412,,,D*74
$GPGGA,112806.000,3353.7579,N,09832.0254,W,2,07,1.8,306.7,M,-23.7,M,1.8,0000*48
$GPGSA,A,3,15,05,29,26,12,02,25,,,,,,4.5,1.8,4.1*37
$GPRMC,112806.000,A,3353.7579,N,09832.0254,W,0.05,194.42,010412,,,D*75
$GPGGA,112807.000,3353.7578,N,09832.0254,W,2,07,1.8,307.3,M,-23.7,M,2.8,0000*4E
$GPGSA,A,3,15,05,29,26,12,02,25,,,,,,4.5,1.8,4.1*37
$GPRMC,112807.000,A,3353.7578,N,09832.0254,W,0.07,199.18,010412,,,D*75
$GPGGA,112808.000,3353.7577,N,09832.0254,W,2,07,1.8,307.9,M,-23.7,M,0.8,0000*46
$GPGSA,A,3,15,05,29,26,12,02,25,,,,,,4.5,1.8,4.1*37
$GPGSV,3,1,12,05,61,045,26,29,53,320,26,25,39,241,28,02,31,068,38*72
$GPGSV,3,2,12,26,28,128,31,12,24,196,27,21,15,278,,15,15,169,29*7D
$GPGSV,3,3,12,18,06,223,15,10,06,043,24,04,00,082,,51,49,195,38*75
$GPRMC,112808.000,A,3353.7577,N,09832.0254,W,0.07,179.45,010412,,,D*73
$GPGGA,112809.000,3353.7577,N,09832.0255,W,2,07,1.8,308.5,M,-23.7,M,0.8,0000*45
$GPGSA,A,3,15,05,29,26,12,02,25,,,,,,4.5,1.8,4.1*37
$GPRMC,112809.000,A,3353.7577,N,09832.0255,W,0.08,216.17,010412,,,D*71
$GPGGA,112810.000,3353.7574,N,09832.0254,W,2,07,1.8,310.1,M,-23.7,M,0.8,0000*42
$GPGSA,A,3,15,05,29,26,12,02,25,,,,,,4.5,1.8,4.1*37
$GPRMC,112810.000,A,3353.7574,N,09832.0254,W,0.16,179.25,010412,,,D*7F
$GPGGA,112811.000,3353.7572,N,09832.0252,W,2,07,1.8,311.6,M,-23.7,M,0.8,0000*45
$GPGSA,A,3,15,05,29,26,12,02,25,,,,,,4.5,1.8,4.1*37
$GPRMC,112811.000,A,3353.7572,N,09832.0252,W,0.13,146.79,010412,,,D*7E
$GPGGA,112812.000,3353.7569,N,09832.0250,W,2,07,1.8,313.0,M,-23.7,M,0.8,0000*4A
$GPGSA,A,3,15,05,29,26,12,02,25,,,,,,4.5,1.8,4.1*37
$GPRMC,112812.000,A,3353.7569,N,09832.0250,W,0.18,149.66,010412,,,D*7F
$GPGGA,112813.000,3353.7566,N,09832.0248,W,2,07,1.8,314.3,M,-23.7,M,1.8,0000*48
$GPGSA,A,3,15,05,29,26,12,02,25,,,,,,4.5,1.8,4.1*37
$GPGSV,3,1,12,05,61,045,26,29,54,320,26,25,39,241,28,02,31,068,38*75
$GPGSV,3,2,12,26,28,127,30,12,24,196,26,21,15,278,,15,15,169,29*72
$GPGSV,3,3,12,18,07,223,,10,05,043,24,04,00,082,,51,49,195,38*73
$GPRMC,112813.000,A,3353.7566,N,09832.0248,W,0.18,146.28,010412,,,D*7D
$GPGGA,112814.000,3353.7564,N,09832.0247,W,2,07,1.8,315.6,M,-23.7,M,2.8,0000*45
$GPGSA,A,3,15,05,29,26,12,02,25,,,,,,4.5,1.8,4.1*37
$GPRMC,112814.000,A,3353.7564,N,09832.0247,W,0.21,149.20,010412,,,D*7A
$GPGGA,112815.000,3353.7561,N,09832.0245,W,2,07,1.8,316.8,M,-23.7,M,0.8,0000*4C
$GPGSA,A,3,15,05,29,26,12,02,25,,,,,,4.5,1.8,4.1*37
$GPRMC,112815.000,A,3353.7561,N,09832.0245,W,0.24,139.23,010412,,,D*7D
$GPGGA,112816.000,3353.7559,N,09832.0243,W,2,07,1.8,318.0,M,-23.7,M,0.8,0000*44
$GPGSA,A,3,15,05,29,26,12,02,25,,,,,,4.5,1.8,4.1*37
$GPRMC,112816.000,A,3353.7559,N,09832.0243,W,0.24,140.82,010412,,,D*76
$GPGGA,112817.000,3353.7556,N,09832.0242,W,2,07,1.8,319.0,M,-23.7,M,0.8,0000*4A
$GPGSA,A,3,15,05,29,26,12,02,25,,,,,,4.5,1.8,4.1*37
$GPRMC,112817.000,A,3353.7556,N,09832.0242,W,0.26,161.90,010412,,,D*7B
$GPGGA,112818.000,3353.7552,N,09832.0241,W,2,07,1.8,320.1,M,-23.7,M,1.8,0000*48
$GPGSA,A,3,15,05,29,26,12,02,25,,,,,,4.5,1.8,4.1*37
$GPGSV,3,1,12,05,61,045,26,29,54,320,26,25,39,241,28,02,31,068,38*75
$GPGSV,3,2,12,26,28,127,29,12,24,196,26,21,15,278,,15,15,169,29*7A
$GPGSV,3,3,12,18,07,223,,10,05,043,24,04,00,082,,51,49,195,38*73
$GPRMC,112818.000,A,3353.7552,N,09832.0241,W,0.30,160.13,010412,,,D*7E
$GPGGA,112819.000,3353.7550,N,09832.0240,W,2,07,1.8,320.8,M,-23.7,M,0.8,0000*42
$GPGSA,A,3,15,05,29,26,12,02,25,,,,,,4.5,1.8,4.1*37
$GPRMC,112819.000,A,3353.7550,N,09832.0240,W,0.28,157.13,010412,,,D*71
$GPGGA,112820.000,3353.7550,N,09832.0242,W,2,07,1.8,321.1,M,-23.7,M,0.8,0000*42
$GPGSA,A,3,15,05,29,26,12,02,25,,,,,,4.5,1.8,4.1*37
$GPRMC,112820.000,A,3353.7550,N,09832.0242,W,0.20,172.04,010412,,,D*70
$GPGGA,112821.000,3353.7550,N,09832.0244,W,2,07,1.8,321.3,M,-23.7,M,0.8,0000*47
$GPGSA,A,3,15,05,29,26,12,02,25,,,,,,4.5,1.8,4.1*37
$GPRMC,112821.000,A,3353.7550,N,09832.0244,W,0.20,187.42,010412,,,D*7F
$GPGGA,112822.000,3353.7550,N,09832.0246,W,2,07,1.8,321.6,M,-23.7,M,0.8,0000*43
$GPGSA,A,3,15,05,29,26,12,02,25,,,,,,4.5,1.8,4.1*37
$GPRMC,112822.000,A,3353.7550,N,09832.0246,W,0.20,178.04,010412,,,D*7C
$GPGGA,112823.000,3353.7550,N,09832.0247,W,2,07,1.8,321.9,M,-23.7,M,0.8,0000*4C
$GPGSA,A,3,15,05,29,26,12,02,25,,,,,,4.5,1.8,4.1*37
$GPGSV,3,1,12,05,61,045,25,29,54,320,26,25,39,241,28,02,31,068,37*79
$GPGSV,3,2,12,26,28,127,29,12,24,196,26,21,15,278,,15,15,169,29*7A
$GPGSV,3,3,12,18,07,223,,10,05,043,24,04,00,082,,51,49,195,38*73
$GPRMC,112823.000,A,3353.7550,N,09832.0247,W,0.14,168.90,010412,,,D*77
$GPGGA,112824.000,3353.7550,N,09832.0247,W,2,07,1.8,322.0,M,-23.7,M,1.8,0000*40
$GPGSA,A,3,15,05,29,26,12,02,25,,,,,,4.5,1.8,4.1*37
$GPRMC,112824.000,A,3353.7550,N,09832.0247,W,0.16,154.77,010412,,,D*74
$GPGGA,112825.000,3353.7549,N,09832.0248,W,2,07,1.8,322.2,M,-23.7,M,2.8,0000*47
$GPGSA,A,3,15,05,29,26,12,02,25,,,,,,4.5,1.8,4.1*37
$GPRMC,112825.000,A,3353.7549,N,09832.0248,W,0.11,156.76,010412,,,D*76
$GPGGA,112826.000,3353.7549,N,09832.0248,W,2,07,1.8,322.3,M,-23.7,M,3.8,0000*44
$GPGSA,A,3,15,05,29,26,12,02,25,,,,,,4.5,1.8,4.1*37
$GPRMC,112826.000,A,3353.7549,N,09832.0248,W,0.12,159.40,010412,,,D*7C
$GPGGA,112827.000,3353.7549,N,09832.0248,W,2,07,1.8,322.5,M,-23.7,M,0.8,0000*40
$GPGSA,A,3,15,05,29,26,12,02,25,,,,,,4.5,1.8,4.1*37
$GPRMC,112827.000,A,3353.7549,N,09832.0248,W,0.13,129.40,010412,,,D*7B
$GPGGA,112828.000,3353.7549,N,09832.0248,W,2,07,1.8,322.6,M,-23.7,M,0.8,0000*4C
$GPGSA,A,3,15,05,29,26,12,02,25,,,,,,4.5,1.8,4.1*37
$GPGSV,3,1,12,05,61,045,25,29,54,320,27,25,39,241,28,02,31,068,37*78
$GPGSV,3,2,12,26,28,127,29,12,24,196,26,21,15,278,,15,15,169,29*7A
$GPGSV,3,3,12,18,07,223,,10,05,043,24,04,00,082,,51,49,195,38*73
$GPRMC,112828.000,A,3353.7549,N,09832.0248,W,0.09,122.36,010412,,,D*75
$GPGGA,112829.000,3353.7549,N,09832.0248,W,2,07,1.8,322.7,M,-23.7,M,0.8,0000*4C
$GPGSA,A,3,15,05,29,26,12,02,25,,,,,,4.5,1.8,4.1*37
$GPRMC,112829.000,A,3353.7549,N,09832.0248,W,0.12,168.46,010412,,,D*77
$GPGGA,112830.000,3353.7549,N,09832.0249,W,2,07,1.8,322.8,M,-23.7,M,1.8,0000*4B
$GPGSA,A,3,15,05,29,26,12,02,25,,,,,,4.5,1.8,4.1*37
$GPRMC,112830.000,A,3353.7549,N,09832.0249,W,0.09,156.72,010412,,,D*7E
$GPGGA,112831.000,3353.7548,N,09832.0249,W,2,07,1.8,323.0,M,-23.7,M,2.8,0000*41
$GPGSA,A,3,15,05,29,26,12,02,25,,,,,,4.5,1.8,4.1*37
$GPRMC,112831.000,A,3353.7548,N,09832.0249,W,0.04,207.05,010412,,,D*74
$GPGGA,112832.000,3353.7548,N,09832.0249,W,2,07,1.8,323.1,M,-23.7,M,3.8,0000*42
$GPGSA,A,3,15,05,29,26,12,02,25,,,,,,4.5,1.8,4.1*37
$GPRMC,112832.000,A,3353.7548,N,09832.0249,W,0.09,159.85,010412,,,D*7A
$GPGGA,112833.000,3353.7548,N,09832.0249,W,2,07,1.8,323.1,M,-23.7,M,0.8,0000*40
$GPGSA,A,3,15,05,29,26,12,02,25,,,,,,4.5,1.8,4.1*37
$GPGSV,3,1,12,05,61,045,25,29,54,320,27,25,39,241,28,02,31,068,36*79
$GPGSV,3,2,12,26,28,127,30,12,24,196,26,21,15,278,,15,15,169,29*72
$GPGSV,3,3,12,18,07,223,,10,05,043,24,04,00,082,,51,49,195,38*73
$GPRMC,112833.000,A,3353.7548,N,09832.0249,W,0.08,215.82,010412,,,D*76
$GPGGA,112834.000,3353.7548,N,09832.0249,W,2,07,1.8,323.2,M,-23.7,M,0.8,0000*44
$GPGSA,A,3,15,05,29,26,12,02,25,,,,,,4.5,1.8,4.1*37
$GPRMC,112834.000,A,3353.7548,N,09832.0249,W,0.07,208.20,010412,,,D*7A
$GPGGA,112835.000,3353.7549,N,09832.0249,W,2,07,1.8,323.3,M,-23.7,M,0.8,0000*45
$GPGSA,A,3,15,05,29,26,12,02,25,,,,,,4.5,1.8,4.1*37
$GPRMC,112835.000,A,3353.7549,N,09832.0249,W,0.01,216.44,010412,,,D*71
$GPGGA,112836.000,3353.7549,N,09832.0249,W,2,07,1.8,323.5,M,-23.7,M,1.8,0000*41
$GPGSA,A,3,15,05,29,26,12,02,25,,,,,,4.5,1.8,4.1*37
$GPRMC,112836.000,A,3353.7549,N,09832.0249,W,0.04,258.68,010412,,,D*73
$GPGGA,112837.000,3353.7549,N,09832.0249,W,2,07,1.8,323.6,M,-23.7,M,2.8,0000*40
$GPGSA,A,3,15,05,29,26,12,02,25,,,,,,4.5,1.8,4.1*37
$GPRMC,112837.000,A,3353.7549,N,09832.0249,W,0.01,45.83,010412,,,D*4C
$GPGGA,112838.000,3353.7550,N,09832.0249,W,2,07,1.8,323.7,M,-23.7,M,3.8,0000*47
$GPGSA,A,3,15,05,29,26,12,02,25,,,,,,4.5,1.8,4.1*37
$GPGSV,3,1,12,05,61,045,26,29,54,320,27,25,39,241,29,02,31,068,35*78
$GPGSV,3,2,12,26,28,127,31,12,24,196,27,21,15,278,,15,15,169,29*72
$GPGSV,3,3,12,18,07,223,,10,05,043,24,04,00,082,,51,49,195,38*73
$GPRMC,112838.000,A,3353.7550,N,09832.0249,W,0.05,285.44,010412,,,D*7A
$GPGGA,112839.000,3353.7550,N,09832.0248,W,2,07,1.8,323.8,M,-23.7,M,0.8,0000*4B
$GPGSA,A,3,15,05,29,26,12,02,25,,,,,,4.5,1.8,4.1*37
$GPRMC,112839.000,A,3353.7550,N,09832.0248,W,0.05,55.89,010412,,,D*44
$GPGGA,112840.000,3353.7551,N,09832.0248,W,2,07,1.8,323.9,M,-23.7,M,0.8,0000*45
$GPGSA,A,3,15,05,29,26,12,02,25,,,,,,4.5,1.8,4.1*37
$GPRMC,112840.000,A,3353.7551,N,09832.0248,W,0.07,10.80,010412,,,D*41
$GPGGA,112841.000,3353.7551,N,09832.0247,W,2,07,1.8,323.8,M,-23.7,M,0.8,0000*4A
$GPGSA,A,3,15,05,29,26,12,02,25,,,,,,4.5,1.8,4.1*37
$GPRMC,112841.000,A,3353.7551,N,09832.0247,W,0.02,250.55,010412,,,D*74
$GPGGA,112842.000,3353.7551,N,09832.0246,W,2,07,1.8,323.7,M,-23.7,M,0.8,0000*47
$GPGSA,A,3,15,05,29,26,12,02,25,,,,,,4.5,1.8,4.1*37
$GPRMC,112842.000,A,3353.7551,N,09832.0246,W,0.03,266.43,010412,,,D*75
$GPGGA,112843.000,3353.7550,N,09832.0245,W,2,07,1.8,323.7,M,-23.7,M,1.8,0000*45
$GPGSA,A,3,15,05,29,26,12,02,25,,,,,,4.5,1.8,4.1*37
$GPGSV,3,1,12,05,61,045,28,29,54,320,28,25,39,241,28,02,31,068,34*79
$GPGSV,3,2,12,26,28,127,31,12,24,196,28,21,15,278,16,15,15,169,29*7A
$GPGSV,3,3,12,18,07,223,,10,05,043,25,04,00,082,,51,49,195,38*72
$GPRMC,112843.000,A,3353.7550,N,09832.0245,W,0.01,44.75,010412,,,D*43
$GPGGA,112844.000,3353.7550,N,09832.0245,W,2,07,1.8,323.5,M,-23.7,M,0.8,0000*41
$GPGSA,A,3,15,05,29,26,12,02,25,,,,,,4.5,1.8,4.1*37
$GPRMC,112844.000,A,3353.7550,N,09832.0245,W,0.07,295.08,010412,,,D*76
$GPGGA,112845.000,3353.7551,N,09832.0247,W,2,07,1.8,322.9,M,-23.7,M,0.8,0000*4E
$GPGSA,A,3,15,05,29,26,12,02,25,,,,,,4.5,1.8,4.1*37
$GPRMC,112845.000,A,3353.7551,N,09832.0247,W,0.15,284.41,010412,,,D*7A
$GPGGA,112846.000,3353.7552,N,09832.0249,W,2,07,1.8,322.4,M,-23.7,M,0.8,0000*4D
$GPGSA,A,3,15,05,29,26,12,02,25,,,,,,4.5,1.8,4.2*34
$GPRMC,112846.000,A,3353.7552,N,09832.0249,W,0.13,293.54,010412,,,D*70
$GPGGA,112847.000,3353.7554,N,09832.0251,W,2,07,1.8,321.8,M,-23.7,M,0.8,0000*4C
$GPGSA,A,3,15,05,29,26,12,02,25,,,,,,4.5,1.8,4.2*34
$GPRMC,112847.000,A,3353.7554,N,09832.0251,W,0.13,319.78,010412,,,D*73
$GPGGA,112848.000,3353.7555,N,09832.0252,W,2,07,1.8,321.3,M,-23.7,M,1.8,0000*4B
$GPGSA,A,3,15,05,29,26,12,02,25,,,,,,4.5,1.8,4.2*34
$GPGSV,3,1,12,05,61,045,29,29,54,320,28,25,39,241,27,02,31,068,33*70
$GPGSV,3,2,12,26,28,127,31,12,24,196,28,21,15,278,17,15,15,169,29*7B
$GPGSV,3,3,12,18,07,223,,10,05,043,25,04,00,082,,51,49,195,38*72
$GPRMC,112848.000,A,3353.7555,N,09832.0252,W,0.13,322.97,010412,,,D*77
$GPGGA,112849.000,3353.7556,N,09832.0254,W,2,07,1.8,320.7,M,-23.7,M,2.8,0000*49
$GPGSA,A,3,15,05,29,26,12,02,25,,,,,,4.5,1.8,4.2*34
$GPRMC,112849.000,A,3353.7556,N,09832.0254,W,0.12,330.91,010412,,,D*77
$GPGGA,112850.000,3353.7556,N,09832.0255,W,2,07,1.8,320.1,M,-23.7,M,3.8,0000*47
$GPGSA,A,3,15,05,29,26,12,02,25,,,,,,4.5,1.8,4.2*34
$GPRMC,112850.000,A,3353.7556,N,09832.0255,W,0.14,339.55,010412,,,D*79
$GPGGA,112851.000,3353.7557,N,09832.0257,W,2,07,1.8,319.4,M,-23.7,M,0.8,0000*49
$GPGSA,A,3,15,05,29,26,12,02,25,,,,,,4.5,1.8,4.2*34
$GPRMC,112851.000,A,3353.7557,N,09832.0257,W,0.11,346.07,010412,,,D*71
$GPGGA,112852.000,3353.7558,N,09832.0258,W,2,07,1.8,318.8,M,-23.7,M,0.8,0000*47
$GPGSA,A,3,15,05,29,26,12,02,25,,,,,,4.5,1.8,4.2*34
$GPRMC,112852.000,A,3353.7558,N,09832.0258,W,0.19,343.73,010412,,,D*7C
$GPGGA,112853.000,3353.7559,N,09832.0259,W,2,07,1.8,318.1,M,-23.7,M,0.8,0000*4F
$GPGSA,A,3,15,05,29,26,12,02,25,,,,,,4.5,1.8,4.2*34
$GPGSV,3,1,12,05,61,045,29,29,54,320,28,25,39,241,27,02,31,068,33*70
$GPGSV,3,2,12,26,28,127,31,12,24,196,28,21,15,278,17,15,15,169,29*7B
$GPGSV,3,3,12,18,07,223,,10,05,043,25,04,00,082,,51,49,195,38*72
$GPRMC,112853.000,A,3353.7559,N,09832.0259,W,0.19,324.75,010412,,,D*7A
$GPGGA,112854.000,3353.7559,N,09832.0261,W,2,07,1.8,317.4,M,-23.7,M,1.8,0000*48
$GPGSA,A,3,15,05,29,26,12,02,25,,,,,,4.5,1.8,4.2*34
$GPRMC,112854.000,A,3353.7559,N,09832.0261,W,0.16,318.13,010412,,,D*76
$GPGGA,112855.000,3353.7560,N,09832.0262,W,2,07,1.8,316.7,M,-23.7,M,2.8,0000*41
$GPGSA,A,3,15,05,29,26,12,02,25,,,,,,4.5,1.8,4.2*34
$GPRMC,112855.000,A,3353.7560,N,09832.0262,W,0.21,327.13,010412,,,D*76
$GPGGA,112856.000,3353.7560,N,09832.0263,W,2,07,1.8,316.0,M,-23.7,M,3.8,0000*45
$GPGSA,A,3,15,05,29,26,12,02,25,,,,,,4.5,1.8,4.2*34
$GPRMC,112856.000,A,3353.7560,N,09832.0263,W,0.26,308.74,010412,,,D*7F
$GPGGA,112857.000,3353.7561,N,09832.0265,W,2,07,1.8,315.4,M,-23.7,M,0.8,0000*47
$GPGSA,A,3,15,05,29,26,12,02,25,,,,,,4.5,1.8,4.2*34
$GPRMC,112857.000,A,3353.7561,N,09832.0265,W,0.22,318.81,010412,,,D*76
$GPGGA,112858.000,3353.7561,N,09832.0266,W,2,07,1.8,314.9,M,-23.7,M,0.8,0000*47
$GPGSA,A,3,15,05,29,26,12,02,25,,,,,,4.5,1.8,4.2*34
$GPGSV,3,1,12,05,61,045,29,29,54,320,29,25,39,241,25,02,31,068,32*72
$GPGSV,3,2,12,26,28,127,30,12,24,196,27,21,15,278,17,15,15,169,29*75
$GPGSV,3,3,12,18,07,223,,10,05,043,25,04,00,082,,51,49,195,38*72
$GPRMC,112858.000,A,3353.7561,N,09832.0266,W,0.28,300.31,010412,,,D*72
$GPGGA,112859.000,3353.7561,N,09832.0266,W,2,07,1.8,314.5,M,-23.7,M,0.8,0000*4A
$GPGSA,A,3,15,05,29,26,12,02,25,,,,,,4.5,1.8,4.2*34
$GPRMC,112859.000,A,3353.7561,N,09832.0266,W,0.20,6.61,010412,,,D*7B
$GPGGA,112900.000,3353.7562,N,09832.0266,W,2,07,1.8,314.1,M,-23.7,M,0.8,0000*40
$GPGSA,A,3,15,05,29,26,12,02,25,,,,,,4.5,1.8,4.2*34
$GPRMC,112900.000,A,3353.7562,N,09832.0266,W,0.22,353.31,010412,,,D*71
$GPGGA,112901.000,3353.7562,N,09832.0266,W,2,07,1.8,313.7,M,-23.7,M,1.8,0000*41
$GPGSA,A,3,15,05,29,26,12,02,25,,,,,,4.5,1.8,4.2*34
$GPRMC,112901.000,A,3353.7562,N,09832.0266,W,0.24,17.48,010412,,,D*4B
$GPGGA,112902.000,3353.7562,N,09832.0266,W,2,07,1.8,313.4,M,-23.7,M,2.8,0000*42
$GPGSA,A,3,15,05,29,26,12,02,25,,,,,,4.5,1.8,4.2*34
$GPRMC,112902.000,A,3353.7562,N,09832.0266,W,0.30,38.86,010412,,,D*42
$GPGGA,112903.000,3353.7562,N,09832.0265,W,2,07,1.8,313.1,M,-23.7,M,0.8,0000*47
$GPGSA,A,3,15,05,29,26,12,02,25,,,,,,4.5,1.8,4.2*34
$GPGSV,3,1,12,05,61,045,29,29,54,320,29,25,39,241,21,02,31,068,32*76
$GPGSV,3,2,12,26,28,127,29,12,24,196,26,21,15,278,17,15,15,169,28*7D
$GPGSV,3,3,12,18,07,223,,10,05,043,24,04,00,082,,51,49,195,38*73
$GPRMC,112903.000,A,3353.7562,N,09832.0265,W,0.22,36.21,010412,,,D*40
$GPGGA,112904.000,3353.7562,N,09832.0265,W,2,07,1.8,312.9,M,-23.7,M,0.8,0000*49
$GPGSA,A,3,15,05,29,26,12,02,25,,,,,,4.5,1.8,4.2*34
$GPRMC,112904.000,A,3353.7562,N,09832.0265,W,0.32,37.81,010412,,,D*4D
$GPGGA,112905.000,3353.7562,N,09832.0264,W,2,07,1.8,312.7,M,-23.7,M,0.8,0000*47
$GPGSA,A,3,15,05,29,26,12,02,25,,,,,,4.5,1.8,4.2*34
$GPRMC,112905.000,A,3353.7562,N,09832.0264,W,0.18,53.15,010412,,,D*4A
$GPGGA,112906.000,3353.7561,N,09832.0264,W,2,07,1.8,312.5,M,-23.7,M,0.8,0000*45
$GPGSA,A,3,15,05,29,26,12,02,25,,,,,,4.5,1.8,4.2*34
$GPRMC,112906.000,A,3353.7561,N,09832.0264,W,0.06,302.70,010412,,,D*71
$GPGGA,112907.000,3353.7561,N,09832.0264,W,2,07,1.8,312.4,M,-23.7,M,0.8,0000*45
$GPGSA,A,3,15,05,29,26,12,02,25,,,,,,4.5,1.8,4.2*34
$GPRMC,112907.000,A,3353.7561,N,09832.0264,W,0.16,32.85,010412,,,D*4B
$GPGGA,112908.000,3353.7560,N,09832.0264,W,2,07,1.8,312.2,M,-23.7,M,1.8,0000*4C
$GPGSA,A,3,15,05,29,26,12,02,25,,,,,,4.5,1.8,4.2*34
$GPGSV,3,1,12,05,61,045,29,29,54,320,29,25,39,241,20,02,31,068,32*77
$GPGSV,3,2,12,26,28,127,28,12,24,196,22,21,15,278,17,15,15,169,27*77
$GPGSV,3,3,12,18,07,223,,10,05,043,24,04,00,082,,51,49,195,38*73
$GPRMC,112908.000,A,3353.7560,N,09832.0264,W,0.10,50.96,010412,,,D*45
$GPGGA,112909.000,3353.7560,N,09832.0265,W,2,07,1.8,312.2,M,-23.7,M,0.8,0000*4D
$GPGSA,A,3,15,05,29,26,12,02,25,,,,,,4.5,1.8,4.2*34
$GPRMC,112909.000,A,3353.7560,N,09832.0265,W,0.10,272.53,010412,,,D*7E
$GPGGA,112910.000,3353.7558,N,09832.0266,W,2,07,1.8,312.1,M,-23.7,M,0.8,0000*4E
$GPGSA,A,3,15,05,29,26,12,02,25,,,,,,4.5,1.8,4.2*34
$GPRMC,112910.000,A,3353.7558,N,09832.0266,W,0.51,222.85,010412,,,D*75
$GPGGA,112911.000,3353.7557,N,09832.0267,W,2,07,1.8,312.1,M,-23.7,M,0.8,0000*41
$GPGSA,A,3,15,05,29,26,12,02,25,,,,,,4.5,1.8,4.2*34
$GPRMC,112911.000,A,3353.7557,N,09832.0267,W,0.40,247.51,010412,,,D*70
$GPGGA,112912.000,3353.7556,N,09832.0267,W,2,07,1.8,312.1,M,-23.7,M,1.8,0000*42
$GPGSA,A,3,15,05,29,26,12,02,25,,,,,,4.5,1.8,4.2*34
$GPRMC,112912.000,A,3353.7556,N,09832.0267,W,0.24,291.38,010412,,,D*74
$GPGGA,112913.000,3353.7551,N,09832.0265,W,2,07,1.8,312.9,M,-23.7,M,2.8,0000*4D
$GPGSA,A,3,15,05,29,26,12,02,25,,,,,,4.5,1.8,4.2*34
$GPGSV,3,1,12,05,61,045,28,29,54,320,29,25,39,241,14,02,31,068,32*71
$GPGSV,3,2,12,26,28,127,24,12,24,196,21,21,15,278,17,15,15,169,22*7D
$GPGSV,3,3,12,18,07,223,,10,05,043,23,04,00,082,,51,49,195,38*74
$GPRMC,112913.000,A,3353.7551,N,09832.0265,W,0.38,23.26,010412,,,D*49
$GPGGA,112914.000,3353.7554,N,09832.0263,W,2,07,1.8,313.1,M,-23.7,M,3.8,0000*41
$GPGSA,A,3,15,05,29,26,12,02,25,,,,,,4.5,1.8,4.2*34
$GPRMC,112914.000,A,3353.7554,N,09832.0263,W,0.18,314.05,010412,,,D*79
$GPGGA,112915.000,3353.7548,N,09832.0262,W,2,07,1.8,313.7,M,-23.7,M,0.8,0000*49
$GPGSA,A,3,15,05,29,26,12,02,25,,,,,,4.5,1.8,4.2*34
$GPRMC,112915.000,A,3353.7548,N,09832.0262,W,0.65,181.66,010412,,,D*75
$GPGGA,112916.000,3353.7543,N,09832.0260,W,2,07,1.8,314.3,M,-23.7,M,0.8,0000*40
$GPGSA,A,3,15,05,29,26,12,02,25,,,,,,4.6,1.8,4.2*37
$GPRMC,112916.000,A,3353.7543,N,09832.0260,W,0.50,189.77,010412,,,D*71
$GPGGA,112917.000,3353.7541,N,09832.0258,W,2,07,1.8,315.0,M,-23.7,M,0.8,0000*4A
$GPGSA,A,3,15,05,29,26,12,02,25,,,,,,4.6,1.8,4.2*37
$GPRMC,112917.000,A,3353.7541,N,09832.0258,W,0.66,197.92,010412,,,D*78
$GPGGA,112918.000,3353.7545,N,09832.0257,W,2,07,1.8,315.1,M,-23.7,M,1.8,0000*4E
$GPGSA,A,3,15,05,29,26,12,02,25,,,,,,4.6,1.8,4.2*37
$GPGSV,3,1,12,05,61,045,29,29,54,320,29,25,39,241,14,02,31,068,33*71
$GPGSV,3,2,12,26,28,127,23,12,24,196,21,21,15,278,16,15,15,169,21*78
$GPGSV,3,3,12,18,07,223,,10,05,043,23,04,00,082,,51,49,195,38*74
$GPRMC,112918.000,A,3353.7545,N,09832.0257,W,0.30,286.58,010412,,,D*7A
$GPGGA,112919.000,3353.7547,N,09832.0259,W,2,07,1.8,314.9,M,-23.7,M,2.8,0000*49
$GPGSA,A,3,15,05,29,26,12,02,25,,,,,,4.6,1.8,4.2*37
$GPRMC,112919.000,A,3353.7547,N,09832.0259,W,0.41,286.20,010412,,,D*7E
$GPGGA,112920.000,3353.7549,N,09832.0260,W,2,07,1.8,314.6,M,-23.7,M,0.8,0000*4A
$GPGSA,A,3,15,05,29,26,12,02,25,,,,,,4.6,1.8,4.2*37
$GPRMC,112920.000,A,3353.7549,N,09832.0260,W,0.51,337.66,010412,,,D*78
$GPGGA,112921.000,3353.7549,N,09832.0264,W,2,07,1.8,314.1,M,-23.7,M,0.8,0000*48
$GPGSA,A,3,15,05,29,26,12,02,25,,,,,,4.6,1.8,4.2*37
$GPRMC,112921.000,A,3353.7549,N,09832.0264,W,0.56,286.02,010412,,,D*73
$GPGGA,112922.000,3353.7543,N,09832.0265,W,2,07,1.8,314.4,M,-23.7,M,0.8,0000*45
$GPGSA,A,3,15,05,29,26,12,02,25,,,,,,4.6,1.8,4.2*37
$GPRMC,112922.000,A,3353.7543,N,09832.0265,W,0.58,290.54,010412,,,D*71
$GPGGA,112923.000,3353.7542,N,09832.0266,W,2,07,1.8,314.3,M,-23.7,M,0.8,0000*41
$GPGSA,A,3,15,05,29,26,12,02,25,,,,,,4.6,1.8,4.2*37
$GPGSV,3,1,12,05,61,045,29,29,54,320,28,25,39,241,15,02,31,068,34*76
$GPGSV,3,2,12,26,28,127,17,12,24,196,21,21,15,278,15,15,15,169,20*7D
$GPGSV,3,3,12,18,07,223,,10,05,043,21,04,00,082,,51,49,195,38*76
$GPRMC,112923.000,A,3353.7542,N,09832.0266,W,0.53,296.27,010412,,,D*7B
$GPGGA,112924.000,3353.7541,N,09832.0270,W,2,07,1.8,313.7,M,-23.7,M,1.8,0000*40
$GPGSA,A,3,15,05,29,26,12,02,25,,,,,,4.6,1.8,4.2*37
$GPRMC,112924.000,A,3353.7541,N,09832.0270,W,0.68,323.00,010412,,,D*7A
$GPGGA,112925.000,3353.7539,N,09832.0272,W,2,07,1.8,313.3,M,-23.7,M,2.8,0000*4B
$GPGSA,A,3,15,05,29,26,12,02,25,,,,,,4.6,1.8,4.2*37
$GPRMC,112925.000,A,3353.7539,N,09832.0272,W,0.30,181.39,010412,,,D*7B
$GPGGA,112926.000,3353.7536,N,09832.0274,W,2,07,1.8,312.9,M,-23.7,M,3.8,0000*4B
$GPGSA,A,3,15,05,29,26,12,02,25,,,,,,4.6,1.8,4.2*37
$GPRMC,112926.000,A,3353.7536,N,09832.0274,W,0.46,157.63,010412,,,D*74
$GPGGA,112927.000,3353.7535,N,09832.0277,W,2,07,1.8,312.6,M,-23.7,M,0.8,0000*46
$GPGSA,A,3,15,05,29,26,12,02,25,,,,,,4.6,1.8,4.2*37
$GPRMC,112927.000,A,3353.7535,N,09832.0277,W,0.43,211.96,010412,,,D*7B
$GPGGA,112928.000,3353.7534,N,09832.0277,W,2,07,1.8,312.1,M,-23.7,M,0.8,0000*4F
$GPGSA,A,3,15,05,29,26,12,02,25,,,,,,4.6,1.8,4.2*37
$GPGSV,3,1,12,05,61,045,28,29,54,320,26,25,39,241,22,02,31,068,34*7D
$GPGSV,3,2,12,26,28,127,16,12,24,196,20,21,15,278,15,15,15,169,19*77
$GPGSV,3,3,12,18,07,223,,10,05,043,20,04,00,082,,51,49,195,38*77
$GPRMC,112928.000,A,3353.7534,N,09832.0277,W,0.44,176.97,010412,,,D*71
$GPGGA,112929.000,3353.7534,N,09832.0277,W,2,07,1.8,311.7,M,-23.7,M,0.8,0000*4B
$GPGSA,A,3,15,05,29,26,12,02,25,,,,,,4.6,1.8,4.2*37
$GPRMC,112929.000,A,3353.7534,N,09832.0277,W,0.34,181.84,010412,,,D*7D
$GPGGA,112930.000,3353.7534,N,09832.0277,W,2,07,1.8,311.4,M,-23.7,M,0.8,0000*40
$GPGSA,A,3,15,05,29,26,12,02,25,,,,,,4.6,1.8,4.2*37
$GPRMC,112930.000,A,3353.7534,N,09832.0277,W,0.48,146.15,010412,,,D*7D
$GPGGA,112931.000,3353.7531,N,09832.0271,W,2,07,1.8,314.4,M,-23.7,M,0.8,0000*47
$GPGSA,A,3,15,05,29,26,12,02,25,,,,,,4.6,1.8,4.2*37
$GPRMC,112931.000,A,3353.7531,N,09832.0271,W,0.55,84.12,010412,,,D*4B
$GPGGA,112932.000,3353.7530,N,09832.0264,W,2,06,2.2,317.2,M,-23.7,M,1.8,0000*4D
$GPGSA,A,3,15,05,29,12,02,25,,,,,,,5.2,2.2,4.7*3A
$GPRMC,112932.000,A,3353.7530,N,09832.0264,W,0.66,93.12,010412,,,D*4B
$GPGGA,112933.000,3353.7532,N,09832.0261,W,2,06,2.2,318.1,M,-23.7,M,0.8,0000*46
$GPGSA,A,3,15,05,29,12,02,25,,,,,,,5.2,2.2,4.7*3A
$GPGSV,3,1,12,05,61,045,22,29,54,320,26,25,39,241,23,02,31,068,34*76
$GPGSV,3,2,12,26,28,127,17,12,24,196,21,21,15,278,15,15,15,169,19*77
$GPGSV,3,3,12,18,07,223,,10,05,043,20,04,00,082,,51,49,195,38*77
$GPRMC,112933.000,A,3353.7532,N,09832.0261,W,0.32,130.01,010412,,,D*76
$GPGGA,112934.000,3353.7527,N,09832.0257,W,2,06,2.2,321.4,M,-23.7,M,0.8,0000*4F
$GPGSA,A,3,15,05,29,12,02,25,,,,,,,5.2,2.2,4.7*3A
$GPRMC,112934.000,A,3353.7527,N,09832.0257,W,0.32,189.55,010412,,,D*73
$GPGGA,112935.000,3353.7524,N,09832.0253,W,2,07,1.8,323.9,M,-23.7,M,0.8,0000*4E
$GPGSA,A,3,15,05,29,26,12,02,25,,,,,,4.6,1.8,4.2*37
$GPRMC,112935.000,A,3353.7524,N,09832.0253,W,0.65,125.97,010412,,,D*7F
$GPGGA,112936.000,3353.7525,N,09832.0253,W,2,07,1.8,323.8,M,-23.7,M,1.8,0000*4C
$GPGSA,A,3,15,05,29,26,12,02,25,,,,,,4.6,1.8,4.2*37
$GPRMC,112936.000,A,3353.7525,N,09832.0253,W,0.38,126.27,010412,,,D*7D
$GPGGA,112937.000,3353.7525,N,09832.0252,W,2,07,1.8,325.5,M,-23.7,M,2.8,0000*44
$GPGSA,A,3,15,05,29,26,12,02,25,,,,,,4.6,1.8,4.2*37
$GPRMC,112937.000,A,3353.7525,N,09832.0252,W,0.64,170.89,010412,,,D*73
$GPGGA,112938.000,3353.7525,N,09832.0253,W,2,07,1.8,325.9,M,-23.7,M,3.8,0000*47
$GPGSA,A,3,15,05,29,26,12,02,25,,,,,,4.6,1.8,4.2*37
$GPGSV,3,1,12,05,61,045,23,29,54,320,26,25,39,241,23,02,31,068,35*76
$GPGSV,3,2,12,26,28,127,19,12,24,196,23,21,15,278,15,15,15,169,20*71
$GPGSV,3,3,12,18,07,223,,10,05,043,19,04,00,082,,51,49,195,38*7D
$GPRMC,112938.000,A,3353.7525,N,09832.0253,W,0.23,161.07,010412,,,D*78
$GPGGA,112939.000,3353.7532,N,09832.0259,W,2,07,1.8,323.5,M,-23.7,M,0.8,0000*43
$GPGSA,A,3,15,05,29,26,12,02,25,,,,,,4.6,1.8,4.2*37
$GPRMC,112939.000,A,3353.7532,N,09832.0259,W,0.19,243.16,010412,,,D*7F
$GPGGA,112940.000,3353.7537,N,09832.0265,W,2,07,1.8,320.8,M,-23.7,M,0.8,0000*49
$GPGSA,A,3,15,05,29,26,12,02,25,,,,,,4.6,1.8,4.2*37
$GPRMC,112940.000,A,3353.7537,N,09832.0265,W,0.22,281.75,010412,,,D*78
$GPGGA,112941.000,3353.7544,N,09832.0270,W,2,07,1.8,317.6,M,-23.7,M,0.8,0000*42
$GPGSA,A,3,15,05,29,26,12,02,25,,,,,,4.6,1.8,4.2*37
$GPRMC,112941.000,A,3353.7544,N,09832.0270,W,0.17,215.48,010412,,,D*7C
$GPGGA,112942.000,3353.7548,N,09832.0274,W,2,07,1.8,316.3,M,-23.7,M,1.8,0000*4C
$GPGSA,A,3,15,05,29,26,12,02,25,,,,,,4.6,1.8,4.2*37
$GPRMC,112942.000,A,3353.7548,N,09832.0274,W,0.49,302.50,010412,,,D*72
$GPGGA,112943.000,3353.7555,N,09832.0278,W,2,07,1.8,313.9,M,-23.7,M,2.8,0000*41
$GPGSA,A,3,15,05,29,26,12,02,25,,,,,,4.6,1.8,4.2*37
$GPGSV,3,1,12,05,61,045,25,29,54,320,25,25,39,241,22,02,31,068,35*72
$GPGSV,3,2,12,26,28,127,24,12,24,196,25,21,15,278,14,15,15,169,21*79
$GPGSV,3,3,12,18,07,223,,10,05,043,19,04,00,082,,51,49,195,38*7D
$GPRMC,112943.000,A,3353.7555,N,09832.0278,W,0.40,320.43,010412,,,D*78
$GPGGA,112944.000,3353.7561,N,09832.0283,W,2,07,1.8,311.4,M,-23.7,M,3.8,0000*4B
$GPGSA,A,3,15,05,29,26,12,02,25,,,,,,4.6,1.8,4.2*37
$GPRMC,112944.000,A,3353.7561,N,09832.0283,W,0.32,336.53,010412,,,D*7F
$GPGGA,112945.000,3353.7567,N,09832.0287,W,2,07,1.8,308.8,M,-23.7,M,0.8,0000*4F
$GPGSA,A,3,15,05,29,26,12,02,25,,,,,,4.6,1.8,4.2*37
$GPRMC,112945.000,A,3353.7567,N,09832.0287,W,0.39,307.76,010412,,,D*72
$GPGGA,112946.000,3353.7572,N,09832.0290,W,2,07,1.8,306.5,M,-23.7,M,0.8,0000*4D
$GPGSA,A,3,15,05,29,26,12,02,25,,,,,,4.6,1.8,4.2*37
$GPRMC,112946.000,A,3353.7572,N,09832.0290,W,0.43,332.95,010412,,,D*75
$GPGGA,112947.000,3353.7578,N,09832.0293,W,2,07,1.8,304.2,M,-23.7,M,0.8,0000*40
$GPGSA,A,3,15,05,29,26,12,02,25,,,,,,4.6,1.8,4.2*37
$GPRMC,112947.000,A,3353.7578,N,09832.0293,W,0.28,308.94,010412,,,D*78
$GPGGA,112948.000,3353.7582,N,09832.0295,W,2,07,1.8,302.1,M,-23.7,M,0.8,0000*49
$GPGSA,A,3,15,05,29,26,12,02,25,,,,,,4.6,1.8,4.2*37
$GPGSV,3,1,12,05,61,045,26,29,54,320,25,25,39,241,22,02,31,068,35*71
$GPGSV,3,2,12,26,28,127,24,12,24,196,26,21,15,278,,15,15,169,20*7E
$GPGSV,3,3,12,18,07,223,,10,05,043,19,04,00,082,,51,49,195,38*7D
$GPRMC,112948.000,A,3353.7582,N,09832.0295,W,0.15,357.09,010412,,,D*74
$GPGGA,112949.000,3353.7588,N,09832.0300,W,2,07,1.8,299.6,M,-23.7,M,0.8,0000*4B
$GPGSA,A,3,15,05,29,26,12,02,25,,,,,,4.6,1.8,4.2*37
$GPRMC,112949.000,A,3353.7588,N,09832.0300,W,0.51,322.34,010412,,,D*7E
$GPGGA,112950.000,3353.7596,N,09832.0307,W,2,07,1.8,296.7,M,-23.7,M,1.8,0000*44
$GPGSA,A,3,15,05,29,26,12,02,25,,,,,,4.6,1.8,4.2*37
$GPRMC,112950.000,A,3353.7596,N,09832.0307,W,0.61,306.36,010412,,,D*79
$GPGGA,112951.000,3353.7604,N,09832.0314,W,2,07,1.8,294.1,M,-23.7,M,0.8,0000*4A
$GPGSA,A,3,15,05,29,26,12,02,25,,,,,,4.6,1.8,4.2*37
$GPRMC,112951.000,A,3353.7604,N,09832.0314,W,1.32,319.12,010412,,,D*7D
$GPGGA,112952.000,3353.7611,N,09832.0319,W,2,07,1.8,292.0,M,-23.7,M,0.8,0000*47
$GPGSA,A,3,15,05,29,26,12,02,25,,,,,,4.6,1.8,4.2*37
$GPRMC,112952.000,A,3353.7611,N,09832.0319,W,1.13,330.83,010412,,,D*77
$GPGGA,112953.000,3353.7614,N,09832.0319,W,2,07,1.8,290.6,M,-23.7,M,0.8,0000*47
$GPGSA,A,3,15,05,29,26,12,02,25,,,,,,4.6,1.8,4.2*37
$GPGSV,3,1,12,05,61,045,27,29,54,320,24,25,39,241,21,02,31,068,35*72
$GPGSV,3,2,12,26,28,127,22,12,24,196,26,21,15,278,,15,15,169,20*78
$GPGSV,3,3,12,18,07,223,,10,05,043,20,04,00,082,,51,49,195,38*77
$GPRMC,112953.000,A,3353.7614,N,09832.0319,W,0.55,2.40,010412,,,D*7D
$GPGGA,112954.000,3353.7616,N,09832.0318,W,2,07,1.8,289.6,M,-23.7,M,1.8,0000*4A
$GPGSA,A,3,15,05,29,26,12,02,25,,,,,,4.6,1.8,4.2*37
$GPRMC,112954.000,A,3353.7616,N,09832.0318,W,0.66,4.59,010412,,,D*77
$GPGGA,112955.000,3353.7619,N,09832.0318,W,2,07,1.8,288.5,M,-23.7,M,2.8,0000*45
$GPGSA,A,3,15,05,29,26,12,02,25,,,,,,4.6,1.8,4.2*37
$GPRMC,112955.000,A,3353.7619,N,09832.0318,W,0.64,330.96,010412,,,D*7C
$GPGGA,112956.000,3353.7618,N,09832.0315,W,2,07,1.8,288.1,M,-23.7,M,3.8,0000*4F
$GPGSA,A,3,15,05,29,26,12,02,25,,,,,,4.6,1.8,4.2*37
$GPRMC,112956.000,A,3353.7618,N,09832.0315,W,0.55,326.79,010412,,,D*77
$GPGGA,112957.000,3353.7614,N,09832.0312,W,2,07,1.8,288.0,M,-23.7,M,0.8,0000*47
$GPGSA,A,3,15,05,29,26,12,02,25,,,,,,4.6,1.8,4.2*37
$GPRMC,112957.000,A,3353.7614,N,09832.0312,W,0.77,304.85,010412,,,D*7E
$GPGGA,112958.000,3353.7605,N,09832.0305,W,2,07,1.8,291.3,M,-23.7,M,0.8,0000*45
$GPGSA,A,3,15,05,29,26,12,02,25,,,,,,4.6,1.8,4.2*37
$GPGSV,3,1,12,05,61,045,27,29,54,320,24,25,39,241,20,02,31,068,35*73
$GPGSV,3,2,12,26,28,127,16,12,24,196,26,21,15,278,,15,15,169,14*78
$GPGSV,3,3,12,18,07,223,,10,05,043,20,04,00,082,,51,49,195,38*77
$GPRMC,112958.000,A,3353.7605,N,09832.0305,W,0.74,321.07,010412,,,D*79
$GPGGA,112959.000,3353.7598,N,09832.0297,W,2,07,1.8,294.9,M,-23.7,M,0.8,0000*46
$GPGSA,A,3,15,05,29,26,12,02,25,,,,,,4.6,1.8,4.2*37
$GPRMC,112959.000,A,3353.7598,N,09832.0297,W,0.16,57.72,010412,,,D*41
$GPGGA,113000.000,3353.7598,N,09832.0297,W,2,07,1.8,295.0,M,-23.7,M,1.8,0000*4B
$GPGSA,A,3,15,05,29,26,12,02,25,,,,,,4.6,1.8,4.2*37
$GPRMC,113000.000,A,3353.7598,N,09832.0297,W,0.07,108.73,010412,,,D*7F
$GPGGA,113001.000,3353.7596,N,09832.0296,W,2,06,1.8,294.7,M,-23.7,M,0.8,0000*43
$GPGSA,A,3,05,29,26,12,02,25,,,,,,,4.8,1.8,4.5*3A
$GPRMC,113001.000,A,3353.7596,N,09832.0296,W,0.21,298.55,010412,,,D*7B
$GPGGA,113002.000,3353.7587,N,09832.0287,W,2,06,1.8,299.9,M,-23.7,M,0.8,0000*43
$GPGSA,A,3,05,29,26,12,02,25,,,,,,,4.8,1.8,4.5*3A
$GPRMC,113002.000,A,3353.7587,N,09832.0287,W,0.15,223.67,010412,,,D*7E
$GPGGA,113003.000,3353.7575,N,09832.0280,W,2,06,1.8,303.4,M,-23.7,M,0.8,0000*47
$GPGSA,A,3,05,29,26,12,02,25,,,,,,,4.8,1.8,4.5*3A
$GPGSV,3,1,12,05,61,045,25,29,54,320,24,25,39,241,21,02,31,068,35*70
$GPGSV,3,2,12,26,28,127,14,12,24,196,25,21,15,278,,15,15,169,*7C
$GPGSV,3,3,12,18,07,223,,10,05,043,20,04,00,082,,51,49,195,38*77
$GPRMC,113003.000,A,3353.7575,N,09832.0280,W,0.51,153.96,010412,,,D*7F
$GPGGA,113004.000,3353.7568,N,09832.0272,W,2,06,1.8,307.1,M,-23.7,M,0.8,0000*40
$GPGSA,A,3,05,29,26,12,02,25,,,,,,,4.8,1.8,4.5*3A
$GPRMC,113004.000,A,3353.7568,N,09832.0272,W,0.44,133.63,010412,,,D*71
$GPGGA,113005.000,3353.7561,N,09832.0264,W,2,06,1.8,311.5,M,-23.7,M,0.8,0000*4C
$GPGSA,A,3,05,29,26,12,02,25,,,,,,,4.8,1.8,4.5*3A
$GPRMC,113005.000,A,3353.7561,N,09832.0264,W,1.09,140.84,010412,,,D*7B
$GPGGA,113006.000,3353.7554,N,09832.0260,W,2,06,1.8,314.6,M,-23.7,M,1.8,0000*4A
$GPGSA,A,3,05,29,26,12,02,25,,,,,,,4.8,1.8,4.5*3A
$GPRMC,113006.000,A,3353.7554,N,09832.0260,W,1.44,137.70,010412,,,D*78
$GPGGA,113007.000,3353.7550,N,09832.0257,W,2,06,1.8,317.0,M,-23.7,M,2.8,0000*4D
$GPGSA,A,3,05,29,26,12,02,25,,,,,,,4.8,1.8,4.5*3A
$GPRMC,113007.000,A,3353.7550,N,09832.0257,W,1.26,129.57,010412,,,D*77
$GPGGA,113008.000,3353.7544,N,09832.0258,W,2,06,1.8,317.9,M,-23.7,M,3.8,0000*40
$GPGSA,A,3,05,29,26,12,02,25,,,,,,,4.8,1.8,4.5*3A
$GPGSV,3,1,12,05,61,045,24,29,54,320,23,25,39,241,22,02,31,068,35*75
$GPGSV,3,2,12,26,28,127,14,12,24,196,20,21,15,278,,15,15,169,*79
$GPGSV,3,3,12,18,07,223,,10,05,043,20,04,00,082,,51,49,195,38*77
$GPRMC,113008.000,A,3353.7544,N,09832.0258,W,1.07,164.11,010412,,,D*7A
$GPGGA,113009.000,3353.7538,N,09832.0258,W,2,06,1.8,318.2,M,-23.7,M,0.8,0000*4D
$GPGSA,A,3,05,29,26,12,02,25,,,,,,,4.8,1.8,4.5*3A
$GPRMC,113009.000,A,3353.7538,N,09832.0258,W,1.62,150.84,010412,,,D*78
$GPGGA,113010.000,3353.7530,N,09832.0256,W,2,06,1.8,318.7,M,-23.7,M,0.8,0000*46
$GPGSA,A,3,05,29,26,12,02,25,,,,,,,4.8,1.8,4.5*3A
$GPRMC,113010.000,A,3353.7530,N,09832.0256,W,2.30,145.34,010412,,,D*7D
$GPGGA,113011.000,3353.7529,N,09832.0254,W,2,06,1.8,319.0,M,-23.7,M,0.8,0000*4B
$GPGSA,A,3,05,29,26,12,02,25,,,,,,,4.8,1.8,4.5*3A
$GPRMC,113011.000,A,3353.7529,N,09832.0254,W,1.71,135.60,010412,,,D*76
$GPGGA,113012.000,3353.7531,N,09832.0256,W,2,06,1.8,318.9,M,-23.7,M,1.8,0000*4A
$GPGSA,A,3,05,29,26,12,02,25,,,,,,,4.8,1.8,4.5*3A
$GPRMC,113012.000,A,3353.7531,N,09832.0256,W,1.28,157.83,010412,,,D*7B
$GPGGA,113013.000,3353.7531,N,09832.0260,W,2,06,1.8,318.6,M,-23.7,M,2.8,0000*42
$GPGSA,A,3,05,29,26,12,02,25,,,,,,,4.8,1.8,4.5*3A
$GPGSV,3,1,12,05,61,045,24,29,54,320,22,25,39,241,22,02,31,068,34*75
$GPGSV,3,2,12,26,28,127,14,12,24,196,20,21,15,278,,15,15,169,*79
$GPGSV,3,3,12,18,07,223,,10,05,043,19,04,00,082,,51,49,195,38*7D
$GPRMC,113013.000,A,3353.7531,N,09832.0260,W,1.49,176.57,010412,,,D*72
$GPGGA,113014.000,3353.7532,N,09832.0261,W,2,05,2.3,319.0,M,-23.7,M,3.8,0000*4A
$GPGSA,A,3,05,29,12,02,25,,,,,,,,5.4,2.3,4.9*37
$GPRMC,113014.000,A,3353.7532,N,09832.0261,W,1.24,182.80,010412,,,D*7D
$GPGGA,113015.000,3353.7528,N,09832.0258,W,2,05,2.3,321.3,M,-23.7,M,0.8,0000*41
$GPGSA,A,3,05,29,12,02,25,,,,,,,,5.4,2.3,4.9*37
$GPRMC,113015.000,A,3353.7528,N,09832.0258,W,0.70,164.06,010412,,,D*7B
$GPGGA,113016.000,3353.7524,N,09832.0256,W,2,06,1.8,321.7,M,-23.7,M,0.8,0000*4F
$GPGSA,A,3,05,29,26,12,02,25,,,,,,,4.8,1.8,4.5*3A
$GPRMC,113016.000,A,3353.7524,N,09832.0256,W,1.46,153.18,010412,,,D*75
$GPGGA,113017.000,3353.7528,N,09832.0257,W,2,06,1.8,321.5,M,-23.7,M,0.8,0000*41
$GPGSA,A,3,05,29,26,12,02,25,,,,,,,4.8,1.8,4.5*3A
$GPRMC,113017.000,A,3353.7528,N,09832.0257,W,1.06,143.50,010412,,,D*70
$GPGGA,113018.000,3353.7526,N,09832.0253,W,2,05,2.3,322.2,M,-23.7,M,1.8,0000*4A
$GPGSA,A,3,05,29,12,02,25,,,,,,,,5.4,2.3,4.9*37
$GPGSV,3,1,12,05,61,045,24,29,54,320,22,25,39,241,22,02,31,068,33*72
$GPGSV,3,2,12,26,28,127,16,12,24,196,21,21,15,278,,15,15,169,*7A
$GPGSV,3,3,12,18,07,223,,10,05,043,19,04,00,082,,51,49,195,38*7D
$GPRMC,113018.000,A,3353.7526,N,09832.0253,W,0.55,156.06,010412,,,D*75
$GPGGA,113019.000,3353.7521,N,09832.0250,W,2,06,1.8,323.3,M,-23.7,M,0.8,0000*45
$GPGSA,A,3,05,29,26,12,02,25,,,,,,,4.8,1.8,4.5*3A
$GPRMC,113019.000,A,3353.7521,N,09832.0250,W,0.34,155.34,010412,,,D*75
$GPGGA,113020.000,3353.7514,N,09832.0243,W,2,06,1.8,324.8,M,-23.7,M,1.8,0000*46
$GPGSA,A,3,05,29,26,12,02,25,,,,,,,4.8,1.8,4.5*3A
$GPRMC,113020.000,A,3353.7514,N,09832.0243,W,0.77,141.95,010412,,,D*72
$GPGGA,113021.000,3353.7511,N,09832.0237,W,2,06,1.8,325.6,M,-23.7,M,0.8,0000*4F
$GPGSA,A,3,05,29,26,12,02,25,,,,,,,4.8,1.8,4.5*3A
$GPRMC,113021.000,A,3353.7511,N,09832.0237,W,0.91,144.04,010412,,,D*70
$GPGGA,113022.000,3353.7508,N,09832.0232,W,2,06,1.8,326.5,M,-23.7,M,0.8,0000*41
$GPGSA,A,3,05,29,26,12,02,25,,,,,,,4.8,1.8,4.5*3A
$GPRMC,113022.000,A,3353.7508,N,09832.0232,W,0.71,127.56,010412,,,D*72
$GPGGA,113023.000,3353.7508,N,09832.0230,W,2,06,1.8,326.7,M,-23.7,M,0.8,0000*40
$GPGSA,A,3,05,29,26,12,02,25,,,,,,,4.8,1.8,4.5*3A
$GPGSV,3,1,12,05,61,045,25,29,54,320,21,25,39,241,23,02,31,068,33*71
$GPGSV,3,2,12,26,28,127,23,12,24,196,22,21,15,278,,15,15,169,*7F
$GPGSV,3,3,12,18,07,223,,10,05,043,18,04,00,082,,51,49,195,38*7C
$GPRMC,113023.000,A,3353.7508,N,09832.0230,W,0.69,147.03,010412,,,D*7E
$GPGGA,113024.000,3353.7511,N,09832.0228,W,2,06,1.8,326.7,M,-23.7,M,1.8,0000*47
$GPGSA,A,3,05,29,26,12,02,25,,,,,,,4.8,1.8,4.5*3A
$GPRMC,113024.000,A,3353.7511,N,09832.0228,W,0.72,128.26,010412,,,D*7C
$GPGGA,113025.000,3353.7513,N,09832.0224,W,2,06,1.8,327.2,M,-23.7,M,2.8,0000*4F
$GPGSA,A,3,05,29,26,12,02,25,,,,,,,4.8,1.8,4.5*3A
$GPRMC,113025.000,A,3353.7513,N,09832.0224,W,0.53,130.54,010412,,,D*7C
$GPGGA,113026.000,3353.7513,N,09832.0220,W,2,06,1.8,327.8,M,-23.7,M,0.8,0000*40
$GPGSA,A,3,05,29,26,12,02,25,,,,,,,4.9,1.8,4.5*3B
$GPRMC,113026.000,A,3353.7513,N,09832.0220,W,0.14,138.68,010412,,,D*7F
$GPGGA,113027.000,3353.7514,N,09832.0225,W,2,06,1.8,327.3,M,-23.7,M,0.8,0000*48
$GPGSA,A,3,05,29,26,12,02,25,,,,,,,4.9,1.8,4.5*3B
$GPRMC,113027.000,A,3353.7514,N,09832.0225,W,0.10,225.51,010412,,,D*7D
$GPGGA,113028.000,3353.7514,N,09832.0225,W,2,06,1.8,327.7,M,-23.7,M,0.8,0000*43
$GPGSA,A,3,05,29,26,12,02,25,,,,,,,4.9,1.8,4.5*3B
$GPGSV,3,1,12,05,61,045,26,29,54,320,21,25,39,241,24,02,31,068,33*75
$GPGSV,3,2,12,26,28,127,24,12,24,196,23,21,15,278,,15,15,169,*79
$GPGSV,3,3,12,18,07,223,,10,05,043,18,04,00,082,,51,49,195,38*7C
$GPRMC,113028.000,A,3353.7514,N,09832.0225,W,0.59,167.37,010412,,,D*7A
$GPGGA,113029.000,3353.7516,N,09832.0231,W,2,06,1.8,326.7,M,-23.7,M,0.8,0000*44
$GPGSA,A,3,05,29,26,12,02,25,,,,,,,4.9,1.8,4.5*3B
$GPRMC,113029.000,A,3353.7516,N,09832.0231,W,0.46,228.61,010412,,,D*79
$GPGGA,113030.000,3353.7517,N,09832.0230,W,2,06,1.8,326.9,M,-23.7,M,1.8,0000*43
$GPGSA,A,3,05,29,26,12,02,25,,,,,,,4.9,1.8,4.5*3B
$GPRMC,113030.000,A,3353.7517,N,09832.0230,W,0.13,308.23,010412,,,D*74
$GPGGA,113031.000,3353.7517,N,09832.0231,W,2,06,1.8,326.6,M,-23.7,M,2.8,0000*4F
$GPGSA,A,3,05,29,26,12,02,25,,,,,,,4.9,1.8,4.5*3B
$GPRMC,113031.000,A,3353.7517,N,09832.0231,W,0.24,162.18,010412,,,D*76
$GPGGA,113032.000,3353.7518,N,09832.0229,W,2,06,1.8,326.9,M,-23.7,M,3.8,0000*44
$GPGSA,A,3,05,29,26,12,02,25,,,,,,,4.9,1.8,4.5*3B
$GPRMC,113032.000,A,3353.7518,N,09832.0229,W,0.31,161.81,010412,,,D*74
$GPGGA,113033.000,3353.7521,N,09832.0228,W,2,06,1.8,327.2,M,-23.7,M,0.8,0000*47
$GPGSA,A,3,05,29,26,12,02,25,,,,,,,4.9,1.8,4.5*3B
$GPGSV,3,1,12,05,61,045,26,29,54,320,22,25,39,241,24,02,31,068,33*76
$GPGSV,3,2,12,26,28,127,25,12,24,196,25,21,15,278,,15,15,169,*7E
$GPGSV,3,3,12,18,07,223,,10,05,043,19,04,00,082,,51,49,195,38*7D
$GPRMC,113033.000,A,3353.7521,N,09832.0228,W,0.06,81.20,010412,,,D*4E
$GPGGA,113034.000,3353.7524,N,09832.0228,W,2,06,1.8,327.5,M,-23.7,M,0.8,0000*42
$GPGSA,A,3,05,29,26,12,02,25,,,,,,,4.9,1.8,4.5*3B
$GPRMC,113034.000,A,3353.7524,N,09832.0228,W,0.14,160.11,010412,,,D*73
$GPGGA,113035.000,3353.7526,N,09832.0227,W,2,06,1.8,328.0,M,-23.7,M,0.8,0000*44
$GPGSA,A,3,05,29,26,12,02,25,,,,,,,4.9,1.8,4.5*3B
$GPRMC,113035.000,A,3353.7526,N,09832.0227,W,0.21,147.97,010412,,,D*72
$GPGGA,113036.000,3353.7524,N,09832.0224,W,2,06,1.8,328.2,M,-23.7,M,0.8,0000*44
$GPGSA,A,3,05,29,26,12,02,25,,,,,,,4.9,1.8,4.5*3B
$GPRMC,113036.000,A,3353.7524,N,09832.0224,W,0.38,154.78,010412,,,D*7B
$GPGGA,113037.000,3353.7526,N,09832.0220,W,2,06,1.8,329.1,M,-23.7,M,1.8,0000*40
$GPGSA,A,3,05,29,26,12,02,25,,,,,,,4.9,1.8,4.5*3B
$GPRMC,113037.000,A,3353.7526,N,09832.0220,W,0.11,350.79,010412,,,D*70
$GPGGA,113038.000,3353.7524,N,09832.0217,W,2,06,1.8,331.2,M,-23.7,M,2.8,0000*40
$GPGSA,A,3,05,29,26,12,02,25,,,,,,,4.9,1.8,4.5*3B
$GPGSV,3,1,12,05,61,045,26,29,54,320,23,25,39,241,25,02,31,068,33*76
$GPGSV,3,2,12,26,28,127,25,12,24,196,25,21,15,278,,15,15,169,*7E
$GPGSV,3,3,12,18,07,223,,10,05,043,20,04,00,082,,51,49,195,38*77
$GPRMC,113038.000,A,3353.7524,N,09832.0217,W,0.12,127.09,010412,,,D*7F
$GPGGA,113039.000,3353.7524,N,09832.0211,W,2,06,1.8,334.0,M,-23.7,M,0.8,0000*42
$GPGSA,A,3,05,29,26,12,02,25,,,,,,,4.9,1.8,4.5*3B
$GPRMC,113039.000,A,3353.7524,N,09832.0211,W,0.26,119.34,010412,,,D*7C
$GPGGA,113040.000,3353.7522,N,09832.0207,W,2,06,1.8,335.8,M,-23.7,M,0.8,0000*44
$GPGSA,A,3,05,29,26,12,02,25,,,,,,,4.9,1.8,4.5*3B
$GPRMC,113040.000,A,3353.7522,N,09832.0207,W,0.19,132.22,010412,,,D*71
$GPGGA,113041.000,3353.7523,N,09832.0201,W,2,06,1.8,338.5,M,-23.7,M,0.8,0000*42
$GPGSA,A,3,05,29,26,12,02,25,,,,,,,4.9,1.8,4.5*3B
$GPRMC,113041.000,A,3353.7523,N,09832.0201,W,0.58,139.96,010412,,,D*76
$GPGGA,113042.000,3353.7518,N,09832.0192,W,2,06,1.8,341.7,M,-23.7,M,1.8,0000*4D
$GPGSA,A,3,05,29,26,12,02,25,,,,,,,4.9,1.8,4.5*3B
$GPRMC,113042.000,A,3353.7518,N,09832.0192,W,0.69,139.48,010412,,,D*75
$GPGGA,113043.000,3353.7512,N,09832.0182,W,2,06,1.8,345.1,M,-23.7,M,0.8,0000*44
$GPGSA,A,3,05,29,26,12,02,25,,,,,,,4.9,1.8,4.5*3B
$GPGSV,3,1,12,05,61,045,25,29,54,320,24,25,39,241,25,02,31,068,33*72
$GPGSV,3,2,12,26,28,127,24,12,24,196,25,21,15,278,,15,15,169,*7F
$GPGSV,3,3,12,18,07,223,,10,05,043,21,04,00,082,,51,49,195,38*76
$GPRMC,113043.000,A,3353.7512,N,09832.0182,W,1.05,140.75,010412,,,D*74
$GPGGA,113044.000,3353.7508,N,09832.0175,W,2,06,1.8,347.7,M,-23.7,M,1.8,0000*45
$GPGSA,A,3,05,29,26,12,02,25,,,,,,,4.9,1.8,4.5*3B
$GPRMC,113044.000,A,3353.7508,N,09832.0175,W,1.01,144.94,010412,,,D*7F
$GPGGA,113045.000,3353.7507,N,09832.0173,W,2,06,1.8,347.3,M,-23.7,M,0.8,0000*48
$GPGSA,A,3,05,29,26,12,02,25,,,,,,,4.9,1.8,4.5*3B
$GPRMC,113045.000,A,3353.7507,N,09832.0173,W,1.00,148.89,010412,,,D*76
$GPGGA,113046.000,3353.7507,N,09832.0170,W,2,06,1.8,347.9,M,-23.7,M,0.8,0000*42
$GPGSA,A,3,05,29,26,12,02,25,,,,,,,4.9,1.8,4.5*3B
$GPRMC,113046.000,A,3353.7507,N,09832.0170,W,0.53,150.12,010412,,,D*7A
$GPGGA,113047.000,3353.7508,N,09832.0170,W,2,06,1.8,348.5,M,-23.7,M,0.8,0000*4F
$GPGSA,A,3,05,29,26,12,02,25,,,,,,,4.9,1.8,4.5*3B
$GPRMC,113047.000,A,3353.7508,N,09832.0170,W,0.46,164.79,010412,,,D*7A
$GPGGA,113048.000,3353.7500,N,09832.0162,W,2,06,1.8,349.2,M,-23.7,M,0.8,0000*4D
$GPGSA,A,3,05,29,26,12,02,25,,,,,,,4.9,1.8,4.5*3B
$GPGSV,3,1,12,05,61,045,26,29,54,320,25,25,39,241,24,02,31,068,33*71
$GPGSV,3,2,12,26,28,127,25,12,24,196,25,21,15,278,,15,15,169,*7E
$GPGSV,3,3,12,18,07,223,,10,05,043,22,04,00,082,,51,49,195,38*75
$GPRMC,113048.000,A,3353.7500,N,09832.0162,W,0.83,159.46,010412,,,D*75
$GPGGA,113049.000,3353.7495,N,09832.0155,W,2,06,1.8,350.0,M,-23.7,M,1.8,0000*4E
$GPGSA,A,3,05,29,26,12,02,25,,,,,,,4.9,1.8,4.5*3B
$GPRMC,113049.000,A,3353.7495,N,09832.0155,W,0.62,142.07,010412,,,D*7D
$GPGGA,113050.000,3353.7490,N,09832.0149,W,2,06,1.8,350.4,M,-23.7,M,2.8,0000*49
$GPGSA,A,3,05,29,26,12,02,25,,,,,,,4.9,1.8,4.5*3B
$GPRMC,113050.000,A,3353.7490,N,09832.0149,W,0.39,131.21,010412,,,D*73
$GPGGA,113051.000,3353.7486,N,09832.0143,W,2,06,1.8,350.8,M,-23.7,M,0.8,0000*4B
$GPGSA,A,3,05,29,26,12,02,25,,,,,,,4.9,1.8,4.5*3B
$GPRMC,113051.000,A,3353.7486,N,09832.0143,W,0.73,107.74,010412,,,D*74
$GPGGA,113052.000,3353.7483,N,09832.0137,W,2,06,1.8,351.1,M,-23.7,M,0.8,0000*46
$GPGSA,A,3,05,29,26,12,02,25,,,,,,,4.9,1.8,4.5*3B
$GPRMC,113052.000,A,3353.7483,N,09832.0137,W,0.59,141.44,010412,,,D*78
$GPGGA,113053.000,3353.7480,N,09832.0133,W,2,06,1.8,351.3,M,-23.7,M,0.8,0000*42
$GPGSA,A,3,05,29,26,12,02,25,,,,,,,4.9,1.8,4.5*3B
$GPGSV,3,1,12,05,61,045,26,29,54,320,25,25,39,241,24,02,31,068,34*76
$GPGSV,3,2,12,26,28,127,25,12,24,196,24,21,15,278,,15,15,169,*7F
$GPGSV,3,3,12,18,07,223,,10,05,043,22,04,00,082,,51,49,195,38*75
$GPRMC,113053.000,A,3353.7480,N,09832.0133,W,0.67,140.27,010412,,,D*77
$GPGGA,113054.000,3353.7476,N,09832.0129,W,2,07,1.8,351.4,M,-23.7,M,0.8,0000*41
$GPGSA,A,3,15,05,29,26,12,02,25,,,,,,4.7,1.8,4.3*37
$GPRMC,113054.000,A,3353.7476,N,09832.0129,W,0.98,146.15,010412,,,D*75
$GPGGA,113055.000,3353.7473,N,09832.0126,W,2,07,1.8,351.5,M,-23.7,M,1.8,0000*4A
$GPGSA,A,3,15,05,29,26,12,02,25,,,,,,4.7,1.8,4.3*37
$GPRMC,113055.000,A,3353.7473,N,09832.0126,W,0.87,158.67,010412,,,D*7A
$GPGGA,113056.000,3353.7471,N,09832.0123,W,2,07,1.8,351.4,M,-23.7,M,2.8,0000*4C
$GPGSA,A,3,15,05,29,26,12,02,25,,,,,,4.7,1.8,4.3*37
$GPRMC,113056.000,A,3353.7471,N,09832.0123,W,0.68,141.08,010412,,,D*7E
$GPGGA,113057.000,3353.7471,N,09832.0120,W,2,07,1.8,351.4,M,-23.7,M,0.8,0000*4C
$GPGSA,A,3,15,05,29,26,12,02,25,,,,,,4.7,1.8,4.3*37
$GPRMC,113057.000,A,3353.7471,N,09832.0120,W,0.59,91.53,010412,,,D*4C
$GPGGA,113058.000,3353.7468,N,09832.0114,W,2,07,1.8,354.5,M,-23.7,M,0.8,0000*48
$GPGSA,A,3,15,05,29,26,12,02,25,,,,,,4.7,1.8,4.3*37
$GPGSV,3,1,12,05,61,045,26,29,54,320,26,25,39,241,19,02,31,068,34*7B
$GPGSV,3,2,12,26,28,127,25,12,24,196,17,21,15,278,,15,15,169,22*7F
$GPGSV,3,3,12,18,07,223,,10,05,043,23,04,00,082,,51,49,195,38*74
$GPRMC,113058.000,A,3353.7468,N,09832.0114,W,0.62,90.88,010412,,,D*43
$GPGGA,113059.000,3353.7469,N,09832.0112,W,2,07,1.8,354.5,M,-23.7,M,0.8,0000*4E
$GPGSA,A,3,15,05,29,26,12,02,25,,,,,,4.7,1.8,4.3*37
$GPRMC,113059.000,A,3353.7469,N,09832.0112,W,0.83,82.31,010412,,,D*4B
$GPGGA,113100.000,3353.7468,N,09832.0107,W,2,07,1.8,356.4,M,-23.7,M,1.8,0000*44
$GPGSA,A,3,15,05,29,26,12,02,25,,,,,,4.7,1.8,4.3*37
$GPRMC,113100.000,A,3353.7468,N,09832.0107,W,0.66,87.84,010412,,,D*43
$GPGGA,113101.000,3353.7467,N,09832.0102,W,2,07,1.8,359.0,M,-23.7,M,2.8,0000*47
$GPGSA,A,3,15,05,29,26,12,02,25,,,,,,4.7,1.8,4.3*37
$GPRMC,113101.000,A,3353.7467,N,09832.0102,W,0.67,82.94,010412,,,D*4D
$GPGGA,113102.000,3353.7465,N,09832.0097,W,2,07,1.8,362.3,M,-23.7,M,3.8,0000*41
$GPGSA,A,3,15,05,29,26,12,02,25,,,,,,4.7,1.8,4.3*37
$GPRMC,113102.000,A,3353.7465,N,09832.0097,W,0.65,97.83,010412,,,D*41
$GPGGA,113103.000,3353.7464,N,09832.0093,W,2,07,1.8,364.8,M,-23.7,M,0.8,0000*4B
$GPGSA,A,3,15,05,29,26,12,02,25,,,,,,4.7,1.8,4.3*37
$GPGSV,3,1,12,05,61,045,25,29,54,320,26,25,39,241,17,02,31,068,35*77
$GPGSV,3,2,12,26,28,127,26,12,24,196,14,21,15,278,,15,15,169,23*7E
$GPGSV,3,3,12,18,07,223,,10,05,043,23,04,00,082,,51,49,195,38*74
$GPRMC,113103.000,A,3353.7464,N,09832.0093,W,0.82,107.80,010412,,,D*77
$GPGGA,113104.000,3353.7463,N,09832.0089,W,2,07,1.8,366.3,M,-23.7,M,0.8,0000*49
$GPGSA,A,3,15,05,29,26,12,02,25,,,,,,4.7,1.8,4.3*37
$GPRMC,113104.000,A,3353.7463,N,09832.0089,W,0.94,118.91,010412,,,D*75
$GPGGA,113105.000,3353.7463,N,09832.0088,W,2,07,1.8,366.7,M,-23.7,M,0.8,0000*4D
$GPGSA,A,3,15,05,29,26,12,02,25,,,,,,4.7,1.8,4.3*37
$GPRMC,113105.000,A,3353.7463,N,09832.0088,W,0.93,112.80,010412,,,D*78
$GPGGA,113106.000,3353.7462,N,09832.0083,W,2,06,1.9,369.4,M,-23.7,M,0.8,0000*48
$GPGSA,A,3,15,05,29,26,02,25,,,,,,,4.7,1.9,4.3*35
$GPRMC,113106.000,A,3353.7462,N,09832.0083,W,1.01,105.43,010412,,,D*72
$GPGGA,113107.000,3353.7464,N,09832.0083,W,2,06,1.9,369.0,M,-23.7,M,1.8,0000*4A
$GPGSA,A,3,15,05,29,26,02,25,,,,,,,4.7,1.9,4.3*35
$GPRMC,113107.000,A,3353.7464,N,09832.0083,W,0.99,107.04,010412,,,D*74
$GPGGA,113108.000,3353.7466,N,09832.0082,W,2,06,1.9,369.0,M,-23.7,M,2.8,0000*45
$GPGSA,A,3,15,05,29,26,02,25,,,,,,,4.7,1.9,4.3*35
$GPGSV,3,1,12,05,61,045,24,29,54,320,26,25,39,241,17,02,31,068,35*76
$GPGSV,3,2,12,26,28,127,26,12,24,196,,21,15,278,,15,15,169,24*7C
$GPGSV,3,3,12,18,07,223,,10,05,043,23,04,00,082,,51,49,195,38*74
$GPRMC,113108.000,A,3353.7466,N,09832.0082,W,0.79,109.67,010412,,,D*7D
$GPGGA,113109.000,3353.7468,N,09832.0082,W,2,06,1.9,368.8,M,-23.7,M,0.8,0000*41
$GPGSA,A,3,15,05,29,26,02,25,,,,,,,4.7,1.9,4.3*35
$GPRMC,113109.000,A,3353.7468,N,09832.0082,W,0.58,116.22,010412,,,D*7E
$GPGGA,113110.000,3353.7472,N,09832.0084,W,2,06,1.9,367.0,M,-23.7,M,0.8,0000*43
$GPGSA,A,3,15,05,29,26,02,25,,,,,,,4.7,1.9,4.3*35
$GPRMC,113110.000,A,3353.7472,N,09832.0084,W,0.33,110.98,010412,,,D*71
$GPGGA,113111.000,3353.7476,N,09832.0087,W,2,06,1.9,365.2,M,-23.7,M,0.8,0000*45
$GPGSA,A,3,15,05,29,26,02,25,,,,,,,4.7,1.9,4.3*35
$GPRMC,113111.000,A,3353.7476,N,09832.0087,W,0.44,93.54,010412,,,D*4D
$GPGGA,113112.000,3353.7483,N,09832.0091,W,2,06,1.9,363.1,M,-23.7,M,1.8,0000*4F
$GPGSA,A,3,15,05,29,26,02,25,,,,,,,4.7,1.9,4.3*35
$GPRMC,113112.000,A,3353.7483,N,09832.0091,W,0.38,65.63,010412,,,D*45
$GPGGA,113113.000,3353.7490,N,09832.0095,W,2,06,1.9,361.2,M,-23.7,M,2.8,0000*4A
$GPGSA,A,3,15,05,29,26,02,25,,,,,,,4.7,1.9,4.3*35
$GPGSV,3,1,12,05,61,045,25,29,54,320,26,25,39,241,18,02,31,068,36*7B
$GPGSV,3,2,12,26,28,127,26,12,24,196,,21,15,278,,15,15,169,25*7D
$GPGSV,3,3,12,18,07,223,,10,05,043,23,04,00,082,,51,49,195,38*74
$GPRMC,113113.000,A,3353.7490,N,09832.0095,W,0.38,44.70,010412,,,D*43
$GPGGA,113114.000,3353.7497,N,09832.0099,W,2,06,1.9,359.4,M,-23.7,M,3.8,0000*4A
$GPGSA,A,3,15,05,29,26,02,25,,,,,,,4.7,1.9,4.3*35
$GPRMC,113114.000,A,3353.7497,N,09832.0099,W,0.23,354.92,010412,,,D*7B
$GPGGA,113115.000,3353.7503,N,09832.0103,W,2,06,1.9,357.8,M,-23.7,M,0.8,0000*44
$GPGSA,A,3,15,05,29,26,02,25,,,,,,,4.7,1.9,4.3*35
$GPRMC,113115.000,A,3353.7503,N,09832.0103,W,0.30,15.00,010412,,,D*4B
$GPGGA,113116.000,3353.7509,N,09832.0106,W,2,05,2.0,356.2,M,-23.7,M,0.8,0000*4A
$GPGSA,A,3,15,05,29,26,02,,,,,,,,4.8,2.0,4.3*37
$GPRMC,113116.000,A,3353.7509,N,09832.0106,W,0.48,9.46,010412,,,D*77
$GPGGA,113117.000,3353.7514,N,09832.0101,W,2,06,1.9,355.7,M,-23.7,M,0.8,0000*4F
$GPGSA,A,3,15,05,29,26,02,25,,,,,,,4.7,1.9,4.3*35
$GPRMC,113117.000,A,3353.7514,N,09832.0101,W,0.48,44.33,010412,,,D*46
$GPGGA,113118.000,3353.7519,N,09832.0108,W,2,06,1.9,353.5,M,-23.7,M,1.8,0000*41
$GPGSA,A,3,15,05,29,26,02,25,,,,,,,4.7,1.9,4.3*35
$GPGSV,3,1,12,05,60,044,26,29,55,320,25,25,38,240,20,02,30,069,36*71
$GPGSV,3,2,12,26,29,126,25,12,23,195,,21,16,279,,15,16,168,26*79
$GPGSV,3,3,12,18,08,224,,10,04,043,22,30,00,327,,51,49,195,38*77
$GPRMC,113118.000,A,3353.7519,N,09832.0108,W,0.37,316.02,010412,,,D*73
$GPGGA,113119.000,3353.7527,N,09832.0120,W,2,06,1.9,350.6,M,-23.7,M,2.8,0000*44
$GPGSA,A,3,15,05,29,26,02,25,,,,,,,4.7,1.9,4.3*35
$GPRMC,113119.000,A,3353.7527,N,09832.0120,W,0.51,335.79,010412,,,D*78
$GPGGA,113120.000,3353.7533,N,09832.0126,W,2,06,1.9,348.3,M,-23.7,M,3.8,0000*40
$GPGSA,A,3,15,05,29,26,02,25,,,,,,,4.7,1.9,4.3*35
$GPRMC,113120.000,A,3353.7533,N,09832.0126,W,0.50,358.08,010412,,,D*7D
$GPGGA,113121.000,3353.7537,N,09832.0130,W,2,06,1.9,346.3,M,-23.7,M,0.8,0000*4F
$GPGSA,A,3,15,05,29,26,02,25,,,,,,,4.7,1.9,4.3*35
$GPRMC,113121.000,A,3353.7537,N,09832.0130,W,0.49,16.11,010412,,,D*46
$GPGGA,113122.000,3353.7541,N,09832.0135,W,2,06,1.9,344.3,M,-23.7,M,0.8,0000*4A
$GPGSA,A,3,15,05,29,26,02,25,,,,,,,4.7,1.9,4.3*35
$GPRMC,113122.000,A,3353.7541,N,09832.0135,W,0.61,356.81,010412,,,D*75
$GPGGA,113123.000,3353.7550,N,09832.0147,W,2,06,1.9,341.3,M,-23.7,M,0.8,0000*4B
$GPGSA,A,3,15,05,29,26,02,25,,,,,,,4.7,1.9,4.3*35
$GPGSV,3,1,12,05,60,044,26,29,55,320,24,25,38,240,21,02,30,069,37*70
$GPGSV,3,2,12,26,29,126,25,12,23,195,,21,16,279,,15,16,168,27*78
$GPGSV,3,3,12,18,08,224,,10,04,043,22,30,00,327,,51,49,195,38*77
$GPRMC,113123.000,A,3353.7550,N,09832.0147,W,0.69,355.53,010412,,,D*75
$GPGGA,113124.000,3353.7556,N,09832.0154,W,2,06,1.9,339.1,M,-23.7,M,0.8,0000*45
$GPGSA,A,3,15,05,29,26,02,25,,,,,,,4.7,1.9,4.3*35
$GPRMC,113124.000,A,3353.7556,N,09832.0154,W,0.79,317.80,010412,,,D*7F
$GPGGA,113125.000,3353.7560,N,09832.0162,W,2,06,1.9,336.8,M,-23.7,M,0.8,0000*42
$GPGSA,A,3,15,05,29,26,02,25,,,,,,,4.7,1.9,4.3*35
$GPRMC,113125.000,A,3353.7560,N,09832.0162,W,0.86,325.34,010412,,,D*70
$GPGGA,113126.000,3353.7566,N,09832.0171,W,2,06,1.9,334.4,M,-23.7,M,1.8,0000*4A
$GPGSA,A,3,15,05,29,26,02,25,,,,,,,4.7,1.9,4.3*35
$GPRMC,113126.000,A,3353.7566,N,09832.0171,W,1.04,329.96,010412,,,D*78
$GPGGA,113127.000,3353.7574,N,09832.0185,W,2,06,1.9,331.4,M,-23.7,M,0.8,0000*47
$GPGSA,A,3,15,05,29,26,02,25,,,,,,,4.7,1.9,4.3*35
$GPRMC,113127.000,A,3353.7574,N,09832.0185,W,1.35,323.52,010412,,,D*71
$GPGGA,113128.000,3353.7576,N,09832.0194,W,2,06,1.9,329.0,M,-23.7,M,0.8,0000*47
$GPGSA,A,3,15,05,29,26,02,25,,,,,,,4.7,1.9,4.3*35
$GPGSV,3,1,12,05,60,044,27,29,55,320,23,25,38,240,22,02,30,069,37*75
$GPGSV,3,2,12,26,29,126,25,12,23,195,,21,16,279,,15,16,168,27*78
$GPGSV,3,3,12,18,08,224,,10,04,043,21,30,00,327,,51,49,195,38*74
$GPRMC,113128.000,A,3353.7576,N,09832.0194,W,0.99,326.09,010412,,,D*70
$GPGGA,113129.000,3353.7579,N,09832.0203,W,2,06,1.9,326.8,M,-23.7,M,0.8,0000*43
$GPGSA,A,3,15,05,29,26,02,25,,,,,,,4.7,1.9,4.3*35
$GPRMC,113129.000,A,3353.7579,N,09832.0203,W,0.93,322.24,010412,,,D*72
$GPGGA,113130.000,3353.7580,N,09832.0213,W,2,06,1.9,324.5,M,-23.7,M,0.8,0000*43
$GPGSA,A,3,15,05,29,26,02,25,,,,,,,4.7,1.9,4.3*35
$GPRMC,113130.000,A,3353.7580,N,09832.0213,W,0.82,324.90,010412,,,D*74
$GPGGA,113131.000,3353.7581,N,09832.0219,W,2,06,1.9,322.6,M,-23.7,M,1.8,0000*4D
$GPGSA,A,3,15,05,29,26,02,25,,,,,,,4.7,1.9,4.3*35
$GPRMC,113131.000,A,3353.7581,N,09832.0219,W,0.71,321.74,010412,,,D*7D
$GPGGA,113132.000,3353.7581,N,09832.0222,W,2,06,1.9,321.4,M,-23.7,M,2.8,0000*44
$GPGSA,A,3,15,05,29,26,02,25,,,,,,,4.7,1.9,4.3*35
$GPRMC,113132.000,A,3353.7581,N,09832.0222,W,0.84,322.44,010412,,,D*7C
$GPGGA,113133.000,3353.7582,N,09832.0225,W,2,06,1.9,320.4,M,-23.7,M,0.8,0000*42
$GPGSA,A,3,15,05,29,26,02,25,,,,,,,4.7,1.9,4.3*35
$GPGSV,3,1,12,05,60,044,27,29,55,320,23,25,38,240,24,02,30,069,37*73
$GPGSV,3,2,12,26,29,126,25,12,23,195,,21,16,279,,15,16,168,28*77
$GPGSV,3,3,12,18,08,224,,10,04,043,21,30,00,327,,51,49,195,38*74
$GPRMC,113133.000,A,3353.7582,N,09832.0225,W,0.97,326.23,010412,,,D*7E
$GPGGA,113134.000,3353.7582,N,09832.0227,W,2,06,1.9,319.5,M,-23.7,M,0.8,0000*4C
$GPGSA,A,3,15,05,29,26,02,25,,,,,,,4.7,1.9,4.3*35
$GPRMC,113134.000,A,3353.7582,N,09832.0227,W,0.71,329.63,010412,,,D*78
$GPGGA,113135.000,3353.7583,N,09832.0229,W,2,07,1.8,318.7,M,-23.7,M,0.8,0000*41
$GPGSA,A,3,15,05,29,26,02,25,12,,,,,,4.7,1.8,4.3*37
$GPRMC,113135.000,A,3353.7583,N,09832.0229,W,0.97,330.55,010412,,,D*73
$GPGGA,113136.000,3353.7584,N,09832.0231,W,2,07,1.8,317.9,M,-23.7,M,1.8,0000*4C
$GPGSA,A,3,15,05,29,26,02,25,12,,,,,,4.7,1.8,4.3*37
$GPRMC,113136.000,A,3353.7584,N,09832.0231,W,0.75,337.31,010412,,,D*77
$GPGGA,113137.000,3353.7585,N,09832.0233,W,2,07,1.8,317.1,M,-23.7,M,2.8,0000*45
$GPGSA,A,3,15,05,29,26,02,25,12,,,,,,4.7,1.8,4.3*37
$GPRMC,113137.000,A,3353.7585,N,09832.0233,W,0.96,329.66,010412,,,D*75
$GPGGA,113138.000,3353.7586,N,09832.0235,W,2,07,1.8,316.4,M,-23.7,M,3.8,0000*4A
$GPGSA,A,3,15,05,29,26,02,25,12,,,,,,4.7,1.8,4.3*37
$GPGSV,3,1,12,05,60,044,27,29,55,320,23,25,38,240,26,02,30,069,37*71
$GPGSV,3,2,12,26,29,126,25,12,23,195,20,21,16,279,,15,16,168,29*74
$GPGSV,3,3,12,18,08,224,,10,04,043,21,30,00,327,,51,49,195,38*74
$GPRMC,113138.000,A,3353.7586,N,09832.0235,W,0.75,319.41,010412,,,D*74
$GPGGA,113139.000,3353.7586,N,09832.0237,W,2,07,1.8,315.9,M,-23.7,M,0.8,0000*44
$GPGSA,A,3,15,05,29,26,02,25,12,,,,,,4.7,1.8,4.3*37
$GPRMC,113139.000,A,3353.7586,N,09832.0237,W,1.05,314.98,010412,,,D*78
$GPGGA,113140.000,3353.7587,N,09832.0240,W,2,07,1.8,315.3,M,-23.7,M,0.8,0000*41
$GPGSA,A,3,15,05,29,26,02,25,12,,,,,,4.7,1.8,4.3*37
$GPRMC,113140.000,A,3353.7587,N,09832.0240,W,0.79,313.05,010412,,,D*7E
$GPGGA,113141.000,3353.7587,N,09832.0240,W,2,07,1.8,315.0,M,-23.7,M,0.8,0000*43
$GPGSA,A,3,15,05,29,26,02,25,12,,,,,,4.7,1.8,4.3*37
$GPRMC,113141.000,A,3353.7587,N,09832.0240,W,0.62,329.09,010412,,,D*70
$GPGGA,113142.000,3353.7587,N,09832.0241,W,2,07,1.8,314.7,M,-23.7,M,1.8,0000*46
$GPGSA,A,3,15,05,29,26,02,25,12,,,,,,4.7,1.8,4.3*37
$GPRMC,113142.000,A,3353.7587,N,09832.0241,W,0.80,330.07,010412,,,D*78
$GPGGA,113143.000,3353.7587,N,09832.0241,W,2,07,1.8,314.7,M,-23.7,M,2.8,0000*44
$GPGSA,A,3,15,05,29,26,02,25,12,,,,,,4.7,1.8,4.3*37
$GPGSV,3,1,12,05,60,044,27,29,55,320,24,25,38,240,28,02,30,069,38*77
$GPGSV,3,2,12,26,29,126,25,12,23,195,22,21,16,279,,15,16,168,30*7E
$GPGSV,3,3,12,18,08,224,,10,04,043,21,30,00,327,,51,49,195,38*74
$GPRMC,113143.000,A,3353.7587,N,09832.0241,W,0.54,330.01,010412,,,D*76
$GPGGA,113144.000,3353.7586,N,09832.0241,W,2,07,1.8,314.3,M,-23.7,M,3.8,0000*47
$GPGSA,A,3,15,05,29,26,02,25,12,,,,,,4.7,1.8,4.3*37
$GPRMC,113144.000,A,3353.7586,N,09832.0241,W,0.46,321.68,010412,,,D*7C
$GPGGA,113145.000,3353.7583,N,09832.0238,W,2,07,1.8,315.5,M,-23.7,M,0.8,0000*49
$GPGSA,A,3,15,05,29,26,02,25,12,,,,,,4.7,1.8,4.3*37
$GPRMC,113145.000,A,3353.7583,N,09832.0238,W,0.44,333.58,010412,,,D*74
$GPGGA,113146.000,3353.7581,N,09832.0236,W,2,07,1.8,315.6,M,-23.7,M,0.8,0000*45
$GPGSA,A,3,15,05,29,26,02,25,12,,,,,,4.7,1.8,4.3*37
$GPRMC,113146.000,A,3353.7581,N,09832.0236,W,0.40,353.88,010412,,,D*74
$GPGGA,113147.000,3353.7578,N,09832.0233,W,2,07,1.8,316.4,M,-23.7,M,0.8,0000*46
$GPGSA,A,3,15,05,29,26,02,25,12,,,,,,4.7,1.8,4.3*37
$GPRMC,113147.000,A,3353.7578,N,09832.0233,W,0.24,356.79,010412,,,D*7F
$GPGGA,113148.000,3353.7573,N,09832.0229,W,2,07,1.8,317.3,M,-23.7,M,1.8,0000*4E
$GPGSA,A,3,15,05,29,26,02,25,12,,,,,,4.7,1.8,4.3*37
$GPGSV,3,1,12,05,60,044,26,29,55,320,25,25,38,240,29,02,30,069,38*76
$GPGSV,3,2,12,26,29,126,24,12,23,195,23,21,16,279,,15,16,168,30*7E
$GPGSV,3,3,12,18,08,224,,10,04,043,21,30,00,327,,51,49,195,38*74
$GPRMC,113148.000,A,3353.7573,N,09832.0229,W,0.17,357.39,010412,,,D*75
$GPGGA,113149.000,3353.7569,N,09832.0226,W,2,07,1.8,318.5,M,-23.7,M,0.8,0000*43
$GPGSA,A,3,15,05,29,26,02,25,12,,,,,,4.7,1.8,4.3*37
$GPRMC,113149.000,A,3353.7569,N,09832.0226,W,0.06,222.70,010412,,,D*7E
$GPGGA,113150.000,3353.7573,N,09832.0226,W,2,07,1.8,319.3,M,-23.7,M,1.8,0000*46
$GPGSA,A,3,15,05,29,26,02,25,12,,,,,,4.7,1.8,4.3*37
$GPRMC,113150.000,A,3353.7573,N,09832.0226,W,0.19,16.75,010412,,,D*43
$GPGGA,113151.000,3353.7575,N,09832.0227,W,2,07,1.8,319.8,M,-23.7,M,0.8,0000*4A
$GPGSA,A,3,15,05,29,26,02,25,12,,,,,,4.7,1.8,4.3*37
