$GPGGA,182557.000,3353.7560,N,09832.0281,W,2,06,2.2,315.5,M,-23.7,M,0.8,0000*41
$GPGSA,A,3,22,18,31,12,25,14,,,,,,,3.5,2.2,2.7*3B
$GPRMC,182557.000,A,3353.7560,N,09832.0281,W,0.23,64.93,020412,,,D*40
$GPGGA,182558.000,3353.7561,N,09832.0282,W,2,06,2.2,315.4,M,-23.7,M,0.8,0000*4D
$GPGSA,A,3,22,18,31,12,25,14,,,,,,,3.5,2.2,2.7*3B
$GPRMC,182558.000,A,3353.7561,N,09832.0282,W,0.13,78.97,020412,,,D*47
$GPGGA,182559.000,3353.7562,N,09832.0283,W,2,06,2.2,315.1,M,-23.7,M,0.8,0000*4B
$GPGSA,A,3,22,18,31,12,25,14,,,,,,,3.5,2.2,2.7*3B
$GPRMC,182559.000,A,3353.7562,N,09832.0283,W,0.07,148.63,020412,,,D*78
$GPGGA,182600.000,3353.7562,N,09832.0283,W,2,06,2.2,315.0,M,-23.7,M,1.8,0000*44
$GPGSA,A,3,22,18,31,12,25,14,,,,,,,3.5,2.2,2.7*3B
$GPRMC,182600.000,A,3353.7562,N,09832.0283,W,0.17,40.88,020412,,,D*4A
$GPGGA,182601.000,3353.7563,N,09832.0284,W,2,06,2.2,314.8,M,-23.7,M,0.8,0000*4B
$GPGSA,A,3,22,18,31,12,25,14,,,,,,,3.5,2.2,2.7*3B
$GPGSV,3,1,11,22,61,098,40,14,60,012,33,31,56,192,31,11,25,291,*7D
$GPGSV,3,2,11,25,22,095,35,01,20,314,,18,19,116,28,32,16,307,*7F
$GPGSV,3,3,11,12,11,055,23,19,04,253,,51,49,195,37*43
$GPRMC,182601.000,A,3353.7563,N,09832.0284,W,0.16,24.15,020412,,,D*4A
$GPGGA,182602.000,3353.7563,N,09832.0284,W,2,06,2.2,315.2,M,-23.7,M,1.8,0000*42
$GPGSA,A,3,22,18,31,12,25,14,,,,,,,3.5,2.2,2.7*3B
$GPRMC,182602.000,A,3353.7563,N,09832.0284,W,0.10,191.57,020412,,,D*76
$GPGGA,182603.000,3353.7563,N,09832.0284,W,2,06,2.2,315.4,M,-23.7,M,0.8,0000*44
$GPGSA,A,3,22,18,31,12,25,14,,,,,,,3.5,2.2,2.7*3B
$GPRMC,182603.000,A,3353.7563,N,09832.0284,W,0.05,180.91,020412,,,D*79
$GPGGA,182604.000,3353.7564,N,09832.0284,W,2,06,2.2,315.4,M,-23.7,M,0.8,0000*44
$GPGSA,A,3,22,18,31,12,25,14,,,,,,,3.5,2.2,2.7*3B
$GPRMC,182604.000,A,3353.7564,N,09832.0284,W,0.06,107.53,020412,,,D*7B
$GPGGA,182605.000,3353.7564,N,09832.0284,W,2,06,2.2,315.6,M,-23.7,M,0.8,0000*47
$GPGSA,A,3,22,18,31,12,25,14,,,,,,,3.5,2.2,2.7*3B
$GPRMC,182605.000,A,3353.7564,N,09832.0284,W,0.18,180.19,020412,,,D*74
$GPGGA,182606.000,3353.7564,N,09832.0284,W,2,06,2.2,315.8,M,-23.7,M,1.8,0000*4B
$GPGSA,A,3,22,18,31,12,25,14,,,,,,,3.5,2.2,2.7*3B
$GPGSV,3,1,11,22,61,098,40,14,60,012,34,31,56,192,31,11,25,291,*7A
$GPGSV,3,2,11,25,22,095,35,01,20,314,,18,19,116,28,32,16,307,*7F
$GPGSV,3,3,11,12,11,055,24,19,04,253,,51,49,195,37*44
$GPRMC,182606.000,A,3353.7564,N,09832.0284,W,0.16,53.90,020412,,,D*47
$GPGGA,182607.000,3353.7564,N,09832.0283,W,2,06,2.2,316.2,M,-23.7,M,2.8,0000*47
$GPGSA,A,3,22,18,31,12,25,14,,,,,,,3.5,2.2,2.7*3B
$GPRMC,182607.000,A,3353.7564,N,09832.0283,W,0.17,156.49,020412,,,D*70
$GPGGA,182608.000,3353.7564,N,09832.0282,W,2,06,2.2,316.4,M,-23.7,M,3.8,0000*4E
$GPGSA,A,3,22,18,31,12,25,14,,,,,,,3.5,2.2,2.7*3B
$GPRMC,182608.000,A,3353.7564,N,09832.0282,W,0.19,68.70,020412,,,D*46
$GPGGA,182609.000,3353.7564,N,09832.0282,W,2,06,2.2,316.4,M,-23.7,M,0.8,0000*4C
$GPGSA,A,3,22,18,31,12,25,14,,,,,,,3.5,2.2,2.7*3B
$GPRMC,182609.000,A,3353.7564,N,09832.0282,W,0.16,99.56,020412,,,D*42
$GPGGA,182610.000,3353.7564,N,09832.0282,W,2,06,2.2,316.4,M,-23.7,M,0.8,0000*44
$GPGSA,A,3,22,18,31,12,25,14,,,,,,,3.5,2.2,2.7*3B
$GPRMC,182610.000,A,3353.7564,N,09832.0282,W,0.14,93.63,020412,,,D*44
$GPGGA,182611.000,3353.7565,N,09832.0283,W,2,06,2.2,316.4,M,-23.7,M,0.8,0000*45
$GPGSA,A,3,22,18,31,12,25,14,,,,,,,3.5,2.2,2.7*3B
$GPGSV,3,1,11,22,61,098,40,14,60,012,34,31,56,192,31,11,25,291,*7A
$GPGSV,3,2,11,25,22,095,35,01,20,314,,18,19,116,28,32,16,307,*7F
$GPGSV,3,3,11,12,11,055,24,19,04,253,,51,49,195,37*44
$GPRMC,182611.000,A,3353.7565,N,09832.0283,W,0.12,136.68,020412,,,D*76
$GPGGA,182612.000,3353.7564,N,09832.0282,W,2,06,2.2,316.6,M,-23.7,M,1.8,0000*45
$GPGSA,A,3,22,18,31,12,25,14,,,,,,,3.5,2.2,2.7*3B
$GPRMC,182612.000,A,3353.7564,N,09832.0282,W,0.25,171.92,020412,,,D*77
$GPGGA,182613.000,3353.7563,N,09832.0281,W,2,06,2.2,317.1,M,-23.7,M,2.8,0000*45
$GPGSA,A,3,22,18,31,12,25,14,,,,,,,3.5,2.2,2.7*3B
$GPRMC,182613.000,A,3353.7563,N,09832.0281,W,0.37,175.23,020412,,,D*7F
$GPGGA,182614.000,3353.7562,N,09832.0281,W,2,06,2.2,317.2,M,-23.7,M,3.8,0000*41
$GPGSA,A,3,22,18,31,12,25,14,,,,,,,3.5,2.2,2.7*3B
$GPRMC,182614.000,A,3353.7562,N,09832.0281,W,0.14,79.25,020412,,,D*43
$GPGGA,182615.000,3353.7563,N,09832.0282,W,2,06,2.2,317.1,M,-23.7,M,0.8,0000*42
$GPGSA,A,3,22,18,31,12,25,14,,,,,,,3.5,2.2,2.7*3B
$GPRMC,182615.000,A,3353.7563,N,09832.0282,W,0.06,130.42,020412,,,D*7E
$GPGGA,182616.000,3353.7564,N,09832.0282,W,2,06,2.2,316.9,M,-23.7,M,0.8,0000*4F
$GPGSA,A,3,22,18,31,12,25,14,,,,,,,3.5,2.2,2.7*3B
$GPGSV,3,1,11,22,61,098,40,14,60,012,34,31,56,192,32,11,25,291,*79
$GPGSV,3,2,11,25,22,095,35,01,20,314,,18,19,116,28,32,16,307,*7F
$GPGSV,3,3,11,12,11,055,24,19,04,253,,51,49,195,37*44
$GPRMC,182616.000,A,3353.7564,N,09832.0282,W,0.33,23.81,020412,,,D*40
$GPGGA,182617.000,3353.7565,N,09832.0282,W,2,06,2.2,317.1,M,-23.7,M,0.8,0000*46
$GPGSA,A,3,22,18,31,12,25,14,,,,,,,3.5,2.2,2.7*3B
$GPRMC,182617.000,A,3353.7565,N,09832.0282,W,0.07,83.66,020412,,,D*44
$GPGGA,182618.000,3353.7564,N,09832.0281,W,2,06,2.2,317.6,M,-23.7,M,1.8,0000*4D
$GPGSA,A,3,22,18,31,12,25,14,,,,,,,3.5,2.2,2.7*3B
$GPRMC,182618.000,A,3353.7564,N,09832.0281,W,0.11,152.72,020412,,,D*76
$GPGGA,182619.000,3353.7564,N,09832.0281,W,2,06,2.2,317.8,M,-23.7,M,0.8,0000*43
$GPGSA,A,3,22,18,31,12,25,14,,,,,,,3.5,2.2,2.7*3B
$GPRMC,182619.000,A,3353.7564,N,09832.0281,W,0.10,137.83,020412,,,D*7B
$GPGGA,182620.000,3353.7564,N,09832.0281,W,2,06,2.2,317.8,M,-23.7,M,1.8,0000*48
$GPGSA,A,3,22,18,31,12,25,14,,,,,,,3.5,2.2,2.7*3B
$GPRMC,182620.000,A,3353.7564,N,09832.0281,W,0.19,57.23,020412,,,D*45
$GPGGA,182621.000,3353.7565,N,09832.0281,W,2,06,2.2,317.7,M,-23.7,M,0.8,0000*46
$GPGSA,A,3,22,18,31,12,25,14,,,,,,,3.5,2.2,2.7*3B
$GPGSV,3,1,11,22,61,098,40,14,60,012,34,31,56,192,32,11,25,291,*79
$GPGSV,3,2,11,25,22,095,36,01,20,314,,18,19,116,27,32,16,307,*73
$GPGSV,3,3,11,12,11,055,23,19,04,253,,51,49,195,37*43
$GPRMC,182621.000,A,3353.7565,N,09832.0281,W,0.22,58.72,020412,,,D*46
$GPGGA,182622.000,3353.7564,N,09832.0281,W,2,06,2.2,317.7,M,-23.7,M,0.8,0000*44
$GPGSA,A,3,22,18,31,12,25,14,,,,,,,3.5,2.2,2.7*3B
$GPRMC,182622.000,A,3353.7564,N,09832.0281,W,0.23,163.98,020412,,,D*78
$GPGGA,182623.000,3353.7564,N,09832.0281,W,2,06,2.2,317.8,M,-23.7,M,0.8,0000*4A
$GPGSA,A,3,22,18,31,12,25,14,,,,,,,3.5,2.2,2.7*3B
$GPRMC,182623.000,A,3353.7564,N,09832.0281,W,0.10,98.41,020412,,,D*48
$GPGGA,182624.000,3353.7563,N,09832.0281,W,2,06,2.2,317.7,M,-23.7,M,1.8,0000*44
$GPGSA,A,3,22,18,31,12,25,14,,,,,,,3.5,2.2,2.7*3B
$GPRMC,182624.000,A,3353.7563,N,09832.0281,W,0.17,160.24,020412,,,D*7A
$GPGGA,182625.000,3353.7563,N,09832.0282,W,2,06,2.2,317.4,M,-23.7,M,2.8,0000*46
$GPGSA,A,3,22,18,31,12,25,14,,,,,,,3.5,2.2,2.7*3B
$GPRMC,182625.000,A,3353.7563,N,09832.0282,W,0.08,80.88,020412,,,D*4F
$GPGGA,182626.000,3353.7563,N,09832.0282,W,2,06,2.2,317.3,M,-23.7,M,0.8,0000*40
$GPGSA,A,3,22,18,31,12,25,14,,,,,,,3.5,2.2,2.7*3B
$GPGSV,3,1,11,22,61,100,40,14,60,014,34,31,58,193,32,11,26,290,*72
$GPGSV,3,2,11,25,22,094,36,01,21,313,,18,18,117,26,32,17,308,*7B
$GPGSV,3,3,11,12,11,054,24,19,04,252,,51,49,195,37*44
$GPRMC,182626.000,A,3353.7563,N,09832.0282,W,0.20,171.78,020412,,,D*76
$GPGGA,182627.000,3353.7563,N,09832.0282,W,2,06,2.2,317.0,M,-23.7,M,0.8,0000*42
$GPGSA,A,3,22,18,31,12,25,14,,,,,,,3.5,2.2,2.7*3B
$GPRMC,182627.000,A,3353.7563,N,09832.0282,W,0.04,190.97,020412,,,D*7F
$GPGGA,182628.000,3353.7562,N,09832.0281,W,2,06,2.2,316.9,M,-23.7,M,0.8,0000*47
$GPGSA,A,3,22,18,31,12,25,14,,,,,,,3.5,2.2,2.7*3B
$GPRMC,182628.000,A,3353.7562,N,09832.0281,W,0.09,165.53,020412,,,D*7D
$GPGGA,182629.000,3353.7562,N,09832.0281,W,2,06,2.2,316.8,M,-23.7,M,0.8,0000*47
$GPGSA,A,3,22,18,31,12,25,14,,,,,,,3.5,2.2,2.7*3B
$GPRMC,182629.000,A,3353.7562,N,09832.0281,W,0.08,40.24,020412,,,D*4B
$GPGGA,182630.000,3353.7562,N,09832.0281,W,2,06,2.2,316.5,M,-23.7,M,1.8,0000*43
$GPGSA,A,3,22,18,31,12,25,14,,,,,,,3.5,2.2,2.7*3B
$GPRMC,182630.000,A,3353.7562,N,09832.0281,W,0.09,26.76,020412,,,D*45
$GPGGA,182631.000,3353.7563,N,09832.0281,W,2,06,2.2,316.1,M,-23.7,M,2.8,0000*44
$GPGSA,A,3,22,18,31,12,25,14,,,,,,,3.5,2.2,2.7*3B
$GPGSV,3,1,11,22,61,100,39,14,60,014,34,31,58,193,32,11,26,290,*7C
$GPGSV,3,2,11,25,22,094,36,01,21,313,,18,18,117,26,32,17,308,*7B
$GPGSV,3,3,11,12,11,054,24,19,04,252,,51,49,195,43*47
$GPRMC,182631.000,A,3353.7563,N,09832.0281,W,0.04,142.81,020412,,,D*73
$GPGGA,182632.000,3353.7562,N,09832.0280,W,2,06,2.2,316.0,M,-23.7,M,0.8,0000*44
$GPGSA,A,3,22,18,31,12,25,14,,,,,,,3.5,2.2,2.7*3B
$GPRMC,182632.000,A,3353.7562,N,09832.0280,W,0.15,24.47,020412,,,D*4B
$GPGGA,182633.000,3353.7562,N,09832.0280,W,2,06,2.2,315.6,M,-23.7,M,0.8,0000*40
$GPGSA,A,3,22,18,31,12,25,14,,,,,,,3.5,2.2,2.7*3B
$GPRMC,182633.000,A,3353.7562,N,09832.0280,W,0.15,29.34,020412,,,D*43
$GPGGA,182634.000,3353.7564,N,09832.0282,W,2,06,2.2,315.3,M,-23.7,M,0.8,0000*46
$GPGSA,A,3,22,18,31,12,25,14,,,,,,,3.5,2.2,2.7*3B
$GPRMC,182634.000,A,3353.7564,N,09832.0282,W,0.14,348.52,020412,,,D*75
$GPGGA,182635.000,3353.7564,N,09832.0282,W,2,06,2.2,315.3,M,-23.7,M,0.8,0000*47
$GPGSA,A,3,22,18,31,12,25,14,,,,,,,3.5,2.2,2.7*3B
$GPRMC,182635.000,A,3353.7564,N,09832.0282,W,0.20,213.70,020412,,,D*7C
$GPGGA,182636.000,3353.7563,N,09832.0283,W,2,06,2.2,315.4,M,-23.7,M,0.8,0000*45
$GPGSA,A,3,22,18,31,12,25,14,,,,,,,3.5,2.2,2.7*3B
$GPGSV,3,1,11,22,61,100,39,14,60,014,34,31,58,193,32,11,26,290,*7C
$GPGSV,3,2,11,25,22,094,36,01,21,313,,18,18,117,25,32,17,308,*78
$GPGSV,3,3,11,12,11,054,23,19,04,252,,51,49,195,36*42
$GPRMC,182636.000,A,3353.7563,N,09832.0283,W,0.30,205.44,020412,,,D*78
$GPGGA,182637.000,3353.7563,N,09832.0284,W,2,06,2.2,315.2,M,-23.7,M,0.8,0000*45
$GPGSA,A,3,22,18,31,12,25,14,,,,,,,3.5,2.2,2.7*3B
$GPRMC,182637.000,A,3353.7563,N,09832.0284,W,0.02,18.55,020412,,,D*41
$GPGGA,182638.000,3353.7562,N,09832.0284,W,2,06,2.2,315.2,M,-23.7,M,1.8,0000*4A
$GPGSA,A,3,22,18,31,12,25,14,,,,,,,3.5,2.2,2.7*3B
$GPRMC,182638.000,A,3353.7562,N,09832.0284,W,0.14,212.37,020412,,,D*74
$GPGGA,182639.000,3353.7563,N,09832.0285,W,2,06,2.2,315.0,M,-23.7,M,0.8,0000*48
$GPGSA,A,3,22,18,31,12,25,14,,,,,,,3.5,2.2,2.7*3B
$GPRMC,182639.000,A,3353.7563,N,09832.0285,W,0.11,317.03,020412,,,D*73
$GPGGA,182640.000,3353.7564,N,09832.0285,W,2,06,2.2,315.1,M,-23.7,M,0.8,0000*40
$GPGSA,A,3,22,18,31,12,25,14,,,,,,,3.5,2.2,2.7*3B
$GPRMC,182640.000,A,3353.7564,N,09832.0285,W,0.03,345.38,020412,,,D*76
$GPGGA,182641.000,3353.7564,N,09832.0285,W,2,06,2.2,315.3,M,-23.7,M,0.8,0000*43
$GPGSA,A,3,22,18,31,12,25,14,,,,,,,3.5,2.2,2.7*3B
$GPGSV,3,1,11,22,61,100,39,14,60,014,34,31,58,193,32,11,26,290,*7C
$GPGSV,3,2,11,25,22,094,36,01,21,313,,18,18,117,26,32,17,308,*7B
$GPGSV,3,3,11,12,11,054,24,19,04,252,,51,49,195,36*45
$GPRMC,182641.000,A,3353.7564,N,09832.0285,W,0.18,15.51,020412,,,D*44
$GPGGA,182642.000,3353.7564,N,09832.0284,W,2,06,2.2,315.3,M,-23.7,M,1.8,0000*40
$GPGSA,A,3,22,18,31,12,25,14,,,,,,,3.5,2.2,2.7*3B
$GPRMC,182642.000,A,3353.7564,N,09832.0284,W,0.08,175.61,020412,,,D*73
$GPGGA,182643.000,3353.7564,N,09832.0284,W,2,06,2.2,315.5,M,-23.7,M,2.8,0000*44
$GPGSA,A,3,22,18,31,12,25,14,,,,,,,3.5,2.2,2.7*3B
$GPRMC,182643.000,A,3353.7564,N,09832.0284,W,0.16,175.83,020412,,,D*71
$GPGGA,182644.000,3353.7564,N,09832.0283,W,2,06,2.2,315.7,M,-23.7,M,3.8,0000*47
$GPGSA,A,3,22,18,31,12,25,14,,,,,,,3.5,2.2,2.7*3B
$GPRMC,182644.000,A,3353.7564,N,09832.0283,W,0.09,78.95,020412,,,D*44
$GPGGA,182645.000,3353.7565,N,09832.0284,W,2,06,2.2,315.4,M,-23.7,M,0.8,0000*40
$GPGSA,A,3,22,18,31,12,25,14,,,,,,,3.5,2.2,2.7*3B
$GPRMC,182645.000,A,3353.7565,N,09832.0284,W,0.09,81.14,020412,,,D*4C
$GPGGA,182646.000,3353.7565,N,09832.0285,W,2,06,2.2,315.1,M,-23.7,M,0.8,0000*47
$GPGSA,A,3,22,18,31,12,25,14,,,,,,,3.5,2.2,2.7*3B
$GPGSV,3,1,11,22,61,100,39,14,60,014,34,31,58,193,33,11,26,290,*7D
$GPGSV,3,2,11,25,22,094,36,01,21,313,,18,18,117,27,32,17,308,*7A
$GPGSV,3,3,11,12,11,054,24,19,04,252,,51,49,195,37*44
$GPRMC,182646.000,A,3353.7565,N,09832.0285,W,0.03,55.02,020412,,,D*4A
$GPGGA,182647.000,3353.7565,N,09832.0285,W,2,06,2.2,315.1,M,-23.7,M,0.8,0000*46
$GPGSA,A,3,22,18,31,12,25,14,,,,,,,3.5,2.2,2.7*3B
$GPRMC,182647.000,A,3353.7565,N,09832.0285,W,0.16,197.51,020412,,,D*76
$GPGGA,182648.000,3353.7565,N,09832.0286,W,2,06,2.2,315.1,M,-23.7,M,1.8,0000*4B
$GPGSA,A,3,22,18,31,12,25,14,,,,,,,3.5,2.2,2.7*3B
$GPRMC,182648.000,A,3353.7565,N,09832.0286,W,0.14,188.50,020412,,,D*77
$GPGGA,182649.000,3353.7564,N,09832.0286,W,2,06,2.2,315.1,M,-23.7,M,0.8,0000*4A
$GPGSA,A,3,22,18,31,12,25,14,,,,,,,3.5,2.2,2.7*3B
$GPRMC,182649.000,A,3353.7564,N,09832.0286,W,0.06,175.28,020412,,,D*79
$GPGGA,182650.000,3353.7564,N,09832.0287,W,2,06,2.2,315.0,M,-23.7,M,1.8,0000*43
$GPGSA,A,3,22,18,31,12,25,14,,,,,,,3.5,2.2,2.7*3B
$GPRMC,182650.000,A,3353.7564,N,09832.0287,W,0.02,213.61,020412,,,D*7A
$GPGGA,182651.000,3353.7564,N,09832.0287,W,2,06,2.2,315.1,M,-23.7,M,0.8,0000*42
$GPGSA,A,3,22,18,31,12,25,14,,,,,,,3.5,2.2,2.7*3B
$GPGSV,3,1,11,22,61,100,39,14,60,014,34,31,58,193,33,11,26,290,*7D
$GPGSV,3,2,11,25,22,094,36,01,21,313,,18,18,117,27,32,17,308,*7A
$GPGSV,3,3,11,12,11,054,25,19,04,252,,51,49,195,38*4A
$GPRMC,182651.000,A,3353.7564,N,09832.0287,W,0.14,204.92,020412,,,D*76
$GPGGA,182652.000,3353.7565,N,09832.0286,W,2,06,2.2,315.1,M,-23.7,M,0.8,0000*41
$GPGSA,A,3,22,18,31,12,25,14,,,,,,,3.5,2.2,2.7*3B
$GPRMC,182652.000,A,3353.7565,N,09832.0286,W,0.10,160.47,020412,,,D*78
$GPGGA,182653.000,3353.7565,N,09832.0286,W,2,06,2.2,315.2,M,-23.7,M,0.8,0000*43
$GPGSA,A,3,22,18,31,12,25,14,,,,,,,3.5,2.2,2.7*3B
$GPRMC,182653.000,A,3353.7565,N,09832.0286,W,0.09,88.29,020412,,,D*4E
$GPGGA,182654.000,3353.7565,N,09832.0286,W,2,06,2.2,315.2,M,-23.7,M,1.8,0000*45
$GPGSA,A,3,22,18,31,12,25,14,,,,,,,3.5,2.2,2.7*3B
$GPRMC,182654.000,A,3353.7565,N,09832.0286,W,0.12,70.28,020412,,,D*45
$GPGGA,182655.000,3353.7566,N,09832.0286,W,2,06,2.2,315.2,M,-23.7,M,2.8,0000*44
$GPGSA,A,3,22,18,31,12,25,14,,,,,,,3.5,2.2,2.7*3B
$GPRMC,182655.000,A,3353.7566,N,09832.0286,W,0.13,55.77,020412,,,D*4B
$GPGGA,182656.000,3353.7566,N,09832.0285,W,2,06,2.2,315.5,M,-23.7,M,3.8,0000*42
$GPGSA,A,3,22,18,31,12,25,14,,,,,,,3.5,2.2,2.7*3B
$GPGSV,3,1,11,22,61,100,39,14,60,014,34,31,58,193,33,11,26,290,*7D
$GPGSV,3,2,11,25,22,094,36,01,21,313,,18,18,117,28,32,17,308,*75
$GPGSV,3,3,11,12,11,054,25,19,04,252,,51,49,195,36*44
$GPRMC,182656.000,A,3353.7566,N,09832.0285,W,0.09,87.59,020412,,,D*43
$GPGGA,182657.000,3353.7566,N,09832.0285,W,2,06,2.2,315.6,M,-23.7,M,0.8,0000*43
$GPGSA,A,3,22,18,31,12,25,14,,,,,,,3.5,2.2,2.7*3B
$GPRMC,182657.000,A,3353.7566,N,09832.0285,W,0.24,39.04,020412,,,D*40
$GPGGA,182658.000,3353.7566,N,09832.0285,W,2,06,2.2,315.6,M,-23.7,M,0.8,0000*4C
$GPGSA,A,3,22,18,31,12,25,14,,,,,,,3.5,2.2,2.7*3B
$GPRMC,182658.000,A,3353.7566,N,09832.0285,W,0.14,34.86,020412,,,D*4B
$GPGGA,182659.000,3353.7566,N,09832.0285,W,2,06,2.2,315.7,M,-23.7,M,0.8,0000*4C
$GPGSA,A,3,22,18,31,12,25,14,,,,,,,3.5,2.2,2.7*3B
$GPRMC,182659.000,A,3353.7566,N,09832.0285,W,0.05,145.24,020412,,,D*75
$GPGGA,182700.000,3353.7565,N,09832.0285,W,2,06,2.2,315.7,M,-23.7,M,1.8,0000*43
$GPGSA,A,3,22,18,31,12,25,14,,,,,,,3.5,2.2,2.7*3B
$GPRMC,182700.000,A,3353.7565,N,09832.0285,W,0.04,160.93,020412,,,D*71
$GPGGA,182701.000,3353.7565,N,09832.0286,W,2,06,2.2,315.7,M,-23.7,M,2.8,0000*42
$GPGSA,A,3,22,18,31,12,25,14,,,,,,,3.5,2.2,2.7*3B
$GPGSV,3,1,11,22,61,100,39,14,60,014,34,31,58,193,34,11,26,290,*7A
$GPGSV,3,2,11,25,22,094,36,01,21,313,,18,18,117,28,32,17,308,*75
$GPGSV,3,3,11,12,11,054,24,19,04,252,,51,49,195,36*45
$GPRMC,182701.000,A,3353.7565,N,09832.0286,W,0.00,161.89,020412,,,D*7D
$GPGGA,182702.000,3353.7566,N,09832.0286,W,2,06,2.2,315.5,M,-23.7,M,3.8,0000*41
$GPGSA,A,3,22,18,31,12,25,14,,,,,,,3.5,2.2,2.7*3B
$GPRMC,182702.000,A,3353.7566,N,09832.0286,W,0.03,227.51,020412,,,D*7A
$GPGGA,182703.000,3353.7566,N,09832.0286,W,2,06,2.2,315.5,M,-23.7,M,0.8,0000*43
$GPGSA,A,3,22,18,31,12,25,14,,,,,,,3.5,2.2,2.7*3B
$GPRMC,182703.000,A,3353.7566,N,09832.0286,W,0.02,303.12,020412,,,D*7A
$GPGGA,182704.000,3353.7567,N,09832.0286,W,2,06,2.2,315.5,M,-23.7,M,0.8,0000*45
$GPGSA,A,3,22,18,31,12,25,14,,,,,,,3.5,2.2,2.7*3B
$GPRMC,182704.000,A,3353.7567,N,09832.0286,W,0.09,48.97,020412,,,D*46
$GPGGA,182705.000,3353.7567,N,09832.0286,W,2,06,2.2,315.6,M,-23.7,M,0.8,0000*47
$GPGSA,A,3,22,18,31,12,25,14,,,,,,,3.5,2.2,2.7*3B
$GPRMC,182705.000,A,3353.7567,N,09832.0286,W,0.09,39.42,020412,,,D*49
$GPGGA,182706.000,3353.7568,N,09832.0286,W,2,06,2.2,315.5,M,-23.7,M,0.8,0000*48
$GPGSA,A,3,22,18,31,12,25,14,,,,,,,3.5,2.2,2.7*3B
$GPGSV,3,1,11,22,61,100,39,14,60,014,34,31,58,193,34,11,26,290,*7A
$GPGSV,3,2,11,25,22,094,36,01,21,313,,18,18,117,28,32,17,308,*75
$GPGSV,3,3,11,12,11,054,24,19,04,252,,51,49,195,36*45
$GPRMC,182706.000,A,3353.7568,N,09832.0286,W,0.26,22.20,020412,,,D*46
$GPGGA,182707.000,3353.7570,N,09832.0286,W,2,06,2.2,315.4,M,-23.7,M,1.8,0000*40
$GPGSA,A,3,22,18,31,12,25,14,,,,,,,3.5,2.2,2.7*3B
$GPRMC,182707.000,A,3353.7570,N,09832.0286,W,0.20,26.03,020412,,,D*4D
$GPGGA,182708.000,3353.7570,N,09832.0286,W,2,06,2.2,315.6,M,-23.7,M,0.8,0000*4C
$GPGSA,A,3,22,18,31,12,25,14,,,,,,,3.5,2.2,2.7*3B
$GPRMC,182708.000,A,3353.7570,N,09832.0286,W,0.04,94.11,020412,,,D*4E
$GPGGA,182709.000,3353.7570,N,09832.0286,W,2,06,2.2,315.7,M,-23.7,M,0.8,0000*4C
$GPGSA,A,3,22,18,31,12,25,14,,,,,,,3.5,2.2,2.7*3B
$GPRMC,182709.000,A,3353.7570,N,09832.0286,W,0.23,182.09,020412,,,D*75
$GPGGA,182710.000,3353.7569,N,09832.0285,W,2,06,2.2,316.0,M,-23.7,M,0.8,0000*4B
$GPGSA,A,3,22,18,31,12,25,14,,,,,,,3.5,2.2,2.7*3B
$GPRMC,182710.000,A,3353.7569,N,09832.0285,W,0.40,187.27,020412,,,D*7A
$GPGGA,182711.000,3353.7568,N,09832.0286,W,2,06,2.2,316.0,M,-23.7,M,0.8,0000*48
$GPGSA,A,3,22,18,31,12,25,14,,,,,,,3.5,2.2,2.7*3B
$GPGSV,3,1,11,22,61,100,39,14,60,014,34,31,58,193,35,11,26,290,*7B
$GPGSV,3,2,11,25,22,094,36,01,21,313,,18,18,117,28,32,17,308,*75
$GPGSV,3,3,11,12,11,054,24,19,04,252,,51,49,195,43*47
$GPRMC,182711.000,A,3353.7568,N,09832.0286,W,0.08,93.19,020412,,,D*4C
$GPGGA,182712.000,3353.7568,N,09832.0286,W,2,06,2.2,316.2,M,-23.7,M,1.8,0000*48
$GPGSA,A,3,22,18,31,12,25,14,,,,,,,3.5,2.2,2.7*3B
$GPRMC,182712.000,A,3353.7568,N,09832.0286,W,0.12,36.50,020412,,,D*46
$GPGGA,182713.000,3353.7568,N,09832.0286,W,2,06,2.2,316.1,M,-23.7,M,2.8,0000*49
$GPGSA,A,3,22,18,31,12,25,14,,,,,,,3.5,2.2,2.7*3B
$GPRMC,182713.000,A,3353.7568,N,09832.0286,W,0.01,107.89,020412,,,D*72
$GPGGA,182714.000,3353.7568,N,09832.0286,W,2,06,2.2,316.3,M,-23.7,M,3.8,0000*4D
$GPGSA,A,3,22,18,31,12,25,14,,,,,,,3.5,2.2,2.7*3B
$GPRMC,182714.000,A,3353.7568,N,09832.0286,W,0.05,156.52,020412,,,D*73
$GPGGA,182715.000,3353.7568,N,09832.0286,W,2,06,2.2,316.3,M,-23.7,M,0.8,0000*4F
$GPGSA,A,3,22,18,31,12,25,14,,,,,,,3.5,2.2,2.7*3B
$GPRMC,182715.000,A,3353.7568,N,09832.0286,W,0.07,31.63,020412,,,D*42
$GPGGA,182716.000,3353.7569,N,09832.0286,W,2,06,2.2,316.4,M,-23.7,M,0.8,0000*4A
$GPGSA,A,3,22,18,31,12,25,14,,,,,,,3.5,2.2,2.7*3B
$GPGSV,3,1,11,22,61,100,39,14,60,014,35,31,58,193,35,11,26,290,*7A
$GPGSV,3,2,11,25,22,094,36,01,21,313,,18,18,117,27,32,17,308,*7A
$GPGSV,3,3,11,12,11,054,24,19,04,252,,51,49,195,37*44
$GPRMC,182716.000,A,3353.7569,N,09832.0286,W,0.15,27.79,020412,,,D*4F
$GPGGA,182717.000,3353.7569,N,09832.0285,W,2,06,2.2,316.6,M,-23.7,M,0.8,0000*4A
$GPGSA,A,3,22,18,31,12,25,14,,,,,,,3.5,2.2,2.7*3B
$GPRMC,182717.000,A,3353.7569,N,09832.0285,W,0.18,43.14,020412,,,D*49
$GPGGA,182718.000,3353.7570,N,09832.0284,W,2,06,2.2,316.8,M,-23.7,M,1.8,0000*43
$GPGSA,A,3,22,18,31,12,25,14,,,,,,,3.5,2.2,2.7*3B
$GPRMC,182718.000,A,3353.7570,N,09832.0284,W,0.20,31.22,020412,,,D*44
$GPGGA,182719.000,3353.7570,N,09832.0283,W,2,06,2.2,317.2,M,-23.7,M,2.8,0000*4D
$GPGSA,A,3,22,18,31,12,25,14,,,,,,,3.5,2.2,2.7*3B
$GPRMC,182719.000,A,3353.7570,N,09832.0283,W,0.09,91.28,020412,,,D*49
$GPGGA,182720.000,3353.7570,N,09832.0282,W,2,06,2.2,317.4,M,-23.7,M,3.8,0000*41
$GPGSA,A,3,22,18,31,12,25,14,,,,,,,3.5,2.2,2.7*3B
$GPRMC,182720.000,A,3353.7570,N,09832.0282,W,0.12,114.98,020412,,,D*7F
$GPGGA,182721.000,3353.7568,N,09832.0280,W,2,06,2.2,317.5,M,-23.7,M,0.8,0000*49
$GPGSA,A,3,22,18,31,12,25,14,,,,,,,3.5,2.2,2.7*3B
$GPGSV,3,1,11,22,61,100,39,14,60,014,34,31,58,193,35,11,26,290,*7B
$GPGSV,3,2,11,25,22,094,37,01,21,313,,18,18,117,26,32,17,308,*7A
$GPGSV,3,3,11,12,11,054,24,19,04,252,,51,49,195,37*44
$GPRMC,182721.000,A,3353.7568,N,09832.0280,W,0.33,148.66,020412,,,D*7E
$GPGGA,182722.000,3353.7567,N,09832.0279,W,2,06,2.2,317.6,M,-23.7,M,0.8,0000*40
$GPGSA,A,3,22,18,31,12,25,14,,,,,,,3.5,2.2,2.7*3B
$GPRMC,182722.000,A,3353.7567,N,09832.0279,W,0.11,101.77,020412,,,D*79
$GPGGA,182723.000,3353.7566,N,09832.0277,W,2,06,2.2,318.2,M,-23.7,M,0.8,0000*45
$GPGSA,A,3,22,18,31,12,25,14,,,,,,,3.5,2.2,2.7*3B
$GPRMC,182723.000,A,3353.7566,N,09832.0277,W,0.32,169.26,020412,,,D*7C
$GPGGA,182724.000,3353.7565,N,09832.0277,W,2,06,2.2,318.2,M,-23.7,M,0.8,0000*41
$GPGSA,A,3,22,18,31,12,25,14,,,,,,,3.5,2.2,2.7*3B
$GPRMC,182724.000,A,3353.7565,N,09832.0277,W,0.11,95.13,020412,,,D*4D
$GPGGA,182725.000,3353.7564,N,09832.0277,W,2,06,2.2,318.3,M,-23.7,M,1.8,0000*41
$GPGSA,A,3,22,18,31,12,25,14,,,,,,,3.5,2.2,2.7*3B
$GPRMC,182725.000,A,3353.7564,N,09832.0277,W,0.24,168.17,020412,,,D*7C
$GPGGA,182726.000,3353.7563,N,09832.0277,W,2,06,2.2,318.1,M,-23.7,M,0.8,0000*46
$GPGSA,A,3,22,18,31,12,25,14,,,,,,,3.5,2.2,2.7*3B
$GPGSV,3,1,11,22,61,100,39,14,60,014,34,31,58,193,35,11,26,290,*7B
$GPGSV,3,2,11,25,22,094,37,01,21,313,,18,18,117,25,32,17,308,*79
$GPGSV,3,3,11,12,11,054,23,19,04,252,,51,49,195,37*43
$GPRMC,182726.000,A,3353.7563,N,09832.0277,W,0.11,158.19,020412,,,D*73
$GPGGA,182727.000,3353.7563,N,09832.0277,W,2,06,2.2,318.0,M,-23.7,M,0.8,0000*46
$GPGSA,A,3,22,18,31,12,25,14,,,,,,,3.5,2.2,2.7*3B
$GPRMC,182727.000,A,3353.7563,N,09832.0277,W,0.17,41.52,020412,,,D*42
$GPGGA,182728.000,3353.7564,N,09832.0277,W,2,06,2.2,317.6,M,-23.7,M,0.8,0000*47
$GPGSA,A,3,22,18,31,12,25,14,,,,,,,3.5,2.2,2.7*3B
$GPRMC,182728.000,A,3353.7564,N,09832.0277,W,0.27,21.71,020412,,,D*4E
$GPGGA,182729.000,3353.7564,N,09832.0276,W,2,06,2.2,317.4,M,-23.7,M,0.8,0000*45
$GPGSA,A,3,22,18,31,12,25,14,,,,,,,3.5,2.2,2.7*3B
$GPRMC,182729.000,A,3353.7564,N,09832.0276,W,0.12,39.96,020412,,,D*48
$GPGGA,182730.000,3353.7564,N,09832.0276,W,2,06,2.2,317.1,M,-23.7,M,1.8,0000*49
$GPGSA,A,3,22,18,31,12,25,14,,,,,,,3.5,2.2,2.7*3B
$GPRMC,182730.000,A,3353.7564,N,09832.0276,W,0.12,33.44,020412,,,D*45
$GPGGA,182731.000,3353.7564,N,09832.0275,W,2,06,2.2,317.0,M,-23.7,M,0.8,0000*4B
$GPGSA,A,3,22,18,31,12,25,14,,,,,,,3.5,2.2,2.7*3B
$GPGSV,3,1,11,22,61,100,38,14,60,014,34,31,58,193,36,11,26,290,*79
$GPGSV,3,2,11,25,22,094,37,01,21,313,,18,18,117,24,32,17,308,*78
$GPGSV,3,3,11,12,11,054,23,19,04,252,,51,49,195,37*43
$GPRMC,182731.000,A,3353.7564,N,09832.0275,W,0.20,22.09,020412,,,D*4F
$GPGGA,182732.000,3353.7564,N,09832.0274,W,2,06,2.2,317.2,M,-23.7,M,1.8,0000*4A
$GPGSA,A,3,22,18,31,12,25,14,,,,,,,3.5,2.2,2.7*3B
$GPRMC,182732.000,A,3353.7564,N,09832.0274,W,0.32,11.37,020412,,,D*43
$GPGGA,182733.000,3353.7564,N,09832.0274,W,2,06,2.2,316.8,M,-23.7,M,0.8,0000*41
$GPGSA,A,3,22,18,31,12,25,14,,,,,,,3.5,2.2,2.7*3B
$GPRMC,182733.000,A,3353.7564,N,09832.0274,W,0.22,13.38,020412,,,D*4E
$GPGGA,182734.000,3353.7563,N,09832.0272,W,2,06,2.2,317.3,M,-23.7,M,0.8,0000*4D
$GPGSA,A,3,22,18,31,12,25,14,,,,,,,3.5,2.2,2.7*3B
$GPRMC,182734.000,A,3353.7563,N,09832.0272,W,0.20,199.40,020412,,,D*76
$GPGGA,182735.000,3353.7562,N,09832.0271,W,2,06,2.2,317.5,M,-23.7,M,0.8,0000*48
$GPGSA,A,3,22,18,31,12,25,14,,,,,,,3.5,2.2,2.7*3B
$GPRMC,182735.000,A,3353.7562,N,09832.0271,W,0.01,270.98,020412,,,D*77
$GPGGA,182736.000,3353.7562,N,09832.0270,W,2,06,2.2,317.1,M,-23.7,M,1.8,0000*4F
$GPGSA,A,3,22,18,31,12,25,14,,,,,,,3.5,2.2,2.7*3B
$GPGSV,3,1,11,22,61,100,38,14,60,014,34,31,58,193,36,11,26,290,*79
$GPGSV,3,2,11,25,22,094,37,01,21,313,,18,18,117,24,32,17,308,*78
$GPGSV,3,3,11,12,11,054,15,19,04,252,14,51,49,195,37*43
$GPRMC,182736.000,A,3353.7562,N,09832.0270,W,0.09,337.54,020412,,,D*7F
$GPGGA,182737.000,3353.7562,N,09832.0270,W,2,06,2.2,317.2,M,-23.7,M,2.8,0000*4E
$GPGSA,A,3,22,18,31,12,25,14,,,,,,,3.5,2.2,2.7*3B
$GPRMC,182737.000,A,3353.7562,N,09832.0270,W,0.19,343.60,020412,,,D*7B
$GPGGA,182738.000,3353.7563,N,09832.0271,W,2,06,2.2,317.0,M,-23.7,M,3.8,0000*42
$GPGSA,A,3,22,18,31,12,25,14,,,,,,,3.5,2.2,2.7*3B
$GPRMC,182738.000,A,3353.7563,N,09832.0271,W,0.14,345.60,020412,,,D*7F
$GPGGA,182739.000,3353.7563,N,09832.0269,W,2,06,2.2,317.2,M,-23.7,M,0.8,0000*4B
$GPGSA,A,3,22,18,31,12,25,14,,,,,,,3.5,2.2,2.7*3B
$GPRMC,182739.000,A,3353.7563,N,09832.0269,W,0.10,267.42,020412,,,D*72
$GPGGA,182740.000,3353.7561,N,09832.0266,W,2,06,2.2,318.0,M,-23.7,M,0.8,0000*45
$GPGSA,A,3,22,18,31,12,25,14,,,,,,,3.5,2.2,2.7*3B
$GPRMC,182740.000,A,3353.7561,N,09832.0266,W,0.14,176.71,020412,,,D*76
$GPGGA,182741.000,3353.7559,N,09832.0263,W,2,06,2.2,318.9,M,-23.7,M,0.8,0000*43
$GPGSA,A,3,22,18,31,12,25,14,,,,,,,3.5,2.2,2.7*3B
$GPGSV,3,1,11,22,61,100,38,14,60,014,34,31,58,193,36,11,26,290,*79
$GPGSV,3,2,11,25,22,094,37,01,21,313,,18,18,117,25,32,17,308,*79
$GPGSV,3,3,11,12,11,054,17,19,04,252,14,51,49,195,36*40
$GPRMC,182741.000,A,3353.7559,N,09832.0263,W,0.19,157.25,020412,,,D*76
$GPGGA,182742.000,3353.7558,N,09832.0260,W,2,06,2.2,319.7,M,-23.7,M,1.8,0000*4C
$GPGSA,A,3,22,18,31,12,25,14,,,,,,,3.5,2.2,2.7*3B
$GPRMC,182742.000,A,3353.7558,N,09832.0260,W,0.26,150.70,020412,,,D*7C
$GPGGA,182743.000,3353.7558,N,09832.0259,W,2,06,2.2,320.1,M,-23.7,M,2.8,0000*48
$GPGSA,A,3,22,18,31,12,25,14,,,,,,,3.5,2.2,2.7*3B
$GPRMC,182743.000,A,3353.7558,N,09832.0259,W,0.19,90.50,020412,,,D*44
$GPGGA,182744.000,3353.7559,N,09832.0258,W,2,06,2.2,320.3,M,-23.7,M,3.8,0000*4C
$GPGSA,A,3,22,18,31,12,25,14,,,,,,,3.5,2.2,2.7*3B
$GPRMC,182744.000,A,3353.7559,N,09832.0258,W,0.33,46.01,020412,,,D*44
$GPGGA,182745.000,3353.7560,N,09832.0257,W,2,06,2.2,320.1,M,-23.7,M,0.8,0000*49
$GPGSA,A,3,22,18,31,12,25,14,,,,,,,3.5,2.2,2.7*3B
$GPRMC,182745.000,A,3353.7560,N,09832.0257,W,0.25,41.48,020412,,,D*4D
$GPGGA,182746.000,3353.7561,N,09832.0257,W,2,06,2.2,320.0,M,-23.7,M,0.8,0000*4A
$GPGSA,A,3,22,18,31,12,25,14,,,,,,,3.5,2.2,2.7*3B
$GPGSV,3,1,11,22,61,100,38,14,60,014,34,31,58,193,36,11,26,290,*79
$GPGSV,3,2,11,25,22,094,37,01,21,313,,18,18,117,25,32,17,308,*79
$GPGSV,3,3,11,12,11,054,15,19,04,252,14,51,49,195,36*42
$GPRMC,182746.000,A,3353.7561,N,09832.0257,W,0.19,26.55,020412,,,D*4D
$GPGGA,182747.000,3353.7561,N,09832.0257,W,2,05,2.8,320.0,M,-23.7,M,0.8,0000*42
$GPGSA,A,3,22,18,31,25,14,,,,,,,,4.9,2.8,4.0*38
$GPRMC,182747.000,A,3353.7561,N,09832.0257,W,0.07,165.53,020412,,,D*73
$GPGGA,182748.000,3353.7560,N,09832.0257,W,2,05,2.8,320.0,M,-23.7,M,0.8,0000*4C
$GPGSA,A,3,22,18,31,25,14,,,,,,,,4.9,2.8,4.0*38
$GPRMC,182748.000,A,3353.7560,N,09832.0257,W,0.13,176.16,020412,,,D*7B
$GPGGA,182749.000,3353.7561,N,09832.0260,W,2,05,2.8,319.0,M,-23.7,M,0.8,0000*42
$GPGSA,A,3,22,18,31,25,14,,,,,,,,4.9,2.8,4.0*38
$GPRMC,182749.000,A,3353.7561,N,09832.0260,W,0.09,214.43,020412,,,D*73
$GPGGA,182750.000,3353.7561,N,09832.0260,W,2,05,2.8,319.0,M,-23.7,M,1.8,0000*4B
$GPGSA,A,3,22,18,31,25,14,,,,,,,,4.9,2.8,4.0*38
$GPRMC,182750.000,A,3353.7561,N,09832.0260,W,0.10,196.28,020412,,,D*77
$GPGGA,182751.000,3353.7561,N,09832.0260,W,2,05,2.8,319.0,M,-23.7,M,0.8,0000*4B
$GPGSA,A,3,22,18,31,25,14,,,,,,,,4.9,2.8,4.0*38
$GPGSV,3,1,11,22,61,100,38,14,60,014,34,31,58,193,35,11,26,290,*7A
$GPGSV,3,2,11,25,22,094,37,01,21,313,,18,18,117,26,32,17,308,*7A
$GPGSV,3,3,11,12,11,054,,19,04,252,15,51,49,195,36*47
$GPRMC,182751.000,A,3353.7561,N,09832.0260,W,0.01,294.13,020412,,,D*7F
$GPGGA,182752.000,3353.7562,N,09832.0263,W,2,05,2.8,318.2,M,-23.7,M,0.8,0000*4B
$GPGSA,A,3,22,18,31,25,14,,,,,,,,4.9,2.8,4.0*38
$GPRMC,182752.000,A,3353.7562,N,09832.0263,W,0.11,357.76,020412,,,D*70
$GPGGA,182753.000,3353.7563,N,09832.0262,W,2,05,2.8,318.2,M,-23.7,M,0.8,0000*4A
$GPGSA,A,3,22,18,31,25,14,,,,,,,,4.9,2.8,4.0*38
$GPRMC,182753.000,A,3353.7563,N,09832.0262,W,0.08,5.12,020412,,,D*7F
$GPGGA,182754.000,3353.7564,N,09832.0265,W,2,05,2.8,317.5,M,-23.7,M,0.8,0000*45
$GPGSA,A,3,22,18,31,25,14,,,,,,,,4.9,2.8,4.0*38
$GPRMC,182754.000,A,3353.7564,N,09832.0265,W,0.12,346.69,020412,,,D*7B
$GPGGA,182755.000,3353.7565,N,09832.0265,W,2,05,2.8,317.5,M,-23.7,M,1.8,0000*44
$GPGSA,A,3,22,18,31,25,14,,,,,,,,4.9,2.8,4.0*38
$GPRMC,182755.000,A,3353.7565,N,09832.0265,W,0.10,2.08,020412,,,D*7D
$GPGGA,182756.000,3353.7565,N,09832.0264,W,2,05,2.8,317.5,M,-23.7,M,0.8,0000*47
$GPGSA,A,3,22,18,31,25,14,,,,,,,,4.9,2.8,4.0*38
$GPGSV,3,1,11,22,61,100,38,14,60,014,34,31,58,193,35,11,26,290,*7A
$GPGSV,3,2,11,25,22,094,38,01,21,313,,18,18,117,26,32,17,308,*75
$GPGSV,3,3,11,12,11,054,,19,04,252,15,51,49,195,37*46
$GPRMC,182756.000,A,3353.7565,N,09832.0264,W,0.10,4.39,020412,,,D*7B
$GPGGA,182757.000,3353.7565,N,09832.0264,W,2,05,2.8,317.5,M,-23.7,M,0.8,0000*46
$GPGSA,A,3,22,18,31,25,14,,,,,,,,4.9,2.8,4.0*38
$GPRMC,182757.000,A,3353.7565,N,09832.0264,W,0.01,92.07,020412,,,D*48
$GPGGA,182758.000,3353.7565,N,09832.0264,W,2,05,2.8,317.5,M,-23.7,M,0.8,0000*49
$GPGSA,A,3,22,18,31,25,14,,,,,,,,4.9,2.8,4.0*38
$GPRMC,182758.000,A,3353.7565,N,09832.0264,W,0.10,207.38,020412,,,D*75
$GPGGA,182759.000,3353.7566,N,09832.0267,W,2,05,2.8,316.7,M,-23.7,M,0.8,0000*4B
$GPGSA,A,3,22,18,31,25,14,,,,,,,,4.9,2.8,4.0*38
$GPRMC,182759.000,A,3353.7566,N,09832.0267,W,0.09,240.81,020412,,,D*7D
$GPGGA,182800.000,3353.7566,N,09832.0269,W,2,05,2.8,316.1,M,-23.7,M,1.8,0000*41
$GPGSA,A,3,22,18,31,25,14,,,,,,,,4.9,2.8,4.0*38
$GPRMC,182800.000,A,3353.7566,N,09832.0269,W,0.14,238.56,020412,,,D*79
$GPGGA,182801.000,3353.7567,N,09832.0273,W,2,06,2.2,314.8,M,-23.7,M,2.8,0000*4B
$GPGSA,A,3,22,18,31,12,25,14,,,,,,,3.5,2.2,2.7*3B
$GPGSV,3,1,11,22,61,100,37,14,60,014,35,31,58,193,35,11,26,290,*74
$GPGSV,3,2,11,25,22,094,38,01,21,313,,18,18,117,26,32,17,308,*75
$GPGSV,3,3,11,12,11,054,18,19,04,252,13,51,49,195,36*48
$GPRMC,182801.000,A,3353.7567,N,09832.0273,W,0.17,315.09,020412,,,D*75
$GPGGA,182802.000,3353.7569,N,09832.0276,W,2,06,2.2,313.6,M,-23.7,M,3.8,0000*4B
$GPGSA,A,3,22,18,31,12,25,14,,,,,,,3.5,2.2,2.7*3B
$GPRMC,182802.000,A,3353.7569,N,09832.0276,W,0.20,289.12,020412,,,D*77
$GPGGA,182803.000,3353.7570,N,09832.0279,W,2,06,2.2,312.8,M,-23.7,M,0.8,0000*41
$GPGSA,A,3,22,18,31,12,25,14,,,,,,,3.5,2.2,2.7*3B
$GPRMC,182803.000,A,3353.7570,N,09832.0279,W,0.26,306.39,020412,,,D*78
$GPGGA,182804.000,3353.7570,N,09832.0280,W,2,06,2.2,312.8,M,-23.7,M,0.8,0000*40
$GPGSA,A,3,22,18,31,12,25,14,,,,,,,3.5,2.2,2.7*3B
$GPRMC,182804.000,A,3353.7570,N,09832.0280,W,0.22,302.94,020412,,,D*7E
$GPGGA,182805.000,3353.7570,N,09832.0280,W,2,06,2.2,312.8,M,-23.7,M,0.8,0000*41
$GPGSA,A,3,22,18,31,12,25,14,,,,,,,3.5,2.2,2.7*3B
$GPRMC,182805.000,A,3353.7570,N,09832.0280,W,0.26,330.20,020412,,,D*75
$GPGGA,182806.000,3353.7570,N,09832.0280,W,2,06,2.2,312.8,M,-23.7,M,1.8,0000*43
$GPGSA,A,3,22,18,31,12,25,14,,,,,,,3.5,2.2,2.7*3B
$GPGSV,3,1,11,22,61,100,37,14,60,014,35,31,58,193,35,11,26,290,*74
$GPGSV,3,2,11,25,22,094,38,01,21,313,,18,18,117,26,32,17,308,*75
$GPGSV,3,3,11,12,11,054,18,19,04,252,,51,49,195,36*4A
$GPRMC,182806.000,A,3353.7570,N,09832.0280,W,0.21,325.56,020412,,,D*74
$GPGGA,182807.000,3353.7571,N,09832.0280,W,2,06,2.2,312.7,M,-23.7,M,2.8,0000*4F
$GPGSA,A,3,22,18,31,12,25,14,,,,,,,3.5,2.2,2.7*3B
$GPRMC,182807.000,A,3353.7571,N,09832.0280,W,0.31,341.69,020412,,,D*7B
$GPGGA,182808.000,3353.7571,N,09832.0280,W,2,06,2.2,312.8,M,-23.7,M,3.8,0000*4E
$GPGSA,A,3,22,18,31,12,25,14,,,,,,,3.5,2.2,2.7*3B
$GPRMC,182808.000,A,3353.7571,N,09832.0280,W,0.19,314.23,020412,,,D*70
$GPGGA,182809.000,3353.7571,N,09832.0280,W,2,06,2.2,312.6,M,-23.7,M,0.8,0000*42
$GPGSA,A,3,22,18,31,12,25,14,,,,,,,3.5,2.2,2.7*3B
$GPRMC,182809.000,A,3353.7571,N,09832.0280,W,0.18,227.61,020412,,,D*77
$GPGGA,182810.000,3353.7571,N,09832.0281,W,2,06,2.2,312.4,M,-23.7,M,0.8,0000*49
$GPGSA,A,3,22,18,31,12,25,14,,,,,,,3.5,2.2,2.7*3B
$GPRMC,182810.000,A,3353.7571,N,09832.0281,W,0.16,314.79,020412,,,D*78
$GPGGA,182811.000,3353.7570,N,09832.0282,W,2,06,2.2,312.2,M,-23.7,M,0.8,0000*4C
$GPGSA,A,3,22,18,31,12,25,14,,,,,,,3.5,2.2,2.7*3B
$GPGSV,3,1,11,22,61,100,37,14,60,014,35,31,58,193,35,11,26,290,*74
$GPGSV,3,2,11,25,22,094,38,01,21,313,,18,18,117,26,32,17,308,*75
$GPGSV,3,3,11,12,11,054,17,19,04,252,,51,49,195,37*44
$GPRMC,182811.000,A,3353.7570,N,09832.0282,W,0.21,242.07,020412,,,D*74
$GPGGA,182812.000,3353.7570,N,09832.0282,W,2,06,2.2,312.2,M,-23.7,M,0.8,0000*4F
$GPGSA,A,3,22,18,31,12,25,14,,,,,,,3.5,2.2,2.7*3B
$GPRMC,182812.000,A,3353.7570,N,09832.0282,W,0.30,211.91,020412,,,D*7E
$GPGGA,182813.000,3353.7568,N,09832.0281,W,2,06,2.2,312.6,M,-23.7,M,0.8,0000*40
$GPGSA,A,3,22,18,31,12,25,14,,,,,,,3.5,2.2,2.7*3B
$GPRMC,182813.000,A,3353.7568,N,09832.0281,W,0.38,200.75,020412,,,D*77
$GPGGA,182814.000,3353.7566,N,09832.0279,W,2,06,2.2,313.3,M,-23.7,M,1.8,0000*4B
$GPGSA,A,3,22,18,31,12,25,14,,,,,,,3.5,2.2,2.7*3B
$GPRMC,182814.000,A,3353.7566,N,09832.0279,W,0.36,191.90,020412,,,D*77
$GPGGA,182815.000,3353.7566,N,09832.0280,W,2,06,2.2,313.1,M,-23.7,M,0.8,0000*4F
$GPGSA,A,3,22,18,31,12,25,14,,,,,,,3.5,2.2,2.7*3B
$GPRMC,182815.000,A,3353.7566,N,09832.0280,W,0.19,179.19,020412,,,D*7A
$GPGGA,182816.000,3353.7566,N,09832.0280,W,2,06,2.2,312.9,M,-23.7,M,0.8,0000*45
$GPGSA,A,3,22,18,31,12,25,14,,,,,,,3.5,2.2,2.7*3B
$GPGSV,3,1,11,22,61,100,37,14,60,014,35,31,58,193,35,11,26,290,*74
$GPGSV,3,2,11,25,22,094,37,01,21,313,,18,18,117,26,32,17,308,*7A
$GPGSV,3,3,11,12,11,054,19,19,04,252,,51,49,195,36*4B
$GPRMC,182816.000,A,3353.7566,N,09832.0280,W,0.09,31.78,020412,,,D*42
$GPGGA,182817.000,3353.7565,N,09832.0278,W,2,06,2.2,313.8,M,-23.7,M,0.8,0000*40
$GPGSA,A,3,22,18,31,12,25,14,,,,,,,3.5,2.2,2.7*3B
$GPRMC,182817.000,A,3353.7565,N,09832.0278,W,0.13,158.73,020412,,,D*79
$GPGGA,182818.000,3353.7564,N,09832.0276,W,2,06,2.2,314.5,M,-23.7,M,1.8,0000*4B
$GPGSA,A,3,22,18,31,12,25,14,,,,,,,3.5,2.2,2.7*3B
$GPRMC,182818.000,A,3353.7564,N,09832.0276,W,0.16,65.32,020412,,,D*46
$GPGGA,182819.000,3353.7565,N,09832.0276,W,2,06,2.2,314.5,M,-23.7,M,2.8,0000*48
$GPGSA,A,3,22,18,31,12,25,14,,,,,,,3.5,2.2,2.7*3B
$GPRMC,182819.000,A,3353.7565,N,09832.0276,W,0.14,52.89,020412,,,D*40
$GPGGA,182820.000,3353.7565,N,09832.0275,W,2,06,2.2,314.8,M,-23.7,M,0.8,0000*4E
$GPGSA,A,3,22,18,31,12,25,14,,,,,,,3.5,2.2,2.7*3B
$GPRMC,182820.000,A,3353.7565,N,09832.0275,W,0.30,32.11,020412,,,D*48
$GPGGA,182821.000,3353.7564,N,09832.0274,W,2,06,2.2,315.2,M,-23.7,M,0.8,0000*44
$GPGSA,A,3,22,18,31,12,25,14,,,,,,,3.5,2.2,2.7*3B
$GPGSV,3,1,11,22,61,100,37,14,60,014,35,31,58,193,35,11,26,290,*74
$GPGSV,3,2,11,25,22,094,37,01,21,313,,18,18,117,26,32,17,308,*7A
$GPGSV,3,3,11,12,11,054,21,19,04,252,,51,49,195,37*41
$GPRMC,182821.000,A,3353.7564,N,09832.0274,W,0.14,139.94,020412,,,D*78
$GPGGA,182822.000,3353.7563,N,09832.0273,W,2,06,2.2,315.5,M,-23.7,M,0.8,0000*40
$GPGSA,A,3,22,18,31,12,25,14,,,,,,,3.5,2.2,2.7*3B
$GPRMC,182822.000,A,3353.7563,N,09832.0273,W,0.13,141.59,020412,,,D*72
$GPGGA,182823.000,3353.7562,N,09832.0272,W,2,06,2.2,315.8,M,-23.7,M,0.8,0000*4C
$GPGSA,A,3,22,18,31,12,25,14,,,,,,,3.5,2.2,2.7*3B
$GPRMC,182823.000,A,3353.7562,N,09832.0272,W,0.28,168.58,020412,,,D*71
$GPGGA,182824.000,3353.7561,N,09832.0272,W,2,06,2.2,316.1,M,-23.7,M,1.8,0000*43
$GPGSA,A,3,22,18,31,12,25,14,,,,,,,3.5,2.2,2.7*3B
$GPRMC,182824.000,A,3353.7561,N,09832.0272,W,0.40,171.70,020412,,,D*79
$GPGGA,182825.000,3353.7561,N,09832.0271,W,2,06,2.2,316.3,M,-23.7,M,0.8,0000*42
$GPGSA,A,3,22,18,31,12,25,14,,,,,,,3.5,2.2,2.7*3B
$GPRMC,182825.000,A,3353.7561,N,09832.0271,W,0.18,144.30,020412,,,D*74
$GPGGA,182826.000,3353.7560,N,09832.0271,W,2,06,2.2,316.5,M,-23.7,M,1.8,0000*47
$GPGSA,A,3,22,18,31,12,25,14,,,,,,,3.5,2.2,2.7*3B
$GPGSV,3,1,11,22,61,100,37,14,60,014,35,31,58,193,36,11,26,290,*77
$GPGSV,3,2,11,25,22,094,37,01,21,313,,18,18,117,26,32,17,308,*7A
$GPGSV,3,3,11,12,11,054,21,19,04,252,,51,49,195,36*40
$GPRMC,182826.000,A,3353.7560,N,09832.0271,W,0.24,141.80,020412,,,D*77
$GPGGA,182827.000,3353.7559,N,09832.0269,W,2,06,2.2,317.1,M,-23.7,M,0.8,0000*41
$GPGSA,A,3,22,18,31,12,25,14,,,,,,,3.5,2.2,2.7*3B
$GPRMC,182827.000,A,3353.7559,N,09832.0269,W,0.31,159.50,020412,,,D*75
$GPGGA,182828.000,3353.7560,N,09832.0269,W,2,06,2.2,316.9,M,-23.7,M,0.8,0000*4D
$GPGSA,A,3,22,18,31,12,25,14,,,,,,,3.5,2.2,2.7*3B
$GPRMC,182828.000,A,3353.7560,N,09832.0269,W,0.23,68.95,020412,,,D*49
$GPGGA,182829.000,3353.7561,N,09832.0269,W,2,06,2.2,317.0,M,-23.7,M,0.8,0000*45
$GPGSA,A,3,22,18,31,12,25,14,,,,,,,3.5,2.2,2.7*3B
$GPRMC,182829.000,A,3353.7561,N,09832.0269,W,0.17,65.62,020412,,,D*4B
$GPGGA,182830.000,3353.7562,N,09832.0269,W,2,06,2.2,316.7,M,-23.7,M,1.8,0000*49
$GPGSA,A,3,22,18,31,12,25,14,,,,,,,3.5,2.2,2.7*3B
$GPRMC,182830.000,A,3353.7562,N,09832.0269,W,0.25,48.22,020412,,,D*4A
$GPGGA,182831.000,3353.7563,N,09832.0270,W,2,06,2.2,316.2,M,-23.7,M,2.8,0000*47
$GPGSA,A,3,22,18,31,12,25,14,,,,,,,3.5,2.2,2.7*3B
$GPGSV,3,1,11,22,61,100,36,14,60,014,35,31,58,193,36,11,26,290,*76
$GPGSV,3,2,11,25,22,094,37,01,21,313,,18,18,117,27,32,17,308,*7B
$GPGSV,3,3,11,12,11,054,21,19,04,252,,51,49,195,36*40
$GPRMC,182831.000,A,3353.7563,N,09832.0270,W,0.13,54.06,020412,,,D*4C
$GPGGA,182832.000,3353.7564,N,09832.0271,W,2,06,2.2,316.1,M,-23.7,M,3.8,0000*40
$GPGSA,A,3,22,18,31,12,25,14,,,,,,,3.5,2.2,2.7*3B
$GPRMC,182832.000,A,3353.7564,N,09832.0271,W,0.13,152.66,020412,,,D*78
$GPGGA,182833.000,3353.7565,N,09832.0272,W,2,06,2.2,315.5,M,-23.7,M,0.8,0000*47
$GPGSA,A,3,22,18,31,12,25,14,,,,,,,3.5,2.2,2.7*3B
$GPRMC,182833.000,A,3353.7565,N,09832.0272,W,0.19,39.87,020412,,,D*42
$GPGGA,182834.000,3353.7564,N,09832.0271,W,2,06,2.2,315.8,M,-23.7,M,0.8,0000*4F
$GPGSA,A,3,22,18,31,12,25,14,,,,,,,3.5,2.2,2.7*3B
$GPRMC,182834.000,A,3353.7564,N,09832.0271,W,0.14,169.92,020412,,,D*7A
$GPGGA,182835.000,3353.7563,N,09832.0271,W,2,06,2.2,316.0,M,-23.7,M,0.8,0000*42
$GPGSA,A,3,22,18,31,12,25,14,,,,,,,3.5,2.2,2.7*3B
$GPRMC,182835.000,A,3353.7563,N,09832.0271,W,0.26,180.44,020412,,,D*71
$GPGGA,182836.000,3353.7562,N,09832.0270,W,2,06,2.2,316.4,M,-23.7,M,1.8,0000*44
$GPGSA,A,3,22,18,31,12,25,14,,,,,,,3.5,2.2,2.7*3B
$GPGSV,3,1,11,22,61,100,36,14,60,014,35,31,58,193,36,11,26,290,*76
$GPGSV,3,2,11,25,22,094,37,01,21,313,,18,18,117,27,32,17,308,*7B
$GPGSV,3,3,11,12,11,054,22,19,04,252,,51,49,195,36*43
$GPRMC,182836.000,A,3353.7562,N,09832.0270,W,0.38,173.70,020412,,,D*76
$GPGGA,182837.000,3353.7561,N,09832.0269,W,2,06,2.2,316.8,M,-23.7,M,2.8,0000*41
$GPGSA,A,3,22,18,31,12,25,14,,,,,,,3.5,2.2,2.7*3B
$GPRMC,182837.000,A,3353.7561,N,09832.0269,W,0.35,167.98,020412,,,D*72
$GPGGA,182838.000,3353.7560,N,09832.0269,W,2,06,2.2,316.8,M,-23.7,M,3.8,0000*4E
$GPGSA,A,3,22,18,31,12,25,14,,,,,,,3.5,2.2,2.7*3B
$GPRMC,182838.000,A,3353.7560,N,09832.0269,W,0.21,148.44,020412,,,D*75
$GPGGA,182839.000,3353.7561,N,09832.0270,W,2,06,2.2,316.5,M,-23.7,M,0.8,0000*48
$GPGSA,A,3,22,18,31,12,25,14,,,,,,,3.5,2.2,2.7*3B
$GPRMC,182839.000,A,3353.7561,N,09832.0270,W,0.27,164.63,020412,,,D*70
$GPGGA,182840.000,3353.7561,N,09832.0270,W,2,06,2.2,316.3,M,-23.7,M,0.8,0000*40
$GPGSA,A,3,22,18,31,12,25,14,,,,,,,3.5,2.2,2.7*3B
$GPRMC,182840.000,A,3353.7561,N,09832.0270,W,0.15,94.68,020412,,,D*4A
$GPGGA,182841.000,3353.7562,N,09832.0271,W,2,06,2.2,316.0,M,-23.7,M,0.8,0000*40
$GPGSA,A,3,22,18,31,12,25,14,,,,,,,3.5,2.2,2.7*3B
$GPGSV,3,1,11,22,61,100,36,14,60,014,35,31,58,193,36,11,26,290,*76
$GPGSV,3,2,11,25,22,094,37,01,21,313,,18,18,117,26,32,17,308,*7A
$GPGSV,3,3,11,12,11,054,22,19,04,252,,51,49,195,37*42
$GPRMC,182841.000,A,3353.7562,N,09832.0271,W,0.14,111.32,020412,,,D*7B
$GPGGA,182842.000,3353.7562,N,09832.0271,W,2,06,2.2,315.8,M,-23.7,M,1.8,0000*49
$GPGSA,A,3,22,18,31,12,25,14,,,,,,,3.5,2.2,2.7*3B
$GPRMC,182842.000,A,3353.7562,N,09832.0271,W,0.24,32.92,020412,,,D*41
$GPGGA,182843.000,3353.7563,N,09832.0271,W,2,06,2.2,315.5,M,-23.7,M,2.8,0000*47
$GPGSA,A,3,22,18,31,12,25,14,,,,,,,3.5,2.2,2.7*3B
$GPRMC,182843.000,A,3353.7563,N,09832.0271,W,0.10,119.68,020412,,,D*7B
$GPGGA,182844.000,3353.7563,N,09832.0271,W,2,06,2.2,315.6,M,-23.7,M,3.8,0000*42
$GPGSA,A,3,22,18,31,12,25,14,,,,,,,3.5,2.2,2.7*3B
$GPRMC,182844.000,A,3353.7563,N,09832.0271,W,0.16,157.96,020412,,,D*71
$GPGGA,182845.000,3353.7564,N,09832.0271,W,2,06,2.2,315.3,M,-23.7,M,0.8,0000*42
$GPGSA,A,3,22,18,31,12,25,14,,,,,,,3.5,2.2,2.7*3B
$GPRMC,182845.000,A,3353.7564,N,09832.0271,W,0.19,42.15,020412,,,D*46
$GPGGA,182846.000,3353.7565,N,09832.0272,W,2,06,2.2,314.6,M,-23.7,M,0.8,0000*47
$GPGSA,A,3,22,18,31,12,25,14,,,,,,,3.5,2.2,2.7*3B
$GPGSV,3,1,11,22,61,100,36,14,60,014,35,31,58,193,36,11,26,290,*76
$GPGSV,3,2,11,25,22,094,36,01,21,313,,18,18,117,26,32,17,308,*7B
$GPGSV,3,3,11,12,11,054,21,19,04,252,,51,49,195,36*40
$GPRMC,182846.000,A,3353.7565,N,09832.0272,W,0.07,22.52,020412,,,D*4D
$GPGGA,182847.000,3353.7565,N,09832.0273,W,2,06,2.2,314.2,M,-23.7,M,0.8,0000*43
$GPGSA,A,3,22,18,31,12,25,14,,,,,,,3.5,2.2,2.7*3B
$GPRMC,182847.000,A,3353.7565,N,09832.0273,W,0.20,193.51,020412,,,D*70
$GPGGA,182848.000,3353.7566,N,09832.0274,W,2,06,2.2,313.8,M,-23.7,M,1.8,0000*44
$GPGSA,A,3,22,18,31,12,25,14,,,,,,,3.5,2.2,2.7*3B
$GPRMC,182848.000,A,3353.7566,N,09832.0274,W,0.03,343.86,020412,,,D*7F
$GPGGA,182849.000,3353.7566,N,09832.0275,W,2,06,2.2,313.3,M,-23.7,M,2.8,0000*4C
$GPGSA,A,3,22,18,31,12,25,14,,,,,,,3.5,2.2,2.7*3B
$GPRMC,182849.000,A,3353.7566,N,09832.0275,W,0.13,340.38,020412,,,D*78
$GPGGA,182850.000,3353.7567,N,09832.0276,W,2,06,2.2,312.5,M,-23.7,M,0.8,0000*43
$GPGSA,A,3,22,18,31,12,25,14,,,,,,,3.5,2.2,2.7*3B
$GPRMC,182850.000,A,3353.7567,N,09832.0276,W,0.14,337.34,020412,,,D*79
$GPGGA,182851.000,3353.7567,N,09832.0276,W,2,06,2.2,312.4,M,-23.7,M,0.8,0000*43
$GPGSA,A,3,22,18,31,12,25,14,,,,,,,3.5,2.2,2.7*3B
$GPGSV,3,1,11,22,61,100,36,14,60,014,35,31,58,193,36,11,26,290,*76
$GPGSV,3,2,11,25,22,094,37,01,21,313,,18,18,117,25,32,17,308,*79
$GPGSV,3,3,11,12,11,054,22,19,04,252,,51,49,195,37*42
$GPRMC,182851.000,A,3353.7567,N,09832.0276,W,0.20,228.78,020412,,,D*78
$GPGGA,182852.000,3353.7567,N,09832.0276,W,2,06,2.2,312.4,M,-23.7,M,0.8,0000*40
$GPGSA,A,3,22,18,31,12,25,14,,,,,,,3.5,2.2,2.7*3B
$GPRMC,182852.000,A,3353.7567,N,09832.0276,W,0.06,225.72,020412,,,D*78
$GPGGA,182853.000,3353.7567,N,09832.0276,W,2,06,2.2,312.0,M,-23.7,M,0.8,0000*45
$GPGSA,A,3,22,18,31,12,25,14,,,,,,,3.5,2.2,2.7*3B
$GPRMC,182853.000,A,3353.7567,N,09832.0276,W,0.19,352.24,020412,,,D*75
$GPGGA,182854.000,3353.7567,N,09832.0277,W,2,06,2.2,311.3,M,-23.7,M,1.8,0000*42
$GPGSA,A,3,22,18,31,12,25,14,,,,,,,3.5,2.2,2.7*3B
$GPRMC,182854.000,A,3353.7567,N,09832.0277,W,0.09,329.58,020412,,,D*75
$GPGGA,182855.000,3353.7567,N,09832.0277,W,2,06,2.2,310.7,M,-23.7,M,2.8,0000*45
$GPGSA,A,3,22,18,31,12,25,14,,,,,,,3.5,2.2,2.7*3B
$GPRMC,182855.000,A,3353.7567,N,09832.0277,W,0.24,339.04,020412,,,D*73
$GPGGA,182856.000,3353.7568,N,09832.0278,W,2,06,2.2,310.4,M,-23.7,M,3.8,0000*44
$GPGSA,A,3,22,18,31,12,25,14,,,,,,,3.5,2.2,2.7*3B
$GPGSV,3,1,11,22,61,100,36,14,60,014,34,31,58,193,36,11,26,290,*77
$GPGSV,3,2,11,25,22,094,37,01,21,313,,18,18,117,25,32,17,308,*79
$GPGSV,3,3,11,12,11,054,22,19,04,252,,51,49,195,37*42
$GPRMC,182856.000,A,3353.7568,N,09832.0278,W,0.14,237.82,020412,,,D*72
$GPGGA,182857.000,3353.7568,N,09832.0278,W,2,06,2.2,310.1,M,-23.7,M,0.8,0000*43
$GPGSA,A,3,22,18,31,12,25,14,,,,,,,3.5,2.2,2.7*3B
$GPRMC,182857.000,A,3353.7568,N,09832.0278,W,0.17,258.68,020412,,,D*7D
$GPGGA,182858.000,3353.7568,N,09832.0278,W,2,06,2.2,309.8,M,-23.7,M,0.8,0000*4D
$GPGSA,A,3,22,18,31,12,25,14,,,,,,,3.5,2.2,2.7*3B
$GPRMC,182858.000,A,3353.7568,N,09832.0278,W,0.22,219.40,020412,,,D*7B
$GPGGA,182859.000,3353.7568,N,09832.0280,W,2,06,2.2,309.1,M,-23.7,M,0.8,0000*42
$GPGSA,A,3,22,18,31,12,25,14,,,,,,,3.5,2.2,2.7*3B
$GPRMC,182859.000,A,3353.7568,N,09832.0280,W,0.05,322.48,020412,,,D*79
$GPGGA,182900.000,3353.7568,N,09832.0280,W,2,06,2.2,308.9,M,-23.7,M,0.8,0000*46
$GPGSA,A,3,22,18,31,12,25,14,,,,,,,3.5,2.2,2.7*3B
$GPRMC,182900.000,A,3353.7568,N,09832.0280,W,0.23,219.63,020412,,,D*70
$GPGGA,182901.000,3353.7568,N,09832.0281,W,2,06,2.2,308.6,M,-23.7,M,0.8,0000*49
$GPGSA,A,3,22,18,31,12,25,14,,,,,,,3.5,2.2,2.7*3B
$GPGSV,3,1,11,22,61,100,36,14,60,014,34,31,58,193,36,11,26,290,*77
$GPGSV,3,2,11,25,22,094,37,01,21,313,,18,18,117,24,32,17,308,*78
$GPGSV,3,3,11,12,11,054,22,19,04,252,,51,49,195,37*42
$GPRMC,182901.000,A,3353.7568,N,09832.0281,W,0.14,250.69,020412,,,D*73
$GPGGA,182902.000,3353.7567,N,09832.0281,W,2,06,2.2,308.6,M,-23.7,M,1.8,0000*44
$GPGSA,A,3,22,18,31,12,25,14,,,,,,,3.5,2.2,2.7*3B
$GPRMC,182902.000,A,3353.7567,N,09832.0281,W,0.18,230.96,020412,,,D*75
$GPGGA,182903.000,3353.7567,N,09832.0281,W,2,06,2.2,308.5,M,-23.7,M,0.8,0000*47
$GPGSA,A,3,22,18,31,12,25,14,,,,,,,3.5,2.2,2.7*3B
$GPRMC,182903.000,A,3353.7567,N,09832.0281,W,0.12,256.75,020412,,,D*73
$GPGGA,182904.000,3353.7568,N,09832.0282,W,2,06,2.2,308.2,M,-23.7,M,0.8,0000*4B
$GPGSA,A,3,22,18,31,12,25,14,,,,,,,3.5,2.2,2.7*3B
$GPRMC,182904.000,A,3353.7568,N,09832.0282,W,0.23,347.08,020412,,,D*71
$GPGGA,182905.000,3353.7568,N,09832.0282,W,2,06,2.2,307.9,M,-23.7,M,0.8,0000*4E
$GPGSA,A,3,22,18,31,12,25,14,,,,,,,3.5,2.2,2.7*3B
$GPRMC,182905.000,A,3353.7568,N,09832.0282,W,0.18,334.73,020412,,,D*70
$GPGGA,182906.000,3353.7569,N,09832.0283,W,2,06,2.2,307.6,M,-23.7,M,1.8,0000*43
$GPGSA,A,3,22,18,31,12,25,14,,,,,,,3.5,2.2,2.7*3B
$GPGSV,3,1,11,22,61,100,36,14,60,014,34,31,58,193,36,11,26,290,*77
$GPGSV,3,2,11,25,22,094,37,01,21,313,,18,18,117,25,32,17,308,*79
$GPGSV,3,3,11,12,11,054,23,19,04,252,,51,49,195,37*43
$GPRMC,182906.000,A,3353.7569,N,09832.0283,W,0.16,331.61,020412,,,D*7B
$GPGGA,182907.000,3353.7570,N,09832.0283,W,2,06,2.2,307.3,M,-23.7,M,2.8,0000*4C
$GPGSA,A,3,22,18,31,12,25,14,,,,,,,3.5,2.2,2.7*3B
$GPRMC,182907.000,A,3353.7570,N,09832.0283,W,0.12,238.72,020412,,,D*7C
$GPGGA,182908.000,3353.7569,N,09832.0282,W,2,06,2.2,307.4,M,-23.7,M,0.8,0000*4F
$GPGSA,A,3,22,18,31,12,25,14,,,,,,,3.5,2.2,2.7*3B
$GPRMC,182908.000,A,3353.7569,N,09832.0282,W,0.08,295.83,020412,,,D*78
$GPGGA,182909.000,3353.7569,N,09832.0282,W,2,06,2.2,307.6,M,-23.7,M,0.8,0000*4C
$GPGSA,A,3,22,18,31,12,25,14,,,,,,,3.5,2.2,2.7*3B
$GPRMC,182909.000,A,3353.7569,N,09832.0282,W,0.13,203.21,020412,,,D*74
$GPGGA,182910.000,3353.7568,N,09832.0282,W,2,06,2.2,307.6,M,-23.7,M,0.8,0000*45
$GPGSA,A,3,22,18,31,12,25,14,,,,,,,3.5,2.2,2.7*3B
$GPRMC,182910.000,A,3353.7568,N,09832.0282,W,0.11,213.08,020412,,,D*75
$GPGGA,182911.000,3353.7567,N,09832.0281,W,2,06,2.2,307.8,M,-23.7,M,0.8,0000*46
$GPGSA,A,3,22,18,31,12,25,14,,,,,,,3.5,2.2,2.7*3B
$GPGSV,3,1,11,22,61,100,36,14,60,014,34,31,58,193,36,11,26,290,*77
$GPGSV,3,2,11,25,22,094,37,01,21,313,,18,18,117,25,32,17,308,*79
$GPGSV,3,3,11,12,11,054,24,19,04,252,,51,49,195,37*44
$GPRMC,182911.000,A,3353.7567,N,09832.0281,W,0.24,195.72,020412,,,D*7E
$GPGGA,182912.000,3353.7567,N,09832.0281,W,2,06,2.2,307.9,M,-23.7,M,1.8,0000*45
$GPGSA,A,3,22,18,31,12,25,14,,,,,,,3.5,2.2,2.7*3B
$GPRMC,182912.000,A,3353.7567,N,09832.0281,W,0.05,192.61,020412,,,D*7B
$GPGGA,182913.000,3353.7567,N,09832.0281,W,2,06,2.2,307.9,M,-23.7,M,0.8,0000*45
$GPGSA,A,3,22,18,31,12,25,14,,,,,,,3.5,2.2,2.7*3B
$GPRMC,182913.000,A,3353.7567,N,09832.0281,W,0.03,302.72,020412,,,D*75
$GPGGA,182914.000,3353.7566,N,09832.0280,W,2,06,2.2,307.9,M,-23.7,M,1.8,0000*43
$GPGSA,A,3,22,18,31,12,25,14,,,,,,,3.5,2.2,2.7*3B
$GPRMC,182914.000,A,3353.7566,N,09832.0280,W,0.00,141.56,020412,,,D*72
$GPGGA,182915.000,3353.7566,N,09832.0280,W,2,06,2.2,308.0,M,-23.7,M,0.8,0000*45
$GPGSA,A,3,22,18,31,12,25,14,,,,,,,3.5,2.2,2.7*3B
$GPRMC,182915.000,A,3353.7566,N,09832.0280,W,0.08,217.82,020412,,,D*72
$GPGGA,182916.000,3353.7567,N,09832.0281,W,2,06,2.2,307.6,M,-23.7,M,0.8,0000*4F
$GPGSA,A,3,22,18,31,12,25,14,,,,,,,3.5,2.2,2.7*3B
$GPGSV,3,1,11,22,61,100,36,14,60,014,34,31,58,193,36,11,26,290,*77
$GPGSV,3,2,11,25,22,094,36,01,21,313,,18,18,117,25,32,17,308,*78
$GPGSV,3,3,11,12,11,054,25,19,04,252,,51,49,195,37*45
$GPRMC,182916.000,A,3353.7567,N,09832.0281,W,0.07,16.91,020412,,,D*4F
$GPGGA,182917.000,3353.7567,N,09832.0281,W,2,06,2.2,307.6,M,-23.7,M,0.8,0000*4E
$GPGSA,A,3,22,18,31,12,25,14,,,,,,,3.5,2.2,2.7*3B
$GPRMC,182917.000,A,3353.7567,N,09832.0281,W,0.13,129.23,020412,,,D*7F
$GPGGA,182918.000,3353.7567,N,09832.0281,W,2,06,2.2,307.6,M,-23.7,M,0.8,0000*41
$GPGSA,A,3,22,18,31,12,25,14,,,,,,,3.5,2.2,2.7*3B
$GPRMC,182918.000,A,3353.7567,N,09832.0281,W,0.10,117.16,020412,,,D*78
$GPGGA,182919.000,3353.7567,N,09832.0280,W,2,06,2.2,307.6,M,-23.7,M,0.8,0000*41
$GPGSA,A,3,22,18,31,12,25,14,,,,,,,3.5,2.2,2.7*3B
$GPRMC,182919.000,A,3353.7567,N,09832.0280,W,0.07,29.48,020412,,,D*49
$GPGGA,182920.000,3353.7567,N,09832.0280,W,2,06,2.2,307.6,M,-23.7,M,1.8,0000*4A
$GPGSA,A,3,22,18,31,12,25,14,,,,,,,3.5,2.2,2.7*3B
$GPRMC,182920.000,A,3353.7567,N,09832.0280,W,0.10,12.75,020412,,,D*43
$GPGGA,182921.000,3353.7567,N,09832.0279,W,2,06,2.2,307.8,M,-23.7,M,0.8,0000*42
$GPGSA,A,3,22,18,31,12,25,14,,,,,,,3.5,2.2,2.7*3B
$GPGSV,3,1,11,22,61,100,35,14,60,014,34,31,58,193,36,11,26,290,*74
$GPGSV,3,2,11,25,22,094,36,01,21,313,,18,18,117,26,32,17,308,*7B
$GPGSV,3,3,11,12,11,054,25,19,04,252,,51,49,195,37*45
$GPRMC,182921.000,A,3353.7567,N,09832.0279,W,0.04,73.91,020412,,,D*4C
$GPGGA,182922.000,3353.7567,N,09832.0279,W,2,06,2.2,307.9,M,-23.7,M,0.8,0000*40
$GPGSA,A,3,22,18,31,12,25,14,,,,,,,3.5,2.2,2.7*3B
$GPRMC,182922.000,A,3353.7567,N,09832.0279,W,0.04,199.75,020412,,,D*70
$GPGGA,182923.000,3353.7567,N,09832.0279,W,2,06,2.2,308.1,M,-23.7,M,0.8,0000*46
$GPGSA,A,3,22,18,31,12,25,14,,,,,,,3.5,2.2,2.7*3B
$GPRMC,182923.000,A,3353.7567,N,09832.0279,W,0.06,183.83,020412,,,D*71
$GPGGA,182924.000,3353.7566,N,09832.0279,W,2,06,2.2,308.2,M,-23.7,M,1.8,0000*42
$GPGSA,A,3,22,18,31,12,25,14,,,,,,,3.5,2.2,2.7*3B
$GPRMC,182924.000,A,3353.7566,N,09832.0279,W,0.08,183.37,020412,,,D*76
$GPGGA,182925.000,3353.7566,N,09832.0278,W,2,06,2.2,308.4,M,-23.7,M,2.8,0000*47
$GPGSA,A,3,22,18,31,12,25,14,,,,,,,3.5,2.2,2.7*3B
$GPRMC,182925.000,A,3353.7566,N,09832.0278,W,0.08,170.19,020412,,,D*76
$GPGGA,182926.000,3353.7566,N,09832.0278,W,2,06,2.2,308.5,M,-23.7,M,3.8,0000*44
$GPGSA,A,3,22,18,31,12,25,14,,,,,,,3.5,2.2,2.7*3B
$GPGSV,3,1,12,22,60,102,35,31,59,193,35,14,59,016,33,11,26,289,*71
$GPGSV,3,2,12,25,23,093,36,01,21,312,,32,18,308,,18,17,118,26*70
$GPGSV,3,3,12,12,11,053,26,19,03,251,,30,00,178,,51,49,195,37*7B
$GPRMC,182926.000,A,3353.7566,N,09832.0278,W,0.07,151.08,020412,,,D*79
$GPGGA,182927.000,3353.7566,N,09832.0278,W,2,06,2.2,308.7,M,-23.7,M,0.8,0000*44
$GPGSA,A,3,22,18,31,12,25,14,,,,,,,3.5,2.2,2.7*3B
$GPRMC,182927.000,A,3353.7566,N,09832.0278,W,0.01,198.48,020412,,,D*7F
$GPGGA,182928.000,3353.7566,N,09832.0278,W,2,06,2.2,308.8,M,-23.7,M,0.8,0000*44
$GPGSA,A,3,22,18,31,12,25,14,,,,,,,3.5,2.2,2.7*3B
$GPRMC,182928.000,A,3353.7566,N,09832.0278,W,0.09,53.78,020412,,,D*4D
$GPGGA,182929.000,3353.7566,N,09832.0277,W,2,06,2.2,309.0,M,-23.7,M,0.8,0000*43
$GPGSA,A,3,22,18,31,12,25,14,,,,,,,3.5,2.2,2.7*3B
$GPRMC,182929.000,A,3353.7566,N,09832.0277,W,0.11,45.64,020412,,,D*40
$GPGGA,182930.000,3353.7566,N,09832.0277,W,2,06,2.2,309.1,M,-23.7,M,1.8,0000*4B
$GPGSA,A,3,22,18,31,12,25,14,,,,,,,3.5,2.2,2.7*3B
$GPRMC,182930.000,A,3353.7566,N,09832.0277,W,0.12,50.29,020412,,,D*46
$GPGGA,182931.000,3353.7567,N,09832.0277,W,2,06,2.2,309.2,M,-23.7,M,2.8,0000*4B
$GPGSA,A,3,22,18,31,12,25,14,,,,,,,3.5,2.2,2.7*3B
$GPGSV,3,1,12,22,60,102,35,31,59,193,35,14,59,016,33,11,26,289,*71
$GPGSV,3,2,12,25,23,093,36,01,21,312,,32,18,308,,18,17,118,26*70
$GPGSV,3,3,12,12,11,053,27,19,03,251,,30,00,178,,51,49,195,37*7A
$GPRMC,182931.000,A,3353.7567,N,09832.0277,W,0.12,51.76,020412,,,D*4D
$GPGGA,182932.000,3353.7567,N,09832.0276,W,2,06,2.2,309.3,M,-23.7,M,3.8,0000*49
$GPGSA,A,3,22,18,31,12,25,14,,,,,,,3.5,2.2,2.7*3B
$GPRMC,182932.000,A,3353.7567,N,09832.0276,W,0.12,36.85,020412,,,D*42
$GPGGA,182933.000,3353.7567,N,09832.0276,W,2,06,2.2,309.5,M,-23.7,M,0.8,0000*4D
$GPGSA,A,3,22,18,31,12,25,14,,,,,,,3.5,2.2,2.7*3B
$GPRMC,182933.000,A,3353.7567,N,09832.0276,W,0.10,86.01,020412,,,D*46
$GPGGA,182934.000,3353.7567,N,09832.0276,W,2,06,2.2,309.6,M,-23.7,M,0.8,0000*49
$GPGSA,A,3,22,18,31,12,25,14,,,,,,,3.5,2.2,2.7*3B
$GPRMC,182934.000,A,3353.7567,N,09832.0276,W,0.06,133.99,020412,,,D*78
$GPGGA,182935.000,3353.7566,N,09832.0275,W,2,06,2.2,309.7,M,-23.7,M,0.8,0000*4B
$GPGSA,A,3,22,18,31,12,25,14,,,,,,,3.5,2.2,2.7*3B
$GPRMC,182935.000,A,3353.7566,N,09832.0275,W,0.08,150.90,020412,,,D*79
$GPGGA,182936.000,3353.7566,N,09832.0275,W,2,06,2.2,309.9,M,-23.7,M,1.8,0000*47
$GPGSA,A,3,22,18,31,12,25,14,,,,,,,3.5,2.2,2.7*3B
$GPGSV,3,1,12,22,60,102,35,31,59,193,35,14,59,016,33,11,26,289,*71
$GPGSV,3,2,12,25,23,093,36,01,21,312,,32,18,308,,18,17,118,26*70
$GPGSV,3,3,12,12,11,053,27,19,03,251,,30,00,178,,51,49,195,37*7A
$GPRMC,182936.000,A,3353.7566,N,09832.0275,W,0.10,156.51,020412,,,D*78
$GPGGA,182937.000,3353.7565,N,09832.0274,W,2,06,2.2,310.0,M,-23.7,M,2.8,0000*46
$GPGSA,A,3,22,18,31,12,25,14,,,,,,,3.5,2.2,2.7*3B
$GPRMC,182937.000,A,3353.7565,N,09832.0274,W,0.10,149.05,020412,,,D*74
$GPGGA,182938.000,3353.7565,N,09832.0274,W,2,06,2.2,310.2,M,-23.7,M,0.8,0000*49
$GPGSA,A,3,22,18,31,12,25,14,,,,,,,3.5,2.2,2.7*3B
$GPRMC,182938.000,A,3353.7565,N,09832.0274,W,0.08,156.24,020412,,,D*7F
$GPGGA,182939.000,3353.7565,N,09832.0274,W,2,06,2.2,310.4,M,-23.7,M,0.8,0000*4E
$GPGSA,A,3,22,18,31,12,25,14,,,,,,,3.5,2.2,2.7*3B
$GPRMC,182939.000,A,3353.7565,N,09832.0274,W,0.05,92.37,020412,,,D*48
$GPGGA,182940.000,3353.7565,N,09832.0274,W,2,06,2.2,310.5,M,-23.7,M,0.8,0000*41
$GPGSA,A,3,22,18,31,12,25,14,,,,,,,3.5,2.2,2.7*3B
$GPRMC,182940.000,A,3353.7565,N,09832.0274,W,0.08,75.44,020412,,,D*46
$GPGGA,182941.000,3353.7565,N,09832.0274,W,2,06,2.2,310.6,M,-23.7,M,0.8,0000*43
$GPGSA,A,3,22,18,31,12,25,14,,,,,,,3.5,2.2,2.7*3B
$GPGSV,3,1,12,22,60,102,34,31,59,193,35,14,59,016,33,11,26,289,*70
$GPGSV,3,2,12,25,23,093,36,01,21,312,,32,18,308,,18,17,118,25*73
$GPGSV,3,3,12,12,11,053,28,19,03,251,,30,00,178,,51,49,195,37*75
$GPRMC,182941.000,A,3353.7565,N,09832.0274,W,0.09,57.92,020412,,,D*4D
$GPGGA,182942.000,3353.7565,N,09832.0274,W,2,06,2.2,310.7,M,-23.7,M,1.8,0000*40
$GPGSA,A,3,22,18,31,12,25,14,,,,,,,3.5,2.2,2.7*3B
$GPRMC,182942.000,A,3353.7565,N,09832.0274,W,0.09,65.27,020412,,,D*41
$GPGGA,182943.000,3353.7565,N,09832.0274,W,2,06,2.2,310.8,M,-23.7,M,2.8,0000*4D
$GPGSA,A,3,22,18,31,12,25,14,,,,,,,3.5,2.2,2.7*3B
$GPRMC,182943.000,A,3353.7565,N,09832.0274,W,0.08,52.20,020412,,,D*42
$GPGGA,182944.000,3353.7565,N,09832.0274,W,2,06,2.2,310.8,M,-23.7,M,3.8,0000*4B
$GPGSA,A,3,22,18,31,12,25,14,,,,,,,3.5,2.2,2.7*3B
$GPRMC,182944.000,A,3353.7565,N,09832.0274,W,0.08,72.06,020412,,,D*43
$GPGGA,182945.000,3353.7565,N,09832.0273,W,2,06,2.2,310.9,M,-23.7,M,0.8,0000*4F
$GPGSA,A,3,22,18,31,12,25,14,,,,,,,3.5,2.2,2.7*3B
$GPRMC,182945.000,A,3353.7565,N,09832.0273,W,0.06,90.51,020412,,,D*45
$GPGGA,182946.000,3353.7565,N,09832.0273,W,2,06,2.2,311.1,M,-23.7,M,0.8,0000*45
$GPGSA,A,3,22,18,31,12,25,14,,,,,,,3.5,2.2,2.7*3B
$GPGSV,3,1,12,22,60,102,34,31,59,193,35,14,59,016,34,11,26,289,*77
$GPGSV,3,2,12,25,23,093,36,01,21,312,,32,18,308,,18,17,118,25*73
$GPGSV,3,3,12,12,11,053,28,19,03,251,,30,00,178,,51,49,195,37*75
$GPRMC,182946.000,A,3353.7565,N,09832.0273,W,0.10,102.03,020412,,,D*7C
$GPGGA,182947.000,3353.7564,N,09832.0272,W,2,06,2.2,311.2,M,-23.7,M,0.8,0000*47
$GPGSA,A,3,22,18,31,12,25,14,,,,,,,3.5,2.2,2.7*3B
$GPRMC,182947.000,A,3353.7564,N,09832.0272,W,0.11,100.28,020412,,,D*77
$GPGGA,182948.000,3353.7564,N,09832.0271,W,2,06,2.2,311.3,M,-23.7,M,0.8,0000*4A
$GPGSA,A,3,22,18,31,12,25,14,,,,,,,3.5,2.2,2.7*3B
$GPRMC,182948.000,A,3353.7564,N,09832.0271,W,0.10,102.30,020412,,,D*71
$GPGGA,182949.000,3353.7564,N,09832.0271,W,2,06,2.2,311.5,M,-23.7,M,1.8,0000*4C
$GPGSA,A,3,22,18,31,12,25,14,,,,,,,3.5,2.2,2.7*3B
$GPRMC,182949.000,A,3353.7564,N,09832.0271,W,0.12,91.21,020412,,,D*49
$GPGGA,182950.000,3353.7564,N,09832.0270,W,2,06,2.2,311.6,M,-23.7,M,0.8,0000*47
$GPGSA,A,3,22,18,31,12,25,14,,,,,,,3.5,2.2,2.7*3B
$GPRMC,182950.000,A,3353.7564,N,09832.0270,W,0.10,86.72,020412,,,D*42
$GPGGA,182951.000,3353.7565,N,09832.0270,W,2,06,2.2,311.9,M,-23.7,M,0.8,0000*48
$GPGSA,A,3,22,18,31,12,25,14,,,,,,,3.5,2.2,2.7*3B
$GPGSV,3,1,12,22,60,102,34,31,59,193,35,14,59,016,34,11,26,289,*77
$GPGSV,3,2,12,25,23,093,35,01,21,312,,32,18,308,,18,17,118,25*70
$GPGSV,3,3,12,12,11,053,28,19,03,251,,30,00,178,,51,49,195,36*74
$GPRMC,182951.000,A,3353.7565,N,09832.0270,W,0.12,50.22,020412,,,D*4E
$GPGGA,182952.000,3353.7565,N,09832.0270,W,2,06,2.2,311.9,M,-23.7,M,0.8,0000*4B
$GPGSA,A,3,22,18,31,12,25,14,,,,,,,3.5,2.2,2.7*3B
$GPRMC,182952.000,A,3353.7565,N,09832.0270,W,0.05,70.83,020412,,,D*42
$GPGGA,182953.000,3353.7565,N,09832.0270,W,2,06,2.2,311.9,M,-23.7,M,0.8,0000*4A
$GPGSA,A,3,22,18,31,12,25,14,,,,,,,3.5,2.2,2.7*3B
$GPRMC,182953.000,A,3353.7565,N,09832.0270,W,0.09,43.85,020412,,,D*49
$GPGGA,182954.000,3353.7565,N,09832.0270,W,2,06,2.2,311.8,M,-23.7,M,1.8,0000*4D
$GPGSA,A,3,22,18,31,12,25,14,,,,,,,3.5,2.2,2.7*3B
$GPRMC,182954.000,A,3353.7565,N,09832.0270,W,0.02,70.00,020412,,,D*48
$GPGGA,182955.000,3353.7565,N,09832.0270,W,2,06,2.2,311.7,M,-23.7,M,0.8,0000*42
$GPGSA,A,3,22,18,31,12,25,14,,,,,,,3.5,2.2,2.7*3B
$GPRMC,182955.000,A,3353.7565,N,09832.0270,W,0.06,34.31,020412,,,D*4F
$GPGGA,182956.000,3353.7565,N,09832.0270,W,2,06,2.2,311.7,M,-23.7,M,1.8,0000*40
$GPGSA,A,3,22,18,31,12,25,14,,,,,,,3.5,2.2,2.7*3B
$GPGSV,3,1,12,22,60,102,34,31,59,193,35,14,59,016,34,11,26,289,*77
$GPGSV,3,2,12,25,23,093,35,01,21,312,,32,18,308,,18,17,118,25*70
$GPGSV,3,3,12,12,11,053,29,19,03,251,,30,00,178,,51,49,195,36*75
$GPRMC,182956.000,A,3353.7565,N,09832.0270,W,0.02,11.60,020412,,,D*4B
$GPGGA,182957.000,3353.7564,N,09832.0270,W,2,06,2.2,311.7,M,-23.7,M,0.8,0000*41
$GPGSA,A,3,22,18,31,12,25,14,,,,,,,3.5,2.2,2.7*3B
$GPRMC,182957.000,A,3353.7564,N,09832.0270,W,0.04,135.77,020412,,,D*7C
$GPGGA,182958.000,3353.7564,N,09832.0269,W,2,06,2.2,311.7,M,-23.7,M,0.8,0000*46
$GPGSA,A,3,22,18,31,12,25,14,,,,,,,3.5,2.2,2.7*3B
$GPRMC,182958.000,A,3353.7564,N,09832.0269,W,0.06,97.49,020412,,,D*4D
$GPGGA,182959.000,3353.7564,N,09832.0269,W,2,06,2.2,311.6,M,-23.7,M,0.8,0000*46
$GPGSA,A,3,22,18,31,12,25,14,,,,,,,3.5,2.2,2.7*3B
$GPRMC,182959.000,A,3353.7564,N,09832.0269,W,0.06,147.58,020412,,,D*70
$GPGGA,183000.000,3353.7563,N,09832.0268,W,2,06,2.2,311.6,M,-23.7,M,1.8,0000*45
$GPGSA,A,3,22,18,31,12,25,14,,,,,,,3.5,2.2,2.7*3B
$GPRMC,183000.000,A,3353.7563,N,09832.0268,W,0.08,134.86,020412,,,D*7B
$GPGGA,183001.000,3353.7563,N,09832.0268,W,2,06,2.2,311.7,M,-23.7,M,2.8,0000*46
$GPGSA,A,3,22,18,31,12,25,14,,,,,,,3.5,2.2,2.7*3B
$GPGSV,3,1,12,22,60,102,33,31,59,193,36,14,59,016,34,11,26,289,*73
$GPGSV,3,2,12,25,23,093,35,01,21,312,,32,18,308,,18,17,118,25*70
$GPGSV,3,3,12,12,11,053,29,19,03,251,,30,00,178,,51,49,195,37*74
$GPRMC,183001.000,A,3353.7563,N,09832.0268,W,0.09,132.70,020412,,,D*74
$GPGGA,183002.000,3353.7562,N,09832.0267,W,2,06,2.2,311.7,M,-23.7,M,3.8,0000*4A
$GPGSA,A,3,22,18,31,12,25,14,,,,,,,3.5,2.2,2.7*3B
$GPRMC,183002.000,A,3353.7562,N,09832.0267,W,0.08,137.38,020412,,,D*71
$GPGGA,183003.000,3353.7562,N,09832.0267,W,2,06,2.2,311.6,M,-23.7,M,0.8,0000*49
$GPGSA,A,3,22,18,31,12,25,14,,,,,,,3.5,2.2,2.7*3B
$GPRMC,183003.000,A,3353.7562,N,09832.0267,W,0.03,66.47,020412,,,D*46
$GPGGA,183004.000,3353.7562,N,09832.0267,W,2,06,2.2,311.6,M,-23.7,M,0.8,0000*4E
$GPGSA,A,3,22,18,31,12,25,14,,,,,,,3.5,2.2,2.7*3B
$GPRMC,183004.000,A,3353.7562,N,09832.0267,W,0.04,59.32,020412,,,D*48
$GPGGA,183005.000,3353.7563,N,09832.0267,W,2,06,2.2,311.5,M,-23.7,M,0.8,0000*4D
$GPGSA,A,3,22,18,31,12,25,14,,,,,,,3.5,2.2,2.7*3B
