$GPGGA,214429.000,3352.2974,N,09832.4174,W,2,06,2.1,296.3,M,-23.7,M,0.8,0000*4A
$GPGSA,A,3,31,16,30,20,23,32,,,,,,,5.4,2.1,5.0*31
$GPGSV,3,1,12,30,68,093,36,32,67,212,28,16,57,159,23,20,56,274,34*7F
$GPGSV,3,2,12,23,34,311,26,31,33,046,38,14,09,105,31,06,07,146,21*7A
$GPGSV,3,3,12,01,07,230,30,13,07,299,,03,05,160,27,29,01,051,*73
$GPRMC,214429.000,A,3352.2974,N,09832.4174,W,0.58,162.03,310312,,,D*71
$GPGGA,214430.000,3352.2975,N,09832.4174,W,2,06,2.1,295.5,M,-23.7,M,1.8,0000*47
$GPGSA,A,3,31,16,30,20,23,32,,,,,,,5.4,2.1,5.0*31
$GPRMC,214430.000,A,3352.2975,N,09832.4174,W,0.13,214.98,310312,,,D*77
$GPGGA,214431.000,3352.2975,N,09832.4173,W,2,06,2.2,294.5,M,-23.7,M,2.8,0000*40
$GPGSA,A,3,31,16,30,20,23,32,,,,,,,5.4,2.2,5.0*32
$GPRMC,214431.000,A,3352.2975,N,09832.4173,W,0.45,171.14,310312,,,D*76
$GPGGA,214432.000,3352.2972,N,09832.4172,W,2,06,2.2,292.9,M,-23.7,M,0.8,0000*4D
$GPGSA,A,3,31,16,30,20,23,32,,,,,,,5.4,2.2,5.0*32
$GPRMC,214432.000,A,3352.2972,N,09832.4172,W,0.71,168.54,310312,,,D*78
$GPGGA,214433.000,3352.2969,N,09832.4171,W,2,06,2.2,291.4,M,-23.7,M,0.8,0000*4B
$GPGSA,A,3,31,16,30,20,23,32,,,,,,,5.4,2.2,5.0*32
$GPRMC,214433.000,A,3352.2969,N,09832.4171,W,0.45,166.83,310312,,,D*73
$GPGGA,214434.000,3352.2971,N,09832.4171,W,2,06,2.2,291.1,M,-23.7,M,0.8,0000*40
$GPGSA,A,3,31,16,30,20,23,32,,,,,,,5.4,2.2,5.0*32
$GPGSV,3,1,12,30,68,093,36,32,67,212,28,16,57,159,23,20,56,274,33*78
$GPGSV,3,2,12,23,34,311,26,31,33,046,39,14,09,105,30,06,07,146,22*79
$GPGSV,3,3,12,01,07,230,30,13,07,299,,03,05,160,26,29,01,051,*72
$GPRMC,214434.000,A,3352.2971,N,09832.4171,W,0.59,167.89,310312,,,D*7B
$GPGGA,214435.000,3352.2975,N,09832.4173,W,2,06,2.2,290.8,M,-23.7,M,0.8,0000*4F
$GPGSA,A,3,31,16,30,20,23,32,,,,,,,5.4,2.2,5.0*32
$GPRMC,214435.000,A,3352.2975,N,09832.4173,W,0.22,203.26,310312,,,D*74
$GPGGA,214436.000,3352.2980,N,09832.4177,W,2,06,2.2,290.2,M,-23.7,M,0.8,0000*48
$GPGSA,A,3,31,16,30,20,23,32,,,,,,,5.4,2.2,5.0*32
$GPRMC,214436.000,A,3352.2980,N,09832.4177,W,0.15,233.58,310312,,,D*77
$GPGGA,214437.000,3352.2984,N,09832.4179,W,2,06,2.2,290.1,M,-23.7,M,1.8,0000*41
$GPGSA,A,3,31,16,30,20,23,32,,,,,,,5.4,2.2,5.0*32
$GPRMC,214437.000,A,3352.2984,N,09832.4179,W,0.40,178.74,310312,,,D*7E
$GPGGA,214438.000,3352.2981,N,09832.4179,W,2,06,2.2,288.2,M,-23.7,M,2.8,0000*42
$GPGSA,A,3,31,16,30,20,23,32,,,,,,,5.5,2.2,5.0*33
$GPRMC,214438.000,A,3352.2981,N,09832.4179,W,0.27,189.64,310312,,,D*7A
$GPGGA,214439.000,3352.2980,N,09832.4180,W,2,06,2.2,287.2,M,-23.7,M,0.8,0000*49
$GPGSA,A,3,31,16,30,20,23,32,,,,,,,5.5,2.2,5.0*33
$GPGSV,3,1,12,30,68,093,36,32,67,212,29,16,57,159,23,20,56,274,33*79
$GPGSV,3,2,12,23,34,311,26,31,33,046,39,14,09,105,30,06,07,146,22*79
$GPGSV,3,3,12,01,07,230,31,13,07,299,,03,05,160,26,29,01,051,*73
$GPRMC,214439.000,A,3352.2980,N,09832.4180,W,0.45,181.41,310312,,,D*77
$GPGGA,214440.000,3352.2978,N,09832.4180,W,2,06,2.2,285.9,M,-23.7,M,0.8,0000*49
$GPGSA,A,3,31,16,30,20,23,32,,,,,,,5.5,2.2,5.0*33
$GPRMC,214440.000,A,3352.2978,N,09832.4180,W,0.62,176.43,310312,,,D*71
$GPGGA,214441.000,3352.2977,N,09832.4179,W,2,06,2.2,285.2,M,-23.7,M,0.8,0000*4A
$GPGSA,A,3,31,16,30,20,23,32,,,,,,,5.5,2.2,5.0*33
$GPRMC,214441.000,A,3352.2977,N,09832.4179,W,0.69,170.80,310312,,,D*7B
$GPGGA,214442.000,3352.2976,N,09832.4179,W,2,06,2.2,284.6,M,-23.7,M,1.8,0000*4C
$GPGSA,A,3,31,16,30,20,23,32,,,,,,,5.5,2.2,5.0*33
$GPRMC,214442.000,A,3352.2976,N,09832.4179,W,0.63,174.98,310312,,,D*7E
$GPGGA,214443.000,3352.2976,N,09832.4178,W,2,06,2.2,284.3,M,-23.7,M,2.8,0000*4A
$GPGSA,A,3,31,16,30,20,23,32,,,,,,,5.5,2.2,5.0*33
$GPRMC,214443.000,A,3352.2976,N,09832.4178,W,0.45,176.60,310312,,,D*7F
$GPGGA,214444.000,3352.2975,N,09832.4177,W,2,06,2.2,283.9,M,-23.7,M,3.8,0000*4D
$GPGSA,A,3,31,16,30,20,23,32,,,,,,,5.5,2.2,5.0*33
$GPGSV,3,1,12,30,68,093,36,32,67,212,30,16,57,159,23,20,56,274,33*71
$GPGSV,3,2,12,23,34,311,26,31,33,046,39,14,09,105,30,06,07,146,17*7F
$GPGSV,3,3,12,01,07,230,31,13,07,299,,03,05,160,26,29,01,051,*73
$GPRMC,214444.000,A,3352.2975,N,09832.4177,W,0.59,170.00,310312,,,D*79
$GPGGA,214445.000,3352.2976,N,09832.4176,W,2,06,2.2,284.1,M,-23.7,M,0.8,0000*42
$GPGSA,A,3,31,16,30,20,23,32,,,,,,,5.5,2.2,5.0*33
$GPRMC,214445.000,A,3352.2976,N,09832.4176,W,0.40,167.85,310312,,,D*79
$GPGGA,214446.000,3352.2972,N,09832.4174,W,2,06,2.2,283.0,M,-23.7,M,0.8,0000*41
$GPGSA,A,3,31,16,30,20,23,32,,,,,,,5.5,2.2,5.0*33
$GPRMC,214446.000,A,3352.2972,N,09832.4174,W,0.59,165.39,310312,,,D*71
$GPGGA,214447.000,3352.2971,N,09832.4172,W,2,06,2.2,283.0,M,-23.7,M,0.8,0000*45
$GPGSA,A,3,31,16,30,20,23,32,,,,,,,5.5,2.2,5.0*33
$GPRMC,214447.000,A,3352.2971,N,09832.4172,W,0.52,169.83,310312,,,D*73
$GPGGA,214448.000,3352.2974,N,09832.4171,W,2,06,2.2,284.1,M,-23.7,M,1.8,0000*4B
$GPGSA,A,3,31,16,30,20,23,32,,,,,,,5.5,2.2,5.0*33
$GPRMC,214448.000,A,3352.2974,N,09832.4171,W,0.19,190.63,310312,,,D*7D
$GPGGA,214449.000,3352.2977,N,09832.4171,W,2,06,2.2,285.2,M,-23.7,M,2.8,0000*48
$GPGSA,A,3,31,16,30,20,23,32,,,,,,,5.5,2.2,5.0*33
$GPGSV,3,1,12,30,68,093,36,32,67,212,30,16,57,159,23,20,56,274,33*71
$GPGSV,3,2,12,23,34,311,27,31,33,046,39,14,09,105,30,06,07,146,23*79
$GPGSV,3,3,12,01,07,230,31,13,07,299,,03,05,160,26,29,01,051,*73
$GPRMC,214449.000,A,3352.2977,N,09832.4171,W,0.16,180.22,310312,,,D*74
$GPGGA,214450.000,3352.2980,N,09832.4170,W,2,06,2.2,286.3,M,-23.7,M,3.8,0000*4A
$GPGSA,A,3,31,16,30,20,23,32,,,,,,,5.5,2.2,5.0*33
$GPRMC,214450.000,A,3352.2980,N,09832.4170,W,0.33,166.83,310312,,,D*71
$GPGGA,214451.000,3352.2985,N,09832.4170,W,2,06,2.2,288.1,M,-23.7,M,0.8,0000*41
$GPGSA,A,3,31,16,30,20,23,32,,,,,,,5.5,2.2,5.0*33
$GPRMC,214451.000,A,3352.2985,N,09832.4170,W,0.11,314.15,310312,,,D*7D
$GPGGA,214452.000,3352.2990,N,09832.4170,W,2,06,2.2,289.9,M,-23.7,M,0.8,0000*4F
$GPGSA,A,3,31,16,30,20,23,32,,,,,,,5.5,2.2,5.0*33
$GPRMC,214452.000,A,3352.2990,N,09832.4170,W,0.18,165.37,310312,,,D*77
$GPGGA,214453.000,3352.2995,N,09832.4169,W,2,06,2.2,291.7,M,-23.7,M,0.8,0000*44
$GPGSA,A,3,31,16,30,20,23,32,,,,,,,5.5,2.2,5.0*33
$GPRMC,214453.000,A,3352.2995,N,09832.4169,W,0.22,147.68,310312,,,D*78
$GPGGA,214454.000,3352.3002,N,09832.4169,W,2,06,2.2,294.2,M,-23.7,M,1.8,0000*44
$GPGSA,A,3,31,16,30,20,23,32,,,,,,,5.5,2.2,5.0*33
$GPGSV,3,1,12,30,68,093,36,32,67,212,30,16,57,159,21,20,56,274,34*74
$GPGSV,3,2,12,23,34,311,26,31,33,046,38,14,09,105,29,06,07,146,23*71
$GPGSV,3,3,12,01,07,230,32,13,07,299,,03,05,160,26,29,01,051,*70
$GPRMC,214454.000,A,3352.3002,N,09832.4169,W,0.33,0.83,310312,,,D*7E
$GPGGA,214455.000,3352.3010,N,09832.4170,W,2,05,1.7,296.6,M,-23.7,M,2.8,0000*4E
$GPGSA,A,3,31,30,20,23,32,,,,,,,,1.9,1.7,1.0*3E
$GPRMC,214455.000,A,3352.3010,N,09832.4170,W,0.34,4.24,310312,,,D*7A
$GPGGA,214456.000,3352.3020,N,09832.4173,W,2,05,1.7,298.6,M,-23.7,M,0.8,0000*41
$GPGSA,A,3,31,30,20,23,32,,,,,,,,1.9,1.7,1.0*3E
$GPRMC,214456.000,A,3352.3020,N,09832.4173,W,0.55,349.17,310312,,,D*74
$GPGGA,214457.000,3352.3031,N,09832.4177,W,2,05,1.7,300.6,M,-23.7,M,0.8,0000*44
$GPGSA,A,3,31,30,20,23,32,,,,,,,,1.9,1.7,1.0*3E
$GPRMC,214457.000,A,3352.3031,N,09832.4177,W,0.62,350.16,310312,,,D*7C
$GPGGA,214458.000,3352.3038,N,09832.4177,W,2,05,1.7,303.0,M,-23.7,M,0.8,0000*47
$GPGSA,A,3,31,30,20,23,32,,,,,,,,1.9,1.7,1.0*3E
$GPRMC,214458.000,A,3352.3038,N,09832.4177,W,0.38,29.61,310312,,,D*48
$GPGGA,214459.000,3352.3048,N,09832.4180,W,2,05,1.7,305.4,M,-23.7,M,0.8,0000*4B
$GPGSA,A,3,31,30,20,23,32,,,,,,,,1.9,1.7,1.0*3E
$GPGSV,3,1,12,30,68,093,36,32,67,212,31,16,57,159,,20,56,274,34*76
$GPGSV,3,2,12,23,34,311,26,31,33,046,38,14,09,105,29,06,07,146,22*70
$GPGSV,3,3,12,01,07,230,32,13,07,299,,03,05,160,26,29,01,051,*70
$GPRMC,214459.000,A,3352.3048,N,09832.4180,W,0.66,350.66,310312,,,D*77
$GPGGA,214500.000,3352.3056,N,09832.4181,W,2,05,1.7,307.8,M,-23.7,M,0.8,0000*46
$GPGSA,A,3,31,30,20,23,32,,,,,,,,1.9,1.7,1.0*3E
$GPRMC,214500.000,A,3352.3056,N,09832.4181,W,0.73,346.46,310312,,,D*75
$GPGGA,214501.000,3352.3064,N,09832.4182,W,2,05,1.7,310.2,M,-23.7,M,0.8,0000*49
$GPGSA,A,3,31,30,20,23,32,,,,,,,,1.9,1.7,1.0*3E
$GPRMC,214501.000,A,3352.3064,N,09832.4182,W,0.53,3.82,310312,,,D*7E
$GPGGA,214502.000,3352.3072,N,09832.4183,W,2,05,1.7,312.5,M,-23.7,M,1.8,0000*48
$GPGSA,A,3,31,30,20,23,32,,,,,,,,1.9,1.7,1.0*3E
$GPRMC,214502.000,A,3352.3072,N,09832.4183,W,0.53,0.80,310312,,,D*7A
$GPGGA,214503.000,3352.3084,N,09832.4187,W,2,05,1.7,315.1,M,-23.7,M,0.8,0000*46
$GPGSA,A,3,31,30,20,23,32,,,,,,,,1.9,1.7,1.0*3E
$GPRMC,214503.000,A,3352.3084,N,09832.4187,W,0.84,345.34,310312,,,D*71
$GPGGA,214504.000,3352.3092,N,09832.4189,W,2,05,1.7,317.4,M,-23.7,M,0.8,0000*4F
$GPGSA,A,3,31,30,20,23,32,,,,,,,,1.9,1.7,1.0*3E
$GPGSV,3,1,12,30,68,093,36,32,67,212,31,16,57,159,,20,56,274,33*71
$GPGSV,3,2,12,23,34,311,25,31,33,046,38,14,09,105,28,06,07,146,21*71
$GPGSV,3,3,12,01,07,230,32,13,07,299,,03,05,160,27,29,01,051,*71
$GPRMC,214504.000,A,3352.3092,N,09832.4189,W,0.60,355.34,310312,,,D*74
$GPGGA,214505.000,3352.3101,N,09832.4190,W,2,05,1.7,319.8,M,-23.7,M,0.8,0000*4F
$GPGSA,A,3,31,30,20,23,32,,,,,,,,1.9,1.7,1.0*3E
$GPRMC,214505.000,A,3352.3101,N,09832.4190,W,0.71,352.18,310312,,,D*7F
$GPGGA,214506.000,3352.3109,N,09832.4192,W,2,05,1.7,322.1,M,-23.7,M,1.8,0000*46
$GPGSA,A,3,31,30,20,23,32,,,,,,,,1.9,1.7,1.0*3E
$GPRMC,214506.000,A,3352.3109,N,09832.4192,W,0.63,354.70,310312,,,D*7D
$GPGGA,214507.000,3352.3117,N,09832.4193,W,2,05,1.7,324.3,M,-23.7,M,2.8,0000*4E
$GPGSA,A,3,31,30,20,23,32,,,,,,,,1.9,1.7,1.0*3E
$GPRMC,214507.000,A,3352.3117,N,09832.4193,W,0.54,5.44,310312,,,D*76
$GPGGA,214508.000,3352.3124,N,09832.4194,W,2,05,1.7,326.4,M,-23.7,M,3.8,0000*42
$GPGSA,A,3,31,30,20,23,32,,,,,,,,1.9,1.7,1.0*3E
$GPRMC,214508.000,A,3352.3124,N,09832.4194,W,0.58,355.49,310312,,,D*79
$GPGGA,214509.000,3352.3131,N,09832.4195,W,2,05,1.7,328.5,M,-23.7,M,0.8,0000*4A
$GPGSA,A,3,31,30,20,23,32,,,,,,,,1.9,1.7,1.0*3E
$GPGSV,3,1,12,30,68,093,36,32,67,212,30,16,57,159,,20,56,274,33*70
$GPGSV,3,2,12,23,34,311,25,31,33,046,38,14,09,105,28,06,07,146,16*75
$GPGSV,3,3,12,01,07,230,33,13,07,299,,03,05,160,27,29,01,051,*70
$GPRMC,214509.000,A,3352.3131,N,09832.4195,W,0.54,4.74,310312,,,D*78
$GPGGA,214510.000,3352.3137,N,09832.4196,W,2,05,1.7,330.5,M,-23.7,M,0.8,0000*4E
$GPGSA,A,3,31,30,20,23,32,,,,,,,,1.9,1.7,1.0*3E
$GPRMC,214510.000,A,3352.3137,N,09832.4196,W,0.52,5.00,310312,,,D*71
$GPGGA,214511.000,3352.3143,N,09832.4196,W,2,05,1.7,332.4,M,-23.7,M,0.8,0000*4F
$GPGSA,A,3,31,30,20,23,32,,,,,,,,1.9,1.7,1.0*3E
$GPRMC,214511.000,A,3352.3143,N,09832.4196,W,0.47,4.42,310312,,,D*70
$GPGGA,214512.000,3352.3148,N,09832.4196,W,2,05,1.7,334.3,M,-23.7,M,1.8,0000*47
$GPGSA,A,3,31,30,20,23,32,,,,,,,,1.9,1.7,1.0*3E
$GPRMC,214512.000,A,3352.3148,N,09832.4196,W,0.44,0.69,310312,,,D*76
$GPGGA,214513.000,3352.3152,N,09832.4195,W,2,05,1.7,336.1,M,-23.7,M,2.8,0000*4D
$GPGSA,A,3,31,30,20,23,32,,,,,,,,1.9,1.7,1.0*3E
$GPRMC,214513.000,A,3352.3152,N,09832.4195,W,0.45,2.29,310312,,,D*78
$GPGGA,214514.000,3352.3157,N,09832.4195,W,2,05,1.7,338.0,M,-23.7,M,3.8,0000*41
$GPGSA,A,3,31,30,20,23,32,,,,,,,,1.9,1.7,1.0*3E
$GPGSV,3,1,12,30,68,093,36,32,67,212,30,16,57,159,,20,56,274,33*70
$GPGSV,3,2,12,23,34,311,26,31,33,046,38,14,09,105,28,06,07,146,15*75
$GPGSV,3,3,12,01,07,230,33,13,07,299,,03,05,160,27,29,01,051,*70
$GPRMC,214514.000,A,3352.3157,N,09832.4195,W,0.42,0.26,310312,,,D*70
$GPGGA,214515.000,3352.3158,N,09832.4194,W,2,06,2.2,339.1,M,-23.7,M,0.8,0000*48
$GPGSA,A,3,31,16,30,20,23,32,,,,,,,5.5,2.2,5.1*32
$GPRMC,214515.000,A,3352.3158,N,09832.4194,W,0.62,354.98,310312,,,D*7A
$GPGGA,214516.000,3352.3158,N,09832.4193,W,2,06,2.2,340.1,M,-23.7,M,0.8,0000*42
$GPGSA,A,3,31,16,30,20,23,32,,,,,,,5.5,2.2,5.1*32
$GPRMC,214516.000,A,3352.3158,N,09832.4193,W,0.26,9.61,310312,,,D*73
$GPGGA,214517.000,3352.3158,N,09832.4191,W,2,06,2.2,341.0,M,-23.7,M,0.8,0000*41
$GPGSA,A,3,31,16,30,20,23,32,,,,,,,5.5,2.2,5.1*32
$GPRMC,214517.000,A,3352.3158,N,09832.4191,W,0.18,43.13,310312,,,D*46
$GPGGA,214518.000,3352.3154,N,09832.4189,W,2,06,2.2,341.0,M,-23.7,M,0.8,0000*4B
$GPGSA,A,3,31,16,30,20,23,32,,,,,,,5.5,2.2,5.1*32
$GPRMC,214518.000,A,3352.3154,N,09832.4189,W,0.21,32.48,310312,,,D*4E
$GPGGA,214519.000,3352.3154,N,09832.4187,W,2,06,2.2,341.9,M,-23.7,M,1.8,0000*4C
$GPGSA,A,3,31,16,30,20,23,32,,,,,,,5.5,2.2,5.1*32
$GPGSV,3,1,12,30,68,093,36,32,67,212,29,16,57,159,23,20,56,274,34*7E
$GPGSV,3,2,12,23,34,311,27,31,33,046,38,14,09,105,29,06,07,146,13*73
$GPGSV,3,3,12,01,07,230,33,13,07,299,,03,05,160,26,29,01,051,*71
$GPRMC,214519.000,A,3352.3154,N,09832.4187,W,0.17,62.80,310312,,,D*45
$GPGGA,214520.000,3352.3155,N,09832.4186,W,2,06,2.2,343.2,M,-23.7,M,2.8,0000*4C
$GPGSA,A,3,31,16,30,20,23,32,,,,,,,5.5,2.2,5.1*32
$GPRMC,214520.000,A,3352.3155,N,09832.4186,W,0.44,3.44,310312,,,D*76
$GPGGA,214521.000,3352.3157,N,09832.4184,W,2,06,2.2,344.4,M,-23.7,M,0.8,0000*4E
$GPGSA,A,3,31,16,30,20,23,32,,,,,,,5.5,2.2,5.1*32
$GPRMC,214521.000,A,3352.3157,N,09832.4184,W,0.36,14.82,310312,,,D*4E
$GPGGA,214522.000,3352.3158,N,09832.4182,W,2,06,2.2,345.8,M,-23.7,M,1.8,0000*48
$GPGSA,A,3,31,16,30,20,23,32,,,,,,,5.5,2.2,5.1*32
$GPRMC,214522.000,A,3352.3158,N,09832.4182,W,0.29,28.34,310312,,,D*48
$GPGGA,214523.000,3352.3161,N,09832.4182,W,2,06,2.2,347.0,M,-23.7,M,0.8,0000*48
$GPGSA,A,3,31,16,30,20,23,32,,,,,,,5.5,2.2,5.1*32
$GPRMC,214523.000,A,3352.3161,N,09832.4182,W,0.60,358.30,310312,,,D*7E
$GPGGA,214524.000,3352.3163,N,09832.4182,W,2,06,2.2,348.0,M,-23.7,M,1.8,0000*43
$GPGSA,A,3,31,16,30,20,23,32,,,,,,,5.5,2.2,5.1*32
$GPGSV,3,1,12,30,68,093,36,32,67,212,28,16,57,159,22,20,56,274,34*7E
$GPGSV,3,2,12,23,34,311,26,31,33,046,38,14,09,105,29,06,07,146,22*70
$GPGSV,3,3,12,01,07,230,32,13,07,299,,03,05,160,26,29,01,051,*70
$GPRMC,214524.000,A,3352.3163,N,09832.4182,W,0.34,4.81,310312,,,D*7A
$GPGGA,214525.000,3352.3166,N,09832.4182,W,2,06,2.2,349.5,M,-23.7,M,2.8,0000*40
$GPGSA,A,3,31,16,30,20,23,32,,,,,,,5.5,2.2,5.1*32
$GPRMC,214525.000,A,3352.3166,N,09832.4182,W,0.74,353.45,310312,,,D*73
$GPGGA,214526.000,3352.3167,N,09832.4179,W,2,05,1.7,350.8,M,-23.7,M,3.8,0000*47
$GPGSA,A,3,31,30,20,23,32,,,,,,,,1.9,1.7,1.0*3E
$GPRMC,214526.000,A,3352.3167,N,09832.4179,W,0.30,25.07,310312,,,D*41
$GPGGA,214527.000,3352.3169,N,09832.4178,W,2,05,1.7,352.1,M,-23.7,M,0.8,0000*41
$GPGSA,A,3,31,30,20,23,32,,,,,,,,1.9,1.7,1.0*3E
$GPRMC,214527.000,A,3352.3169,N,09832.4178,W,0.30,20.17,310312,,,D*4B
$GPGGA,214528.000,3352.3171,N,09832.4177,W,2,05,1.7,353.4,M,-23.7,M,0.8,0000*4C
$GPGSA,A,3,31,30,20,23,32,,,,,,,,1.9,1.7,1.0*3E
$GPRMC,214528.000,A,3352.3171,N,09832.4177,W,0.39,1.30,310312,,,D*7D
$GPGGA,214529.000,3352.3172,N,09832.4176,W,2,05,1.7,354.6,M,-23.7,M,0.8,0000*4A
$GPGSA,A,3,31,30,20,23,32,,,,,,,,1.9,1.7,1.0*3E
$GPGSV,3,1,12,30,68,093,36,32,67,212,28,16,57,159,,20,56,274,34*7E
$GPGSV,3,2,12,23,34,311,26,31,33,046,38,14,09,105,29,06,07,146,24*76
$GPGSV,3,3,12,01,07,230,32,13,07,299,,03,05,160,26,29,01,051,*70
$GPRMC,214529.000,A,3352.3172,N,09832.4176,W,0.34,16.44,310312,,,D*46
$GPGGA,214530.000,3352.3173,N,09832.4174,W,2,05,1.7,355.8,M,-23.7,M,0.8,0000*4E
$GPGSA,A,3,31,30,20,23,32,,,,,,,,1.9,1.7,1.0*3E
$GPRMC,214530.000,A,3352.3173,N,09832.4174,W,0.31,18.23,310312,,,D*47
$GPGGA,214531.000,3352.3168,N,09832.4171,W,2,06,2.2,355.4,M,-23.7,M,1.8,0000*48
$GPGSA,A,3,31,16,30,20,23,32,,,,,,,5.5,2.2,5.1*32
$GPRMC,214531.000,A,3352.3168,N,09832.4171,W,0.45,8.77,310312,,,D*7A
$GPGGA,214532.000,3352.3165,N,09832.4168,W,2,06,2.2,355.7,M,-23.7,M,2.8,0000*4E
$GPGSA,A,3,31,16,30,20,23,32,,,,,,,5.5,2.2,5.1*32
$GPRMC,214532.000,A,3352.3165,N,09832.4168,W,0.15,57.52,310312,,,D*44
$GPGGA,214533.000,3352.3141,N,09832.4162,W,2,06,2.2,350.0,M,-23.7,M,0.8,0000*43
$GPGSA,A,3,31,16,30,20,23,32,,,,,,,5.5,2.2,5.1*32
$GPRMC,214533.000,A,3352.3141,N,09832.4162,W,0.32,131.78,310312,,,D*75
$GPGGA,214534.000,3352.3123,N,09832.4157,W,2,06,2.2,345.6,M,-23.7,M,0.8,0000*44
$GPGSA,A,3,31,16,30,20,23,32,,,,,,,5.5,2.2,5.1*32
$GPGSV,3,1,12,30,68,093,36,32,67,212,27,16,57,159,25,20,56,274,35*77
$GPGSV,3,2,12,23,34,311,26,31,33,046,38,14,09,105,30,06,07,146,24*7E
$GPGSV,3,3,12,01,07,230,32,13,07,299,,03,05,160,26,29,01,051,*70
$GPRMC,214534.000,A,3352.3123,N,09832.4157,W,0.37,144.77,310312,,,D*78
$GPGGA,214535.000,3352.3109,N,09832.4153,W,2,06,2.2,342.4,M,-23.7,M,0.8,0000*4C
$GPGSA,A,3,31,16,30,20,23,32,,,,,,,5.5,2.2,5.1*32
$GPRMC,214535.000,A,3352.3109,N,09832.4153,W,0.29,157.20,310312,,,D*7A
$GPGGA,214536.000,3352.3113,N,09832.4154,W,2,06,2.2,343.5,M,-23.7,M,1.8,0000*42
$GPGSA,A,3,31,16,30,20,23,32,,,,,,,5.6,2.2,5.1*31
$GPRMC,214536.000,A,3352.3113,N,09832.4154,W,0.18,129.73,310312,,,D*78
$GPGGA,214537.000,3352.3112,N,09832.4153,W,2,06,2.2,343.3,M,-23.7,M,2.8,0000*40
$GPGSA,A,3,31,16,30,20,23,32,,,,,,,5.6,2.2,5.1*31
$GPRMC,214537.000,A,3352.3112,N,09832.4153,W,0.20,311.93,310312,,,D*73
$GPGGA,214538.000,3352.3105,N,09832.4151,W,2,06,2.2,341.3,M,-23.7,M,0.8,0000*4B
$GPGSA,A,3,31,16,30,20,23,32,,,,,,,5.6,2.2,5.1*31
$GPRMC,214538.000,A,3352.3105,N,09832.4151,W,0.37,156.71,310312,,,D*73
$GPGGA,214539.000,3352.3097,N,09832.4149,W,2,06,2.2,339.8,M,-23.7,M,0.8,0000*4D
$GPGSA,A,3,31,16,30,20,23,32,,,,,,,5.6,2.2,5.1*31
$GPGSV,3,1,12,30,68,093,36,32,67,212,27,16,57,159,24,20,56,274,35*76
$GPGSV,3,2,12,23,34,311,25,31,33,046,38,14,09,105,30,06,07,146,24*7D
$GPGSV,3,3,12,01,07,230,32,13,07,299,,03,05,160,25,29,01,051,*73
$GPRMC,214539.000,A,3352.3097,N,09832.4149,W,0.71,157.91,310312,,,D*7C
$GPGGA,214540.000,3352.3084,N,09832.4147,W,2,06,2.2,337.2,M,-23.7,M,0.8,0000*4B
$GPGSA,A,3,31,16,30,20,23,32,,,,,,,5.6,2.2,5.1*31
$GPRMC,214540.000,A,3352.3084,N,09832.4147,W,1.34,159.91,310312,,,D*70
$GPGGA,214541.000,3352.3070,N,09832.4144,W,2,06,2.2,333.2,M,-23.7,M,0.8,0000*46
$GPGSA,A,3,31,16,30,20,23,32,,,,,,,5.6,2.2,5.1*31
$GPRMC,214541.000,A,3352.3070,N,09832.4144,W,1.17,160.84,310312,,,D*76
$GPGGA,214542.000,3352.3065,N,09832.4143,W,2,06,2.2,332.2,M,-23.7,M,1.8,0000*46
$GPGSA,A,3,31,16,30,20,23,32,,,,,,,5.6,2.2,5.1*31
$GPRMC,214542.000,A,3352.3065,N,09832.4143,W,0.70,166.99,310312,,,D*7C
$GPGGA,214543.000,3352.3066,N,09832.4143,W,2,06,2.2,332.1,M,-23.7,M,2.8,0000*44
$GPGSA,A,3,31,16,30,20,23,32,,,,,,,5.6,2.2,5.1*31
$GPRMC,214543.000,A,3352.3066,N,09832.4143,W,0.35,174.35,310312,,,D*7A
$GPGGA,214544.000,3352.3066,N,09832.4143,W,2,06,2.2,332.0,M,-23.7,M,3.8,0000*43
$GPGSA,A,3,31,16,30,20,23,32,,,,,,,5.6,2.2,5.1*31
$GPGSV,3,1,12,30,68,093,36,32,67,212,26,16,57,159,23,20,56,274,35*70
$GPGSV,3,2,12,23,34,311,25,31,33,046,38,14,09,105,29,06,07,146,24*75
$GPGSV,3,3,12,01,07,230,32,13,07,299,,03,05,160,24,29,01,051,*72
$GPRMC,214544.000,A,3352.3066,N,09832.4143,W,0.71,167.65,310312,,,D*7A
$GPGGA,214545.000,3352.3066,N,09832.4143,W,2,06,2.2,331.7,M,-23.7,M,0.8,0000*45
$GPGSA,A,3,31,16,30,20,23,32,,,,,,,5.6,2.2,5.1*31
$GPRMC,214545.000,A,3352.3066,N,09832.4143,W,0.49,170.59,310312,,,D*79
$GPGGA,214546.000,3352.3064,N,09832.4145,W,2,06,2.2,330.5,M,-23.7,M,0.8,0000*41
$GPGSA,A,3,31,16,30,20,23,32,,,,,,,5.6,2.2,5.1*31
$GPRMC,214546.000,A,3352.3064,N,09832.4145,W,0.90,164.20,310312,,,D*71
$GPGGA,214547.000,3352.3064,N,09832.4149,W,2,06,2.2,328.9,M,-23.7,M,0.8,0000*49
$GPGSA,A,3,31,16,30,20,23,32,,,,,,,5.6,2.2,5.1*31
$GPRMC,214547.000,A,3352.3064,N,09832.4149,W,0.29,219.56,310312,,,D*76
$GPGGA,214548.000,3352.3058,N,09832.4152,W,2,06,2.2,325.7,M,-23.7,M,0.8,0000*40
$GPGSA,A,3,31,16,30,20,23,32,,,,,,,5.6,2.2,5.1*31
$GPRMC,214548.000,A,3352.3058,N,09832.4152,W,0.29,208.01,310312,,,D*7E
$GPGGA,214549.000,3352.3057,N,09832.4152,W,2,06,2.2,325.6,M,-23.7,M,0.8,0000*4F
$GPGSA,A,3,31,16,30,20,23,32,,,,,,,5.6,2.2,5.1*31
$GPGSV,3,1,12,30,68,093,36,32,67,212,26,16,57,159,26,20,56,274,35*75
$GPGSV,3,2,12,23,34,311,24,31,33,046,38,14,09,105,29,06,07,146,25*75
$GPGSV,3,3,12,01,07,230,32,13,07,299,,03,05,160,23,29,01,051,*75
$GPRMC,214549.000,A,3352.3057,N,09832.4152,W,0.73,172.16,310312,,,D*77
$GPGGA,214550.000,3352.3058,N,09832.4152,W,2,06,2.2,326.2,M,-23.7,M,1.8,0000*4E
$GPGSA,A,3,31,16,30,20,23,32,,,,,,,5.6,2.2,5.1*31
$GPRMC,214550.000,A,3352.3058,N,09832.4152,W,0.80,165.11,310312,,,D*7D
$GPGGA,214551.000,3352.3054,N,09832.4153,W,2,06,2.2,325.5,M,-23.7,M,0.8,0000*47
$GPGSA,A,3,31,16,30,20,23,32,,,,,,,5.6,2.2,5.1*31
$GPRMC,214551.000,A,3352.3054,N,09832.4153,W,0.47,193.68,310312,,,D*7D
$GPGGA,214552.000,3352.3051,N,09832.4153,W,2,06,2.2,324.8,M,-23.7,M,0.8,0000*4D
$GPGSA,A,3,31,16,30,20,23,32,,,,,,,5.6,2.2,5.1*31
$GPRMC,214552.000,A,3352.3051,N,09832.4153,W,0.62,175.34,310312,,,D*7D
$GPGGA,214553.000,3352.3048,N,09832.4153,W,2,06,2.2,324.4,M,-23.7,M,0.8,0000*48
$GPGSA,A,3,31,16,30,20,23,32,,,,,,,5.6,2.2,5.1*31
$GPRMC,214553.000,A,3352.3048,N,09832.4153,W,0.68,163.58,310312,,,D*73
$GPGGA,214554.000,3352.3046,N,09832.4153,W,2,06,2.2,324.0,M,-23.7,M,1.8,0000*44
$GPGSA,A,3,31,16,30,20,23,32,,,,,,,5.6,2.2,5.1*31
$GPGSV,3,1,12,30,68,093,36,32,67,212,26,16,57,159,27,20,56,274,35*74
$GPGSV,3,2,12,23,34,311,24,31,33,046,38,14,09,105,29,06,07,146,26*76
$GPGSV,3,3,12,01,07,230,31,13,07,299,,03,05,160,23,29,01,051,*76
$GPRMC,214554.000,A,3352.3046,N,09832.4153,W,0.40,190.69,310312,,,D*7E
$GPGGA,214555.000,3352.3044,N,09832.4153,W,2,06,2.2,323.6,M,-23.7,M,0.8,0000*47
$GPGSA,A,3,31,16,30,20,23,32,,,,,,,5.6,2.2,5.1*31
$GPRMC,214555.000,A,3352.3044,N,09832.4153,W,0.54,167.81,310312,,,D*76
$GPGGA,214556.000,3352.3039,N,09832.4153,W,2,06,2.2,322.4,M,-23.7,M,0.8,0000*4D
$GPGSA,A,3,31,16,30,20,23,32,,,,,,,5.6,2.2,5.1*31
$GPRMC,214556.000,A,3352.3039,N,09832.4153,W,0.37,197.35,310312,,,D*7A
$GPGGA,214557.000,3352.3034,N,09832.4153,W,2,06,2.2,320.9,M,-23.7,M,0.8,0000*4E
$GPGSA,A,3,31,16,30,20,23,32,,,,,,,5.6,2.2,5.1*31
$GPRMC,214557.000,A,3352.3034,N,09832.4153,W,0.33,219.28,310312,,,D*7B
$GPGGA,214558.000,3352.3034,N,09832.4156,W,2,06,2.2,319.1,M,-23.7,M,1.8,0000*47
$GPGSA,A,3,31,16,30,20,23,32,,,,,,,5.6,2.2,5.1*31
$GPRMC,214558.000,A,3352.3034,N,09832.4156,W,0.46,177.46,310312,,,D*70
$GPGGA,214559.000,3352.3033,N,09832.4159,W,2,06,2.2,317.3,M,-23.7,M,0.8,0000*43
$GPGSA,A,3,31,16,30,20,23,32,,,,,,,5.6,2.2,5.1*31
$GPGSV,3,1,12,30,68,093,35,32,67,212,26,16,57,159,26,20,56,274,35*76
$GPGSV,3,2,12,23,34,311,23,31,33,046,38,14,09,105,29,06,07,146,26*71
$GPGSV,3,3,12,01,07,230,31,13,07,299,,03,05,160,24,29,01,051,*71
$GPRMC,214559.000,A,3352.3033,N,09832.4159,W,0.73,173.73,310312,,,D*7D
$GPGGA,214600.000,3352.3034,N,09832.4163,W,2,06,2.2,315.6,M,-23.7,M,1.8,0000*44
$GPGSA,A,3,31,16,30,20,23,32,,,,,,,5.6,2.2,5.1*31
$GPRMC,214600.000,A,3352.3034,N,09832.4163,W,0.72,174.02,310312,,,D*7C
$GPGGA,214601.000,3352.3036,N,09832.4165,W,2,06,2.2,314.6,M,-23.7,M,0.8,0000*41
$GPGSA,A,3,31,16,30,20,23,32,,,,,,,5.6,2.2,5.1*31
$GPRMC,214601.000,A,3352.3036,N,09832.4165,W,0.39,216.77,310312,,,D*73
$GPGGA,214602.000,3352.3036,N,09832.4167,W,2,06,2.2,313.7,M,-23.7,M,0.8,0000*46
$GPGSA,A,3,31,16,30,20,23,32,,,,,,,5.6,2.2,5.1*31
$GPRMC,214602.000,A,3352.3036,N,09832.4167,W,0.39,208.94,310312,,,D*70
$GPGGA,214603.000,3352.3036,N,09832.4169,W,2,06,2.2,312.9,M,-23.7,M,0.8,0000*46
$GPGSA,A,3,31,16,30,20,23,32,,,,,,,5.6,2.2,5.1*31
$GPRMC,214603.000,A,3352.3036,N,09832.4169,W,0.43,231.10,310312,,,D*74
$GPGGA,214604.000,3352.3030,N,09832.4167,W,2,06,2.2,311.0,M,-23.7,M,0.8,0000*43
$GPGSA,A,3,31,16,30,20,23,32,,,,,,,5.6,2.2,5.1*31
$GPGSV,3,1,12,30,68,093,35,32,67,212,26,16,57,159,25,20,56,274,35*75
$GPGSV,3,2,12,23,34,311,23,31,33,046,38,14,09,105,29,06,07,146,25*72
$GPGSV,3,3,12,01,07,230,30,13,07,299,,03,05,160,25,29,01,051,*71
$GPRMC,214604.000,A,3352.3030,N,09832.4167,W,0.57,185.57,310312,,,D*71
$GPGGA,214605.000,3352.3023,N,09832.4165,W,2,06,2.2,309.1,M,-23.7,M,0.8,0000*4A
$GPGSA,A,3,31,16,30,20,23,32,,,,,,,5.6,2.2,5.1*31
$GPRMC,214605.000,A,3352.3023,N,09832.4165,W,0.61,186.23,310312,,,D*75
$GPGGA,214606.000,3352.3016,N,09832.4163,W,2,06,2.2,306.9,M,-23.7,M,1.8,0000*4F
$GPGSA,A,3,31,16,30,20,23,32,,,,,,,5.6,2.2,5.1*31
$GPRMC,214606.000,A,3352.3016,N,09832.4163,W,0.91,165.67,310312,,,D*74
$GPGGA,214607.000,3352.3018,N,09832.4162,W,2,06,2.2,307.7,M,-23.7,M,2.8,0000*4D
$GPGSA,A,3,31,16,30,20,23,32,,,,,,,5.6,2.2,5.1*31
$GPRMC,214607.000,A,3352.3018,N,09832.4162,W,0.59,180.23,310312,,,D*75
$GPGGA,214608.000,3352.3022,N,09832.4161,W,2,06,2.2,309.1,M,-23.7,M,3.8,0000*41
$GPGSA,A,3,31,16,30,20,23,32,,,,,,,5.6,2.2,5.1*31
$GPRMC,214608.000,A,3352.3022,N,09832.4161,W,0.65,161.75,310312,,,D*73
$GPGGA,214609.000,3352.3013,N,09832.4158,W,2,06,2.2,306.4,M,-23.7,M,0.8,0000*41
$GPGSA,A,3,31,16,30,20,23,32,,,,,,,5.6,2.2,5.1*31
$GPGSV,3,1,12,30,68,093,35,32,67,212,26,16,57,159,26,20,56,274,35*76
$GPGSV,3,2,12,23,34,311,23,31,33,046,39,14,09,105,29,06,07,146,25*73
$GPGSV,3,3,12,01,07,230,30,13,07,299,,03,05,160,26,29,01,051,*72
$GPRMC,214609.000,A,3352.3013,N,09832.4158,W,0.71,168.64,310312,,,D*76
$GPGGA,214610.000,3352.3016,N,09832.4157,W,2,06,2.2,307.5,M,-23.7,M,0.8,0000*43
$GPGSA,A,3,31,16,30,20,23,32,,,,,,,5.6,2.2,5.2*32
$GPRMC,214610.000,A,3352.3016,N,09832.4157,W,0.48,174.12,310312,,,D*72
$GPGGA,214611.000,3352.3021,N,09832.4157,W,2,06,2.2,308.9,M,-23.7,M,0.8,0000*45
$GPGSA,A,3,31,16,30,20,23,32,,,,,,,5.6,2.2,5.2*32
$GPRMC,214611.000,A,3352.3021,N,09832.4157,W,0.24,243.90,310312,,,D*70
$GPGGA,214612.000,3352.3026,N,09832.4157,W,2,06,2.2,310.3,M,-23.7,M,1.8,0000*43
$GPGSA,A,3,31,16,30,20,23,32,,,,,,,5.6,2.2,5.2*32
$GPRMC,214612.000,A,3352.3026,N,09832.4157,W,0.19,247.07,310312,,,D*70
$GPGGA,214613.000,3352.3021,N,09832.4156,W,2,06,2.2,308.9,M,-23.7,M,2.8,0000*44
$GPGSA,A,3,31,16,30,20,23,32,,,,,,,5.6,2.2,5.2*32
$GPRMC,214613.000,A,3352.3021,N,09832.4156,W,0.51,167.26,310312,,,D*79
$GPGGA,214614.000,3352.3016,N,09832.4153,W,2,06,2.2,307.7,M,-23.7,M,3.8,0000*42
$GPGSA,A,3,31,16,30,20,23,32,,,,,,,5.6,2.2,5.2*32
$GPGSV,3,1,12,30,68,093,35,32,67,212,26,16,57,159,25,20,56,274,35*75
$GPGSV,3,2,12,23,34,311,22,31,33,046,39,14,09,105,29,06,07,146,25*72
$GPGSV,3,3,12,01,07,230,30,13,07,299,,03,05,160,27,29,01,051,*73
$GPRMC,214614.000,A,3352.3016,N,09832.4153,W,0.69,158.55,310312,,,D*7C
$GPGGA,214615.000,3352.3017,N,09832.4154,W,2,06,2.2,307.8,M,-23.7,M,0.8,0000*49
$GPGSA,A,3,31,16,30,20,23,32,,,,,,,5.6,2.2,5.2*32
$GPRMC,214615.000,A,3352.3017,N,09832.4154,W,0.44,179.19,310312,,,D*7F
$GPGGA,214616.000,3352.3021,N,09832.4155,W,2,06,2.2,308.6,M,-23.7,M,0.8,0000*4F
$GPGSA,A,3,31,16,30,20,23,32,,,,,,,5.6,2.2,5.2*32
$GPRMC,214616.000,A,3352.3021,N,09832.4155,W,0.33,281.46,310312,,,D*76
$GPGGA,214617.000,3352.3027,N,09832.4157,W,2,06,2.2,309.8,M,-23.7,M,0.8,0000*45
$GPGSA,A,3,31,16,30,20,23,32,,,,,,,5.6,2.2,5.2*32
$GPRMC,214617.000,A,3352.3027,N,09832.4157,W,0.51,315.95,310312,,,D*75
$GPGGA,214618.000,3352.3034,N,09832.4159,W,2,06,2.2,311.2,M,-23.7,M,0.8,0000*45
$GPGSA,A,3,31,16,30,20,23,32,,,,,,,5.6,2.2,5.2*32
$GPRMC,214618.000,A,3352.3034,N,09832.4159,W,0.62,324.56,310312,,,D*7B
$GPGGA,214619.000,3352.3040,N,09832.4161,W,2,06,2.2,312.1,M,-23.7,M,1.8,0000*4D
$GPGSA,A,3,31,16,30,20,23,32,,,,,,,5.6,2.2,5.2*32
$GPGSV,3,1,12,30,68,093,35,32,67,212,26,16,57,159,23,20,56,274,35*73
$GPGSV,3,2,12,23,34,311,21,31,33,046,39,14,09,105,29,06,07,146,26*72
$GPGSV,3,3,12,01,07,230,29,13,07,299,,03,05,160,27,29,01,051,*7B
$GPRMC,214619.000,A,3352.3040,N,09832.4161,W,0.49,335.43,310312,,,D*7F
$GPGGA,214620.000,3352.3039,N,09832.4160,W,2,06,2.2,312.1,M,-23.7,M,2.8,0000*4B
$GPGSA,A,3,31,16,30,20,23,32,,,,,,,5.6,2.2,5.2*32
$GPRMC,214620.000,A,3352.3039,N,09832.4160,W,0.44,150.69,310312,,,D*7E
$GPGGA,214621.000,3352.3043,N,09832.4159,W,2,06,2.2,313.9,M,-23.7,M,0.8,0000*46
$GPGSA,A,3,31,16,30,20,23,32,,,,,,,5.6,2.2,5.2*32
$GPRMC,214621.000,A,3352.3043,N,09832.4159,W,0.12,359.97,310312,,,D*71
$GPGGA,214622.000,3352.3046,N,09832.4158,W,2,06,2.2,315.1,M,-23.7,M,0.8,0000*4F
$GPGSA,A,3,31,16,30,20,23,32,,,,,,,5.6,2.2,5.2*32
$GPRMC,214622.000,A,3352.3046,N,09832.4158,W,0.16,90.09,310312,,,D*43
$GPGGA,214623.000,3352.3048,N,09832.4158,W,2,06,2.2,316.5,M,-23.7,M,0.8,0000*47
$GPGSA,A,3,31,16,30,20,23,32,,,,,,,5.6,2.2,5.2*32
$GPRMC,214623.000,A,3352.3048,N,09832.4158,W,0.22,109.76,310312,,,D*72
$GPGGA,214624.000,3352.3052,N,09832.4158,W,2,06,2.2,318.5,M,-23.7,M,1.8,0000*44
$GPGSA,A,3,31,16,30,20,23,32,,,,,,,5.6,2.2,5.2*32
$GPGSV,3,1,12,30,68,093,35,32,67,212,26,16,57,159,31,20,56,274,36*73
$GPGSV,3,2,12,23,34,311,21,31,33,046,39,14,09,105,29,06,07,146,27*73
$GPGSV,3,3,12,01,07,230,28,13,07,299,,03,05,160,29,29,01,051,*74
$GPRMC,214624.000,A,3352.3052,N,09832.4158,W,0.24,83.97,310312,,,D*44
$GPGGA,214625.000,3352.3057,N,09832.4158,W,2,06,2.2,320.4,M,-23.7,M,0.8,0000*4B
$GPGSA,A,3,31,16,30,20,23,32,,,,,,,5.6,2.2,5.2*32
$GPRMC,214625.000,A,3352.3057,N,09832.4158,W,0.38,347.99,310312,,,D*78
$GPGGA,214626.000,3352.3061,N,09832.4159,W,2,06,2.2,322.3,M,-23.7,M,1.8,0000*48
$GPGSA,A,3,31,16,30,20,23,32,,,,,,,5.6,2.2,5.2*32
$GPRMC,214626.000,A,3352.3061,N,09832.4159,W,0.34,4.52,310312,,,D*70
$GPGGA,214627.000,3352.3065,N,09832.4160,W,2,06,2.2,324.1,M,-23.7,M,0.8,0000*42
$GPGSA,A,3,31,16,30,20,23,32,,,,,,,5.6,2.2,5.2*32
$GPRMC,214627.000,A,3352.3065,N,09832.4160,W,0.27,33.29,310312,,,D*45
$GPGGA,214628.000,3352.3069,N,09832.4160,W,2,06,2.2,325.7,M,-23.7,M,0.8,0000*46
$GPGSA,A,3,31,16,30,20,23,32,,,,,,,5.6,2.2,5.2*32
$GPRMC,214628.000,A,3352.3069,N,09832.4160,W,0.40,358.56,310312,,,D*71
$GPGGA,214629.000,3352.3072,N,09832.4160,W,2,06,2.2,327.3,M,-23.7,M,0.8,0000*4B
$GPGSA,A,3,31,16,30,20,23,32,,,,,,,5.6,2.2,5.2*32
$GPGSV,3,1,12,30,68,093,35,32,67,212,27,16,57,159,30,20,56,274,36*73
$GPGSV,3,2,12,23,34,311,21,31,33,046,39,14,09,105,28,06,07,146,27*72
$GPGSV,3,3,12,01,07,230,28,13,07,299,,03,05,160,30,29,01,051,*7C
$GPRMC,214629.000,A,3352.3072,N,09832.4160,W,0.31,22.78,310312,,,D*4E
$GPGGA,214630.000,3352.3074,N,09832.4160,W,2,06,2.2,328.6,M,-23.7,M,1.8,0000*4E
$GPGSA,A,3,31,16,30,20,23,32,,,,,,,5.6,2.2,5.2*32
$GPRMC,214630.000,A,3352.3074,N,09832.4160,W,0.30,47.05,310312,,,D*48
$GPGGA,214631.000,3352.3074,N,09832.4159,W,2,06,2.2,329.6,M,-23.7,M,2.8,0000*47
$GPGSA,A,3,31,16,30,20,23,32,,,,,,,5.6,2.2,5.2*32
$GPRMC,214631.000,A,3352.3074,N,09832.4159,W,0.32,66.50,310312,,,D*42
$GPGGA,214632.000,3352.3075,N,09832.4158,W,2,06,2.2,329.9,M,-23.7,M,3.8,0000*4A
$GPGSA,A,3,31,16,30,20,23,32,,,,,,,5.6,2.2,5.2*32
$GPRMC,214632.000,A,3352.3075,N,09832.4158,W,0.47,358.13,310312,,,D*7A
$GPGGA,214633.000,3352.3079,N,09832.4160,W,2,06,2.2,330.3,M,-23.7,M,0.8,0000*4D
$GPGSA,A,3,31,16,30,20,23,32,,,,,,,5.6,2.2,5.2*32
$GPRMC,214633.000,A,3352.3079,N,09832.4160,W,1.12,342.96,310312,,,D*7B
$GPGGA,214634.000,3352.3082,N,09832.4161,W,2,06,2.2,330.8,M,-23.7,M,0.8,0000*44
$GPGSA,A,3,31,16,30,20,23,32,,,,,,,5.6,2.2,5.2*32
$GPGSV,3,1,12,30,68,093,35,32,67,212,27,16,57,159,24,20,56,274,36*76
$GPGSV,3,2,12,23,34,311,20,31,33,046,39,14,09,105,28,06,07,146,27*73
$GPGSV,3,3,12,01,07,230,27,13,07,299,,03,05,160,30,29,01,051,*73
$GPRMC,214634.000,A,3352.3082,N,09832.4161,W,0.76,347.19,310312,,,D*78
$GPGGA,214635.000,3352.3086,N,09832.4162,W,2,06,2.2,331.2,M,-23.7,M,0.8,0000*49
$GPGSA,A,3,31,16,30,20,23,32,,,,,,,5.6,2.2,5.2*32
$GPRMC,214635.000,A,3352.3086,N,09832.4162,W,0.59,356.77,310312,,,D*7B
$GPGGA,214636.000,3352.3088,N,09832.4162,W,2,06,2.2,331.5,M,-23.7,M,0.8,0000*43
$GPGSA,A,3,31,16,30,20,23,32,,,,,,,5.6,2.2,5.2*32
$GPRMC,214636.000,A,3352.3088,N,09832.4162,W,0.49,22.51,310312,,,D*43
$GPGGA,214637.000,3352.3090,N,09832.4165,W,2,06,2.2,330.6,M,-23.7,M,0.8,0000*4E
$GPGSA,A,3,31,16,30,20,23,32,,,,,,,5.6,2.2,5.2*32
$GPRMC,214637.000,A,3352.3090,N,09832.4165,W,0.35,38.00,310312,,,D*48
$GPGGA,214638.000,3352.3092,N,09832.4166,W,2,06,2.2,329.9,M,-23.7,M,1.8,0000*46
$GPGSA,A,3,31,16,30,20,23,32,,,,,,,5.6,2.2,5.2*32
$GPRMC,214638.000,A,3352.3092,N,09832.4166,W,0.31,34.50,310312,,,D*4B
$GPGGA,214639.000,3352.3094,N,09832.4169,W,2,06,2.2,329.2,M,-23.7,M,0.8,0000*44
$GPGSA,A,3,31,16,30,20,23,32,,,,,,,5.6,2.2,5.2*32
$GPGSV,3,1,12,30,68,093,35,32,67,212,27,16,57,159,25,20,56,274,36*77
$GPGSV,3,2,12,23,34,311,21,31,33,046,39,14,09,105,27,06,07,146,26*7C
$GPGSV,3,3,12,01,07,230,25,13,07,299,,03,05,160,30,29,01,051,*71
$GPRMC,214639.000,A,3352.3094,N,09832.4169,W,0.34,359.21,310312,,,D*78
$GPGGA,214640.000,3352.3094,N,09832.4170,W,2,06,2.2,328.5,M,-23.7,M,0.8,0000*44
$GPGSA,A,3,31,16,30,20,23,32,,,,,,,5.6,2.2,5.2*32
$GPRMC,214640.000,A,3352.3094,N,09832.4170,W,0.19,55.73,310312,,,D*49
$GPGGA,214641.000,3352.3095,N,09832.4172,W,2,06,2.2,327.8,M,-23.7,M,0.8,0000*44
$GPGSA,A,3,31,16,30,20,23,32,,,,,,,5.6,2.2,5.2*32
$GPRMC,214641.000,A,3352.3095,N,09832.4172,W,0.18,338.00,310312,,,D*76
$GPGGA,214642.000,3352.3094,N,09832.4173,W,2,06,2.2,327.0,M,-23.7,M,1.8,0000*4E
$GPGSA,A,3,31,16,30,20,23,32,,,,,,,5.7,2.2,5.2*33
$GPRMC,214642.000,A,3352.3094,N,09832.4173,W,0.08,125.99,310312,,,D*7A
$GPGGA,214643.000,3352.3094,N,09832.4174,W,2,06,2.2,326.7,M,-23.7,M,2.8,0000*4D
$GPGSA,A,3,31,16,30,20,23,32,,,,,,,5.7,2.2,5.2*33
$GPRMC,214643.000,A,3352.3094,N,09832.4174,W,0.23,314.36,310312,,,D*70
$GPGGA,214644.000,3352.3092,N,09832.4174,W,2,06,2.2,326.0,M,-23.7,M,3.8,0000*4A
$GPGSA,A,3,31,16,30,20,23,32,,,,,,,5.7,2.2,5.2*33
$GPGSV,3,1,12,30,68,093,34,32,67,212,26,16,57,159,26,20,56,274,37*75
$GPGSV,3,2,12,23,34,311,22,31,33,046,40,14,09,105,27,06,07,146,26*71
$GPGSV,3,3,12,01,07,230,21,13,07,299,,03,05,160,31,29,01,051,*74
$GPRMC,214644.000,A,3352.3092,N,09832.4174,W,0.16,140.14,310312,,,D*74
$GPGGA,214645.000,3352.3087,N,09832.4171,W,2,06,2.2,325.4,M,-23.7,M,0.8,0000*4E
$GPGSA,A,3,31,16,30,20,23,32,,,,,,,5.7,2.2,5.2*33
$GPRMC,214645.000,A,3352.3087,N,09832.4171,W,0.43,137.52,310312,,,D*76
$GPGGA,214646.000,3352.3076,N,09832.4170,W,2,06,2.2,321.5,M,-23.7,M,0.8,0000*47
$GPGSA,A,3,31,16,30,20,23,32,,,,,,,5.7,2.2,5.2*33
$GPRMC,214646.000,A,3352.3076,N,09832.4170,W,0.32,161.62,310312,,,D*7C
$GPGGA,214647.000,3352.3079,N,09832.4172,W,2,06,2.2,321.6,M,-23.7,M,0.8,0000*48
$GPGSA,A,3,31,16,30,20,23,32,,,,,,,5.7,2.2,5.2*33
$GPRMC,214647.000,A,3352.3079,N,09832.4172,W,0.19,164.63,310312,,,D*7D
$GPGGA,214648.000,3352.3085,N,09832.4172,W,2,05,4.2,323.4,M,-23.7,M,1.8,0000*40
$GPGSA,A,3,31,30,20,23,32,,,,,,,,9.5,4.2,8.5*36
$GPRMC,214648.000,A,3352.3085,N,09832.4172,W,0.54,329.00,310312,,,D*76
$GPGGA,214649.000,3352.3088,N,09832.4173,W,2,06,2.2,324.4,M,-23.7,M,2.8,0000*4C
$GPGSA,A,3,31,16,30,20,23,32,,,,,,,5.7,2.2,5.2*33
$GPGSV,3,1,12,30,68,093,34,32,67,212,26,16,57,159,19,20,56,274,37*79
$GPGSV,3,2,12,23,34,311,24,31,33,046,40,14,09,105,27,06,07,146,27*76
$GPGSV,3,3,12,01,07,230,21,13,07,299,,03,05,160,31,29,01,051,*74
$GPRMC,214649.000,A,3352.3088,N,09832.4173,W,0.15,1.69,310312,,,D*78
$GPGGA,214650.000,3352.3090,N,09832.4170,W,2,06,2.2,326.0,M,-23.7,M,0.8,0000*4A
$GPGSA,A,3,31,16,30,20,23,32,,,,,,,5.7,2.2,5.2*33
$GPRMC,214650.000,A,3352.3090,N,09832.4170,W,0.32,138.17,310312,,,D*7D
$GPGGA,214651.000,3352.3090,N,09832.4166,W,2,06,2.2,327.9,M,-23.7,M,1.8,0000*45
$GPGSA,A,3,31,16,30,20,23,32,,,,,,,5.7,2.2,5.2*33
$GPRMC,214651.000,A,3352.3090,N,09832.4166,W,0.48,140.91,310312,,,D*77
$GPGGA,214652.000,3352.3090,N,09832.4163,W,2,06,2.2,329.4,M,-23.7,M,0.8,0000*41
$GPGSA,A,3,31,16,30,20,23,32,,,,,,,5.7,2.2,5.2*33
$GPRMC,214652.000,A,3352.3090,N,09832.4163,W,0.46,141.25,310312,,,D*71
$GPGGA,214653.000,3352.3091,N,09832.4161,W,2,06,2.2,331.2,M,-23.7,M,0.8,0000*4C
$GPGSA,A,3,31,16,30,20,23,32,,,,,,,5.7,2.2,5.2*33
$GPRMC,214653.000,A,3352.3091,N,09832.4161,W,0.19,33.55,310312,,,D*4A
$GPGGA,214654.000,3352.3093,N,09832.4158,W,2,06,2.2,333.0,M,-23.7,M,1.8,0000*42
$GPGSA,A,3,31,16,30,20,23,32,,,,,,,5.7,2.2,5.2*33
$GPGSV,3,1,12,30,68,093,34,32,67,212,26,16,57,159,20,20,56,274,37*73
$GPGSV,3,2,12,23,34,311,25,31,33,046,40,14,09,105,28,06,07,146,26*79
$GPGSV,3,3,12,01,07,230,21,13,07,299,,03,05,160,32,29,01,051,*77
$GPRMC,214654.000,A,3352.3093,N,09832.4158,W,0.41,9.56,310312,,,D*72
$GPGGA,214655.000,3352.3094,N,09832.4156,W,2,06,2.2,334.5,M,-23.7,M,2.8,0000*4B
$GPGSA,A,3,31,16,30,20,23,32,,,,,,,5.7,2.2,5.2*33
$GPRMC,214655.000,A,3352.3094,N,09832.4156,W,0.27,26.40,310312,,,D*40
$GPGGA,214656.000,3352.3092,N,09832.4153,W,2,06,2.2,335.2,M,-23.7,M,3.8,0000*4C
$GPGSA,A,3,31,16,30,20,23,32,,,,,,,5.7,2.2,5.2*33
$GPRMC,214656.000,A,3352.3092,N,09832.4153,W,0.29,24.93,310312,,,D*42
$GPGGA,214657.000,3352.3079,N,09832.4149,W,2,06,2.2,332.4,M,-23.7,M,0.8,0000*41
$GPGSA,A,3,31,16,30,20,23,32,,,,,,,5.7,2.2,5.2*33
$GPRMC,214657.000,A,3352.3079,N,09832.4149,W,0.16,96.92,310312,,,D*49
$GPGGA,214658.000,3352.3070,N,09832.4145,W,2,06,2.2,330.6,M,-23.7,M,1.8,0000*4A
$GPGSA,A,3,31,16,30,20,23,32,,,,,,,5.7,2.2,5.2*33
$GPRMC,214658.000,A,3352.3070,N,09832.4145,W,0.18,114.37,310312,,,D*79
$GPGGA,214659.000,3352.3064,N,09832.4144,W,2,06,2.2,329.1,M,-23.7,M,0.8,0000*41
$GPGSA,A,3,31,16,30,20,23,32,,,,,,,5.7,2.2,5.2*33
$GPGSV,3,1,12,30,68,093,34,32,67,212,27,16,57,159,26,20,56,274,37*74
$GPGSV,3,2,12,23,34,311,26,31,33,046,40,14,09,105,28,06,07,146,27*7B
$GPGSV,3,3,12,01,07,230,21,13,07,299,,03,05,160,32,29,01,051,*77
$GPRMC,214659.000,A,3352.3064,N,09832.4144,W,0.08,52.24,310312,,,D*4C
$GPGGA,214700.000,3352.3061,N,09832.4143,W,2,06,2.2,328.1,M,-23.7,M,1.8,0000*4E
$GPGSA,A,3,31,16,30,20,23,32,,,,,,,5.7,2.2,5.2*33
$GPRMC,214700.000,A,3352.3061,N,09832.4143,W,0.07,87.98,310312,,,D*43
$GPGGA,214701.000,3352.3056,N,09832.4142,W,2,06,2.2,327.2,M,-23.7,M,2.8,0000*45
$GPGSA,A,3,31,16,30,20,23,32,,,,,,,5.7,2.2,5.2*33
$GPRMC,214701.000,A,3352.3056,N,09832.4142,W,0.05,108.15,310312,,,D*76
$GPGGA,214702.000,3352.3054,N,09832.4142,W,2,06,2.2,326.3,M,-23.7,M,3.8,0000*45
$GPGSA,A,3,31,16,30,20,23,32,,,,,,,5.7,2.2,5.2*33
$GPRMC,214702.000,A,3352.3054,N,09832.4142,W,0.17,139.50,310312,,,D*77
$GPGGA,214703.000,3352.3056,N,09832.4144,W,2,06,2.2,326.2,M,-23.7,M,0.8,0000*42
$GPGSA,A,3,31,16,30,20,23,32,,,,,,,5.7,2.2,5.2*33
$GPRMC,214703.000,A,3352.3056,N,09832.4144,W,0.13,330.00,310312,,,D*78
$GPGGA,214704.000,3352.3058,N,09832.4146,W,2,06,2.2,326.0,M,-23.7,M,0.8,0000*4B
$GPGSA,A,3,31,16,30,20,23,32,,,,,,,5.7,2.2,5.2*33
$GPGSV,3,1,12,30,68,089,34,32,66,210,27,16,58,158,26,20,56,271,37*77
$GPGSV,3,2,12,23,35,312,26,31,32,047,40,14,08,106,28,06,08,145,26*76
$GPGSV,3,3,12,13,08,300,,01,06,229,21,03,06,159,32,29,01,050,*78
$GPRMC,214704.000,A,3352.3058,N,09832.4146,W,0.11,180.98,310312,,,D*79
$GPGGA,214705.000,3352.3061,N,09832.4148,W,2,06,2.2,326.2,M,-23.7,M,0.8,0000*4C
$GPGSA,A,3,31,16,30,20,23,32,,,,,,,5.7,2.2,5.2*33
$GPRMC,214705.000,A,3352.3061,N,09832.4148,W,0.13,328.44,310312,,,D*7F
$GPGGA,214706.000,3352.3063,N,09832.4150,W,2,06,2.2,326.4,M,-23.7,M,0.8,0000*42
$GPGSA,A,3,31,16,30,20,23,32,,,,,,,5.7,2.2,5.2*33
$GPRMC,214706.000,A,3352.3063,N,09832.4150,W,0.24,171.03,310312,,,D*7E
$GPGGA,214707.000,3352.3065,N,09832.4151,W,2,06,2.2,326.8,M,-23.7,M,1.8,0000*49
$GPGSA,A,3,31,16,30,20,23,32,,,,,,,5.7,2.2,5.2*33
$GPRMC,214707.000,A,3352.3065,N,09832.4151,W,0.07,158.47,310312,,,D*72
$GPGGA,214708.000,3352.3067,N,09832.4151,W,2,06,2.2,327.3,M,-23.7,M,0.8,0000*4F
$GPGSA,A,3,31,16,30,20,23,32,,,,,,,5.7,2.2,5.2*33
$GPRMC,214708.000,A,3352.3067,N,09832.4151,W,0.03,144.31,310312,,,D*77
$GPGGA,214709.000,3352.3066,N,09832.4151,W,2,06,2.2,327.1,M,-23.7,M,0.8,0000*4D
$GPGSA,A,3,31,16,30,20,23,32,,,,,,,5.7,2.2,5.2*33
$GPGSV,3,1,12,30,68,089,34,32,66,210,27,16,58,158,25,20,56,271,37*74
$GPGSV,3,2,12,23,35,312,27,31,32,047,40,14,08,106,28,06,08,145,25*74
$GPGSV,3,3,12,13,08,300,,01,06,229,21,03,06,159,32,29,01,050,*78
$GPRMC,214709.000,A,3352.3066,N,09832.4151,W,0.13,140.23,310312,,,D*71
$GPGGA,214710.000,3352.3059,N,09832.4150,W,2,06,2.2,325.3,M,-23.7,M,0.8,0000*48
$GPGSA,A,3,31,16,30,20,23,32,,,,,,,5.7,2.2,5.2*33
$GPRMC,214710.000,A,3352.3059,N,09832.4150,W,0.14,159.01,310312,,,D*7B
$GPGGA,214711.000,3352.3047,N,09832.4148,W,2,06,2.2,321.8,M,-23.7,M,0.8,0000*40
$GPGSA,A,3,31,16,30,20,23,32,,,,,,,5.7,2.2,5.2*33
$GPRMC,214711.000,A,3352.3047,N,09832.4148,W,0.27,167.84,310312,,,D*7C
$GPGGA,214712.000,3352.3040,N,09832.4147,W,2,06,2.2,319.5,M,-23.7,M,1.8,0000*4C
$GPGSA,A,3,31,16,30,20,23,32,,,,,,,5.7,2.2,5.2*33
$GPRMC,214712.000,A,3352.3040,N,09832.4147,W,0.30,173.14,310312,,,D*7D
$GPGGA,214713.000,3352.3036,N,09832.4146,W,2,06,2.2,318.1,M,-23.7,M,2.8,0000*4B
$GPGSA,A,3,31,16,30,20,23,32,,,,,,,5.7,2.2,5.2*33
$GPRMC,214713.000,A,3352.3036,N,09832.4146,W,0.27,175.07,310312,,,D*7E
$GPGGA,214714.000,3352.3034,N,09832.4146,W,2,06,2.2,317.4,M,-23.7,M,0.8,0000*46
$GPGSA,A,3,31,16,30,20,23,32,,,,,,,5.7,2.2,5.2*33
$GPGSV,3,1,12,30,68,089,34,32,66,210,27,16,58,158,27,20,56,271,37*76
$GPGSV,3,2,12,23,35,312,27,31,32,047,40,14,08,106,28,06,08,145,25*74
$GPGSV,3,3,12,13,08,300,,01,06,229,22,03,06,159,32,29,01,050,*7B
$GPRMC,214714.000,A,3352.3034,N,09832.4146,W,0.30,176.76,310312,,,D*78
$GPGGA,214715.000,3352.3033,N,09832.4146,W,2,06,2.2,317.0,M,-23.7,M,0.8,0000*44
$GPGSA,A,3,31,16,30,20,23,32,,,,,,,5.7,2.2,5.2*33
$GPRMC,214715.000,A,3352.3033,N,09832.4146,W,0.30,184.12,310312,,,D*71
$GPGGA,214716.000,3352.3030,N,09832.4146,W,2,06,2.2,316.6,M,-23.7,M,0.8,0000*43
$GPGSA,A,3,31,16,30,20,23,32,,,,,,,5.7,2.2,5.2*33
$GPRMC,214716.000,A,3352.3030,N,09832.4146,W,0.36,181.83,310312,,,D*7A
$GPGGA,214717.000,3352.3028,N,09832.4146,W,2,06,2.2,316.5,M,-23.7,M,0.8,0000*48
$GPGSA,A,3,31,16,30,20,23,32,,,,,,,5.7,2.2,5.2*33
$GPRMC,214717.000,A,3352.3028,N,09832.4146,W,0.42,178.49,310312,,,D*71
$GPGGA,214718.000,3352.3027,N,09832.4146,W,2,06,2.2,316.6,M,-23.7,M,1.8,0000*4A
$GPGSA,A,3,31,16,30,20,23,32,,,,,,,5.7,2.2,5.2*33
$GPRMC,214718.000,A,3352.3027,N,09832.4146,W,0.40,177.44,310312,,,D*71
$GPGGA,214719.000,3352.3028,N,09832.4147,W,2,06,2.2,316.8,M,-23.7,M,2.8,0000*48
$GPGSA,A,3,31,16,30,20,23,32,,,,,,,5.7,2.2,5.2*33
$GPGSV,3,1,12,30,68,089,33,32,66,210,27,16,58,158,27,20,56,271,37*71
$GPGSV,3,2,12,23,35,312,27,31,32,047,40,14,08,106,28,06,08,145,25*74
$GPGSV,3,3,12,13,08,300,,01,06,229,22,03,06,159,32,29,01,050,*7B
$GPRMC,214719.000,A,3352.3028,N,09832.4147,W,0.28,179.52,310312,,,D*79
$GPGGA,214720.000,3352.3036,N,09832.4148,W,2,06,2.2,319.1,M,-23.7,M,3.8,0000*45
$GPGSA,A,3,31,16,30,20,23,32,,,,,,,5.7,2.2,5.2*33
$GPRMC,214720.000,A,3352.3036,N,09832.4148,W,0.09,203.86,310312,,,D*77
$GPGGA,214721.000,3352.3041,N,09832.4148,W,2,06,2.2,320.6,M,-23.7,M,0.8,0000*4A
$GPGSA,A,3,31,16,30,20,23,32,,,,,,,5.7,2.2,5.2*33
$GPRMC,214721.000,A,3352.3041,N,09832.4148,W,0.25,164.21,310312,,,D*77
$GPGGA,214722.000,3352.3038,N,09832.4148,W,2,06,2.2,319.8,M,-23.7,M,1.8,0000*42
$GPGSA,A,3,31,16,30,20,23,32,,,,,,,5.7,2.2,5.2*33
$GPRMC,214722.000,A,3352.3038,N,09832.4148,W,0.51,162.81,310312,,,D*75
$GPGGA,214723.000,3352.3039,N,09832.4148,W,2,06,2.2,320.1,M,-23.7,M,0.8,0000*40
$GPGSA,A,3,31,16,30,20,23,32,,,,,,,5.7,2.2,5.2*33
$GPRMC,214723.000,A,3352.3039,N,09832.4148,W,0.01,267.15,310312,,,D*7B
$GPGGA,214724.000,3352.3042,N,09832.4148,W,2,06,2.2,320.5,M,-23.7,M,1.8,0000*4E
$GPGSA,A,3,31,16,30,20,23,32,,,,,,,5.7,2.2,5.2*33
$GPGSV,3,1,12,30,68,089,34,32,66,210,27,16,58,158,21,20,56,271,37*70
$GPGSV,3,2,12,23,35,312,27,31,32,047,40,14,08,106,29,06,08,145,24*74
$GPGSV,3,3,12,13,08,300,,01,06,229,,03,06,159,33,29,01,050,*7A
$GPRMC,214724.000,A,3352.3042,N,09832.4148,W,0.27,342.35,310312,,,D*70
$GPGGA,214725.000,3352.3046,N,09832.4149,W,2,06,2.2,321.4,M,-23.7,M,0.8,0000*4B
$GPGSA,A,3,31,16,30,20,23,32,,,,,,,5.7,2.2,5.2*33
$GPRMC,214725.000,A,3352.3046,N,09832.4149,W,0.45,340.84,310312,,,D*78
$GPGGA,214726.000,3352.3048,N,09832.4150,W,2,06,2.2,322.0,M,-23.7,M,1.8,0000*48
$GPGSA,A,3,31,16,30,20,23,32,,,,,,,5.7,2.2,5.2*33
$GPRMC,214726.000,A,3352.3048,N,09832.4150,W,0.04,42.10,310312,,,D*44
$GPGGA,214727.000,3352.3052,N,09832.4151,W,2,06,2.2,322.9,M,-23.7,M,0.8,0000*4B
$GPGSA,A,3,31,16,30,20,23,32,,,,,,,5.7,2.2,5.2*33
$GPRMC,214727.000,A,3352.3052,N,09832.4151,W,0.16,345.03,310312,,,D*7A
$GPGGA,214728.000,3352.3054,N,09832.4151,W,2,06,2.2,323.6,M,-23.7,M,0.8,0000*4C
$GPGSA,A,3,31,16,30,20,23,32,,,,,,,5.7,2.2,5.2*33
$GPRMC,214728.000,A,3352.3054,N,09832.4151,W,0.10,148.99,310312,,,D*79
$GPGGA,214729.000,3352.3056,N,09832.4151,W,2,06,2.2,324.4,M,-23.7,M,0.8,0000*4A
$GPGSA,A,3,31,16,30,20,23,32,,,,,,,5.7,2.2,5.2*33
$GPGSV,3,1,12,30,68,089,34,32,66,210,27,16,58,158,20,20,56,271,37*71
$GPGSV,3,2,12,23,35,312,27,31,32,047,39,14,08,106,29,06,08,145,23*7D
$GPGSV,3,3,12,13,08,300,,01,06,229,,03,06,159,33,29,01,050,*7A
$GPRMC,214729.000,A,3352.3056,N,09832.4151,W,0.36,158.16,310312,,,D*78
$GPGGA,214730.000,3352.3057,N,09832.4152,W,2,06,2.2,325.1,M,-23.7,M,1.8,0000*45
$GPGSA,A,3,31,16,30,20,23,32,,,,,,,5.7,2.2,5.2*33
$GPRMC,214730.000,A,3352.3057,N,09832.4152,W,0.42,156.81,310312,,,D*71
$GPGGA,214731.000,3352.3058,N,09832.4152,W,2,06,2.2,325.7,M,-23.7,M,2.8,0000*4E
$GPGSA,A,3,31,16,30,20,23,32,,,,,,,5.7,2.2,5.3*32
$GPRMC,214731.000,A,3352.3058,N,09832.4152,W,0.24,157.49,310312,,,D*7A
$GPGGA,214732.000,3352.3059,N,09832.4152,W,2,06,2.2,326.2,M,-23.7,M,3.8,0000*4B
$GPGSA,A,3,31,16,30,20,23,32,,,,,,,5.7,2.2,5.3*32
$GPRMC,214732.000,A,3352.3059,N,09832.4152,W,0.08,139.24,310312,,,D*75
$GPGGA,214733.000,3352.3058,N,09832.4153,W,2,06,2.2,325.5,M,-23.7,M,0.8,0000*4D
$GPGSA,A,3,31,16,30,20,23,32,,,,,,,5.7,2.2,5.3*32
$GPRMC,214733.000,A,3352.3058,N,09832.4153,W,0.20,346.73,310312,,,D*76
$GPGGA,214734.000,3352.3062,N,09832.4156,W,2,06,2.3,325.6,M,-23.7,M,0.8,0000*44
$GPGSA,A,3,31,16,30,20,23,32,,,,,,,5.7,2.3,5.3*33
$GPGSV,3,1,12,30,68,089,33,32,66,210,27,16,58,158,21,20,56,271,37*77
$GPGSV,3,2,12,23,35,312,26,31,32,047,39,14,08,106,29,06,08,145,19*75
$GPGSV,3,3,12,13,08,300,,01,06,229,23,03,06,159,33,29,01,050,*7B
$GPRMC,214734.000,A,3352.3062,N,09832.4156,W,0.06,4.14,310312,,,D*7D
$GPGGA,214735.000,3352.3069,N,09832.4162,W,2,06,2.3,325.3,M,-23.7,M,0.8,0000*4C
$GPGSA,A,3,31,16,30,20,23,32,,,,,,,5.7,2.3,5.3*33
$GPRMC,214735.000,A,3352.3069,N,09832.4162,W,0.31,338.94,310312,,,D*70
$GPGGA,214736.000,3352.3074,N,09832.4167,W,2,06,2.3,324.8,M,-23.7,M,1.8,0000*4D
$GPGSA,A,3,31,16,30,20,23,32,,,,,,,5.7,2.3,5.3*33
$GPRMC,214736.000,A,3352.3074,N,09832.4167,W,0.09,353.23,310312,,,D*70
$GPGGA,214737.000,3352.3079,N,09832.4171,W,2,06,2.3,324.5,M,-23.7,M,0.8,0000*4A
$GPGSA,A,3,31,16,30,20,23,32,,,,,,,5.7,2.3,5.3*33
$GPRMC,214737.000,A,3352.3079,N,09832.4171,W,0.01,175.60,310312,,,D*72
$GPGGA,214738.000,3352.3069,N,09832.4173,W,2,06,2.3,320.7,M,-23.7,M,0.8,0000*40
$GPGSA,A,3,31,16,30,20,23,32,,,,,,,5.7,2.3,5.3*33
$GPRMC,214738.000,A,3352.3069,N,09832.4173,W,0.10,204.70,310312,,,D*7A
$GPGGA,214739.000,3352.3064,N,09832.4175,W,2,06,2.3,318.3,M,-23.7,M,0.8,0000*45
$GPGSA,A,3,31,16,30,20,23,32,,,,,,,5.7,2.3,5.3*33
$GPGSV,3,1,12,30,68,089,33,32,66,210,26,16,58,158,22,20,56,271,37*75
$GPGSV,3,2,12,23,35,312,26,31,32,047,39,14,08,106,29,06,08,145,19*75
$GPGSV,3,3,12,13,08,300,,01,06,229,25,03,06,159,33,29,01,050,*7D
$GPRMC,214739.000,A,3352.3064,N,09832.4175,W,0.30,179.70,310312,,,D*7B
$GPGGA,214740.000,3352.3063,N,09832.4177,W,2,06,2.3,317.3,M,-23.7,M,0.8,0000*41
$GPGSA,A,3,31,16,30,20,23,32,,,,,,,5.7,2.3,5.3*33
$GPRMC,214740.000,A,3352.3063,N,09832.4177,W,0.52,176.35,310312,,,D*7A
$GPGGA,214741.000,3352.3063,N,09832.4179,W,2,06,2.3,316.5,M,-23.7,M,0.8,0000*49
$GPGSA,A,3,31,16,30,20,23,32,,,,,,,5.7,2.3,5.3*33
$GPRMC,214741.000,A,3352.3063,N,09832.4179,W,0.74,174.40,310312,,,D*71
$GPGGA,214742.000,3352.3060,N,09832.4179,W,2,06,2.3,316.2,M,-23.7,M,1.8,0000*4F
$GPGSA,A,3,31,16,30,20,23,32,,,,,,,5.7,2.3,5.3*33
$GPRMC,214742.000,A,3352.3060,N,09832.4179,W,0.78,175.26,310312,,,D*7C
$GPGGA,214743.000,3352.3052,N,09832.4177,W,2,06,2.3,314.6,M,-23.7,M,2.8,0000*44
$GPGSA,A,3,31,16,30,20,23,32,,,,,,,5.7,2.3,5.3*33
$GPRMC,214743.000,A,3352.3052,N,09832.4177,W,0.46,180.35,310312,,,D*77
$GPGGA,214744.000,3352.3050,N,09832.4177,W,2,06,2.3,314.6,M,-23.7,M,3.8,0000*40
$GPGSA,A,3,31,16,30,20,23,32,,,,,,,5.7,2.3,5.3*33
$GPGSV,3,1,12,30,68,089,33,32,66,210,25,16,58,158,23,20,56,271,37*77
$GPGSV,3,2,12,23,35,312,26,31,32,047,39,14,08,106,29,06,08,145,19*75
$GPGSV,3,3,12,13,08,300,,01,06,229,26,03,06,159,33,29,01,050,*7E
$GPRMC,214744.000,A,3352.3050,N,09832.4177,W,0.61,176.63,310312,,,D*7D
$GPGGA,214745.000,3352.3048,N,09832.4177,W,2,06,2.3,314.4,M,-23.7,M,0.8,0000*49
$GPGSA,A,3,31,16,30,20,23,32,,,,,,,5.7,2.3,5.3*33
$GPRMC,214745.000,A,3352.3048,N,09832.4177,W,0.44,181.27,310312,,,D*7A
$GPGGA,214746.000,3352.3048,N,09832.4177,W,2,06,2.3,314.8,M,-23.7,M,0.8,0000*46
$GPGSA,A,3,31,16,30,20,23,32,,,,,,,5.7,2.3,5.3*33
$GPRMC,214746.000,A,3352.3048,N,09832.4177,W,0.35,183.98,310312,,,D*79
$GPGGA,214747.000,3352.3051,N,09832.4177,W,2,06,2.3,315.3,M,-23.7,M,0.8,0000*45
$GPGSA,A,3,31,16,30,20,23,32,,,,,,,5.7,2.3,5.3*33
$GPRMC,214747.000,A,3352.3051,N,09832.4177,W,0.06,301.72,310312,,,D*7C
$GPGGA,214748.000,3352.3056,N,09832.4177,W,2,05,3.9,316.5,M,-23.7,M,0.8,0000*40
$GPGSA,A,3,31,30,20,23,32,,,,,,,,8.9,3.9,8.0*32
$GPRMC,214748.000,A,3352.3056,N,09832.4177,W,0.26,336.51,310312,,,D*73
$GPGGA,214749.000,3352.3061,N,09832.4178,W,2,05,3.9,317.9,M,-23.7,M,1.8,0000*46
$GPGSA,A,3,31,30,20,23,32,,,,,,,,8.9,3.9,8.0*32
$GPGSV,3,1,12,30,68,089,33,32,66,210,25,16,58,158,18,20,56,271,37*7F
$GPGSV,3,2,12,23,35,312,26,31,32,047,39,14,08,106,29,06,08,145,19*75
$GPGSV,3,3,12,13,08,300,,01,06,229,27,03,06,159,29,29,01,050,*74
$GPRMC,214749.000,A,3352.3061,N,09832.4178,W,0.22,343.09,310312,,,D*72
$GPGGA,214750.000,3352.3064,N,09832.4178,W,2,05,3.9,319.0,M,-23.7,M,2.8,0000*4F
$GPGSA,A,3,31,30,20,23,32,,,,,,,,8.9,3.9,7.9*34
$GPRMC,214750.000,A,3352.3064,N,09832.4178,W,0.18,145.98,310312,,,D*7A
$GPGGA,214751.000,3352.3067,N,09832.4178,W,2,05,3.9,320.1,M,-23.7,M,0.8,0000*44
$GPGSA,A,3,31,30,20,23,32,,,,,,,,8.9,3.9,7.9*34
$GPRMC,214751.000,A,3352.3067,N,09832.4178,W,0.35,157.34,310312,,,D*72
$GPGGA,214752.000,3352.3070,N,09832.4178,W,2,05,3.9,321.3,M,-23.7,M,0.8,0000*42
$GPGSA,A,3,31,30,20,23,32,,,,,,,,8.9,3.9,7.9*34
$GPRMC,214752.000,A,3352.3070,N,09832.4178,W,0.29,149.12,310312,,,D*71
$GPGGA,214753.000,3352.3080,N,09832.4181,W,2,05,3.9,323.2,M,-23.7,M,0.8,0000*49
$GPGSA,A,3,31,30,20,23,32,,,,,,,,8.8,3.9,7.9*35
$GPRMC,214753.000,A,3352.3080,N,09832.4181,W,0.14,309.10,310312,,,D*73
$GPGGA,214754.000,3352.3091,N,09832.4185,W,2,05,3.9,325.1,M,-23.7,M,1.8,0000*4E
$GPGSA,A,3,31,30,20,23,32,,,,,,,,8.8,3.9,7.9*35
$GPGSV,3,1,12,30,68,089,34,32,66,210,26,16,58,158,14,20,56,271,37*77
$GPGSV,3,2,12,23,35,312,26,31,32,047,39,14,08,106,29,06,08,145,13*7F
$GPGSV,3,3,12,13,08,300,,01,06,229,28,03,06,159,32,29,01,050,*71
$GPRMC,214754.000,A,3352.3091,N,09832.4185,W,0.47,332.89,310312,,,D*7E
$GPGGA,214755.000,3352.3101,N,09832.4187,W,2,05,3.9,327.6,M,-23.7,M,2.8,0000*43
$GPGSA,A,3,31,30,20,23,32,,,,,,,,8.8,3.9,7.9*35
$GPRMC,214755.000,A,3352.3101,N,09832.4187,W,0.35,352.05,310312,,,D*72
$GPGGA,214756.000,3352.3114,N,09832.4190,W,2,05,3.9,330.7,M,-23.7,M,0.8,0000*47
$GPGSA,A,3,31,30,20,23,32,,,,,,,,8.8,3.9,7.9*35
$GPRMC,214756.000,A,3352.3114,N,09832.4190,W,0.45,357.85,310312,,,D*79
$GPGGA,214757.000,3352.3127,N,09832.4192,W,2,05,3.9,333.9,M,-23.7,M,0.8,0000*49
$GPGSA,A,3,31,30,20,23,32,,,,,,,,8.8,3.9,7.9*35
$GPRMC,214757.000,A,3352.3127,N,09832.4192,W,0.56,3.07,310312,,,D*70
$GPGGA,214758.000,3352.3139,N,09832.4193,W,2,05,3.9,337.0,M,-23.7,M,0.8,0000*45
$GPGSA,A,3,31,30,20,23,32,,,,,,,,8.8,3.9,7.9*35
$GPRMC,214758.000,A,3352.3139,N,09832.4193,W,0.64,3.15,310312,,,D*73
$GPGGA,214759.000,3352.3149,N,09832.4195,W,2,05,3.9,339.8,M,-23.7,M,0.8,0000*43
$GPGSA,A,3,31,30,20,23,32,,,,,,,,8.8,3.9,7.9*35
$GPGSV,3,1,12,30,68,089,34,32,66,210,26,16,58,158,15,20,56,271,37*76
$GPGSV,3,2,12,23,35,312,26,31,32,047,39,14,08,106,28,06,08,145,*7C
$GPGSV,3,3,12,13,08,300,,01,06,229,28,03,06,159,33,29,01,050,*70
$GPRMC,214759.000,A,3352.3149,N,09832.4195,W,0.71,4.62,310312,,,D*70
$GPGGA,214800.000,3352.3158,N,09832.4196,W,2,05,3.9,342.4,M,-23.7,M,1.8,0000*42
$GPGSA,A,3,31,30,20,23,32,,,,,,,,8.8,3.9,7.9*35
$GPRMC,214800.000,A,3352.3158,N,09832.4196,W,0.66,8.95,310312,,,D*72
$GPGGA,214801.000,3352.3167,N,09832.4197,W,2,05,3.9,345.1,M,-23.7,M,2.8,0000*4F
$GPGSA,A,3,31,30,20,23,32,,,,,,,,8.8,3.9,7.9*35
$GPRMC,214801.000,A,3352.3167,N,09832.4197,W,0.95,1.89,310312,,,D*76
$GPGGA,214802.000,3352.3177,N,09832.4198,W,2,05,3.9,348.0,M,-23.7,M,3.8,0000*4F
$GPGSA,A,3,31,30,20,23,32,,,,,,,,8.8,3.9,7.8*34
$GPRMC,214802.000,A,3352.3177,N,09832.4198,W,1.35,356.17,310312,,,D*76
$GPGGA,214803.000,3352.3187,N,09832.4199,W,2,05,3.9,350.9,M,-23.7,M,0.8,0000*43
$GPGSA,A,3,31,30,20,23,32,,,,,,,,8.7,3.9,7.8*3B
$GPRMC,214803.000,A,3352.3187,N,09832.4199,W,1.47,355.58,310312,,,D*74
$GPGGA,214804.000,3352.3194,N,09832.4199,W,2,05,3.9,353.3,M,-23.7,M,0.8,0000*4F
$GPGSA,A,3,31,30,20,23,32,,,,,,,,8.7,3.9,7.8*3B
$GPGSV,3,1,12,30,68,089,33,32,66,210,26,16,58,158,18,20,56,271,37*7C
$GPGSV,3,2,12,23,35,312,27,31,32,047,39,14,08,106,27,06,08,145,*72
$GPGSV,3,3,12,13,08,300,,01,06,229,28,03,06,159,33,29,01,050,*70
$GPRMC,214804.000,A,3352.3194,N,09832.4199,W,1.24,359.03,310312,,,D*76
$GPGGA,214805.000,3352.3200,N,09832.4199,W,2,05,3.9,355.6,M,-23.7,M,0.8,0000*43
$GPGSA,A,3,31,30,20,23,32,,,,,,,,8.7,3.9,7.8*3B
$GPRMC,214805.000,A,3352.3200,N,09832.4199,W,1.04,5.41,310312,,,D*77
$GPGGA,214806.000,3352.3206,N,09832.4198,W,2,05,3.9,357.8,M,-23.7,M,1.8,0000*4A
$GPGSA,A,3,31,30,20,23,32,,,,,,,,8.7,3.9,7.8*3B
$GPRMC,214806.000,A,3352.3206,N,09832.4198,W,1.15,3.82,310312,,,D*7A
$GPGGA,214807.000,3352.3210,N,09832.4198,W,2,05,3.9,359.9,M,-23.7,M,2.8,0000*40
$GPGSA,A,3,31,30,20,23,32,,,,,,,,8.7,3.9,7.8*3B
$GPRMC,214807.000,A,3352.3210,N,09832.4198,W,1.04,6.87,310312,,,D*7C
$GPGGA,214808.000,3352.3213,N,09832.4196,W,2,05,3.9,361.6,M,-23.7,M,3.8,0000*47
$GPGSA,A,3,31,30,20,23,32,,,,,,,,8.7,3.9,7.8*3B
$GPRMC,214808.000,A,3352.3213,N,09832.4196,W,0.86,13.32,310312,,,D*4F
$GPGGA,214809.000,3352.3215,N,09832.4195,W,2,05,3.9,363.1,M,-23.7,M,0.8,0000*45
$GPGSA,A,3,31,30,20,23,32,,,,,,,,8.7,3.9,7.8*3B
$GPGSV,3,1,12,30,68,089,33,32,66,210,26,16,58,158,19,20,56,271,37*7D
$GPGSV,3,2,12,23,35,312,28,31,32,047,38,14,08,106,26,06,08,145,*7D
$GPGSV,3,3,12,13,08,300,,01,06,229,21,03,06,159,33,29,01,050,*79
$GPRMC,214809.000,A,3352.3215,N,09832.4195,W,0.80,17.08,310312,,,D*40
$GPGGA,214810.000,3352.3214,N,09832.4194,W,2,04,2.1,362.9,M,-23.7,M,0.8,0000*4C
$GPGSA,A,3,31,30,20,23,,,,,,,,,2.4,2.1,1.0*34
$GPRMC,214810.000,A,3352.3214,N,09832.4194,W,0.85,11.87,310312,,,D*4C
$GPGGA,214811.000,3352.3211,N,09832.4193,W,2,06,2.3,362.8,M,-23.7,M,0.8,0000*4E
$GPGSA,A,3,31,16,30,20,23,32,,,,,,,5.8,2.3,5.3*3C
$GPRMC,214811.000,A,3352.3211,N,09832.4193,W,0.85,2.18,310312,,,D*7B
$GPGGA,214812.000,3352.3206,N,09832.4192,W,2,06,2.3,362.2,M,-23.7,M,0.8,0000*40
$GPGSA,A,3,31,16,30,20,23,32,,,,,,,5.8,2.3,5.3*3C
$GPRMC,214812.000,A,3352.3206,N,09832.4192,W,0.36,23.31,310312,,,D*4F
$GPGGA,214813.000,3352.3196,N,09832.4190,W,2,06,2.3,360.0,M,-23.7,M,1.8,0000*48
$GPGSA,A,3,31,16,30,20,23,32,,,,,,,5.8,2.3,5.3*3C
$GPRMC,214813.000,A,3352.3196,N,09832.4190,W,0.63,7.24,310312,,,D*74
$GPGGA,214814.000,3352.3183,N,09832.4188,W,2,06,2.3,356.9,M,-23.7,M,0.8,0000*4F
$GPGSA,A,3,31,16,30,20,23,32,,,,,,,5.8,2.3,5.3*3C
$GPGSV,3,1,12,30,68,089,34,32,66,210,21,16,58,158,20,20,56,271,37*77
$GPGSV,3,2,12,23,35,312,29,31,32,047,38,14,08,106,26,06,08,145,*7C
$GPGSV,3,3,12,13,08,300,22,01,06,229,22,03,06,159,33,29,01,050,*7A
$GPRMC,214814.000,A,3352.3183,N,09832.4188,W,0.68,0.15,310312,,,D*70
$GPGGA,214815.000,3352.3179,N,09832.4187,W,2,06,2.3,356.1,M,-23.7,M,0.8,0000*4C
$GPGSA,A,3,31,16,30,20,23,32,,,,,,,5.8,2.3,5.3*3C
$GPRMC,214815.000,A,3352.3179,N,09832.4187,W,0.49,356.80,310312,,,D*74
$GPGGA,214816.000,3352.3171,N,09832.4186,W,2,06,2.3,354.7,M,-23.7,M,0.8,0000*42
$GPGSA,A,3,31,16,30,20,23,32,,,,,,,5.8,2.3,5.3*3C
$GPRMC,214816.000,A,3352.3171,N,09832.4186,W,0.27,28.88,310312,,,D*44
$GPGGA,214817.000,3352.3171,N,09832.4185,W,2,06,2.3,355.1,M,-23.7,M,0.8,0000*47
$GPGSA,A,3,31,16,30,20,23,32,,,,,,,5.8,2.3,5.3*3C
$GPRMC,214817.000,A,3352.3171,N,09832.4185,W,0.17,88.12,310312,,,D*4C
$GPGGA,214818.000,3352.3177,N,09832.4185,W,2,06,2.3,357.8,M,-23.7,M,1.8,0000*44
$GPGSA,A,3,31,16,30,20,23,32,,,,,,,5.8,2.3,5.3*3C
$GPRMC,214818.000,A,3352.3177,N,09832.4185,W,0.16,80.48,310312,,,D*43
$GPGGA,214819.000,3352.3175,N,09832.4183,W,2,06,2.3,357.8,M,-23.7,M,2.8,0000*42
$GPGSA,A,3,31,16,30,20,23,32,,,,,,,5.8,2.3,5.3*3C
$GPGSV,3,1,12,30,68,089,34,32,66,210,21,16,58,158,20,20,56,271,37*77
$GPGSV,3,2,12,23,35,312,30,31,32,047,38,14,08,106,25,06,08,145,16*70
$GPGSV,3,3,12,13,08,300,22,01,06,229,19,03,06,159,32,29,01,050,*73
$GPRMC,214819.000,A,3352.3175,N,09832.4183,W,0.30,39.45,310312,,,D*4D
$GPGGA,214820.000,3352.3172,N,09832.4183,W,2,06,2.3,357.6,M,-23.7,M,3.8,0000*40
$GPGSA,A,3,31,16,30,20,23,32,,,,,,,5.8,2.3,5.3*3C
$GPRMC,214820.000,A,3352.3172,N,09832.4183,W,0.60,7.25,310312,,,D*7E
$GPGGA,214821.000,3352.3165,N,09832.4181,W,2,06,2.3,355.9,M,-23.7,M,0.8,0000*4B
$GPGSA,A,3,31,16,30,20,23,32,,,,,,,5.8,2.3,5.3*3C
$GPRMC,214821.000,A,3352.3165,N,09832.4181,W,0.49,4.44,310312,,,D*74
$GPGGA,214822.000,3352.3167,N,09832.4180,W,2,05,3.8,356.5,M,-23.7,M,0.8,0000*4D
$GPGSA,A,3,31,30,20,23,32,,,,,,,,8.6,3.8,7.7*34
$GPRMC,214822.000,A,3352.3167,N,09832.4180,W,0.47,11.18,310312,,,D*47
$GPGGA,214823.000,3352.3171,N,09832.4180,W,2,05,3.8,357.5,M,-23.7,M,0.8,0000*4A
$GPGSA,A,3,31,30,20,23,32,,,,,,,,8.6,3.8,7.7*34
$GPRMC,214823.000,A,3352.3171,N,09832.4180,W,0.45,0.92,310312,,,D*71
$GPGGA,214824.000,3352.3178,N,09832.4180,W,2,05,3.8,358.9,M,-23.7,M,1.8,0000*46
$GPGSA,A,3,31,30,20,23,32,,,,,,,,8.6,3.8,7.7*34
$GPGSV,3,1,12,30,68,089,34,32,66,210,22,16,58,158,08,20,56,271,37*7E
$GPGSV,3,2,12,23,35,312,30,31,32,047,38,14,08,106,25,06,08,145,16*70
$GPGSV,3,3,12,13,08,300,22,01,06,229,19,03,06,159,32,29,01,050,*73
$GPRMC,214824.000,A,3352.3178,N,09832.4180,W,0.78,357.22,310312,,,D*7B
$GPGGA,214825.000,3352.3181,N,09832.4180,W,2,05,3.8,359.7,M,-23.7,M,0.8,0000*4F
$GPGSA,A,3,31,30,20,23,32,,,,,,,,8.5,3.8,7.7*37
$GPRMC,214825.000,A,3352.3181,N,09832.4180,W,0.44,2.07,310312,,,D*77
$GPGGA,214826.000,3352.3184,N,09832.4179,W,2,05,3.8,360.5,M,-23.7,M,0.8,0000*47
$GPGSA,A,3,31,30,20,23,32,,,,,,,,8.5,3.8,7.7*37
$GPRMC,214826.000,A,3352.3184,N,09832.4179,W,0.32,6.28,310312,,,D*7F
$GPGGA,214827.000,3352.3189,N,09832.4179,W,2,05,3.8,361.9,M,-23.7,M,0.8,0000*46
$GPGSA,A,3,31,30,20,23,32,,,,,,,,8.5,3.8,7.6*36
$GPRMC,214827.000,A,3352.3189,N,09832.4179,W,0.24,7.30,310312,,,D*7C
$GPGGA,214828.000,3352.3196,N,09832.4179,W,2,05,3.8,363.7,M,-23.7,M,0.8,0000*4B
$GPGSA,A,3,31,30,20,23,32,,,,,,,,8.5,3.8,7.6*36
$GPRMC,214828.000,A,3352.3196,N,09832.4179,W,0.75,358.57,310312,,,D*71
$GPGGA,214829.000,3352.3197,N,09832.4179,W,2,05,3.8,364.2,M,-23.7,M,0.8,0000*49
$GPGSA,A,3,31,30,20,23,32,,,,,,,,8.5,3.8,7.6*36
$GPGSV,3,1,12,30,68,089,34,32,66,210,22,16,58,158,,20,56,271,37*76
$GPGSV,3,2,12,23,35,312,30,31,32,047,38,14,08,106,26,06,08,145,16*73
$GPGSV,3,3,12,13,08,300,22,01,06,229,19,03,06,159,32,29,01,050,*73
$GPRMC,214829.000,A,3352.3197,N,09832.4179,W,0.30,19.28,310312,,,D*4E
$GPGGA,214830.000,3352.3193,N,09832.4178,W,2,05,3.8,363.6,M,-23.7,M,1.8,0000*46
$GPGSA,A,3,31,30,20,23,32,,,,,,,,8.5,3.8,7.6*36
$GPRMC,214830.000,A,3352.3193,N,09832.4178,W,0.18,36.59,310312,,,D*42
$GPGGA,214831.000,3352.3189,N,09832.4177,W,2,05,3.8,363.2,M,-23.7,M,2.8,0000*44
$GPGSA,A,3,31,30,20,23,32,,,,,,,,8.5,3.8,7.6*36
$GPRMC,214831.000,A,3352.3189,N,09832.4177,W,0.20,130.58,310312,,,D*7A
$GPGGA,214832.000,3352.3184,N,09832.4176,W,2,05,3.8,362.4,M,-23.7,M,3.8,0000*4D
$GPGSA,A,3,31,30,20,23,32,,,,,,,,8.5,3.8,7.6*36
$GPRMC,214832.000,A,3352.3184,N,09832.4176,W,0.14,105.20,310312,,,D*7B
$GPGGA,214833.000,3352.3172,N,09832.4175,W,2,05,3.8,359.7,M,-23.7,M,0.8,0000*4E
$GPGSA,A,3,31,30,20,23,32,,,,,,,,8.5,3.8,7.6*36
$GPRMC,214833.000,A,3352.3172,N,09832.4175,W,0.35,151.55,310312,,,D*70
$GPGGA,214834.000,3352.3168,N,09832.4174,W,2,05,3.8,358.8,M,-23.7,M,1.8,0000*4C
$GPGSA,A,3,31,30,20,23,32,,,,,,,,8.5,3.8,7.6*36
