$GPGGA,204105.000,3351.9985,N,09831.7344,W,2,09,0.9,297.8,M,-23.7,M,0.8,0000*48
$GPGSA,A,3,01,23,31,32,25,20,16,14,30,,,,1.6,0.9,1.4*3E
$GPRMC,204105.000,A,3351.9985,N,09831.7344,W,0.04,53.07,020412,,,D*45
$GPGGA,204106.000,3351.9985,N,09831.7345,W,2,09,0.9,297.9,M,-23.7,M,1.8,0000*4A
$GPGSA,A,3,01,23,31,32,25,20,16,14,30,,,,1.6,0.9,1.4*3E
$GPGSV,3,1,12,32,70,297,27,31,55,031,31,30,53,149,35,20,41,308,37*72
$GPGSV,3,2,12,16,29,171,32,14,25,083,31,01,22,251,30,23,16,295,35*70
$GPGSV,3,3,12,25,10,038,17,22,08,145,,11,08,233,32,51,49,195,35*70
$GPRMC,204106.000,A,3351.9985,N,09831.7345,W,0.10,212.87,020412,,,D*7D
$GPGGA,204107.000,3351.9984,N,09831.7345,W,2,09,0.9,297.9,M,-23.7,M,2.8,0000*49
$GPGSA,A,3,01,23,31,32,25,20,16,14,30,,,,1.6,0.9,1.4*3E
$GPRMC,204107.000,A,3351.9984,N,09831.7345,W,0.16,208.43,020412,,,D*78
$GPGGA,204108.000,3351.9984,N,09831.7346,W,2,09,0.9,297.9,M,-23.7,M,3.8,0000*44
$GPGSA,A,3,01,23,31,32,25,20,16,14,30,,,,1.6,0.9,1.4*3E
$GPRMC,204108.000,A,3351.9984,N,09831.7346,W,0.15,215.45,020412,,,D*7D
$GPGGA,204109.000,3351.9984,N,09831.7346,W,2,09,0.9,297.9,M,-23.7,M,0.8,0000*46
$GPGSA,A,3,01,23,31,32,25,20,16,14,30,,,,1.6,0.9,1.4*3E
$GPRMC,204109.000,A,3351.9984,N,09831.7346,W,0.14,224.14,020412,,,D*7B
$GPGGA,204110.000,3351.9983,N,09831.7346,W,2,09,0.9,298.0,M,-23.7,M,0.8,0000*4F
$GPGSA,A,3,01,23,31,32,25,20,16,14,30,,,,1.6,0.9,1.4*3E
$GPRMC,204110.000,A,3351.9983,N,09831.7346,W,0.11,216.61,020412,,,D*72
$GPGGA,204111.000,3351.9983,N,09831.7346,W,2,09,0.9,298.1,M,-23.7,M,0.8,0000*4F
$GPGSA,A,3,01,23,31,32,25,20,16,14,30,,,,1.6,0.9,1.4*3E
$GPGSV,3,1,12,32,70,297,28,31,55,031,31,30,53,149,36,20,41,308,37*7E
$GPGSV,3,2,12,16,29,171,32,14,25,083,31,01,22,251,32,23,16,295,35*72
$GPGSV,3,3,12,25,10,038,17,22,08,145,,11,08,233,32,51,49,195,35*70
$GPRMC,204111.000,A,3351.9983,N,09831.7346,W,0.08,216.51,020412,,,D*78
$GPGGA,204112.000,3351.9983,N,09831.7347,W,2,09,0.9,298.3,M,-23.7,M,0.8,0000*4F
$GPGSA,A,3,01,23,31,32,25,20,16,14,30,,,,1.6,0.9,1.4*3E
$GPRMC,204112.000,A,3351.9983,N,09831.7347,W,0.14,221.71,020412,,,D*71
$GPGGA,204113.000,3351.9983,N,09831.7347,W,2,09,0.9,298.5,M,-23.7,M,1.8,0000*49
$GPGSA,A,3,01,23,31,32,25,20,16,14,30,,,,1.6,0.9,1.4*3E
$GPRMC,204113.000,A,3351.9983,N,09831.7347,W,0.13,216.42,020412,,,D*73
$GPGGA,204114.000,3351.9983,N,09831.7347,W,2,09,0.9,298.5,M,-23.7,M,2.8,0000*4D
$GPGSA,A,3,01,23,31,32,25,20,16,14,30,,,,1.6,0.9,1.4*3E
$GPRMC,204114.000,A,3351.9983,N,09831.7347,W,0.12,33.36,020412,,,D*43
$GPGGA,204115.000,3351.9983,N,09831.7346,W,2,09,0.9,298.5,M,-23.7,M,0.8,0000*4F
$GPGSA,A,3,01,23,31,32,25,20,16,14,30,,,,1.6,0.9,1.4*3E
$GPGSV,3,1,12,32,70,297,28,31,55,031,32,30,53,149,36,20,41,308,37*7D
$GPGSV,3,2,12,16,29,171,32,14,25,083,31,01,22,251,32,23,16,295,35*72
$GPGSV,3,3,12,25,10,038,18,22,08,145,,11,08,233,31,51,49,195,34*7D
$GPRMC,204115.000,A,3351.9983,N,09831.7346,W,0.20,42.75,020412,,,D*43
$GPGGA,204116.000,3351.9983,N,09831.7346,W,2,09,0.9,298.3,M,-23.7,M,0.8,0000*4A
$GPGSA,A,3,01,23,31,32,25,20,16,14,30,,,,1.6,0.9,1.4*3E
$GPGSV,3,1,12,32,70,297,28,31,55,031,32,30,53,149,37,20,41,308,37*7C
$GPGSV,3,2,12,16,29,171,32,14,25,083,31,01,22,251,33,23,16,295,35*73
$GPGSV,3,3,12,25,10,038,17,22,08,145,,11,08,233,31,51,49,195,33*75
$GPRMC,204116.000,A,3351.9983,N,09831.7346,W,0.21,37.71,020412,,,D*47
$GPGGA,204117.000,3351.9984,N,09831.7345,W,2,09,0.9,298.2,M,-23.7,M,0.8,0000*4E
$GPGSA,A,3,01,23,31,32,25,20,16,14,30,,,,1.6,0.9,1.4*3E
$GPRMC,204117.000,A,3351.9984,N,09831.7345,W,0.18,34.15,020412,,,D*49
$GPGGA,204118.000,3351.9984,N,09831.7345,W,2,09,0.9,298.0,M,-23.7,M,1.8,0000*42
$GPGSA,A,3,01,23,31,32,25,20,16,14,30,,,,1.6,0.9,1.4*3E
$GPRMC,204118.000,A,3351.9984,N,09831.7345,W,0.19,37.72,020412,,,D*45
$GPGGA,204119.000,3351.9984,N,09831.7345,W,2,09,0.9,297.8,M,-23.7,M,2.8,0000*47
$GPGSA,A,3,01,23,31,32,25,20,16,14,30,,,,1.6,0.9,1.4*3E
$GPRMC,204119.000,A,3351.9984,N,09831.7345,W,0.22,37.35,020412,,,D*4F
$GPGGA,204120.000,3351.9985,N,09831.7344,W,2,09,0.9,297.4,M,-23.7,M,3.8,0000*40
$GPGSA,A,3,01,23,31,32,25,20,16,14,30,,,,1.6,0.9,1.4*3E
$GPRMC,204120.000,A,3351.9985,N,09831.7344,W,0.10,34.68,020412,,,D*4F
$GPGGA,204121.000,3351.9986,N,09831.7344,W,2,09,0.9,297.0,M,-23.7,M,4.8,0000*41
$GPGSA,A,3,01,23,31,32,25,20,16,14,30,,,,1.6,0.9,1.4*3E
$GPGSV,3,1,12,32,70,297,34,31,55,031,32,30,53,149,37,20,41,308,37*71
$GPGSV,3,2,12,16,29,171,32,14,25,083,30,01,22,251,33,23,16,295,32*75
$GPGSV,3,3,12,25,10,038,28,22,08,145,,11,08,233,33,51,49,195,25*7C
$GPRMC,204121.000,A,3351.9986,N,09831.7344,W,0.17,9.90,020412,,,D*73
$GPGGA,204122.000,3351.9986,N,09831.7343,W,2,09,0.9,296.5,M,-23.7,M,5.8,0000*40
$GPGSA,A,3,01,23,31,32,25,20,16,14,30,,,,1.6,0.9,1.4*3E
$GPRMC,204122.000,A,3351.9986,N,09831.7343,W,0.07,27.27,020412,,,D*46
$GPGGA,204123.000,3351.9986,N,09831.7343,W,2,09,0.9,296.1,M,-23.7,M,6.8,0000*46
$GPGSA,A,3,01,23,31,32,25,20,16,14,30,,,,1.6,0.9,1.4*3E
$GPRMC,204123.000,A,3351.9986,N,09831.7343,W,0.10,81.42,020412,,,D*4E
$GPGGA,204124.000,3351.9985,N,09831.7343,W,2,09,0.9,295.8,M,-23.7,M,7.8,0000*49
$GPGSA,A,3,01,23,31,32,25,20,16,14,30,,,,1.6,0.9,1.4*3E
$GPRMC,204124.000,A,3351.9985,N,09831.7343,W,0.02,54.87,020412,,,D*48
$GPGGA,204125.000,3351.9985,N,09831.7343,W,2,09,0.9,295.4,M,-23.7,M,8.8,0000*4B
$GPGSA,A,3,01,23,31,32,25,20,16,14,30,,,,1.6,0.9,1.4*3E
$GPRMC,204125.000,A,3351.9985,N,09831.7343,W,0.06,37.69,020412,,,D*48
$GPGGA,204126.000,3351.9985,N,09831.7342,W,2,09,0.9,295.0,M,-23.7,M,9.8,0000*4C
$GPGSA,A,3,01,23,31,32,25,20,16,14,30,,,,1.6,0.9,1.4*3E
$GPGSV,3,1,12,32,70,297,34,31,55,031,31,30,53,149,36,20,41,308,36*72
$GPGSV,3,2,12,16,29,171,38,14,25,083,30,01,22,251,34,23,16,295,30*7A
$GPGSV,3,3,12,25,10,038,27,22,08,145,,11,08,233,35,51,49,195,27*77
$GPRMC,204126.000,A,3351.9985,N,09831.7342,W,0.03,73.28,020412,,,D*4A
$GPGGA,204127.000,3351.9985,N,09831.7342,W,2,09,0.9,294.6,M,-23.7,M,10.8,0000*72
$GPGSA,A,3,01,23,31,32,25,20,16,14,30,,,,1.6,0.9,1.4*3E
$GPRMC,204127.000,A,3351.9985,N,09831.7342,W,0.05,58.28,020412,,,D*44
$GPGGA,204128.000,3351.9986,N,09831.7342,W,2,09,0.9,294.3,M,-23.7,M,0.8,0000*4A
$GPGSA,A,3,01,23,31,32,25,20,16,14,30,,,,1.6,0.9,1.4*3E
$GPRMC,204128.000,A,3351.9986,N,09831.7342,W,0.06,29.55,020412,,,D*47
$GPGGA,204129.000,3351.9986,N,09831.7342,W,2,09,0.9,294.0,M,-23.7,M,0.8,0000*48
$GPGSA,A,3,01,23,31,32,25,20,16,14,30,,,,1.6,0.9,1.4*3E
$GPRMC,204129.000,A,3351.9986,N,09831.7342,W,0.05,53.21,020412,,,D*4B
$GPGGA,204130.000,3351.9986,N,09831.7341,W,2,09,0.9,293.7,M,-23.7,M,0.8,0000*43
$GPGSA,A,3,01,23,31,32,25,20,16,14,30,,,,1.6,0.9,1.4*3E
$GPRMC,204130.000,A,3351.9986,N,09831.7341,W,0.06,51.87,020412,,,D*4D
$GPGGA,204131.000,3351.9986,N,09831.7341,W,2,09,0.9,293.4,M,-23.7,M,1.8,0000*40
$GPGSA,A,3,01,23,31,32,25,20,16,14,30,,,,1.6,0.9,1.4*3E
$GPGSV,3,1,12,32,70,297,34,31,55,031,31,30,53,149,35,20,41,308,36*71
$GPGSV,3,2,12,16,29,171,38,14,25,083,30,01,22,251,35,23,16,295,28*72
$GPGSV,3,3,12,25,10,038,26,22,08,145,,11,08,233,37,51,49,195,28*7B
$GPRMC,204131.000,A,3351.9986,N,09831.7341,W,0.06,30.07,020412,,,D*43
$GPGGA,204132.000,3351.9986,N,09831.7341,W,2,09,0.9,293.2,M,-23.7,M,2.8,0000*46
$GPGSA,A,3,01,23,31,32,25,20,16,14,30,,,,1.6,0.9,1.4*3E
$GPRMC,204132.000,A,3351.9986,N,09831.7341,W,0.09,74.99,020412,,,D*48
$GPGGA,204133.000,3351.9986,N,09831.7340,W,2,09,0.9,292.9,M,-23.7,M,3.8,0000*4D
$GPGSA,A,3,01,23,31,32,25,20,16,14,30,,,,1.6,0.9,1.4*3E
$GPRMC,204133.000,A,3351.9986,N,09831.7340,W,0.05,56.62,020412,,,D*40
$GPGGA,204134.000,3351.9987,N,09831.7340,W,2,09,0.9,292.6,M,-23.7,M,4.8,0000*43
$GPGSA,A,3,01,23,31,32,25,20,16,14,30,,,,1.6,0.9,1.4*3E
$GPRMC,204134.000,A,3351.9987,N,09831.7340,W,0.10,23.11,020412,,,D*44
$GPGGA,204135.000,3351.9987,N,09831.7340,W,2,09,0.9,292.5,M,-23.7,M,5.8,0000*40
$GPGSA,A,3,01,23,31,32,25,20,16,14,30,,,,1.6,0.9,1.4*3E
$GPRMC,204135.000,A,3351.9987,N,09831.7340,W,0.26,37.37,020412,,,D*41
$GPGGA,204136.000,3351.9987,N,09831.7340,W,2,09,0.9,292.6,M,-23.7,M,6.8,0000*43
$GPGSA,A,3,01,23,31,32,25,20,16,14,30,,,,1.6,0.9,1.4*3E
$GPGSV,3,1,11,32,70,297,30,31,55,031,24,30,53,149,35,20,41,308,36*72
$GPGSV,3,2,11,16,29,171,37,14,25,083,30,01,22,251,35,23,16,295,23*75
$GPGSV,3,3,11,25,10,038,26,22,08,145,,11,08,233,30*41
$GPRMC,204136.000,A,3351.9987,N,09831.7340,W,0.31,44.93,020412,,,D*4E
$GPGGA,204137.000,3351.9987,N,09831.7341,W,2,09,0.9,293.0,M,-23.7,M,7.8,0000*45
$GPGSA,A,3,01,23,31,32,25,20,16,14,30,,,,1.6,0.9,1.4*3E
$GPRMC,204137.000,A,3351.9987,N,09831.7341,W,0.23,56.85,020412,,,D*49
$GPGGA,204138.000,3351.9987,N,09831.7342,W,2,09,0.9,293.3,M,-23.7,M,8.8,0000*45
$GPGSA,A,3,01,23,31,32,25,20,16,14,30,,,,1.6,0.9,1.4*3E
$GPRMC,204138.000,A,3351.9987,N,09831.7342,W,0.05,59.75,020412,,,D*41
$GPGGA,204139.000,3351.9987,N,09831.7343,W,2,09,0.9,293.5,M,-23.7,M,9.8,0000*42
$GPGSA,A,3,01,23,31,32,25,20,16,14,30,,,,1.6,0.9,1.4*3E
$GPRMC,204139.000,A,3351.9987,N,09831.7343,W,0.05,56.86,020412,,,D*42
$GPGGA,204140.000,3351.9987,N,09831.7343,W,2,09,0.9,293.4,M,-23.7,M,10.8,0000*75
$GPGSA,A,3,01,23,31,32,25,20,16,14,30,,,,1.6,0.9,1.4*3E
$GPRMC,204140.000,A,3351.9987,N,09831.7343,W,0.06,38.11,020412,,,D*49
$GPGGA,204141.000,3351.9987,N,09831.7343,W,2,09,0.9,293.2,M,-23.7,M,11.8,0000*73
$GPGSA,A,3,01,23,31,32,25,20,16,14,30,,,,1.6,0.9,1.4*3E
$GPGSV,3,1,11,32,70,297,23,31,55,031,32,30,53,149,32,20,41,308,37*71
$GPGSV,3,2,11,16,29,171,38,14,25,083,30,01,22,251,38,23,16,295,25*71
$GPGSV,3,3,11,25,10,038,28,22,08,145,,11,08,233,31*4E
$GPRMC,204141.000,A,3351.9987,N,09831.7343,W,0.06,43.81,020412,,,D*4D
$GPGGA,204142.000,3351.9987,N,09831.7344,W,2,09,0.9,293.1,M,-23.7,M,12.8,0000*77
$GPGSA,A,3,01,23,31,32,25,20,16,14,30,,,,1.6,0.9,1.4*3E
$GPRMC,204142.000,A,3351.9987,N,09831.7344,W,0.11,289.41,020412,,,D*77
$GPGGA,204143.000,3351.9986,N,09831.7344,W,2,09,0.9,293.0,M,-23.7,M,13.8,0000*77
$GPGSA,A,3,01,23,31,32,25,20,16,14,30,,,,1.6,0.9,1.4*3E
$GPRMC,204143.000,A,3351.9986,N,09831.7344,W,0.08,195.89,020412,,,D*75
$GPGGA,204144.000,3351.9986,N,09831.7345,W,2,09,0.9,292.9,M,-23.7,M,14.8,0000*7E
$GPGSA,A,3,01,23,31,32,25,20,16,14,30,,,,1.6,0.9,1.4*3E
$GPRMC,204144.000,A,3351.9986,N,09831.7345,W,0.04,339.99,020412,,,D*7A
$GPGGA,204145.000,3351.9986,N,09831.7345,W,2,09,0.9,292.9,M,-23.7,M,15.8,0000*7E
$GPGSA,A,3,01,23,31,32,25,20,16,14,30,,,,1.6,0.9,1.4*3E
$GPRMC,204145.000,A,3351.9986,N,09831.7345,W,0.06,56.46,020412,,,D*41
$GPGGA,204146.000,3351.9986,N,09831.7346,W,2,09,0.9,292.5,M,-23.7,M,16.8,0000*71
$GPGSA,A,3,01,23,31,32,25,20,16,14,30,,,,1.6,0.9,1.4*3E
$GPGSV,3,1,11,32,70,297,29,31,55,031,32,30,53,149,34,20,41,308,37*7D
$GPGSV,3,2,11,16,29,171,36,14,25,083,31,01,22,251,37,23,16,295,27*73
$GPGSV,3,3,11,25,10,038,25,22,08,145,,11,08,233,36*44
$GPRMC,204146.000,A,3351.9986,N,09831.7346,W,0.09,40.51,020412,,,D*4F
$GPGGA,204147.000,3351.9986,N,09831.7346,W,2,09,0.9,292.4,M,-23.7,M,17.8,0000*70
$GPGSA,A,3,01,23,31,32,25,20,16,14,30,,,,1.6,0.9,1.4*3E
$GPRMC,204147.000,A,3351.9986,N,09831.7346,W,0.02,122.60,020412,,,D*72
$GPGGA,204148.000,3351.9987,N,09831.7346,W,1,09,0.9,292.3,M,-23.7,M,18.8,0000*75
$GPGSA,A,3,01,23,31,32,25,20,16,14,30,,,,1.6,0.9,1.4*3E
$GPRMC,204148.000,A,3351.9987,N,09831.7346,W,0.04,5.49,020412,,,A*70
$GPGGA,204149.000,3351.9987,N,09831.7346,W,1,09,0.9,292.3,M,-23.7,M,18.8,0000*74
$GPGSA,A,3,01,23,31,32,25,20,16,14,30,,,,1.6,0.9,1.4*3E
$GPRMC,204149.000,A,3351.9987,N,09831.7346,W,0.05,15.56,020412,,,A*4F
$GPGGA,204150.000,3351.9987,N,09831.7346,W,1,09,0.9,292.3,M,-23.7,M,18.8,0000*7C
$GPGSA,A,3,01,23,31,32,25,20,16,14,30,,,,1.6,0.9,1.4*3E
$GPRMC,204150.000,A,3351.9987,N,09831.7346,W,0.03,19.87,020412,,,A*41
$GPGGA,204151.000,3351.9987,N,09831.7347,W,1,08,1.0,292.3,M,-23.7,M,18.8,0000*75
$GPGSA,A,3,01,23,31,32,20,16,14,30,,,,,1.9,1.0,1.7*3D
$GPGSV,3,1,11,32,70,297,29,31,55,031,31,30,53,149,35,20,41,308,37*7F
$GPGSV,3,2,11,16,29,171,37,14,25,083,32,01,22,251,37,23,16,295,28*7E
$GPGSV,3,3,11,25,10,038,25,22,08,145,,11,08,233,36*44
$GPRMC,204151.000,A,3351.9987,N,09831.7347,W,0.04,343.92,020412,,,A*7E
$GPGGA,204152.000,3351.9987,N,09831.7347,W,1,08,1.0,292.4,M,-23.7,M,18.8,0000*71
$GPGSA,A,3,01,23,31,32,20,16,14,30,,,,,1.9,1.0,1.7*3D
$GPRMC,204152.000,A,3351.9987,N,09831.7347,W,0.03,17.57,020412,,,A*41
$GPGGA,204153.000,3351.9987,N,09831.7347,W,1,08,1.0,292.5,M,-23.7,M,18.8,0000*71
$GPGSA,A,3,01,23,31,32,20,16,14,30,,,,,1.9,1.0,1.7*3D
$GPRMC,204153.000,A,3351.9987,N,09831.7347,W,0.05,328.20,020412,,,A*79
$GPGGA,204154.000,3351.9987,N,09831.7347,W,1,08,1.0,292.6,M,-23.7,M,18.8,0000*75
$GPGSA,A,3,01,23,31,32,20,16,14,30,,,,,1.9,1.0,1.6*3C
$GPRMC,204154.000,A,3351.9987,N,09831.7347,W,0.04,313.20,020412,,,A*77
$GPGGA,204155.000,3351.9987,N,09831.7347,W,1,08,1.0,292.7,M,-23.7,M,18.8,0000*75
$GPGSA,A,3,01,23,31,32,20,16,14,30,,,,,1.9,1.0,1.6*3C
$GPRMC,204155.000,A,3351.9987,N,09831.7347,W,0.04,13.82,020412,,,A*4D
$GPGGA,204156.000,3351.9987,N,09831.7347,W,1,08,1.0,292.8,M,-23.7,M,18.8,0000*79
$GPGSA,A,3,01,23,31,32,20,16,14,30,,,,,1.9,1.0,1.6*3C
$GPGSV,3,1,11,32,70,297,29,31,55,031,32,30,53,149,35,20,41,308,37*7C
$GPGSV,3,2,11,16,29,171,36,14,25,083,32,01,22,251,37,23,16,295,27*70
$GPGSV,3,3,11,25,10,038,20,22,08,145,,11,08,233,37*40
$GPRMC,204156.000,A,3351.9987,N,09831.7347,W,0.03,0.21,020412,,,A*72
$GPGGA,204157.000,3351.9988,N,09831.7347,W,1,08,1.0,293.0,M,-23.7,M,18.8,0000*7E
$GPGSA,A,3,01,23,31,32,20,16,14,30,,,,,1.9,1.0,1.6*3C
$GPRMC,204157.000,A,3351.9988,N,09831.7347,W,0.03,323.79,020412,,,A*73
$GPGGA,204158.000,3351.9988,N,09831.7348,W,1,08,1.0,293.1,M,-23.7,M,18.8,0000*7F
$GPGSA,A,3,01,23,31,32,20,16,14,30,,,,,1.9,1.0,1.6*3C
$GPRMC,204158.000,A,3351.9988,N,09831.7348,W,0.03,314.70,020412,,,A*7E
$GPGGA,204159.000,3351.9988,N,09831.7348,W,1,08,1.0,293.3,M,-23.7,M,18.8,0000*7C
$GPGSA,A,3,01,23,31,32,20,16,14,30,,,,,1.9,1.0,1.6*3C
$GPRMC,204159.000,A,3351.9988,N,09831.7348,W,0.03,308.09,020412,,,A*7C
$GPGGA,204200.000,3351.9988,N,09831.7348,W,1,08,1.0,293.5,M,-23.7,M,18.8,0000*75
$GPGSA,A,3,01,23,31,32,20,16,14,30,,,,,1.9,1.0,1.6*3C
$GPRMC,204200.000,A,3351.9988,N,09831.7348,W,0.02,315.27,020412,,,A*72
$GPGGA,204201.000,3351.9988,N,09831.7348,W,1,08,1.0,293.6,M,-23.7,M,18.8,0000*77
$GPGSA,A,3,01,23,31,32,20,16,14,30,,,,,1.9,1.0,1.6*3C
$GPGSV,3,1,11,32,70,297,30,31,55,031,31,30,53,149,36,20,41,308,37*74
$GPGSV,3,2,11,16,29,171,34,14,25,083,32,01,22,251,37,23,16,295,28*7D
$GPGSV,3,3,11,25,10,038,20,22,08,145,,11,08,233,36*41
$GPRMC,204201.000,A,3351.9988,N,09831.7348,W,0.02,263.99,020412,,,A*76
$GPGGA,204202.000,3351.9988,N,09831.7349,W,1,08,1.0,293.8,M,-23.7,M,18.8,0000*7B
$GPGSA,A,3,01,23,31,32,20,16,14,30,,,,,1.9,1.0,1.6*3C
$GPRMC,204202.000,A,3351.9988,N,09831.7349,W,0.01,292.29,020412,,,A*72
$GPGGA,204203.000,3351.9988,N,09831.7349,W,1,08,1.0,294.0,M,-23.7,M,18.8,0000*75
$GPGSA,A,3,01,23,31,32,20,16,14,30,,,,,1.9,1.0,1.6*3C
$GPRMC,204203.000,A,3351.9988,N,09831.7349,W,0.10,33.09,020412,,,A*48
$GPGGA,204204.000,3351.9988,N,09831.7349,W,1,08,1.0,294.2,M,-23.7,M,18.8,0000*70
$GPGSA,A,3,01,23,31,32,20,16,14,30,,,,,1.9,1.0,1.6*3C
$GPRMC,204204.000,A,3351.9988,N,09831.7349,W,0.14,1.64,020412,,,A*71
$GPGGA,204205.000,3351.9988,N,09831.7349,W,1,08,1.0,294.3,M,-23.7,M,18.8,0000*70
$GPGSA,A,3,01,23,31,32,20,16,14,30,,,,,1.9,1.0,1.6*3C
$GPRMC,204205.000,A,3351.9988,N,09831.7349,W,0.08,306.79,020412,,,A*75
$GPGGA,204206.000,3351.9988,N,09831.7349,W,1,08,1.0,294.5,M,-23.7,M,18.8,0000*75
$GPGSA,A,3,01,23,31,32,20,16,14,30,,,,,1.9,1.0,1.6*3C
$GPGSV,3,1,11,32,71,294,29,30,54,148,36,31,54,032,31,20,42,307,36*77
$GPGSV,3,2,11,16,31,171,31,14,24,084,29,01,21,249,34,23,17,296,21*7F
$GPGSV,3,3,11,25,09,037,26,11,08,232,36,22,07,146,*4D
$GPRMC,204206.000,A,3351.9988,N,09831.7349,W,0.04,20.02,020412,,,A*41
$GPGGA,204207.000,3351.9988,N,09831.7349,W,1,08,1.0,294.6,M,-23.7,M,18.8,0000*77
$GPGSA,A,3,01,23,31,32,20,16,14,30,,,,,1.9,1.0,1.6*3C
$GPRMC,204207.000,A,3351.9988,N,09831.7349,W,0.06,96.64,020412,,,A*4F
$GPGGA,204208.000,3351.9988,N,09831.7349,W,1,08,1.0,294.8,M,-23.7,M,18.8,0000*76
$GPGSA,A,3,01,23,31,32,20,16,14,30,,,,,1.9,1.0,1.6*3C
$GPRMC,204208.000,A,3351.9988,N,09831.7349,W,0.04,189.47,020412,,,A*7C
$GPGGA,204209.000,3351.9988,N,09831.7350,W,1,08,1.0,294.9,M,-23.7,M,18.8,0000*7E
$GPGSA,A,3,01,23,31,32,20,16,14,30,,,,,1.9,1.0,1.6*3C
$GPRMC,204209.000,A,3351.9988,N,09831.7350,W,0.06,334.89,020412,,,A*71
$GPGGA,204210.000,3351.9988,N,09831.7350,W,1,08,1.0,294.9,M,-23.7,M,18.8,0000*76
$GPGSA,A,3,01,23,31,32,20,16,14,30,,,,,1.9,1.0,1.6*3C
$GPRMC,204210.000,A,3351.9988,N,09831.7350,W,0.06,50.35,020412,,,A*4F
$GPGGA,204211.000,3351.9988,N,09831.7350,W,1,08,1.0,294.7,M,-23.7,M,18.8,0000*79
$GPGSA,A,3,01,23,31,32,20,16,14,30,,,,,1.9,1.0,1.6*3C
$GPGSV,3,1,11,32,71,294,29,30,54,148,31,31,54,032,30,20,42,307,37*70
$GPGSV,3,2,11,16,31,171,28,14,24,084,29,01,21,249,34,23,17,296,22*74
$GPGSV,3,3,11,25,09,037,24,11,08,232,35,22,07,146,*4C
$GPRMC,204211.000,A,3351.9988,N,09831.7350,W,0.02,283.05,020412,,,A*75
$GPGGA,204212.000,3351.9989,N,09831.7349,W,1,08,1.0,294.4,M,-23.7,M,18.8,0000*70
$GPGSA,A,3,01,23,31,32,20,16,14,30,,,,,1.9,1.0,1.6*3C
$GPRMC,204212.000,A,3351.9989,N,09831.7349,W,0.07,51.68,020412,,,A*4C
$GPGGA,204213.000,3351.9989,N,09831.7349,W,1,08,1.0,294.1,M,-23.7,M,18.8,0000*74
$GPGSA,A,3,01,23,31,32,20,16,14,30,,,,,1.9,1.0,1.6*3C
$GPRMC,204213.000,A,3351.9989,N,09831.7349,W,0.07,52.81,020412,,,A*49
$GPGGA,204214.000,3351.9989,N,09831.7349,W,1,08,1.0,293.9,M,-23.7,M,18.8,0000*7C
$GPGSA,A,3,01,23,31,32,20,16,14,30,,,,,1.9,1.0,1.6*3C
$GPRMC,204214.000,A,3351.9989,N,09831.7349,W,0.08,70.56,020412,,,A*4B
$GPGGA,204215.000,3351.9989,N,09831.7348,W,1,08,1.0,293.6,M,-23.7,M,18.8,0000*73
$GPGSA,A,3,01,23,31,32,20,16,14,30,,,,,1.9,1.0,1.6*3C
$GPRMC,204215.000,A,3351.9989,N,09831.7348,W,0.10,78.66,020412,,,A*49
$GPGGA,204216.000,3351.9990,N,09831.7348,W,1,08,1.0,293.3,M,-23.7,M,18.8,0000*7D
$GPGSA,A,3,01,23,31,32,20,16,14,30,,,,,1.9,1.0,1.6*3C
$GPGSV,3,1,11,32,71,294,29,30,54,148,32,31,54,032,28,20,42,307,37*7A
$GPGSV,3,2,11,16,31,171,29,14,24,084,29,01,21,249,33,23,17,296,27*77
$GPGSV,3,3,11,25,09,037,24,11,08,232,35,22,07,146,*4C
$GPRMC,204216.000,A,3351.9990,N,09831.7348,W,0.06,13.64,020412,,,A*4A
$GPGGA,204217.000,3351.9990,N,09831.7347,W,1,08,1.0,293.0,M,-23.7,M,18.8,0000*70
$GPGSA,A,3,01,23,31,32,20,16,14,30,,,,,1.9,1.0,1.6*3C
$GPRMC,204217.000,A,3351.9990,N,09831.7347,W,0.11,25.51,020412,,,A*41
$GPGGA,204218.000,3351.9990,N,09831.7347,W,1,08,1.0,292.8,M,-23.7,M,18.8,0000*76
$GPGSA,A,3,01,23,31,32,20,16,14,30,,,,,1.9,1.0,1.6*3C
$GPRMC,204218.000,A,3351.9990,N,09831.7347,W,0.06,32.50,020412,,,A*4F
$GPGGA,204219.000,3351.9991,N,09831.7347,W,1,08,1.0,292.5,M,-23.7,M,18.8,0000*7B
$GPGSA,A,3,01,23,31,32,20,16,14,30,,,,,1.9,1.0,1.6*3C
$GPRMC,204219.000,A,3351.9991,N,09831.7347,W,0.09,22.14,020412,,,A*41
$GPGGA,204220.000,3351.9991,N,09831.7346,W,1,08,1.0,292.2,M,-23.7,M,18.8,0000*77
$GPGSA,A,3,01,23,31,32,20,16,14,30,,,,,1.9,1.0,1.6*3C
$GPRMC,204220.000,A,3351.9991,N,09831.7346,W,0.08,36.54,020412,,,A*4A
$GPGGA,204221.000,3351.9991,N,09831.7346,W,1,08,1.0,292.0,M,-23.7,M,18.8,0000*74
$GPGSA,A,3,01,23,31,32,20,16,14,30,,,,,1.9,1.0,1.6*3C
$GPGSV,3,1,11,32,71,294,28,30,54,148,33,31,54,032,29,20,42,307,37*7B
$GPGSV,3,2,11,16,31,171,29,14,24,084,28,01,21,249,33,23,17,296,28*79
$GPGSV,3,3,11,25,09,037,25,11,08,232,35,22,07,146,*4D
$GPRMC,204221.000,A,3351.9991,N,09831.7346,W,0.08,25.76,020412,,,A*49
$GPGGA,204222.000,3351.9992,N,09831.7346,W,1,08,1.0,291.8,M,-23.7,M,18.8,0000*7F
$GPGSA,A,3,01,23,31,32,20,16,14,30,,,,,1.9,1.0,1.6*3C
$GPRMC,204222.000,A,3351.9992,N,09831.7346,W,0.04,31.40,020412,,,A*45
$GPGGA,204223.000,3351.9992,N,09831.7345,W,1,08,1.0,291.5,M,-23.7,M,18.8,0000*70
$GPGSA,A,3,01,23,31,32,20,16,14,30,,,,,1.9,1.0,1.6*3C
$GPRMC,204223.000,A,3351.9992,N,09831.7345,W,0.04,27.54,020412,,,A*45
$GPGGA,204224.000,3351.9992,N,09831.7345,W,1,08,1.0,291.3,M,-23.7,M,18.8,0000*71
$GPGSA,A,3,01,23,31,32,20,16,14,30,,,,,1.9,1.0,1.6*3C
$GPRMC,204224.000,A,3351.9992,N,09831.7345,W,0.06,66.87,020412,,,A*4B
$GPGGA,204225.000,3351.9993,N,09831.7345,W,1,08,1.0,291.0,M,-23.7,M,18.8,0000*72
$GPGSA,A,3,01,23,31,32,20,16,14,30,,,,,1.9,1.0,1.6*3C
$GPRMC,204225.000,A,3351.9993,N,09831.7345,W,0.10,323.40,020412,,,A*75
$GPGGA,204226.000,3351.9993,N,09831.7344,W,1,08,1.0,290.8,M,-23.7,M,18.8,0000*79
$GPGSA,A,3,01,23,31,32,20,16,14,30,,,,,1.9,1.0,1.6*3C
$GPGSV,3,1,11,32,71,294,34,30,54,148,33,31,54,032,29,20,42,307,37*76
$GPGSV,3,2,11,16,31,171,34,14,24,084,29,01,21,249,32,23,17,296,24*79
$GPGSV,3,3,11,25,09,037,18,11,08,232,34,22,07,146,*42
$GPRMC,204226.000,A,3351.9993,N,09831.7344,W,0.14,351.19,020412,,,A*7A
$GPGGA,204227.000,3351.9994,N,09831.7344,W,1,08,1.0,290.5,M,-23.7,M,18.8,0000*72
$GPGSA,A,3,01,23,31,32,20,16,14,30,,,,,1.9,1.0,1.6*3C
$GPRMC,204227.000,A,3351.9994,N,09831.7344,W,0.04,93.04,020412,,,A*4C
$GPGGA,204228.000,3351.9993,N,09831.7344,W,1,08,1.0,290.3,M,-23.7,M,18.8,0000*7C
$GPGSA,A,3,01,23,31,32,20,16,14,30,,,,,1.9,1.0,1.6*3C
$GPRMC,204228.000,A,3351.9993,N,09831.7344,W,0.34,177.04,020412,,,A*7C
$GPGGA,204229.000,3351.9991,N,09831.7343,W,1,08,1.0,290.1,M,-23.7,M,18.8,0000*7A
$GPGSA,A,3,01,23,31,32,20,16,14,30,,,,,1.9,1.0,1.6*3C
$GPRMC,204229.000,A,3351.9991,N,09831.7343,W,0.91,169.48,020412,,,A*70
$GPGGA,204230.000,3351.9987,N,09831.7342,W,1,08,1.0,289.9,M,-23.7,M,18.8,0000*74
$GPGSA,A,3,01,23,31,32,20,16,14,30,,,,,1.9,1.0,1.6*3C
$GPRMC,204230.000,A,3351.9987,N,09831.7342,W,1.38,177.86,020412,,,A*71
$GPGGA,204231.000,3351.9984,N,09831.7342,W,1,08,1.0,289.7,M,-23.7,M,18.8,0000*78
$GPGSA,A,3,01,23,31,32,20,16,14,30,,,,,1.9,1.0,1.6*3C
$GPGSV,3,1,11,32,71,294,34,30,54,148,33,31,54,032,33,20,42,307,36*7C
$GPGSV,3,2,11,16,31,171,27,14,24,084,29,01,21,249,33,23,17,296,31*7E
$GPGSV,3,3,11,25,09,037,30,11,08,232,25,22,07,146,*48
$GPRMC,204231.000,A,3351.9984,N,09831.7342,W,1.03,171.95,020412,,,A*7F
$GPGGA,204232.000,3351.9982,N,09831.7341,W,1,08,1.0,289.5,M,-23.7,M,18.8,0000*7C
$GPGSA,A,3,01,23,31,32,20,16,14,30,,,,,1.9,1.0,1.6*3C
$GPRMC,204232.000,A,3351.9982,N,09831.7341,W,0.88,169.16,020412,,,A*79
$GPGGA,204233.000,3351.9978,N,09831.7340,W,1,08,1.0,289.4,M,-23.7,M,18.8,0000*78
$GPGSA,A,3,01,23,31,32,20,16,14,30,,,,,1.9,1.0,1.6*3C
$GPRMC,204233.000,A,3351.9978,N,09831.7340,W,1.34,168.00,020412,,,A*7C
$GPGGA,204234.000,3351.9974,N,09831.7338,W,1,08,1.0,289.2,M,-23.7,M,18.8,0000*7A
$GPGSA,A,3,01,23,31,32,20,16,14,30,,,,,1.9,1.0,1.6*3C
$GPRMC,204234.000,A,3351.9974,N,09831.7338,W,1.53,155.45,020412,,,A*76
$GPGGA,204235.000,3351.9971,N,09831.7335,W,1,08,1.0,289.1,M,-23.7,M,18.8,0000*70
$GPGSA,A,3,01,23,31,32,20,16,14,30,,,,,1.9,1.0,1.6*3C
$GPRMC,204235.000,A,3351.9971,N,09831.7335,W,1.38,145.04,020412,,,A*76
$GPGGA,204236.000,3351.9969,N,09831.7332,W,1,08,1.0,289.0,M,-23.7,M,18.8,0000*7C
$GPGSA,A,3,01,23,31,32,20,16,14,30,,,,,1.9,1.0,1.6*3C
$GPGSV,3,1,11,32,71,294,38,30,54,148,28,31,54,032,38,20,42,307,31*76
$GPGSV,3,2,11,16,31,171,30,14,24,084,29,01,21,249,26,23,17,296,32*7F
$GPGSV,3,3,11,25,09,037,24,11,08,232,31,22,07,146,*48
$GPRMC,204236.000,A,3351.9969,N,09831.7332,W,1.19,137.11,020412,,,A*79
$GPGGA,204237.000,3351.9968,N,09831.7331,W,1,08,1.0,288.9,M,-23.7,M,18.8,0000*77
$GPGSA,A,3,01,23,31,32,20,16,14,30,,,,,1.9,1.0,1.6*3C
$GPRMC,204237.000,A,3351.9968,N,09831.7331,W,0.48,135.88,020412,,,A*7D
$GPGGA,204238.000,3351.9968,N,09831.7330,W,1,07,1.1,288.9,M,-23.7,M,18.8,0000*77
$GPGSA,A,3,01,23,31,32,20,16,14,,,,,,2.1,1.1,1.8*3B
$GPRMC,204238.000,A,3351.9968,N,09831.7330,W,0.30,133.17,020412,,,A*7C
$GPGGA,204239.000,3351.9968,N,09831.7330,W,1,08,1.0,288.8,M,-23.7,M,18.8,0000*79
$GPGSA,A,3,01,23,31,32,20,16,14,30,,,,,1.9,1.0,1.6*3C
$GPRMC,204239.000,A,3351.9968,N,09831.7330,W,0.09,2.94,020412,,,A*7F
$GPGGA,204240.000,3351.9968,N,09831.7330,W,1,08,1.0,288.8,M,-23.7,M,18.8,0000*77
$GPGSA,A,3,01,23,31,32,20,16,14,30,,,,,1.9,1.0,1.6*3C
$GPRMC,204240.000,A,3351.9968,N,09831.7330,W,0.07,37.19,020412,,,A*4C
$GPGGA,204241.000,3351.9968,N,09831.7330,W,1,08,1.0,288.7,M,-23.7,M,18.8,0000*79
$GPGSA,A,3,01,23,31,32,20,16,14,30,,,,,1.9,1.0,1.6*3C
$GPGSV,3,1,11,32,71,294,38,30,54,148,35,31,54,032,36,20,42,307,27*73
$GPGSV,3,2,11,16,31,171,36,14,24,084,29,01,21,249,29,23,17,296,30*74
$GPGSV,3,3,11,25,09,037,27,11,08,232,22,22,07,146,*49
$GPRMC,204241.000,A,3351.9968,N,09831.7330,W,0.10,313.64,020412,,,A*74
$GPGGA,204242.000,3351.9968,N,09831.7331,W,1,07,1.1,288.7,M,-23.7,M,18.8,0000*75
$GPGSA,A,3,23,31,32,20,16,14,30,,,,,,2.0,1.1,1.7*37
$GPRMC,204242.000,A,3351.9968,N,09831.7331,W,0.59,280.18,020412,,,A*7B
$GPGGA,204243.000,3351.9967,N,09831.7338,W,1,07,1.1,288.6,M,-23.7,M,18.8,0000*73
$GPGSA,A,3,23,31,32,20,16,14,30,,,,,,2.0,1.1,1.7*37
$GPRMC,204243.000,A,3351.9967,N,09831.7338,W,2.26,259.70,020412,,,A*7C
$GPGGA,204244.000,3351.9965,N,09831.7349,W,1,08,1.0,288.6,M,-23.7,M,18.8,0000*7E
$GPGSA,A,3,01,23,31,32,20,16,14,30,,,,,1.9,1.0,1.6*3C
$GPRMC,204244.000,A,3351.9965,N,09831.7349,W,3.38,257.09,020412,,,A*71
$GPGGA,204245.000,3351.9961,N,09831.7362,W,1,08,1.0,288.6,M,-23.7,M,18.8,0000*72
$GPGSA,A,3,01,23,31,32,20,16,14,30,,,,,1.9,1.0,1.6*3C
$GPRMC,204245.000,A,3351.9961,N,09831.7362,W,4.42,255.06,020412,,,A*7A
$GPGGA,204246.000,3351.9959,N,09831.7376,W,1,07,1.1,288.5,M,-23.7,M,18.8,0000*72
$GPGSA,A,3,01,23,31,32,16,14,30,,,,,,2.0,1.1,1.7*34
$GPGSV,3,1,11,32,71,294,35,30,54,148,31,31,54,032,30,20,42,307,*79
$GPGSV,3,2,11,16,31,171,31,14,24,084,26,01,21,249,,23,17,296,29*7F
$GPGSV,3,3,11,25,09,037,34,11,08,232,24,22,07,146,19*45
$GPRMC,204246.000,A,3351.9959,N,09831.7376,W,4.34,259.89,020412,,,A*7D
$GPGGA,204247.000,3351.9960,N,09831.7390,W,1,08,1.0,288.4,M,-23.7,M,18.8,0000*7E
$GPGSA,A,3,01,23,31,32,20,16,14,30,,,,,1.9,1.0,1.6*3C
$GPRMC,204247.000,A,3351.9960,N,09831.7390,W,4.27,276.36,020412,,,A*75
$GPGGA,204248.000,3351.9968,N,09831.7402,W,1,08,1.0,288.3,M,-23.7,M,18.8,0000*72
$GPGSA,A,3,01,23,31,32,20,16,14,30,,,,,1.9,1.0,1.6*3C
$GPRMC,204248.000,A,3351.9968,N,09831.7402,W,4.59,310.19,020412,,,A*7B
$GPGGA,204249.000,3351.9979,N,09831.7409,W,1,08,1.0,288.3,M,-23.7,M,18.8,0000*78
$GPGSA,A,3,01,23,31,32,20,16,14,30,,,,,1.9,1.0,1.6*3C
$GPRMC,204249.000,A,3351.9979,N,09831.7409,W,4.62,332.91,020412,,,A*79
$GPGGA,204250.000,3351.9993,N,09831.7412,W,1,07,1.1,288.4,M,-23.7,M,18.8,0000*77
$GPGSA,A,3,01,23,31,32,20,16,14,,,,,,2.1,1.1,1.8*3B
$GPRMC,204250.000,A,3351.9993,N,09831.7412,W,5.18,349.83,020412,,,A*7C
$GPGGA,204251.000,3352.0008,N,09831.7413,W,1,08,1.0,288.5,M,-23.7,M,18.8,0000*79
$GPGSA,A,3,01,23,31,32,20,16,14,30,,,,,1.9,1.0,1.6*3C
$GPGSV,3,1,11,32,71,294,35,30,54,148,31,31,54,032,32,20,42,307,40*7F
$GPGSV,3,2,11,16,31,171,30,14,24,084,30,01,21,249,,23,17,296,32*73
$GPGSV,3,3,11,25,09,037,27,11,08,232,28,22,07,146,20*41
$GPRMC,204251.000,A,3352.0008,N,09831.7413,W,5.49,358.40,020412,,,A*76
$GPGGA,204252.000,3352.0023,N,09831.7411,W,1,08,1.0,288.6,M,-23.7,M,18.8,0000*72
$GPGSA,A,3,01,23,31,32,20,16,14,30,,,,,1.9,1.0,1.6*3C
$GPRMC,204252.000,A,3352.0023,N,09831.7411,W,5.52,11.33,020412,,,A*4E
$GPGGA,204253.000,3352.0035,N,09831.7402,W,1,08,1.0,288.9,M,-23.7,M,18.8,0000*79
$GPGSA,A,3,01,23,31,32,20,16,14,30,,,,,1.9,1.0,1.6*3C
$GPRMC,204253.000,A,3352.0035,N,09831.7402,W,5.27,31.06,020412,,,A*4C
$GPGGA,204254.000,3352.0044,N,09831.7390,W,1,08,1.0,289.2,M,-23.7,M,18.8,0000*7E
$GPGSA,A,3,01,23,31,32,20,16,14,30,,,,,1.9,1.0,1.6*3C
$GPRMC,204254.000,A,3352.0044,N,09831.7390,W,5.04,51.08,020412,,,A*48
$GPGGA,204255.000,3352.0050,N,09831.7374,W,1,08,1.0,289.5,M,-23.7,M,18.8,0000*77
$GPGSA,A,3,01,23,31,32,20,16,14,30,,,,,1.9,1.0,1.6*3C
$GPRMC,204255.000,A,3352.0050,N,09831.7374,W,5.58,66.50,020412,,,A*46
$GPGGA,204256.000,3352.0056,N,09831.7356,W,1,08,1.0,289.6,M,-23.7,M,18.8,0000*71
$GPGSA,A,3,01,23,31,32,20,16,14,30,,,,,1.9,1.0,1.6*3C
$GPGSV,3,1,11,32,71,294,27,30,54,148,36,31,54,032,35,20,42,307,32*79
$GPGSV,3,2,11,16,31,171,30,14,24,084,28,01,21,249,,23,17,296,31*79
$GPGSV,3,3,11,25,09,037,24,11,08,232,27,22,07,146,23*4E
$GPRMC,204256.000,A,3352.0056,N,09831.7356,W,5.94,68.08,020412,,,A*40
$GPGGA,204257.000,3352.0062,N,09831.7338,W,1,07,1.1,289.9,M,-23.7,M,18.8,0000*7E
$GPGSA,A,3,01,23,31,32,20,16,14,,,,,,2.1,1.1,1.8*3B
$GPRMC,204257.000,A,3352.0062,N,09831.7338,W,6.09,69.85,020412,,,A*4D
$GPGGA,204258.000,3352.0067,N,09831.7318,W,1,08,1.0,290.2,M,-23.7,M,18.8,0000*7B
$GPGSA,A,3,01,23,31,32,20,16,14,30,,,,,1.9,1.0,1.6*3C
$GPRMC,204258.000,A,3352.0067,N,09831.7318,W,6.20,72.77,020412,,,A*49
$GPGGA,204259.000,3352.0072,N,09831.7299,W,1,08,1.0,290.3,M,-23.7,M,18.8,0000*77
$GPGSA,A,3,01,23,31,32,20,16,14,30,,,,,1.9,1.0,1.6*3C
$GPRMC,204259.000,A,3352.0072,N,09831.7299,W,6.31,74.24,020412,,,A*44
$GPGGA,204300.000,3352.0077,N,09831.7278,W,1,08,1.0,290.4,M,-23.7,M,18.8,0000*77
$GPGSA,A,3,01,23,31,32,20,16,14,30,,,,,1.9,1.0,1.6*3C
$GPRMC,204300.000,A,3352.0077,N,09831.7278,W,6.65,74.26,020412,,,A*40
$GPGGA,204301.000,3352.0083,N,09831.7257,W,1,08,1.0,290.4,M,-23.7,M,18.8,0000*70
$GPGSA,A,3,01,23,31,32,20,16,14,30,,,,,1.9,1.0,1.6*3C
$GPGSV,3,1,11,32,71,294,33,30,54,148,28,31,54,032,29,20,42,307,33*7F
$GPGSV,3,2,11,16,31,171,25,14,24,084,24,01,21,249,,23,17,296,24*75
$GPGSV,3,3,11,25,09,037,30,11,08,232,21,22,07,146,27*49
$GPRMC,204301.000,A,3352.0083,N,09831.7257,W,6.90,74.36,020412,,,A*4C
$GPGGA,204302.000,3352.0088,N,09831.7237,W,1,08,1.0,290.4,M,-23.7,M,18.8,0000*7E
$GPGSA,A,3,01,23,31,32,20,16,14,30,,,,,1.9,1.0,1.6*3C
$GPRMC,204302.000,A,3352.0088,N,09831.7237,W,6.40,74.99,020412,,,A*4A
$GPGGA,204303.000,3352.0092,N,09831.7219,W,1,08,1.0,290.5,M,-23.7,M,18.8,0000*79
$GPGSA,A,3,01,23,31,32,20,16,14,30,,,,,1.9,1.0,1.6*3C
$GPRMC,204303.000,A,3352.0092,N,09831.7219,W,5.68,75.68,020412,,,A*4A
$GPGGA,204304.000,3352.0095,N,09831.7201,W,1,08,1.0,290.5,M,-23.7,M,18.8,0000*70
$GPGSA,A,3,01,23,31,32,20,16,14,30,,,,,1.9,1.0,1.6*3C
$GPRMC,204304.000,A,3352.0095,N,09831.7201,W,5.61,78.41,020412,,,A*4C
$GPGGA,204305.000,3352.0099,N,09831.7183,W,1,08,1.0,290.7,M,-23.7,M,18.8,0000*76
$GPGSA,A,3,01,23,31,32,20,16,14,30,,,,,1.9,1.0,1.6*3C
$GPRMC,204305.000,A,3352.0099,N,09831.7183,W,5.80,79.05,020412,,,A*46
$GPGGA,204306.000,3352.0102,N,09831.7162,W,1,08,1.0,290.8,M,-23.7,M,18.8,0000*76
$GPGSA,A,3,01,23,31,32,20,16,14,30,,,,,1.9,1.0,1.6*3C
$GPGSV,3,1,11,32,71,294,33,30,54,148,27,31,54,032,29,20,42,307,25*77
$GPGSV,3,2,11,16,31,171,33,14,24,084,30,01,21,249,,23,17,296,35*77
$GPGSV,3,3,11,25,09,037,32,11,08,232,21,22,07,146,21*4D
$GPRMC,204306.000,A,3352.0102,N,09831.7162,W,6.47,79.46,020412,,,A*46
$GPGGA,204307.000,3352.0106,N,09831.7139,W,1,08,1.0,290.8,M,-23.7,M,18.8,0000*7D
$GPGSA,A,3,01,23,31,32,20,16,14,30,,,,,1.9,1.0,1.6*3C
$GPRMC,204307.000,A,3352.0106,N,09831.7139,W,7.31,80.32,020412,,,A*48
$GPGGA,204308.000,3352.0109,N,09831.7114,W,1,08,1.0,290.9,M,-23.7,M,18.8,0000*73
$GPGSA,A,3,01,23,31,32,20,16,14,30,,,,,1.9,1.0,1.6*3C
$GPRMC,204308.000,A,3352.0109,N,09831.7114,W,7.58,80.68,020412,,,A*47
$GPGGA,204309.000,3352.0112,N,09831.7091,W,1,08,1.0,290.8,M,-23.7,M,18.8,0000*75
$GPGSA,A,3,01,23,31,32,20,16,14,30,,,,,1.9,1.0,1.6*3C
$GPRMC,204309.000,A,3352.0112,N,09831.7091,W,7.24,80.75,020412,,,A*47
$GPGGA,204310.000,3352.0115,N,09831.7068,W,1,08,1.0,290.8,M,-23.7,M,18.8,0000*7C
$GPGSA,A,3,01,23,31,32,20,16,14,30,,,,,1.9,1.0,1.6*3C
$GPRMC,204310.000,A,3352.0115,N,09831.7068,W,6.86,80.61,020412,,,A*42
$GPGGA,204311.000,3352.0118,N,09831.7049,W,1,08,1.0,290.8,M,-23.7,M,18.8,0000*73
$GPGSA,A,3,01,23,31,32,20,16,14,30,,,,,1.9,1.0,1.6*3C
$GPGSV,3,1,11,32,71,294,28,30,54,148,28,31,54,032,29,20,42,307,30*76
$GPGSV,3,2,11,16,31,171,33,14,24,084,30,01,21,249,,23,17,296,36*74
$GPGSV,3,3,11,25,09,037,21,11,08,232,21,22,07,146,23*4D
$GPRMC,204311.000,A,3352.0118,N,09831.7049,W,5.97,80.15,020412,,,A*4D
$GPGGA,204312.000,3352.0120,N,09831.7034,W,1,08,1.0,290.7,M,-23.7,M,18.8,0000*7E
$GPGSA,A,3,01,23,31,32,20,16,14,30,,,,,1.9,1.0,1.6*3C
$GPRMC,204312.000,A,3352.0120,N,09831.7034,W,4.51,79.42,020412,,,A*40
$GPGGA,204313.000,3352.0122,N,09831.7025,W,1,08,1.0,290.6,M,-23.7,M,18.8,0000*7C
$GPGSA,A,3,01,23,31,32,20,16,14,30,,,,,1.9,1.0,1.6*3C
$GPRMC,204313.000,A,3352.0122,N,09831.7025,W,2.70,77.46,020412,,,A*4C
$GPGGA,204314.000,3352.0122,N,09831.7021,W,1,08,1.0,290.4,M,-23.7,M,18.8,0000*7D
$GPGSA,A,3,01,23,31,32,20,16,14,30,,,,,1.9,1.0,1.6*3C
$GPRMC,204314.000,A,3352.0122,N,09831.7021,W,1.14,74.21,020412,,,A*4C
$GPGGA,204315.000,3352.0125,N,09831.7018,W,1,07,1.1,290.2,M,-23.7,M,18.8,0000*79
$GPGSA,A,3,01,31,32,20,16,14,30,,,,,,2.3,1.1,2.0*30
$GPRMC,204315.000,A,3352.0125,N,09831.7018,W,1.10,45.15,020412,,,A*41
$GPGGA,204316.000,3352.0127,N,09831.7010,W,1,08,1.0,290.1,M,-23.7,M,18.8,0000*7D
$GPGSA,A,3,01,23,31,32,20,16,14,30,,,,,1.9,1.0,1.6*3C
$GPGSV,3,1,11,32,71,294,19,30,54,148,32,31,54,032,31,20,42,307,24*73
$GPGSV,3,2,11,16,31,171,34,14,24,084,21,01,21,249,,23,17,296,27*73
$GPGSV,3,3,11,25,09,037,19,11,08,232,25,22,07,146,25*44
$GPRMC,204316.000,A,3352.0127,N,09831.7010,W,2.83,69.06,020412,,,A*4D
$GPGGA,204317.000,3352.0134,N,09831.6997,W,1,07,1.1,290.0,M,-23.7,M,18.8,0000*76
$GPGSA,A,3,01,23,32,20,16,14,30,,,,,,2.0,1.1,1.7*34
$GPRMC,204317.000,A,3352.0134,N,09831.6997,W,4.49,55.64,020412,,,A*42
$GPGGA,204318.000,3352.0144,N,09831.6986,W,1,06,1.6,289.9,M,-23.7,M,18.8,0000*79
$GPGSA,A,3,23,31,32,20,14,30,,,,,,,2.4,1.6,1.8*3C
$GPRMC,204318.000,A,3352.0144,N,09831.6986,W,4.85,43.89,020412,,,A*4E
$GPGGA,204319.000,3352.0156,N,09831.6978,W,1,06,1.6,289.8,M,-23.7,M,18.8,0000*7B
$GPGSA,A,3,23,31,32,20,14,30,,,,,,,2.4,1.6,1.8*3C
$GPRMC,204319.000,A,3352.0156,N,09831.6978,W,4.98,32.22,020412,,,A*46
$GPGGA,204320.000,3352.0164,N,09831.6973,W,1,07,1.5,289.7,M,-23.7,M,18.8,0000*76
$GPGSA,A,3,16,23,31,32,20,01,30,,,,,,2.9,1.5,2.4*3E
$GPRMC,204320.000,A,3352.0164,N,09831.6973,W,3.08,24.40,020412,,,A*4B
$GPGGA,204321.000,3352.0170,N,09831.6971,W,1,08,1.0,289.7,M,-23.7,M,18.8,0000*7A
$GPGSA,A,3,16,23,31,32,20,01,14,30,,,,,1.9,1.0,1.6*3C
$GPGSV,3,1,11,32,71,294,30,30,54,148,26,31,54,032,28,20,42,307,34*74
$GPGSV,3,2,11,16,31,171,,14,24,084,13,01,21,249,30,23,17,296,30*70
$GPGSV,3,3,11,25,09,037,18,11,08,232,29,22,07,146,16*49
$GPRMC,204321.000,A,3352.0170,N,09831.6971,W,2.47,15.78,020412,,,A*4E
$GPGGA,204322.000,3352.0178,N,09831.6970,W,1,08,1.0,289.8,M,-23.7,M,18.8,0000*7F
$GPGSA,A,3,16,23,31,32,20,01,14,30,,,,,1.9,1.0,1.6*3C
$GPRMC,204322.000,A,3352.0178,N,09831.6970,W,2.76,5.85,020412,,,A*75
$GPGGA,204323.000,3352.0187,N,09831.6970,W,1,08,1.0,290.0,M,-23.7,M,18.8,0000*7E
$GPGSA,A,3,16,23,31,32,20,01,14,30,,,,,1.9,1.0,1.6*3C
$GPRMC,204323.000,A,3352.0187,N,09831.6970,W,3.46,359.81,020412,,,A*78
$GPGGA,204324.000,3352.0200,N,09831.6970,W,1,08,1.0,290.3,M,-23.7,M,18.8,0000*76
$GPGSA,A,3,16,23,31,32,20,01,14,30,,,,,1.9,1.0,1.6*3C
$GPRMC,204324.000,A,3352.0200,N,09831.6970,W,4.42,359.37,020412,,,A*7D
$GPGGA,204325.000,3352.0216,N,09831.6968,W,1,08,1.0,290.6,M,-23.7,M,18.8,0000*7C
$GPGSA,A,3,16,23,31,32,20,01,14,30,,,,,1.9,1.0,1.6*3C
$GPRMC,204325.000,A,3352.0216,N,09831.6968,W,5.91,2.81,020412,,,A*7D
$GPGGA,204326.000,3352.0237,N,09831.6968,W,1,08,1.0,290.9,M,-23.7,M,18.8,0000*73
$GPGSA,A,3,16,23,31,32,20,01,14,30,,,,,1.9,1.0,1.6*3C
$GPGSV,3,1,11,32,71,294,26,30,54,148,26,31,54,032,29,20,42,307,36*70
$GPGSV,3,2,11,16,31,171,,14,24,084,17,01,21,249,31,23,17,296,32*77
$GPGSV,3,3,11,25,09,037,17,11,08,232,30,22,07,146,14*4C
$GPRMC,204326.000,A,3352.0237,N,09831.6968,W,7.51,359.96,020412,,,A*78
$GPGGA,204327.000,3352.0260,N,09831.6967,W,1,08,1.0,291.2,M,-23.7,M,18.8,0000*75
$GPGSA,A,3,16,23,31,32,20,01,14,30,,,,,1.9,1.0,1.6*3C
$GPRMC,204327.000,A,3352.0260,N,09831.6967,W,8.25,1.60,020412,,,A*7F
$GPGGA,204328.000,3352.0282,N,09831.6969,W,1,08,1.0,291.7,M,-23.7,M,18.8,0000*7D
$GPGSA,A,3,16,23,31,32,20,01,14,30,,,,,1.9,1.0,1.6*3C
$GPRMC,204328.000,A,3352.0282,N,09831.6969,W,7.98,354.75,020412,,,A*7C
$GPGGA,204329.000,3352.0308,N,09831.6971,W,1,07,1.1,292.3,M,-23.7,M,18.8,0000*7F
$GPGSA,A,3,16,23,32,20,01,14,30,,,,,,2.0,1.1,1.7*34
$GPRMC,204329.000,A,3352.0308,N,09831.6971,W,8.92,354.86,020412,,,A*7E
$GPGGA,204330.000,3352.0333,N,09831.6974,W,1,08,1.0,293.0,M,-23.7,M,18.8,0000*76
$GPGSA,A,3,16,23,31,32,20,01,14,30,,,,,1.9,1.0,1.6*3C
$GPRMC,204330.000,A,3352.0333,N,09831.6974,W,9.15,353.59,020412,,,A*70
$GPGGA,204331.000,3352.0362,N,09831.6974,W,1,08,1.0,293.5,M,-23.7,M,18.8,0000*76
$GPGSA,A,3,16,23,31,32,20,01,14,30,,,,,1.9,1.0,1.6*3C
$GPGSV,3,1,11,32,71,294,27,30,54,148,26,31,54,032,33,20,42,307,37*7B
$GPGSV,3,2,11,16,31,171,,14,24,084,17,01,21,249,27,23,17,296,26*75
$GPGSV,3,3,11,25,09,037,16,11,08,232,28,22,07,146,13*43
$GPRMC,204331.000,A,3352.0362,N,09831.6974,W,9.97,358.79,020412,,,A*76
$GPGGA,204332.000,3352.0390,N,09831.6973,W,1,08,1.0,294.2,M,-23.7,M,18.8,0000*7F
$GPGSA,A,3,16,23,31,32,20,01,14,30,,,,,1.9,1.0,1.6*3C
$GPRMC,204332.000,A,3352.0390,N,09831.6973,W,9.92,0.54,020412,,,A*7B
$GPGGA,204333.000,3352.0417,N,09831.6971,W,1,08,1.0,294.7,M,-23.7,M,18.8,0000*71
$GPGSA,A,3,16,23,31,32,20,01,14,30,,,,,1.9,1.0,1.6*3C
$GPRMC,204333.000,A,3352.0417,N,09831.6971,W,9.25,1.17,020412,,,A*7A
$GPGGA,204334.000,3352.0440,N,09831.6969,W,1,07,1.1,295.0,M,-23.7,M,18.8,0000*75
$GPGSA,A,3,16,23,31,32,20,14,30,,,,,,2.1,1.1,1.7*36
$GPRMC,204334.000,A,3352.0440,N,09831.6969,W,8.06,2.87,020412,,,A*7C
$GPGGA,204335.000,3352.0458,N,09831.6967,W,1,08,1.0,295.2,M,-23.7,M,18.8,0000*7F
$GPGSA,A,3,16,23,31,32,20,01,14,30,,,,,1.9,1.0,1.6*3C
$GPRMC,204335.000,A,3352.0458,N,09831.6967,W,5.90,3.33,020412,,,A*76
$GPGGA,204336.000,3352.0470,N,09831.6967,W,1,08,1.0,295.3,M,-23.7,M,18.8,0000*77
$GPGSA,A,3,16,23,31,32,20,01,14,30,,,,,1.9,1.0,1.6*3C
$GPGSV,3,1,11,32,71,294,23,30,54,148,21,31,54,032,33,20,42,307,37*78
$GPGSV,3,2,11,16,31,171,25,14,24,084,27,01,21,249,,23,17,296,27*75
$GPGSV,3,3,11,25,09,037,30,11,08,232,28,22,07,146,13*47
$GPRMC,204336.000,A,3352.0470,N,09831.6967,W,4.00,1.18,020412,,,A*7C
$GPGGA,204337.000,3352.0482,N,09831.6966,W,1,08,1.0,295.4,M,-23.7,M,18.8,0000*7D
$GPGSA,A,3,16,23,31,32,20,01,14,30,,,,,1.9,1.0,1.6*3C
$GPRMC,204337.000,A,3352.0482,N,09831.6966,W,3.85,0.46,020412,,,A*71
$GPGGA,204338.000,3352.0496,N,09831.6966,W,1,08,1.0,295.4,M,-23.7,M,18.8,0000*77
$GPGSA,A,3,16,23,31,32,20,01,14,30,,,,,1.9,1.0,1.6*3C
$GPRMC,204338.000,A,3352.0496,N,09831.6966,W,4.56,1.18,020412,,,A*78
$GPGGA,204339.000,3352.0511,N,09831.6965,W,1,08,1.0,295.5,M,-23.7,M,18.8,0000*7A
$GPGSA,A,3,16,23,31,32,20,01,14,30,,,,,1.9,1.0,1.6*3C
$GPRMC,204339.000,A,3352.0511,N,09831.6965,W,5.33,2.76,020412,,,A*7D
$GPGGA,204340.000,3352.0528,N,09831.6964,W,1,08,1.0,295.6,M,-23.7,M,18.8,0000*7C
$GPGSA,A,3,16,23,31,32,20,01,14,30,,,,,1.9,1.0,1.6*3C
$GPRMC,204340.000,A,3352.0528,N,09831.6964,W,5.80,2.49,020412,,,A*7C
$GPGGA,204341.000,3352.0546,N,09831.6963,W,1,08,1.0,295.6,M,-23.7,M,18.8,0000*72
$GPGSA,A,3,16,23,31,32,20,01,14,30,,,,,1.9,1.0,1.6*3C
$GPGSV,3,1,11,32,71,294,19,30,54,148,23,31,54,032,32,20,42,307,38*7D
$GPGSV,3,2,11,16,31,171,23,14,24,084,28,01,21,249,,23,17,296,28*73
$GPGSV,3,3,11,25,09,037,26,11,08,232,28,22,07,146,13*40
$GPRMC,204341.000,A,3352.0546,N,09831.6963,W,6.21,2.18,020412,,,A*7E
$GPGGA,204342.000,3352.0565,N,09831.6961,W,1,08,1.0,295.5,M,-23.7,M,18.8,0000*71
$GPGSA,A,3,16,23,31,32,20,01,14,30,,,,,1.9,1.0,1.6*3C
$GPRMC,204342.000,A,3352.0565,N,09831.6961,W,6.31,2.63,020412,,,A*73
$GPGGA,204343.000,3352.0581,N,09831.6960,W,1,08,1.0,295.2,M,-23.7,M,18.8,0000*7C
$GPGSA,A,3,16,23,31,32,20,01,14,30,,,,,1.9,1.0,1.6*3C
$GPRMC,204343.000,A,3352.0581,N,09831.6960,W,5.49,3.99,020412,,,A*71
$GPGGA,204344.000,3352.0594,N,09831.6958,W,1,07,1.1,295.0,M,-23.7,M,18.8,0000*78
$GPGSA,A,3,16,23,31,32,20,01,14,,,,,,2.1,1.1,1.8*3B
$GPRMC,204344.000,A,3352.0594,N,09831.6958,W,4.22,2.89,020412,,,A*75
$GPGGA,204345.000,3352.0603,N,09831.6957,W,1,06,1.2,294.8,M,-23.7,M,18.8,0000*70
$GPGSA,A,3,16,23,31,32,20,14,,,,,,,2.2,1.2,1.8*3A
$GPRMC,204345.000,A,3352.0603,N,09831.6957,W,2.99,4.76,020412,,,A*76
$GPGGA,204346.000,3352.0610,N,09831.6956,W,1,07,1.1,294.6,M,-23.7,M,18.8,0000*7C
$GPGSA,A,3,16,23,31,32,20,01,14,,,,,,2.1,1.1,1.8*3B
$GPGSV,3,1,12,32,71,294,25,30,54,148,,31,54,032,32,20,42,307,38*70
$GPGSV,3,2,12,16,31,171,27,14,24,084,28,01,21,249,,23,17,296,30*7D
$GPGSV,3,3,12,25,09,037,27,11,08,232,28,22,07,146,12,51,49,195,27*72
$GPRMC,204346.000,A,3352.0610,N,09831.6956,W,2.04,4.69,020412,,,A*7C
$GPGGA,204347.000,3352.0613,N,09831.6956,W,1,07,1.1,294.4,M,-23.7,M,18.8,0000*7C
$GPGSA,A,3,16,23,31,32,20,01,14,,,,,,2.1,1.1,1.8*3B
$GPRMC,204347.000,A,3352.0613,N,09831.6956,W,0.91,359.30,020412,,,A*77
$GPGGA,204348.000,3352.0615,N,09831.6955,W,1,07,1.1,294.2,M,-23.7,M,18.8,0000*70
$GPGSA,A,3,16,23,31,32,20,01,14,,,,,,2.1,1.1,1.8*3B
$GPRMC,204348.000,A,3352.0615,N,09831.6955,W,0.26,9.11,020412,,,A*74
$GPGGA,204349.000,3352.0618,N,09831.6955,W,1,07,1.1,294.0,M,-23.7,M,18.8,0000*7E
$GPGSA,A,3,16,23,31,32,20,01,14,,,,,,2.1,1.1,1.8*3B
$GPRMC,204349.000,A,3352.0618,N,09831.6955,W,0.79,3.85,020412,,,A*75
$GPGGA,204350.000,3352.0626,N,09831.6955,W,1,07,1.1,293.8,M,-23.7,M,18.8,0000*74
$GPGSA,A,3,16,23,31,32,20,01,14,,,,,,2.1,1.1,1.8*3B
$GPRMC,204350.000,A,3352.0626,N,09831.6955,W,2.73,356.43,020412,,,A*71
$GPGGA,204351.000,3352.0640,N,09831.6959,W,1,05,1.8,293.7,M,-23.7,M,18.8,0000*7D
$GPGSA,A,3,23,31,20,01,14,,,,,,,,3.4,1.8,2.8*33
$GPGSV,3,1,12,32,71,294,,30,54,148,,31,54,032,37,20,42,307,38*72
$GPGSV,3,2,12,16,31,171,,14,24,084,28,01,21,249,32,23,17,296,33*7A
$GPGSV,3,3,12,25,09,037,29,11,08,232,29,22,07,146,13,51,49,195,33*79
$GPRMC,204351.000,A,3352.0640,N,09831.6959,W,4.82,344.14,020412,,,A*75
$GPGGA,204352.000,3352.0655,N,09831.6973,W,1,07,1.2,293.7,M,-23.7,M,18.8,0000*7A
$GPGSA,A,3,32,23,31,30,20,01,14,,,,,,2.1,1.2,1.6*32
$GPRMC,204352.000,A,3352.0655,N,09831.6973,W,6.83,322.36,020412,,,A*79
$GPGGA,204353.000,3352.0668,N,09831.6997,W,1,07,1.2,293.7,M,-23.7,M,18.8,0000*7F
$GPGSA,A,3,32,23,31,30,20,01,14,,,,,,2.1,1.2,1.6*32
$GPRMC,204353.000,A,3352.0668,N,09831.6997,W,8.77,301.49,020412,,,A*70
$GPGGA,204354.000,3352.0675,N,09831.7029,W,1,07,1.2,293.7,M,-23.7,M,18.8,0000*79
$GPGSA,A,3,32,23,31,30,20,01,14,,,,,,2.1,1.2,1.6*32
$GPRMC,204354.000,A,3352.0675,N,09831.7029,W,10.18,283.38,020412,,,A*4B
$GPGGA,204355.000,3352.0680,N,09831.7066,W,1,07,1.2,293.5,M,-23.7,M,18.8,0000*7B
$GPGSA,A,3,32,23,31,30,20,01,14,,,,,,2.1,1.2,1.6*32
$GPRMC,204355.000,A,3352.0680,N,09831.7066,W,11.30,278.08,020412,,,A*47
$GPGGA,204356.000,3352.0685,N,09831.7104,W,1,07,1.2,293.4,M,-23.7,M,18.8,0000*79
$GPGSA,A,3,32,23,31,30,20,01,14,,,,,,2.1,1.2,1.6*32
$GPGSV,3,1,12,32,71,294,36,30,54,148,34,31,54,032,34,20,42,307,33*78
$GPGSV,3,2,12,16,31,171,,14,24,084,28,01,21,249,30,23,17,296,32*79
$GPGSV,3,3,12,25,09,037,19,11,08,232,34,22,07,146,22,48,36,230,39*72
$GPRMC,204356.000,A,3352.0685,N,09831.7104,W,11.63,277.42,020412,,,A*43
$GPGGA,204357.000,3352.0695,N,09831.7135,W,2,07,1.2,291.7,M,-23.7,M,0.8,0000*40
$GPGSA,A,3,32,23,31,30,20,01,14,,,,,,2.1,1.2,1.6*32
$GPRMC,204357.000,A,3352.0695,N,09831.7135,W,11.24,278.00,020412,,,D*4E
$GPGGA,204358.000,3352.0701,N,09831.7171,W,2,08,1.0,291.5,M,-23.7,M,0.8,0000*4C
$GPGSA,A,3,32,23,31,30,16,20,01,14,,,,,1.9,1.0,1.6*3C
$GPRMC,204358.000,A,3352.0701,N,09831.7171,W,10.67,281.11,020412,,,D*4D
$GPGGA,204359.000,3352.0703,N,09831.7204,W,2,08,1.0,290.9,M,-23.7,M,0.8,0000*43
$GPGSA,A,3,32,23,31,30,16,20,01,14,,,,,1.9,1.0,1.6*3C
$GPRMC,204359.000,A,3352.0703,N,09831.7204,W,9.44,282.76,020412,,,D*74
$GPGGA,204400.000,3352.0706,N,09831.7231,W,2,08,1.0,290.5,M,-23.7,M,1.8,0000*46
$GPGSA,A,3,32,23,31,30,16,20,01,14,,,,,1.9,1.0,1.6*3C
$GPRMC,204400.000,A,3352.0706,N,09831.7231,W,7.97,285.24,020412,,,D*7C
$GPGGA,204401.000,3352.0710,N,09831.7254,W,2,08,1.0,290.4,M,-23.7,M,2.8,0000*41
$GPGSA,A,3,32,23,31,30,16,20,01,14,,,,,1.9,1.0,1.6*3C
$GPGSV,3,1,12,32,71,294,36,30,54,148,35,31,54,032,34,20,42,307,25*7E
$GPGSV,3,2,12,16,31,171,34,14,24,084,22,01,21,249,32,23,17,296,23*76
$GPGSV,3,3,12,25,09,037,,11,08,232,26,22,07,146,28,48,36,230,33*79
$GPRMC,204401.000,A,3352.0710,N,09831.7254,W,6.45,288.28,020412,,,D*76
$GPGGA,204402.000,3352.0714,N,09831.7271,W,2,08,1.0,290.4,M,-23.7,M,3.8,0000*40
$GPGSA,A,3,32,23,31,30,16,20,01,14,,,,,1.9,1.0,1.6*3C
$GPRMC,204402.000,A,3352.0714,N,09831.7271,W,5.07,291.42,020412,,,D*77
$GPGGA,204403.000,3352.0720,N,09831.7285,W,2,08,1.0,290.5,M,-23.7,M,4.8,0000*4B
$GPGSA,A,3,32,23,31,30,16,20,01,14,,,,,1.9,1.0,1.6*3C
$GPRMC,204403.000,A,3352.0720,N,09831.7285,W,3.84,295.68,020412,,,D*7B
$GPGGA,204404.000,3352.0723,N,09831.7293,W,2,08,1.0,290.7,M,-23.7,M,0.8,0000*4E
$GPGSA,A,3,32,23,31,30,16,20,01,14,,,,,1.9,1.0,1.6*3C
$GPRMC,204404.000,A,3352.0723,N,09831.7293,W,1.63,299.60,020412,,,D*77
$GPGGA,204405.000,3352.0725,N,09831.7298,W,2,08,1.0,290.8,M,-23.7,M,0.8,0000*4D
$GPGSA,A,3,32,23,31,30,16,20,01,14,,,,,1.9,1.0,1.6*3C
$GPRMC,204405.000,A,3352.0725,N,09831.7298,W,1.25,301.86,020412,,,D*71
$GPGGA,204406.000,3352.0728,N,09831.7303,W,2,08,1.0,291.2,M,-23.7,M,1.8,0000*4A
$GPGSA,A,3,32,23,31,30,16,20,01,14,,,,,1.9,1.0,1.6*3C
$GPGSV,3,1,12,32,71,294,36,30,54,148,26,31,54,032,35,20,42,307,32*7B
$GPGSV,3,2,12,16,31,171,29,14,24,084,23,01,21,249,22,23,17,296,31*79
$GPGSV,3,3,12,25,09,037,,11,08,232,29,22,07,146,33,48,36,230,29*77
$GPRMC,204406.000,A,3352.0728,N,09831.7303,W,2.60,310.12,020412,,,D*73
$GPGGA,204407.000,3352.0736,N,09831.7313,W,2,08,1.0,291.3,M,-23.7,M,2.8,0000*47
$GPGSA,A,3,32,23,31,30,16,20,01,14,,,,,1.9,1.0,1.6*3C
$GPRMC,204407.000,A,3352.0736,N,09831.7313,W,5.65,319.77,020412,,,D*74
$GPGGA,204408.000,3352.0754,N,09831.7323,W,2,08,1.0,291.6,M,-23.7,M,3.8,0000*4B
$GPGSA,A,3,32,23,31,30,16,20,01,14,,,,,1.9,1.0,1.6*3C
$GPRMC,204408.000,A,3352.0754,N,09831.7323,W,7.49,345.47,020412,,,D*7A
$GPGGA,204409.000,3352.0779,N,09831.7322,W,2,08,1.0,292.3,M,-23.7,M,0.8,0000*41
$GPGSA,A,3,32,23,31,30,16,20,01,14,,,,,1.9,1.0,1.6*3C
$GPRMC,204409.000,A,3352.0779,N,09831.7322,W,8.51,2.01,020412,,,D*71
$GPGGA,204410.000,3352.0809,N,09831.7313,W,2,08,1.0,292.5,M,-23.7,M,1.8,0000*44
$GPGSA,A,3,32,23,31,30,16,20,01,14,,,,,1.9,1.0,1.6*3C
$GPGSV,3,1,12,32,71,294,25,30,54,148,26,31,54,032,30,20,42,307,39*77
$GPGSV,3,2,12,16,31,171,30,14,24,084,27,01,21,249,31,23,17,296,31*77
$GPGSV,3,3,12,25,09,037,,11,08,232,18,22,07,146,25,48,36,230,32*78
$GPRMC,204410.000,A,3352.0809,N,09831.7313,W,10.74,13.54,020412,,,D*7D
$GPGGA,204411.000,3352.0846,N,09831.7293,W,2,08,1.0,292.6,M,-23.7,M,2.8,0000*47
$GPGSA,A,3,32,23,31,30,16,20,01,14,,,,,1.9,1.0,1.6*3C
$GPGSV,3,1,12,32,71,294,28,30,54,148,27,31,54,032,31,20,42,307,39*7A
$GPGSV,3,2,12,16,31,171,29,14,24,084,26,01,21,249,31,23,17,296,32*7D
$GPGSV,3,3,12,25,09,037,,11,08,232,26,22,07,146,22,48,36,230,37*77
$GPRMC,204411.000,A,3352.0846,N,09831.7293,W,14.36,19.91,020412,,,D*7F
$GPGGA,204412.000,3352.0888,N,09831.7274,W,2,08,1.0,292.8,M,-23.7,M,0.8,0000*43
$GPGSA,A,3,32,23,31,30,16,20,01,14,,,,,1.9,1.0,1.6*3C
$GPRMC,204412.000,A,3352.0888,N,09831.7274,W,16.43,20.83,020412,,,D*7E
$GPGGA,204413.000,3352.0936,N,09831.7252,W,2,08,1.0,293.3,M,-23.7,M,1.8,0000*49
$GPGSA,A,3,32,23,31,30,16,20,01,14,,,,,1.9,1.0,1.6*3C
$GPRMC,204413.000,A,3352.0936,N,09831.7252,W,18.27,20.58,020412,,,D*75
$GPGGA,204414.000,3352.0986,N,09831.7229,W,2,08,1.0,293.4,M,-23.7,M,0.8,0000*4F
$GPGSA,A,3,32,23,31,30,16,20,01,14,,,,,1.9,1.0,1.6*3C
$GPRMC,204414.000,A,3352.0986,N,09831.7229,W,19.55,20.97,020412,,,D*72
$GPGGA,204415.000,3352.1040,N,09831.7206,W,2,08,1.0,293.6,M,-23.7,M,0.8,0000*43
$GPGSA,A,3,32,23,31,30,16,20,01,14,,,,,1.9,1.0,1.6*3C
$GPRMC,204415.000,A,3352.1040,N,09831.7206,W,20.60,18.81,020412,,,D*7C
$GPGGA,204416.000,3352.1097,N,09831.7186,W,2,08,1.0,293.9,M,-23.7,M,0.8,0000*4E
$GPGSA,A,3,32,23,31,30,16,20,01,14,,,,,1.9,1.0,1.6*3C
$GPGSV,3,1,12,32,71,294,32,30,54,148,23,31,54,032,30,20,42,307,35*78
$GPGSV,3,2,12,16,31,171,29,14,24,084,26,01,21,249,27,23,17,296,27*7E
$GPGSV,3,3,12,25,09,037,,11,08,232,18,22,07,146,21,48,36,230,27*78
$GPRMC,204416.000,A,3352.1097,N,09831.7186,W,21.38,15.43,020412,,,D*71
$GPGGA,204417.000,3352.1156,N,09831.7165,W,2,08,1.0,293.8,M,-23.7,M,1.8,0000*4E
$GPGSA,A,3,32,23,31,30,16,20,01,14,,,,,1.9,1.0,1.6*3C
$GPRMC,204417.000,A,3352.1156,N,09831.7165,W,21.40,13.43,020412,,,D*78
$GPGGA,204418.000,3352.1210,N,09831.7151,W,2,08,1.0,294.8,M,-23.7,M,2.8,0000*43
$GPGSA,A,3,32,23,31,30,16,20,01,14,,,,,1.9,1.0,1.6*3C
$GPRMC,204418.000,A,3352.1210,N,09831.7151,W,19.54,11.46,020412,,,D*78
$GPGGA,204419.000,3352.1269,N,09831.7146,W,2,08,1.0,296.1,M,-23.7,M,3.8,0000*40
$GPGSA,A,3,32,23,31,30,16,20,01,14,,,,,1.9,1.0,1.6*3C
$GPRMC,204419.000,A,3352.1269,N,09831.7146,W,21.66,5.37,020412,,,D*48
$GPGGA,204420.000,3352.1342,N,09831.7142,W,2,08,1.0,296.2,M,-23.7,M,4.8,0000*42
$GPGSA,A,3,32,23,31,30,16,20,01,14,,,,,1.9,1.0,1.6*3C
$GPRMC,204420.000,A,3352.1342,N,09831.7142,W,24.34,0.55,020412,,,D*4D
$GPGGA,204421.000,3352.1414,N,09831.7137,W,2,08,1.0,295.1,M,-23.7,M,0.8,0000*41
$GPGSA,A,3,32,23,31,30,16,20,01,14,,,,,1.9,1.0,1.6*3C
$GPGSV,3,1,12,32,71,294,26,30,54,148,23,31,54,032,25,20,42,307,36*7A
$GPGSV,3,2,12,16,31,171,18,14,24,084,25,01,21,249,27,23,17,296,25*7D
$GPGSV,3,3,12,25,09,037,,11,08,232,19,22,07,146,24,48,36,230,30*7A
$GPRMC,204421.000,A,3352.1414,N,09831.7137,W,25.03,359.10,020412,,,D*41
$GPGGA,204422.000,3352.1484,N,09831.7139,W,2,08,1.0,295.2,M,-23.7,M,1.8,0000*47
$GPGSA,A,3,32,23,31,30,16,20,01,14,,,,,1.9,1.0,1.6*3C
$GPRMC,204422.000,A,3352.1484,N,09831.7139,W,25.35,359.48,020412,,,D*4D
$GPGGA,204423.000,3352.1557,N,09831.7140,W,2,08,1.0,294.8,M,-23.7,M,2.8,0000*4F
$GPGSA,A,3,32,23,31,30,16,20,01,14,,,,,1.9,1.0,1.6*3C
$GPRMC,204423.000,A,3352.1557,N,09831.7140,W,25.35,0.00,020412,,,D*4E
$GPGGA,204424.000,3352.1630,N,09831.7139,W,2,08,1.0,294.7,M,-23.7,M,3.8,0000*4A
$GPGSA,A,3,32,23,31,30,16,20,01,14,,,,,1.9,1.0,1.6*3C
$GPRMC,204424.000,A,3352.1630,N,09831.7139,W,25.29,0.76,020412,,,D*49
$GPGGA,204425.000,3352.1703,N,09831.7139,W,2,08,1.0,294.6,M,-23.7,M,0.8,0000*48
$GPGSA,A,3,32,23,31,30,16,20,01,14,,,,,1.9,1.0,1.6*3C
$GPRMC,204425.000,A,3352.1703,N,09831.7139,W,24.99,0.58,020412,,,D*4F
$GPGGA,204426.000,3352.1775,N,09831.7138,W,2,08,1.0,294.2,M,-23.7,M,0.8,0000*4F
$GPGSA,A,3,32,23,31,30,16,20,01,14,,,,,1.9,1.0,1.6*3C
$GPGSV,3,1,12,32,71,294,27,30,54,148,30,31,54,032,31,20,42,307,37*7D
$GPGSV,3,2,12,16,31,171,24,14,24,084,26,01,21,249,27,23,17,296,25*71
$GPGSV,3,3,12,25,09,037,,11,08,232,22,22,07,146,26,48,36,230,29*78
$GPRMC,204426.000,A,3352.1775,N,09831.7138,W,24.96,0.38,020412,,,D*45
$GPGGA,204427.000,3352.1845,N,09831.7140,W,2,08,1.0,294.1,M,-23.7,M,1.8,0000*4F
$GPGSA,A,3,32,23,31,30,16,20,01,14,,,,,1.9,1.0,1.6*3C
$GPRMC,204427.000,A,3352.1845,N,09831.7140,W,23.61,0.14,020412,,,D*46
$GPGGA,204428.000,3352.1904,N,09831.7143,W,2,08,1.0,294.8,M,-23.7,M,2.8,0000*4D
$GPGSA,A,3,32,23,31,30,16,20,01,14,,,,,1.9,1.0,1.6*3C
$GPRMC,204428.000,A,3352.1904,N,09831.7143,W,21.07,359.10,020412,,,D*47
$GPGGA,204429.000,3352.1961,N,09831.7145,W,2,08,1.0,293.9,M,-23.7,M,0.8,0000*4D
$GPGSA,A,3,32,23,31,30,16,20,01,14,,,,,1.9,1.0,1.6*3C
$GPRMC,204429.000,A,3352.1961,N,09831.7145,W,18.61,0.18,020412,,,D*4E
$GPGGA,204430.000,3352.2008,N,09831.7144,W,2,08,1.0,293.7,M,-23.7,M,1.8,0000*4E
$GPGSA,A,3,32,23,31,30,16,20,01,14,,,,,1.9,1.0,1.6*3C
$GPRMC,204430.000,A,3352.2008,N,09831.7144,W,16.06,1.52,020412,,,D*42
$GPGGA,204431.000,3352.2043,N,09831.7143,W,2,08,1.0,293.1,M,-23.7,M,2.8,0000*42
$GPGSA,A,3,32,23,31,30,16,20,01,14,,,,,1.9,1.0,1.6*3C
$GPGSV,3,1,12,32,71,294,28,30,54,148,26,31,54,032,32,20,42,307,38*79
$GPGSV,3,2,12,16,31,171,25,14,24,084,16,01,21,249,27,23,17,296,26*70
$GPGSV,3,3,12,25,09,037,26,11,08,232,23,22,07,146,,48,36,230,30*71
$GPRMC,204431.000,A,3352.2043,N,09831.7143,W,12.15,1.90,020412,,,D*43
$GPGGA,204432.000,3352.2066,N,09831.7145,W,2,08,1.0,293.1,M,-23.7,M,3.8,0000*41
$GPGSA,A,3,32,23,31,30,16,20,01,14,,,,,1.9,1.0,1.6*3C
$GPRMC,204432.000,A,3352.2066,N,09831.7145,W,8.18,3.06,020412,,,D*7A
$GPGGA,204433.000,3352.2079,N,09831.7146,W,2,08,1.0,292.9,M,-23.7,M,0.8,0000*47
$GPGSA,A,3,32,23,31,30,16,20,01,14,,,,,1.9,1.0,1.6*3C
$GPRMC,204433.000,A,3352.2079,N,09831.7146,W,5.15,0.95,020412,,,D*7F
$GPGGA,204434.000,3352.2087,N,09831.7148,W,2,08,1.0,292.4,M,-23.7,M,0.8,0000*42
$GPGSA,A,3,32,23,31,30,16,20,01,14,,,,,1.9,1.0,1.6*3C
$GPRMC,204434.000,A,3352.2087,N,09831.7148,W,2.75,1.69,020412,,,D*74
$GPGGA,204435.000,3352.2089,N,09831.7149,W,2,08,1.0,291.6,M,-23.7,M,0.8,0000*4D
$GPGSA,A,3,32,23,31,30,16,20,01,14,,,,,1.9,1.0,1.6*3C
$GPRMC,204435.000,A,3352.2089,N,09831.7149,W,0.90,1.31,020412,,,D*7E
$GPGGA,204436.000,3352.2088,N,09831.7150,W,2,08,1.0,290.7,M,-23.7,M,1.8,0000*46
$GPGSA,A,3,32,23,31,30,16,20,01,14,,,,,1.9,1.0,1.6*3C
$GPGSV,3,1,12,32,71,294,29,30,54,148,26,31,54,032,32,20,42,307,38*78
$GPGSV,3,2,12,16,31,171,25,14,24,084,27,01,21,249,27,23,17,296,27*73
$GPGSV,3,3,12,25,09,037,30,11,08,232,26,22,07,146,,48,36,230,32*71
$GPRMC,204436.000,A,3352.2088,N,09831.7150,W,0.24,354.17,020412,,,D*7C
$GPGGA,204437.000,3352.2087,N,09831.7149,W,2,08,1.0,289.2,M,-23.7,M,2.8,0000*4E
$GPGSA,A,3,32,23,31,30,16,20,01,14,,,,,1.9,1.0,1.6*3C
$GPRMC,204437.000,A,3352.2087,N,09831.7149,W,0.15,33.16,020412,,,D*4B
$GPGGA,204438.000,3352.2085,N,09831.7149,W,2,08,1.0,287.9,M,-23.7,M,3.8,0000*47
$GPGSA,A,3,32,23,31,30,16,20,01,14,,,,,1.9,1.0,1.6*3C
$GPRMC,204438.000,A,3352.2085,N,09831.7149,W,0.14,20.38,020412,,,D*49
$GPGGA,204439.000,3352.2083,N,09831.7148,W,2,08,1.0,286.7,M,-23.7,M,0.8,0000*4D
$GPGSA,A,3,32,23,31,30,16,20,01,14,,,,,1.9,1.0,1.6*3C
$GPRMC,204439.000,A,3352.2083,N,09831.7148,W,0.10,72.79,020412,,,D*49
$GPGGA,204440.000,3352.2082,N,09831.7147,W,2,08,1.0,285.5,M,-23.7,M,0.8,0000*4C
$GPGSA,A,3,32,23,31,30,16,20,01,14,,,,,1.9,1.0,1.6*3C
$GPRMC,204440.000,A,3352.2082,N,09831.7147,W,0.24,20.84,020412,,,D*4B
$GPGGA,204441.000,3352.2084,N,09831.7148,W,2,08,1.0,284.8,M,-23.7,M,0.8,0000*48
$GPGSA,A,3,32,23,31,30,16,20,01,14,,,,,1.9,1.0,1.6*3C
$GPGSV,3,1,12,32,71,294,29,30,54,148,26,31,54,032,32,20,42,307,39*79
$GPGSV,3,2,12,16,31,171,24,14,24,084,25,01,21,249,26,23,17,296,27*71
$GPGSV,3,3,12,25,09,037,31,11,08,232,28,22,07,146,,48,36,230,32*7E
$GPRMC,204441.000,A,3352.2084,N,09831.7148,W,1.09,357.13,020412,,,D*70
$GPGGA,204442.000,3352.2089,N,09831.7148,W,2,08,1.0,284.0,M,-23.7,M,0.8,0000*4E
$GPGSA,A,3,32,23,31,30,16,20,01,14,,,,,1.9,1.0,1.6*3C
$GPRMC,204442.000,A,3352.2089,N,09831.7148,W,1.98,4.44,020412,,,D*71
$GPGGA,204443.000,3352.2094,N,09831.7148,W,2,08,1.0,283.5,M,-23.7,M,0.8,0000*41
$GPGSA,A,3,32,23,31,30,16,20,01,14,,,,,1.9,1.0,1.6*3C
$GPRMC,204443.000,A,3352.2094,N,09831.7148,W,1.82,7.67,020412,,,D*75
$GPGGA,204444.000,3352.2097,N,09831.7148,W,2,08,1.0,282.9,M,-23.7,M,1.8,0000*49
$GPGSA,A,3,32,23,31,30,16,20,01,14,,,,,1.9,1.0,1.6*3C
$GPRMC,204444.000,A,3352.2097,N,09831.7148,W,0.49,6.10,020412,,,D*76
$GPGGA,204445.000,3352.2098,N,09831.7148,W,2,08,1.0,282.4,M,-23.7,M,0.8,0000*4B
$GPGSA,A,3,32,23,31,30,16,20,01,14,,,,,1.9,1.0,1.6*3C
$GPRMC,204445.000,A,3352.2098,N,09831.7148,W,0.26,36.34,020412,,,D*44
$GPGGA,204446.000,3352.2099,N,09831.7148,W,2,08,1.0,281.8,M,-23.7,M,0.8,0000*46
$GPGSA,A,3,32,23,31,30,16,20,01,14,,,,,1.9,1.0,1.6*3C
$GPGSV,3,1,12,32,71,294,27,30,54,148,27,31,54,032,32,20,42,307,39*76
$GPGSV,3,2,12,16,31,171,25,14,24,084,23,01,21,249,27,23,17,296,26*76
$GPGSV,3,3,12,25,09,037,30,11,08,232,24,22,07,146,,48,36,230,32*73
$GPRMC,204446.000,A,3352.2099,N,09831.7148,W,0.48,20.32,020412,,,D*4F
$GPGGA,204447.000,3352.2101,N,09831.7148,W,2,08,1.0,281.7,M,-23.7,M,0.8,0000*48
$GPGSA,A,3,32,23,31,30,16,20,01,14,,,,,1.9,1.0,1.6*3C
$GPRMC,204447.000,A,3352.2101,N,09831.7148,W,1.14,1.51,020412,,,D*70
$GPGGA,204448.000,3352.2108,N,09831.7147,W,2,08,1.0,281.6,M,-23.7,M,1.8,0000*41
$GPGSA,A,3,32,23,31,30,16,20,01,14,,,,,1.9,1.0,1.6*3C
$GPRMC,204448.000,A,3352.2108,N,09831.7147,W,3.14,1.59,020412,,,D*73
$GPGGA,204449.000,3352.2122,N,09831.7147,W,2,08,1.0,281.4,M,-23.7,M,0.8,0000*4B
$GPGSA,A,3,32,23,31,30,16,20,01,14,,,,,1.9,1.0,1.6*3C
$GPRMC,204449.000,A,3352.2122,N,09831.7147,W,5.75,0.63,020412,,,D*73
$GPGGA,204450.000,3352.2145,N,09831.7147,W,2,08,1.0,281.3,M,-23.7,M,1.8,0000*44
$GPGSA,A,3,32,23,31,30,16,20,01,14,,,,,1.9,1.0,1.6*3C
$GPRMC,204450.000,A,3352.2145,N,09831.7147,W,8.71,358.81,020412,,,D*71
$GPGGA,204451.000,3352.2175,N,09831.7148,W,2,08,1.0,281.3,M,-23.7,M,0.8,0000*48
$GPGSA,A,3,32,23,31,30,16,20,01,14,,,,,1.9,1.0,1.6*3C
$GPGSV,3,1,12,32,71,294,28,30,54,148,27,31,54,032,31,20,42,307,39*7A
$GPGSV,3,2,12,16,31,171,24,14,24,084,28,01,21,249,27,23,17,296,24*7E
$GPGSV,3,3,12,25,09,037,30,11,08,232,24,22,07,146,,48,36,230,30*71
$GPRMC,204451.000,A,3352.2175,N,09831.7148,W,11.06,359.52,020412,,,D*4B
$GPGGA,204452.000,3352.2206,N,09831.7148,W,2,08,1.0,282.1,M,-23.7,M,0.8,0000*4D
$GPGSA,A,3,32,23,31,30,16,20,01,14,,,,,1.9,1.0,1.6*3C
$GPRMC,204452.000,A,3352.2206,N,09831.7148,W,12.31,0.04,020412,,,D*44
$GPGGA,204453.000,3352.2240,N,09831.7148,W,2,08,1.0,282.6,M,-23.7,M,0.8,0000*49
$GPGSA,A,3,32,23,31,30,16,20,01,14,,,,,1.9,1.0,1.6*3C
$GPRMC,204453.000,A,3352.2240,N,09831.7148,W,13.66,0.18,020412,,,D*49
$GPGGA,204454.000,3352.2280,N,09831.7148,W,2,08,1.0,283.2,M,-23.7,M,1.8,0000*46
$GPGSA,A,3,32,23,31,30,16,20,01,14,,,,,1.9,1.0,1.6*3C
$GPRMC,204454.000,A,3352.2280,N,09831.7148,W,14.85,1.07,020412,,,D*47
$GPGGA,204455.000,3352.2323,N,09831.7147,W,2,08,1.0,283.7,M,-23.7,M,2.8,0000*46
$GPGSA,A,3,32,23,31,30,16,20,01,14,,,,,1.9,1.0,1.6*3C
$GPRMC,204455.000,A,3352.2323,N,09831.7147,W,15.75,1.27,020412,,,D*4D
$GPGGA,204456.000,3352.2369,N,09831.7146,W,2,08,1.0,284.0,M,-23.7,M,3.8,0000*4B
$GPGSA,A,3,32,23,31,30,16,20,01,14,,,,,1.9,1.0,1.6*3C
$GPGSV,3,1,12,32,71,294,26,30,54,148,30,31,54,032,31,20,42,307,39*72
$GPGSV,3,2,12,16,31,171,25,14,24,084,29,01,21,249,28,23,17,296,25*70
$GPGSV,3,3,12,25,09,037,22,11,08,232,24,22,07,146,,48,36,230,29*7A
$GPRMC,204456.000,A,3352.2369,N,09831.7146,W,16.74,0.33,020412,,,D*47
$GPGGA,204457.000,3352.2418,N,09831.7146,W,2,08,1.0,284.5,M,-23.7,M,4.8,0000*49
$GPGSA,A,3,32,23,31,30,16,20,01,14,,,,,1.9,1.0,1.6*3C
$GPRMC,204457.000,A,3352.2418,N,09831.7146,W,17.14,358.10,020412,,,D*4F
$GPGGA,204458.000,3352.2469,N,09831.7149,W,2,08,1.0,285.1,M,-23.7,M,0.8,0000*4E
$GPGSA,A,3,32,23,31,30,16,20,01,14,,,,,1.9,1.0,1.6*3C
$GPRMC,204458.000,A,3352.2469,N,09831.7149,W,18.56,355.73,020412,,,D*48
$GPGGA,204459.000,3352.2523,N,09831.7155,W,2,08,1.0,285.3,M,-23.7,M,0.8,0000*4F
$GPGSA,A,3,32,23,31,30,16,20,01,14,,,,,1.9,1.0,1.6*3C
$GPRMC,204459.000,A,3352.2523,N,09831.7155,W,19.88,354.11,020412,,,D*4C
$GPGGA,204500.000,3352.2578,N,09831.7165,W,2,08,1.0,285.7,M,-23.7,M,1.8,0000*4A
$GPGSA,A,3,32,23,31,30,16,20,01,14,,,,,1.9,1.0,1.6*3C
$GPRMC,204500.000,A,3352.2578,N,09831.7165,W,20.65,349.97,020412,,,D*47
$GPGGA,204501.000,3352.2641,N,09831.7182,W,2,08,1.0,286.6,M,-23.7,M,0.8,0000*48
$GPGSA,A,3,32,23,31,30,16,20,01,14,,,,,1.9,1.0,1.6*3C
$GPGSV,3,1,12,32,71,294,33,30,54,148,31,31,54,032,29,20,42,307,36*71
$GPGSV,3,2,12,16,31,171,35,14,24,084,24,01,21,249,21,23,17,296,26*76
$GPGSV,3,3,12,25,09,037,20,11,08,232,24,22,07,146,,48,36,230,30*70
$GPRMC,204501.000,A,3352.2641,N,09831.7182,W,21.82,344.16,020412,,,D*4A
$GPGGA,204502.000,3352.2698,N,09831.7209,W,2,08,1.0,286.8,M,-23.7,M,1.8,0000*40
$GPGSA,A,3,32,23,31,30,16,20,01,14,,,,,1.9,1.0,1.6*3C
$GPRMC,204502.000,A,3352.2698,N,09831.7209,W,22.44,336.59,020412,,,D*4A
$GPGGA,204503.000,3352.2753,N,09831.7247,W,2,08,1.0,286.8,M,-23.7,M,2.8,0000*4E
$GPGSA,A,3,32,23,31,30,16,20,01,14,,,,,1.9,1.0,1.6*3C
$GPRMC,204503.000,A,3352.2753,N,09831.7247,W,23.39,330.47,020412,,,D*45
$GPGGA,204504.000,3352.2808,N,09831.7295,W,2,08,1.0,287.3,M,-23.7,M,3.8,0000*4C
$GPGSA,A,3,32,23,31,30,16,20,01,14,,,,,1.9,1.0,1.6*3C
$GPRMC,204504.000,A,3352.2808,N,09831.7295,W,24.23,323.27,020412,,,D*44
