$GPGGA,080000.000,3353.7396,N,09832.0278,W,2,09,1.1,313.6,M,-23.7,M,0.8,0000*46
$GPGSA,A,3,17,02,28,09,27,12,04,10,05,,,,2.2,1.1,1.9*3B
$GPGSV,3,1,12,04,72,032,30,02,67,245,37,12,41,317,28,10,41,126,36*72
$GPGSV,3,2,12,09,31,252,12,17,30,073,21,27,28,235,21,28,17,138,22*7A
$GPGSV,3,3,12,05,13,180,35,25,02,318,,20,01,035,,51,49,195,36*79
$GPRMC,080000.000,A,3353.7396,N,09832.0278,W,0.09,47.62,030412,,,D*4B
$GPGGA,080001.000,3353.7397,N,09832.0279,W,2,09,1.1,312.8,M,-23.7,M,0.8,0000*48
$GPGSA,A,3,17,02,28,09,27,12,04,10,05,,,,2.2,1.1,1.9*3B
$GPRMC,080001.000,A,3353.7397,N,09832.0279,W,0.08,273.42,030412,,,D*7C
$GPGGA,080002.000,3353.7397,N,09832.0280,W,2,09,1.1,312.2,M,-23.7,M,0.8,0000*47
$GPGSA,A,3,17,02,28,09,27,12,04,10,05,,,,2.2,1.1,1.9*3B
$GPRMC,080002.000,A,3353.7397,N,09832.0280,W,0.20,252.41,030412,,,D*73
$GPGGA,080003.000,3353.7397,N,09832.0282,W,2,09,1.1,311.5,M,-23.7,M,1.8,0000*41
$GPGSA,A,3,17,02,28,09,27,12,04,10,05,,,,2.2,1.1,1.9*3B
$GPRMC,080003.000,A,3353.7397,N,09832.0282,W,0.44,239.06,030412,,,D*7C
$GPGGA,080004.000,3353.7398,N,09832.0284,W,2,09,1.1,310.8,M,-23.7,M,2.8,0000*40
$GPGSA,A,3,17,02,28,09,27,12,04,10,05,,,,2.2,1.1,1.9*3B
$GPRMC,080004.000,A,3353.7398,N,09832.0284,W,0.21,255.09,030412,,,D*74
$GPGGA,080005.000,3353.7399,N,09832.0284,W,2,09,1.1,310.5,M,-23.7,M,3.8,0000*4C
$GPGSA,A,3,17,02,28,09,27,12,04,10,05,,,,2.2,1.1,1.9*3B
$GPGSV,3,1,12,04,72,032,30,02,67,245,36,12,41,317,28,10,41,126,36*73
$GPGSV,3,2,12,09,31,252,14,17,30,073,22,27,28,235,21,28,17,138,23*7E
$GPGSV,3,3,12,05,13,180,35,25,02,318,,20,01,035,,51,49,195,36*79
$GPRMC,080005.000,A,3353.7399,N,09832.0284,W,0.07,318.83,030412,,,D*7A
$GPGGA,080006.000,3353.7401,N,09832.0284,W,2,09,1.1,310.3,M,-23.7,M,0.8,0000*4C
$GPGSA,A,3,17,02,28,09,27,12,04,10,05,,,,2.2,1.1,1.9*3B
$GPRMC,080006.000,A,3353.7401,N,09832.0284,W,0.28,286.76,030412,,,D*7E
$GPGGA,080007.000,3353.7402,N,09832.0285,W,2,09,1.1,310.1,M,-23.7,M,0.8,0000*4D
$GPGSA,A,3,17,02,28,09,27,12,04,10,05,,,,2.2,1.1,1.9*3B
$GPRMC,080007.000,A,3353.7402,N,09832.0285,W,0.47,279.61,030412,,,D*72
$GPGGA,080008.000,3353.7404,N,09832.0285,W,2,09,1.1,309.8,M,-23.7,M,0.8,0000*45
$GPGSA,A,3,17,02,28,09,27,12,04,10,05,,,,2.2,1.1,1.9*3B
$GPRMC,080008.000,A,3353.7404,N,09832.0285,W,0.37,324.33,030412,,,D*72
$GPGGA,080009.000,3353.7406,N,09832.0285,W,2,09,1.1,309.4,M,-23.7,M,1.8,0000*4B
$GPGSA,A,3,17,02,28,09,27,12,04,10,05,,,,2.2,1.1,1.9*3B
$GPRMC,080009.000,A,3353.7406,N,09832.0285,W,0.24,317.08,030412,,,D*7B
$GPGGA,080010.000,3353.7408,N,09832.0285,W,2,09,1.1,309.0,M,-23.7,M,2.8,0000*4A
$GPGSA,A,3,17,02,28,09,27,12,04,10,05,,,,2.2,1.1,1.9*3B
$GPGSV,3,1,12,04,72,032,30,02,67,245,36,12,41,317,27,10,41,126,37*7D
$GPGSV,3,2,12,09,31,252,15,17,30,073,23,27,28,235,20,28,17,138,23*7F
$GPGSV,3,3,12,05,13,180,35,25,02,318,,20,01,035,,51,49,195,38*77
$GPRMC,080010.000,A,3353.7408,N,09832.0285,W,0.18,302.75,030412,,,D*7C
$GPGGA,080011.000,3353.7409,N,09832.0285,W,2,09,1.1,308.7,M,-23.7,M,0.8,0000*4E
$GPGSA,A,3,17,02,28,09,27,12,04,10,05,,,,2.2,1.1,1.9*3B
$GPRMC,080011.000,A,3353.7409,N,09832.0285,W,0.32,341.68,030412,,,D*7F
$GPGGA,080012.000,3353.7412,N,09832.0284,W,2,09,1.1,308.3,M,-23.7,M,0.8,0000*42
$GPGSA,A,3,17,02,28,09,27,12,04,10,05,,,,2.2,1.1,1.9*3B
$GPRMC,080012.000,A,3353.7412,N,09832.0284,W,0.34,20.76,030412,,,D*4A
$GPGGA,080013.000,3353.7414,N,09832.0283,W,2,09,1.1,308.0,M,-23.7,M,0.8,0000*41
$GPGSA,A,3,17,02,28,09,27,12,04,10,05,,,,2.2,1.1,1.9*3B
$GPRMC,080013.000,A,3353.7414,N,09832.0283,W,0.57,45.52,030412,,,D*4A
$GPGGA,080014.000,3353.7415,N,09832.0281,W,2,09,1.1,307.8,M,-23.7,M,0.8,0000*42
$GPGSA,A,3,17,02,28,09,27,12,04,10,05,,,,2.2,1.1,1.9*3B
$GPRMC,080014.000,A,3353.7415,N,09832.0281,W,0.41,56.76,030412,,,D*4D
$GPGGA,080015.000,3353.7416,N,09832.0281,W,2,09,1.1,307.5,M,-23.7,M,1.8,0000*4C
$GPGSA,A,3,17,02,28,09,27,12,04,10,05,,,,2.2,1.1,1.9*3B
$GPGSV,3,1,12,04,72,032,30,02,67,245,36,12,41,317,27,10,41,126,37*7D
$GPGSV,3,2,12,09,31,252,18,17,30,073,24,27,28,235,20,28,17,138,24*72
$GPGSV,3,3,12,05,13,180,35,25,02,318,,20,01,035,,51,49,195,36*79
$GPRMC,080015.000,A,3353.7416,N,09832.0281,W,0.22,312.28,030412,,,D*72
$GPGGA,080016.000,3353.7417,N,09832.0281,W,2,09,1.1,307.3,M,-23.7,M,2.8,0000*4B
$GPGSA,A,3,17,02,28,09,27,12,04,10,05,,,,2.2,1.1,1.9*3B
$GPRMC,080016.000,A,3353.7417,N,09832.0281,W,0.11,343.83,030412,,,D*75
$GPGGA,080017.000,3353.7418,N,09832.0280,W,2,09,1.1,307.1,M,-23.7,M,3.8,0000*47
$GPGSA,A,3,17,02,28,09,27,12,04,10,05,,,,2.2,1.1,1.9*3B
$GPRMC,080017.000,A,3353.7418,N,09832.0280,W,0.21,313.83,030412,,,D*7C
$GPGGA,080018.000,3353.7419,N,09832.0280,W,2,09,1.1,307.0,M,-23.7,M,0.8,0000*4B
$GPGSA,A,3,17,02,28,09,27,12,04,10,05,,,,2.2,1.1,1.9*3B
$GPRMC,080018.000,A,3353.7419,N,09832.0280,W,0.15,312.46,030412,,,D*7D
$GPGGA,080019.000,3353.7420,N,09832.0280,W,2,09,1.1,306.8,M,-23.7,M,0.8,0000*49
$GPGSA,A,3,17,02,28,09,27,12,04,10,05,,,,2.2,1.1,1.9*3B
$GPRMC,080019.000,A,3353.7420,N,09832.0280,W,0.20,286.88,030412,,,D*7E
$GPGGA,080020.000,3353.7420,N,09832.0280,W,2,09,1.1,306.8,M,-23.7,M,0.8,0000*43
$GPGSA,A,3,17,02,28,09,27,12,04,10,05,,,,2.2,1.1,1.9*3B
$GPRMC,080020.000,A,3353.7420,N,09832.0280,W,0.26,332.06,030412,,,D*7A
$GPGGA,080021.000,3353.7421,N,09832.0280,W,2,09,1.1,306.6,M,-23.7,M,1.8,0000*4C
$GPGSA,A,3,17,02,28,09,27,12,04,10,05,,,,2.2,1.1,1.9*3B
$GPRMC,080021.000,A,3353.7421,N,09832.0280,W,0.25,8.35,030412,,,D*73
$GPGGA,080022.000,3353.7422,N,09832.0279,W,2,09,1.1,306.7,M,-23.7,M,2.8,0000*48
$GPGSA,A,3,17,02,28,09,27,12,04,10,05,,,,2.2,1.1,1.9*3B
$GPRMC,080022.000,A,3353.7422,N,09832.0279,W,0.34,52.30,030412,,,D*4F
$GPGGA,080023.000,3353.7423,N,09832.0277,W,2,09,1.1,306.7,M,-23.7,M,3.8,0000*47
$GPGSA,A,3,17,02,28,09,27,12,04,10,05,,,,2.2,1.1,1.9*3B
$GPRMC,080023.000,A,3353.7423,N,09832.0277,W,0.39,61.61,030412,,,D*48
$GPGGA,080024.000,3353.7423,N,09832.0276,W,2,09,1.1,306.8,M,-23.7,M,4.8,0000*49
$GPGSA,A,3,17,02,28,09,27,12,04,10,05,,,,2.2,1.1,1.9*3B
$GPRMC,080024.000,A,3353.7423,N,09832.0276,W,0.40,62.14,030412,,,D*41
$GPGGA,080025.000,3353.7424,N,09832.0275,W,2,09,1.1,306.8,M,-23.7,M,0.8,0000*48
$GPGSA,A,3,17,02,28,09,27,12,04,10,05,,,,2.2,1.1,1.9*3B
$GPGSV,3,1,12,04,72,032,30,02,67,245,36,12,41,317,27,10,41,126,37*7D
$GPGSV,3,2,12,09,31,252,19,17,30,073,25,27,28,235,19,28,17,138,25*79
$GPGSV,3,3,12,05,13,180,36,25,02,318,,20,01,035,,51,49,195,36*7A
$GPRMC,080025.000,A,3353.7424,N,09832.0275,W,0.16,72.33,030412,,,D*43
$GPGGA,080026.000,3353.7424,N,09832.0274,W,2,09,1.1,306.9,M,-23.7,M,0.8,0000*4B
$GPGSA,A,3,17,02,28,09,27,12,04,10,05,,,,2.2,1.1,1.9*3B
$GPRMC,080026.000,A,3353.7424,N,09832.0274,W,0.07,73.76,030412,,,D*41
$GPGGA,080027.000,3353.7423,N,09832.0273,W,2,09,1.1,307.0,M,-23.7,M,0.8,0000*42
$GPGSA,A,3,17,02,28,09,27,12,04,10,05,,,,2.2,1.1,1.9*3B
$GPRMC,080027.000,A,3353.7423,N,09832.0273,W,0.24,87.89,030412,,,D*4A
$GPGGA,080028.000,3353.7423,N,09832.0272,W,2,09,1.1,307.0,M,-23.7,M,0.8,0000*4C
$GPGSA,A,3,17,02,28,09,27,12,04,10,05,,,,2.2,1.1,1.9*3B
$GPRMC,080028.000,A,3353.7423,N,09832.0272,W,0.07,151.01,030412,,,D*7F
$GPGGA,080029.000,3353.7423,N,09832.0272,W,2,09,1.1,307.0,M,-23.7,M,1.8,0000*4C
$GPGSA,A,3,17,02,28,09,27,12,04,10,05,,,,2.2,1.1,1.9*3B
$GPRMC,080029.000,A,3353.7423,N,09832.0272,W,0.11,245.74,030412,,,D*7D
$GPGGA,080030.000,3353.7422,N,09832.0272,W,2,09,1.1,307.4,M,-23.7,M,0.8,0000*40
$GPGSA,A,3,17,02,28,09,27,12,04,10,05,,,,2.2,1.1,1.9*3B
$GPGSV,3,1,12,04,72,032,30,02,67,245,36,12,41,317,27,10,41,126,36*7C
$GPGSV,3,2,12,09,31,252,19,17,30,073,25,27,28,235,19,28,17,138,25*79
$GPGSV,3,3,12,05,13,180,36,25,02,318,,20,01,035,,51,49,195,36*7A
$GPRMC,080030.000,A,3353.7422,N,09832.0272,W,0.19,120.37,030412,,,D*7B
$GPGGA,080031.000,3353.7422,N,09832.0271,W,2,09,1.1,307.4,M,-23.7,M,0.8,0000*42
$GPGSA,A,3,17,02,28,09,27,12,04,10,05,,,,2.2,1.1,1.9*3B
$GPRMC,080031.000,A,3353.7422,N,09832.0271,W,0.24,66.49,030412,,,D*4D
$GPGGA,080032.000,3353.7423,N,09832.0271,W,2,09,1.1,307.3,M,-23.7,M,0.8,0000*47
$GPGSA,A,3,17,02,28,09,27,12,04,10,05,,,,2.2,1.1,1.9*3B
$GPRMC,080032.000,A,3353.7423,N,09832.0271,W,0.15,351.17,030412,,,D*71
$GPGGA,080033.000,3353.7423,N,09832.0271,W,2,09,1.1,307.3,M,-23.7,M,1.8,0000*47
$GPGSA,A,3,17,02,28,09,27,12,04,10,05,,,,2.2,1.1,1.9*3B
$GPRMC,080033.000,A,3353.7423,N,09832.0271,W,0.11,357.74,030412,,,D*77
$GPGGA,080034.000,3353.7422,N,09832.0270,W,2,09,1.1,307.5,M,-23.7,M,2.8,0000*45
$GPGSA,A,3,17,02,28,09,27,12,04,10,05,,,,2.2,1.1,1.9*3B
$GPRMC,080034.000,A,3353.7422,N,09832.0270,W,0.11,42.68,030412,,,D*4A
$GPGGA,080035.000,3353.7422,N,09832.0270,W,2,09,1.1,307.9,M,-23.7,M,0.8,0000*4A
$GPGSA,A,3,17,02,28,09,27,12,04,10,05,,,,2.2,1.1,1.9*3B
$GPGSV,3,1,12,04,72,032,30,02,67,245,36,12,41,317,27,10,41,126,36*7C
$GPGSV,3,2,12,09,31,252,19,17,30,073,25,27,28,235,20,28,17,138,25*73
$GPGSV,3,3,12,05,13,180,36,25,02,318,,20,01,035,17,51,49,195,36*7C
$GPRMC,080035.000,A,3353.7422,N,09832.0270,W,0.08,67.95,030412,,,D*46
$GPGGA,080036.000,3353.7421,N,09832.0269,W,2,09,1.1,308.2,M,-23.7,M,0.8,0000*46
$GPGSA,A,3,17,02,28,09,27,12,04,10,05,,,,2.2,1.1,1.9*3B
$GPRMC,080036.000,A,3353.7421,N,09832.0269,W,0.24,80.08,030412,,,D*4D
$GPGGA,080037.000,3353.7420,N,09832.0268,W,2,09,1.1,308.6,M,-23.7,M,0.8,0000*43
$GPGSA,A,3,17,02,28,09,27,12,04,10,05,,,,2.2,1.1,1.9*3B
$GPRMC,080037.000,A,3353.7420,N,09832.0268,W,0.10,275.17,030412,,,D*7D
$GPGGA,080038.000,3353.7419,N,09832.0268,W,2,09,1.1,308.7,M,-23.7,M,0.8,0000*47
$GPGSA,A,3,17,02,28,09,27,12,04,10,05,,,,2.2,1.1,1.9*3B
$GPRMC,080038.000,A,3353.7419,N,09832.0268,W,0.10,240.00,030412,,,D*78
$GPGGA,080039.000,3353.7418,N,09832.0268,W,2,09,1.1,308.9,M,-23.7,M,1.8,0000*48
$GPGSA,A,3,17,02,28,09,27,12,04,10,05,,,,2.2,1.1,1.9*3B
$GPRMC,080039.000,A,3353.7418,N,09832.0268,W,0.06,132.80,030412,,,D*71
$GPGGA,080040.000,3353.7417,N,09832.0268,W,2,09,1.1,309.0,M,-23.7,M,2.8,0000*42
$GPGSA,A,3,17,02,28,09,27,12,04,10,05,,,,2.2,1.1,1.9*3B
$GPGSV,3,1,12,04,72,032,30,02,67,245,36,12,41,317,26,10,41,126,37*7C
$GPGSV,3,2,12,09,31,252,19,17,30,073,24,27,28,235,20,28,17,138,26*71
$GPGSV,3,3,12,05,13,180,36,25,02,318,,20,01,035,16,51,49,195,36*7D
$GPRMC,080040.000,A,3353.7417,N,09832.0268,W,0.07,197.53,030412,,,D*70
$GPGGA,080041.000,3353.7416,N,09832.0268,W,2,09,1.1,309.2,M,-23.7,M,0.8,0000*42
$GPGSA,A,3,17,02,28,09,27,12,04,10,05,,,,2.2,1.1,1.9*3B
$GPRMC,080041.000,A,3353.7416,N,09832.0268,W,0.07,116.72,030412,,,D*7A
$GPGGA,080042.000,3353.7418,N,09832.0268,W,2,09,1.1,308.6,M,-23.7,M,0.8,0000*4A
$GPGSA,A,3,17,02,28,09,27,12,04,10,05,,,,2.2,1.1,1.9*3B
$GPRMC,080042.000,A,3353.7418,N,09832.0268,W,0.44,69.99,030412,,,D*4C
$GPGGA,080043.000,3353.7419,N,09832.0268,W,2,09,1.1,308.4,M,-23.7,M,0.8,0000*48
$GPGSA,A,3,17,02,28,09,27,12,04,10,05,,,,2.2,1.1,1.9*3B
$GPRMC,080043.000,A,3353.7419,N,09832.0268,W,0.15,137.32,030412,,,D*73
$GPGGA,080044.000,3353.7421,N,09832.0269,W,2,09,1.1,308.1,M,-23.7,M,0.8,0000*40
$GPGSA,A,3,17,02,28,09,27,12,04,10,05,,,,2.2,1.1,1.9*3B
$GPRMC,080044.000,A,3353.7421,N,09832.0269,W,0.13,28.12,030412,,,D*45
$GPGGA,080045.000,3353.7421,N,09832.0269,W,2,09,1.1,308.2,M,-23.7,M,1.8,0000*43
$GPGSA,A,3,17,02,28,09,27,12,04,10,05,,,,2.2,1.1,1.9*3B
$GPGSV,3,1,12,04,72,032,30,02,67,245,36,12,41,317,26,10,41,126,37*7C
$GPGSV,3,2,12,09,31,252,21,17,30,073,24,27,28,235,19,28,17,138,26*70
$GPGSV,3,3,12,05,13,180,36,25,02,318,,20,01,035,15,51,49,195,36*7E
$GPRMC,080045.000,A,3353.7421,N,09832.0269,W,0.33,38.22,030412,,,D*44
$GPGGA,080046.000,3353.7421,N,09832.0269,W,2,09,1.1,308.7,M,-23.7,M,2.8,0000*46
$GPGSA,A,3,17,02,28,09,27,12,04,10,05,,,,2.2,1.1,1.9*3B
$GPRMC,080046.000,A,3353.7421,N,09832.0269,W,0.24,48.00,030412,,,D*46
$GPGGA,080047.000,3353.7421,N,09832.0269,W,2,09,1.1,309.2,M,-23.7,M,3.8,0000*42
$GPGSA,A,3,17,02,28,09,27,12,04,10,05,,,,2.2,1.1,1.9*3B
$GPRMC,080047.000,A,3353.7421,N,09832.0269,W,0.16,68.62,030412,,,D*40
$GPGGA,080048.000,3353.7421,N,09832.0269,W,2,09,1.1,309.2,M,-23.7,M,0.8,0000*4E
$GPGSA,A,3,17,02,28,09,27,12,04,10,05,,,,2.2,1.1,1.9*3B
$GPRMC,080048.000,A,3353.7421,N,09832.0269,W,0.31,57.42,030412,,,D*44
$GPGGA,080049.000,3353.7421,N,09832.0269,W,2,09,1.1,309.4,M,-23.7,M,0.8,0000*49
$GPGSA,A,3,17,02,28,09,27,12,04,10,05,,,,2.2,1.1,1.9*3B
$GPRMC,080049.000,A,3353.7421,N,09832.0269,W,0.17,247.74,030412,,,D*77
$GPGGA,080050.000,3353.7421,N,09832.0270,W,2,09,1.1,309.5,M,-23.7,M,0.8,0000*48
$GPGSA,A,3,17,02,28,09,27,12,04,10,05,,,,2.2,1.1,1.9*3B
$GPGSV,3,1,12,04,72,032,30,02,67,245,37,12,41,317,26,10,41,126,37*7D
$GPGSV,3,2,12,09,31,252,22,17,30,073,24,27,28,235,17,28,17,138,27*7C
$GPGSV,3,3,12,05,13,180,36,25,02,318,,20,01,035,14,51,49,195,36*7F
$GPRMC,080050.000,A,3353.7421,N,09832.0270,W,0.08,144.75,030412,,,D*78
$GPGGA,080051.000,3353.7424,N,09832.0272,W,2,09,1.1,308.4,M,-23.7,M,0.8,0000*4E
$GPGSA,A,3,17,02,28,09,27,12,04,10,05,,,,2.2,1.1,1.9*3B
$GPRMC,080051.000,A,3353.7424,N,09832.0272,W,0.14,277.39,030412,,,D*78
$GPGGA,080052.000,3353.7426,N,09832.0273,W,2,09,1.1,308.1,M,-23.7,M,1.8,0000*4A
$GPGSA,A,3,17,02,28,09,27,12,04,10,05,,,,2.2,1.1,1.9*3B
$GPRMC,080052.000,A,3353.7426,N,09832.0273,W,0.21,62.11,030412,,,D*42
$GPGGA,080053.000,3353.7426,N,09832.0273,W,2,09,1.1,307.9,M,-23.7,M,2.8,0000*4F
$GPGSA,A,3,17,02,28,09,27,12,04,10,05,,,,2.2,1.1,1.9*3B
$GPRMC,080053.000,A,3353.7426,N,09832.0273,W,0.10,153.91,030412,,,D*7A
$GPGGA,080054.000,3353.7427,N,09832.0273,W,2,09,1.1,307.7,M,-23.7,M,0.8,0000*45
$GPGSA,A,3,17,02,28,09,27,12,04,10,05,,,,2.2,1.1,1.9*3B
$GPRMC,080054.000,A,3353.7427,N,09832.0273,W,0.22,59.57,030412,,,D*4C
$GPGGA,080055.000,3353.7430,N,09832.0275,W,2,09,1.1,306.8,M,-23.7,M,0.8,0000*4A
$GPGSA,A,3,17,02,28,09,27,12,04,10,05,,,,2.2,1.1,1.9*3B
$GPGSV,3,1,12,04,72,032,30,02,67,245,37,12,41,317,25,10,41,126,37*7E
$GPGSV,3,2,12,09,31,252,22,17,30,073,23,27,28,235,17,28,17,138,28*74
$GPGSV,3,3,12,05,13,180,36,25,02,318,,20,01,035,13,51,49,195,36*78
$GPRMC,080055.000,A,3353.7430,N,09832.0275,W,0.17,311.35,030412,,,D*70
$GPGGA,080056.000,3353.7431,N,09832.0276,W,2,09,1.1,306.2,M,-23.7,M,1.8,0000*40
$GPGSA,A,3,17,02,28,09,27,12,04,10,05,,,,2.2,1.1,1.9*3B
$GPRMC,080056.000,A,3353.7431,N,09832.0276,W,0.09,238.28,030412,,,D*78
$GPGGA,080057.000,3353.7436,N,09832.0278,W,2,09,1.1,304.9,M,-23.7,M,0.8,0000*40
$GPGSA,A,3,17,02,28,09,27,12,04,10,05,,,,2.2,1.1,1.9*3B
$GPRMC,080057.000,A,3353.7436,N,09832.0278,W,0.45,12.55,030412,,,D*48
$GPGGA,080058.000,3353.7438,N,09832.0278,W,2,09,1.1,304.3,M,-23.7,M,1.8,0000*4A
$GPGSA,A,3,17,02,28,09,27,12,04,10,05,,,,2.2,1.1,1.9*3B
$GPRMC,080058.000,A,3353.7438,N,09832.0278,W,0.35,59.00,030412,,,D*41
$GPGGA,080059.000,3353.7440,N,09832.0278,W,2,09,1.1,303.8,M,-23.7,M,2.8,0000*4B
$GPGSA,A,3,17,02,28,09,27,12,04,10,05,,,,2.2,1.1,1.9*3B
$GPRMC,080059.000,A,3353.7440,N,09832.0278,W,0.26,18.52,030412,,,D*4F
$GPGGA,080100.000,3353.7440,N,09832.0278,W,2,09,1.1,303.5,M,-23.7,M,0.8,0000*49
$GPGSA,A,3,17,02,28,09,27,12,04,10,05,,,,2.2,1.1,1.9*3B
$GPGSV,3,1,12,04,72,032,30,02,67,245,37,12,41,317,25,10,41,126,37*7E
$GPGSV,3,2,12,09,31,252,22,17,30,073,24,27,28,235,17,28,17,138,28*73
$GPGSV,3,3,12,05,13,180,36,25,02,318,,20,01,035,,51,49,195,36*7A
$GPRMC,080100.000,A,3353.7440,N,09832.0278,W,0.23,15.00,030412,,,D*4D
$GPGGA,080101.000,3353.7444,N,09832.0279,W,2,09,1.1,302.5,M,-23.7,M,0.8,0000*4C
$GPGSA,A,3,17,02,28,09,27,12,04,10,05,,,,2.2,1.1,1.9*3B
$GPRMC,080101.000,A,3353.7444,N,09832.0279,W,0.29,31.92,030412,,,D*4E
$GPGGA,080102.000,3353.7445,N,09832.0280,W,2,09,1.1,302.0,M,-23.7,M,0.8,0000*4D
$GPGSA,A,3,17,02,28,09,27,12,04,10,05,,,,2.2,1.1,1.9*3B
$GPRMC,080102.000,A,3353.7445,N,09832.0280,W,0.31,16.60,030412,,,D*4B
$GPGGA,080103.000,3353.7446,N,09832.0279,W,2,09,1.1,301.8,M,-23.7,M,1.8,0000*43
$GPGSA,A,3,17,02,28,09,27,12,04,10,05,,,,2.2,1.1,1.9*3B
$GPRMC,080103.000,A,3353.7446,N,09832.0279,W,0.26,317.25,030412,,,D*7A
$GPGGA,080104.000,3353.7446,N,09832.0279,W,2,09,1.1,301.6,M,-23.7,M,2.8,0000*49
$GPGSA,A,3,17,02,28,09,27,12,04,10,05,,,,2.2,1.1,1.9*3B
$GPRMC,080104.000,A,3353.7446,N,09832.0279,W,0.32,303.94,030412,,,D*77
$GPGGA,080105.000,3353.7446,N,09832.0279,W,2,09,1.1,301.6,M,-23.7,M,3.8,0000*49
$GPGSA,A,3,17,02,28,09,27,12,04,10,05,,,,2.2,1.1,1.9*3B
$GPGSV,3,1,12,04,72,032,30,02,67,245,37,12,41,317,24,10,41,126,37*7F
$GPGSV,3,2,12,09,31,252,22,17,30,073,25,27,28,235,16,28,17,138,27*7C
$GPGSV,3,3,12,05,13,180,37,25,02,318,,20,01,035,,51,49,195,39*74
$GPRMC,080105.000,A,3353.7446,N,09832.0279,W,0.09,23.08,030412,,,D*4A
$GPGGA,080106.000,3353.7445,N,09832.0278,W,2,09,1.1,301.8,M,-23.7,M,0.8,0000*45
$GPGSA,A,3,17,02,28,09,27,12,04,10,05,,,,2.2,1.1,1.9*3B
$GPRMC,080106.000,A,3353.7445,N,09832.0278,W,0.16,86.87,030412,,,D*4D
$GPGGA,080107.000,3353.7445,N,09832.0277,W,2,09,1.1,301.7,M,-23.7,M,0.8,0000*44
$GPGSA,A,3,17,02,28,09,27,12,04,10,05,,,,2.2,1.1,1.9*3B
$GPRMC,080107.000,A,3353.7445,N,09832.0277,W,0.16,327.87,030412,,,D*7B
$GPGGA,080108.000,3353.7440,N,09832.0274,W,2,09,1.1,303.3,M,-23.7,M,0.8,0000*4B
$GPGSA,A,3,17,02,28,09,27,12,04,10,05,,,,2.2,1.1,1.9*3B
$GPRMC,080108.000,A,3353.7440,N,09832.0274,W,0.18,268.78,030412,,,D*76
$GPGGA,080109.000,3353.7440,N,09832.0273,W,2,09,1.1,303.4,M,-23.7,M,0.8,0000*4A
$GPGSA,A,3,17,02,28,09,27,12,04,10,05,,,,2.2,1.1,1.9*3B
$GPRMC,080109.000,A,3353.7440,N,09832.0273,W,0.18,55.86,030412,,,D*4D
$GPGGA,080110.000,3353.7435,N,09832.0269,W,2,09,1.1,305.1,M,-23.7,M,1.8,0000*49
$GPGSA,A,3,17,02,28,09,27,12,04,10,05,,,,2.2,1.1,1.9*3B
$GPGSV,3,1,12,04,72,032,31,02,67,245,37,12,41,317,25,10,41,126,36*7E
$GPGSV,3,2,12,09,31,252,21,17,30,073,25,27,28,235,15,28,17,138,27*7C
$GPGSV,3,3,12,05,13,180,37,25,02,318,,20,01,035,,51,49,195,36*7B
$GPRMC,080110.000,A,3353.7435,N,09832.0269,W,0.23,102.05,030412,,,D*7C
$GPGGA,080111.000,3353.7431,N,09832.0270,W,2,09,1.1,306.2,M,-23.7,M,2.8,0000*47
$GPGSA,A,3,17,02,28,09,27,12,04,10,05,,,,2.2,1.1,1.9*3B
$GPRMC,080111.000,A,3353.7431,N,09832.0270,W,0.21,96.30,030412,,,D*49
$GPGGA,080112.000,3353.7430,N,09832.0271,W,2,09,1.1,306.8,M,-23.7,M,0.8,0000*4C
$GPGSA,A,3,17,02,28,09,27,12,04,10,05,,,,2.2,1.1,1.9*3B
$GPRMC,080112.000,A,3353.7430,N,09832.0271,W,0.18,233.59,030412,,,D*72
$GPGGA,080113.000,3353.7429,N,09832.0271,W,2,09,1.1,307.2,M,-23.7,M,0.8,0000*4E
$GPGSA,A,3,17,02,28,09,27,12,04,10,05,,,,2.2,1.1,1.9*3B
$GPRMC,080113.000,A,3353.7429,N,09832.0271,W,0.14,123.77,030412,,,D*79
$GPGGA,080114.000,3353.7428,N,09832.0270,W,2,09,1.1,307.4,M,-23.7,M,0.8,0000*4F
$GPGSA,A,3,17,02,28,09,27,12,04,10,05,,,,2.2,1.1,1.9*3B
$GPRMC,080114.000,A,3353.7428,N,09832.0270,W,0.18,191.85,030412,,,D*76
$GPGGA,080115.000,3353.7427,N,09832.0270,W,2,08,1.2,307.6,M,-23.7,M,1.8,0000*40
$GPGSA,A,3,17,02,28,09,12,04,10,05,,,,,2.3,1.2,1.9*3C
$GPGSV,3,1,12,04,72,032,31,02,67,245,37,12,41,317,25,10,41,126,36*7E
$GPGSV,3,2,12,09,31,252,21,17,30,073,25,27,28,235,,28,17,138,27*78
$GPGSV,3,3,12,05,13,180,37,25,02,318,,20,01,035,,51,49,195,37*7A
$GPRMC,080115.000,A,3353.7427,N,09832.0270,W,0.18,182.66,030412,,,D*77
$GPGGA,080116.000,3353.7426,N,09832.0270,W,2,08,1.2,307.8,M,-23.7,M,0.8,0000*4D
$GPGSA,A,3,17,02,28,09,12,04,10,05,,,,,2.3,1.2,1.9*3C
$GPRMC,080116.000,A,3353.7426,N,09832.0270,W,0.14,181.43,030412,,,D*7D
$GPGGA,080117.000,3353.7425,N,09832.0270,W,2,08,1.2,308.0,M,-23.7,M,1.8,0000*49
$GPGSA,A,3,17,02,28,09,12,04,10,05,,,,,2.3,1.2,1.9*3C
$GPRMC,080117.000,A,3353.7425,N,09832.0270,W,0.16,196.61,030412,,,D*7B
$GPGGA,080118.000,3353.7424,N,09832.0270,W,2,08,1.2,308.2,M,-23.7,M,0.8,0000*44
$GPGSA,A,3,17,02,28,09,12,04,10,05,,,,,2.3,1.2,1.9*3C
$GPRMC,080118.000,A,3353.7424,N,09832.0270,W,0.11,177.83,030412,,,D*71
$GPGGA,080119.000,3353.7423,N,09832.0270,W,2,08,1.2,308.5,M,-23.7,M,0.8,0000*45
$GPGSA,A,3,17,02,28,09,12,04,10,05,,,,,2.3,1.2,1.9*3C
$GPRMC,080119.000,A,3353.7423,N,09832.0270,W,0.13,139.12,030412,,,D*77
$GPGGA,080120.000,3353.7422,N,09832.0270,W,2,08,1.2,308.7,M,-23.7,M,0.8,0000*4C
$GPGSA,A,3,17,02,28,09,12,04,10,05,,,,,2.3,1.2,1.9*3C
$GPGSV,3,1,12,04,72,032,31,02,67,245,36,12,41,317,25,10,41,126,36*7F
$GPGSV,3,2,12,09,31,252,21,17,30,073,26,27,28,235,,28,17,138,28*74
$GPGSV,3,3,12,05,13,180,37,25,02,318,,20,01,035,,51,49,195,36*7B
$GPRMC,080120.000,A,3353.7422,N,09832.0270,W,0.07,280.87,030412,,,D*74
$GPGGA,080121.000,3353.7421,N,09832.0270,W,2,08,1.2,309.0,M,-23.7,M,1.8,0000*49
$GPGSA,A,3,17,02,28,09,12,04,10,05,,,,,2.3,1.2,1.9*3C
$GPRMC,080121.000,A,3353.7421,N,09832.0270,W,0.17,74.42,030412,,,D*47
$GPGGA,080122.000,3353.7421,N,09832.0270,W,2,08,1.2,309.3,M,-23.7,M,2.8,0000*4A
$GPGSA,A,3,17,02,28,09,12,04,10,05,,,,,2.3,1.2,1.9*3C
$GPRMC,080122.000,A,3353.7421,N,09832.0270,W,0.13,109.44,030412,,,D*7D
$GPGGA,080123.000,3353.7420,N,09832.0269,W,2,08,1.2,309.5,M,-23.7,M,3.8,0000*45
$GPGSA,A,3,17,02,28,09,12,04,10,05,,,,,2.3,1.2,1.9*3C
$GPRMC,080123.000,A,3353.7420,N,09832.0269,W,0.04,211.10,030412,,,D*78
$GPGGA,080124.000,3353.7420,N,09832.0270,W,2,08,1.2,309.6,M,-23.7,M,0.8,0000*4A
$GPGSA,A,3,17,02,28,09,12,04,10,05,,,,,2.3,1.2,1.9*3C
$GPRMC,080124.000,A,3353.7420,N,09832.0270,W,0.12,267.42,030412,,,D*76
$GPGGA,080125.000,3353.7420,N,09832.0269,W,2,08,1.2,309.8,M,-23.7,M,0.8,0000*4D
$GPGSA,A,3,17,02,28,09,12,04,10,05,,,,,2.3,1.2,1.9*3C
$GPGSV,3,1,12,04,72,032,31,02,67,245,36,12,41,317,25,10,41,126,36*7F
$GPGSV,3,2,12,09,31,252,21,17,30,073,27,27,28,235,,28,17,138,28*75
$GPGSV,3,3,12,05,13,180,37,25,02,318,,20,01,035,,51,49,195,36*7B
$GPRMC,080125.000,A,3353.7420,N,09832.0269,W,0.13,88.28,030412,,,D*41
$GPGGA,080126.000,3353.7419,N,09832.0269,W,2,08,1.2,310.0,M,-23.7,M,1.8,0000*45
$GPGSA,A,3,17,02,28,09,12,04,10,05,,,,,2.3,1.2,1.9*3C
$GPRMC,080126.000,A,3353.7419,N,09832.0269,W,0.22,92.86,030412,,,D*45
$GPGGA,080127.000,3353.7419,N,09832.0268,W,2,08,1.2,310.2,M,-23.7,M,2.8,0000*44
$GPGSA,A,3,17,02,28,09,12,04,10,05,,,,,2.3,1.2,1.9*3C
$GPRMC,080127.000,A,3353.7419,N,09832.0268,W,0.27,100.52,030412,,,D*73
$GPGGA,080128.000,3353.7419,N,09832.0267,W,2,08,1.2,310.3,M,-23.7,M,3.8,0000*44
$GPGSA,A,3,17,02,28,09,12,04,10,05,,,,,2.3,1.2,1.9*3C
$GPRMC,080128.000,A,3353.7419,N,09832.0267,W,0.04,95.97,030412,,,D*46
$GPGGA,080129.000,3353.7418,N,09832.0267,W,2,07,1.3,310.5,M,-23.7,M,0.8,0000*4F
$GPGSA,A,3,17,02,28,12,04,10,05,,,,,,2.4,1.3,2.0*39
$GPRMC,080129.000,A,3353.7418,N,09832.0267,W,0.05,69.66,030412,,,D*4A
$GPGGA,080130.000,3353.7418,N,09832.0267,W,2,07,1.3,310.6,M,-23.7,M,0.8,0000*44
$GPGSA,A,3,17,02,28,12,04,10,05,,,,,,2.4,1.3,2.0*39
$GPGSV,3,1,12,04,72,032,31,02,67,245,36,12,41,317,24,10,41,126,36*7E
$GPGSV,3,2,12,09,31,252,,17,30,073,27,27,28,235,,28,17,138,29*77
$GPGSV,3,3,12,05,13,180,37,25,02,318,,20,01,035,,51,49,195,36*7B
$GPRMC,080130.000,A,3353.7418,N,09832.0267,W,0.16,0.30,030412,,,D*7C
$GPGGA,080131.000,3353.7418,N,09832.0267,W,2,07,1.3,310.9,M,-23.7,M,0.8,0000*4A
$GPGSA,A,3,17,02,28,12,04,10,05,,,,,,2.4,1.3,2.0*39
$GPRMC,080131.000,A,3353.7418,N,09832.0267,W,0.09,61.48,030412,,,D*4B
$GPGGA,080132.000,3353.7415,N,09832.0267,W,2,08,1.2,311.8,M,-23.7,M,0.8,0000*4A
$GPGSA,A,3,17,02,28,27,12,04,10,05,,,,,2.3,1.2,2.0*3A
$GPRMC,080132.000,A,3353.7415,N,09832.0267,W,0.25,91.96,030412,,,D*47
$GPGGA,080133.000,3353.7412,N,09832.0267,W,2,08,1.2,312.8,M,-23.7,M,0.8,0000*4F
$GPGSA,A,3,17,02,28,27,12,04,10,05,,,,,2.3,1.2,2.0*3A
$GPRMC,080133.000,A,3353.7412,N,09832.0267,W,0.28,88.95,030412,,,D*47
$GPGGA,080134.000,3353.7408,N,09832.0267,W,2,08,1.2,314.2,M,-23.7,M,1.8,0000*4E
$GPGSA,A,3,17,02,28,27,12,04,10,05,,,,,2.3,1.2,2.0*3A
$GPRMC,080134.000,A,3353.7408,N,09832.0267,W,0.47,125.68,030412,,,D*76
$GPGGA,080135.000,3353.7403,N,09832.0266,W,2,08,1.2,315.4,M,-23.7,M,2.8,0000*41
$GPGSA,A,3,17,02,28,27,12,04,10,05,,,,,2.3,1.2,2.0*3A
$GPGSV,3,1,12,04,72,032,31,02,67,245,35,12,41,317,24,10,41,126,36*7D
$GPGSV,3,2,12,09,31,252,,17,30,073,28,27,28,235,13,28,17,138,30*72
$GPGSV,3,3,12,05,13,180,37,25,02,318,,20,01,035,,51,49,195,36*7B
$GPRMC,080135.000,A,3353.7403,N,09832.0266,W,0.45,122.53,030412,,,D*70
$GPGGA,080136.000,3353.7400,N,09832.0265,W,2,08,1.2,316.4,M,-23.7,M,3.8,0000*40
$GPGSA,A,3,17,02,28,27,12,04,10,05,,,,,2.3,1.2,2.0*3A
$GPRMC,080136.000,A,3353.7400,N,09832.0265,W,0.36,122.03,030412,,,D*72
$GPGGA,080137.000,3353.7398,N,09832.0265,W,2,08,1.2,317.3,M,-23.7,M,0.8,0000*42
$GPGSA,A,3,17,02,28,27,12,04,10,05,,,,,2.3,1.2,2.0*3A
$GPRMC,080137.000,A,3353.7398,N,09832.0265,W,0.36,119.03,030412,,,D*7D
$GPGGA,080138.000,3353.7396,N,09832.0265,W,2,08,1.2,317.9,M,-23.7,M,0.8,0000*49
$GPGSA,A,3,17,02,28,27,12,04,10,05,,,,,2.3,1.2,2.0*3A
$GPRMC,080138.000,A,3353.7396,N,09832.0265,W,0.28,125.35,030412,,,D*79
$GPGGA,080139.000,3353.7394,N,09832.0264,W,2,08,1.2,318.4,M,-23.7,M,1.8,0000*48
$GPGSA,A,3,17,02,28,27,12,04,10,05,,,,,2.3,1.2,2.0*3A
$GPRMC,080139.000,A,3353.7394,N,09832.0264,W,0.36,125.47,030412,,,D*71
$GPGGA,080140.000,3353.7393,N,09832.0263,W,2,08,1.2,318.8,M,-23.7,M,2.8,0000*49
$GPGSA,A,3,17,02,28,27,12,04,10,05,,,,,2.3,1.2,2.0*3A
$GPGSV,3,1,12,04,72,032,31,02,67,245,35,12,41,317,24,10,41,126,36*7D
$GPGSV,3,2,12,09,31,252,,17,30,073,28,27,28,235,13,28,17,138,30*72
$GPGSV,3,3,12,05,13,180,37,25,02,318,,20,01,035,,51,49,195,36*7B
$GPRMC,080140.000,A,3353.7393,N,09832.0263,W,0.38,119.74,030412,,,D*7E
$GPGGA,080141.000,3353.7392,N,09832.0262,W,2,08,1.2,319.0,M,-23.7,M,3.8,0000*40
$GPGSA,A,3,17,02,28,27,12,04,10,05,,,,,2.3,1.2,2.0*3A
$GPRMC,080141.000,A,3353.7392,N,09832.0262,W,0.38,114.40,030412,,,D*75
$GPGGA,080142.000,3353.7392,N,09832.0261,W,2,08,1.2,319.3,M,-23.7,M,0.8,0000*40
$GPGSA,A,3,17,02,28,27,12,04,10,05,,,,,2.3,1.2,2.0*3A
$GPRMC,080142.000,A,3353.7392,N,09832.0261,W,0.36,118.28,030412,,,D*79
$GPGGA,080143.000,3353.7391,N,09832.0260,W,2,08,1.2,319.5,M,-23.7,M,0.8,0000*45
$GPGSA,A,3,17,02,28,27,12,04,10,05,,,,,2.3,1.2,2.0*3A
$GPRMC,080143.000,A,3353.7391,N,09832.0260,W,0.33,110.38,030412,,,D*76
$GPGGA,080144.000,3353.7391,N,09832.0259,W,2,08,1.2,319.7,M,-23.7,M,0.8,0000*4A
$GPGSA,A,3,17,02,28,27,12,04,10,05,,,,,2.3,1.2,2.0*3A
$GPRMC,080144.000,A,3353.7391,N,09832.0259,W,0.34,92.05,030412,,,D*49
$GPGGA,080145.000,3353.7391,N,09832.0258,W,2,08,1.2,319.9,M,-23.7,M,0.8,0000*44
$GPGSA,A,3,17,02,28,27,12,04,10,05,,,,,2.3,1.2,2.0*3A
$GPGSV,3,1,12,04,72,032,32,02,67,245,34,12,41,317,25,10,41,126,36*7E
$GPGSV,3,2,12,09,31,252,,17,30,073,28,27,28,235,13,28,17,138,30*72
$GPGSV,3,3,12,05,13,180,37,25,02,318,,20,01,035,,51,49,195,36*7B
$GPRMC,080145.000,A,3353.7391,N,09832.0258,W,0.34,92.81,030412,,,D*45
$GPGGA,080146.000,3353.7391,N,09832.0257,W,2,08,1.2,320.0,M,-23.7,M,1.8,0000*4A
$GPGSA,A,3,17,02,28,27,12,04,10,05,,,,,2.3,1.2,2.0*3A
$GPRMC,080146.000,A,3353.7391,N,09832.0257,W,0.31,92.66,030412,,,D*45
$GPGGA,080147.000,3353.7391,N,09832.0256,W,2,08,1.2,320.1,M,-23.7,M,2.8,0000*48
$GPGSA,A,3,17,02,28,27,12,04,10,05,,,,,2.3,1.2,2.0*3A
$GPRMC,080147.000,A,3353.7391,N,09832.0256,W,0.17,83.82,030412,,,D*4B
$GPGGA,080148.000,3353.7391,N,09832.0256,W,2,08,1.2,320.1,M,-23.7,M,0.8,0000*45
$GPGSA,A,3,17,02,28,27,12,04,10,05,,,,,2.3,1.2,2.0*3A
$GPRMC,080148.000,A,3353.7391,N,09832.0256,W,0.09,192.56,030412,,,D*73
$GPGGA,080149.000,3353.7391,N,09832.0256,W,2,09,1.1,320.1,M,-23.7,M,0.8,0000*46
$GPGSA,A,3,17,02,28,09,27,12,04,10,05,,,,2.2,1.1,1.9*3B
$GPRMC,080149.000,A,3353.7391,N,09832.0256,W,0.07,119.86,030412,,,D*72
$GPGGA,080150.000,3353.7392,N,09832.0256,W,2,09,1.1,320.0,M,-23.7,M,0.8,0000*4C
$GPGSA,A,3,17,02,28,09,27,12,04,10,05,,,,2.2,1.1,1.9*3B
$GPGSV,3,1,12,04,72,032,32,02,67,245,34,12,41,317,25,10,41,126,36*7E
$GPGSV,3,2,12,09,31,252,14,17,30,073,28,27,28,235,14,28,17,138,30*70
$GPGSV,3,3,12,05,13,180,37,25,02,318,,20,01,035,,51,49,195,36*7B
$GPRMC,080150.000,A,3353.7392,N,09832.0256,W,0.11,157.95,030412,,,D*76
$GPGGA,080151.000,3353.7392,N,09832.0256,W,2,09,1.1,319.8,M,-23.7,M,1.8,0000*4E
$GPGSA,A,3,17,02,28,09,27,12,04,10,05,,,,2.2,1.1,1.9*3B
$GPRMC,080151.000,A,3353.7392,N,09832.0256,W,0.09,172.94,030412,,,D*78
$GPGGA,080152.000,3353.7392,N,09832.0256,W,2,09,1.1,319.7,M,-23.7,M,2.8,0000*41
$GPGSA,A,3,17,02,28,09,27,12,04,10,05,,,,2.2,1.1,1.9*3B
$GPRMC,080152.000,A,3353.7392,N,09832.0256,W,0.09,124.46,030412,,,D*77
$GPGGA,080153.000,3353.7392,N,09832.0256,W,2,09,1.1,319.6,M,-23.7,M,3.8,0000*40
$GPGSA,A,3,17,02,28,09,27,12,04,10,05,,,,2.2,1.1,1.9*3B
$GPRMC,080153.000,A,3353.7392,N,09832.0256,W,0.13,117.40,030412,,,D*7B
$GPGGA,080154.000,3353.7392,N,09832.0255,W,2,09,1.1,319.5,M,-23.7,M,0.8,0000*44
$GPGSA,A,3,17,02,28,09,27,12,04,10,05,,,,2.2,1.1,1.9*3B
$GPRMC,080154.000,A,3353.7392,N,09832.0255,W,0.08,107.77,030412,,,D*70
$GPGGA,080155.000,3353.7392,N,09832.0255,W,2,09,1.1,319.3,M,-23.7,M,0.8,0000*43
$GPGSA,A,3,17,02,28,09,27,12,04,10,05,,,,2.2,1.1,1.9*3B
$GPGSV,3,1,12,04,72,032,32,02,67,245,33,12,41,317,26,10,41,126,36*7A
$GPGSV,3,2,12,09,31,252,14,17,30,073,28,27,28,235,17,28,17,138,30*73
$GPGSV,3,3,12,05,13,180,37,25,02,318,,20,01,035,,51,49,195,36*7B
$GPRMC,080155.000,A,3353.7392,N,09832.0255,W,0.07,81.80,030412,,,D*49
$GPGGA,080156.000,3353.7392,N,09832.0255,W,2,09,1.1,319.4,M,-23.7,M,0.8,0000*47
$GPGSA,A,3,17,02,28,09,27,12,04,10,05,,,,2.2,1.1,1.9*3B
$GPRMC,080156.000,A,3353.7392,N,09832.0255,W,0.13,81.79,030412,,,D*49
$GPGGA,080157.000,3353.7392,N,09832.0255,W,2,09,1.1,319.4,M,-23.7,M,1.8,0000*47
$GPGSA,A,3,17,02,28,09,27,12,04,10,05,,,,2.2,1.1,1.9*3B
$GPRMC,080157.000,A,3353.7392,N,09832.0255,W,0.15,88.54,030412,,,D*48
$GPGGA,080158.000,3353.7392,N,09832.0255,W,2,09,1.1,319.5,M,-23.7,M,2.8,0000*4A
$GPGSA,A,3,17,02,28,09,27,12,04,10,05,,,,2.2,1.1,1.9*3B
$GPRMC,080158.000,A,3353.7392,N,09832.0255,W,0.30,78.85,030412,,,D*43
$GPGGA,080159.000,3353.7392,N,09832.0254,W,2,09,1.1,319.7,M,-23.7,M,3.8,0000*49
$GPGSA,A,3,17,02,28,09,27,12,04,10,05,,,,2.2,1.1,1.9*3B
$GPRMC,080159.000,A,3353.7392,N,09832.0254,W,0.40,78.82,030412,,,D*43
$GPGGA,080200.000,3353.7392,N,09832.0253,W,2,09,1.1,319.9,M,-23.7,M,0.8,0000*4C
$GPGSA,A,3,17,02,28,09,27,12,04,10,05,,,,2.2,1.1,1.9*3B
$GPGSV,3,1,12,04,70,032,32,02,68,248,33,12,43,316,26,10,42,125,35*7A
$GPGSV,3,2,12,09,30,251,14,17,29,074,28,27,27,234,19,28,16,139,31*7F
$GPGSV,3,3,12,05,14,180,37,25,03,318,,20,00,034,,51,49,195,36*7D
$GPRMC,080200.000,A,3353.7392,N,09832.0253,W,0.23,96.32,030412,,,D*45
$GPGGA,080201.000,3353.7391,N,09832.0253,W,2,09,1.1,320.2,M,-23.7,M,0.8,0000*4F
$GPGSA,A,3,17,02,28,09,27,12,04,10,05,,,,2.2,1.1,1.9*3B
$GPRMC,080201.000,A,3353.7391,N,09832.0253,W,0.31,90.31,030412,,,D*41
$GPGGA,080202.000,3353.7393,N,09832.0252,W,2,09,1.1,319.6,M,-23.7,M,0.8,0000*41
$GPGSA,A,3,17,02,28,09,27,12,04,10,05,,,,2.2,1.1,1.9*3B
$GPRMC,080202.000,A,3353.7393,N,09832.0252,W,0.07,143.69,030412,,,D*76
$GPGGA,080203.000,3353.7394,N,09832.0252,W,2,09,1.1,319.1,M,-23.7,M,0.8,0000*40
$GPGSA,A,3,17,02,28,09,27,12,04,10,05,,,,2.2,1.1,1.9*3B
$GPRMC,080203.000,A,3353.7394,N,09832.0252,W,0.15,70.10,030412,,,D*4C
$GPGGA,080204.000,3353.7397,N,09832.0251,W,2,09,1.1,318.4,M,-23.7,M,1.8,0000*42
$GPGSA,A,3,17,02,28,09,27,12,04,10,05,,,,2.2,1.1,1.9*3B
$GPRMC,080204.000,A,3353.7397,N,09832.0251,W,0.09,283.53,030412,,,D*7F
$GPGGA,080205.000,3353.7399,N,09832.0252,W,2,08,1.2,317.7,M,-23.7,M,0.8,0000*41
$GPGSA,A,3,17,02,28,27,12,04,10,05,,,,,2.3,1.2,2.0*3A
$GPGSV,3,1,12,04,70,032,32,02,68,248,32,12,43,316,26,10,42,125,34*7A
$GPGSV,3,2,12,09,30,251,14,17,29,074,27,27,27,234,20,28,16,139,31*7A
$GPGSV,3,3,12,05,14,180,37,25,03,318,,20,00,034,,51,49,195,41*7D
$GPRMC,080205.000,A,3353.7399,N,09832.0252,W,0.12,355.70,030412,,,D*72
$GPGGA,080206.000,3353.7401,N,09832.0251,W,2,09,1.1,316.9,M,-23.7,M,0.8,0000*4A
$GPGSA,A,3,17,02,28,09,27,12,04,10,05,,,,2.2,1.1,1.9*3B
$GPRMC,080206.000,A,3353.7401,N,09832.0251,W,0.17,356.24,030412,,,D*73
$GPGGA,080207.000,3353.7404,N,09832.0252,W,2,09,1.1,316.1,M,-23.7,M,0.8,0000*45
$GPGSA,A,3,17,02,28,09,27,12,04,10,05,,,,2.2,1.1,1.9*3B
$GPRMC,080207.000,A,3353.7404,N,09832.0252,W,0.27,309.58,030412,,,D*76
$GPGGA,080208.000,3353.7408,N,09832.0257,W,2,09,1.1,314.5,M,-23.7,M,0.8,0000*45
$GPGSA,A,3,17,02,28,09,27,12,04,10,05,,,,2.2,1.1,1.9*3B
$GPRMC,080208.000,A,3353.7408,N,09832.0257,W,0.35,320.68,030412,,,D*7B
$GPGGA,080209.000,3353.7412,N,09832.0261,W,2,09,1.1,313.4,M,-23.7,M,1.8,0000*4D
$GPGSA,A,3,17,02,28,09,27,12,04,10,05,,,,2.2,1.1,1.9*3B
$GPRMC,080209.000,A,3353.7412,N,09832.0261,W,0.43,309.02,030412,,,D*72
$GPGGA,080210.000,3353.7414,N,09832.0264,W,2,08,1.2,312.6,M,-23.7,M,0.8,0000*46
$GPGSA,A,3,17,02,28,27,12,04,10,05,,,,,2.3,1.2,2.0*3A
$GPGSV,3,1,12,04,70,032,32,02,68,248,32,12,43,316,26,10,42,125,34*7A
$GPGSV,3,2,12,09,30,251,13,17,29,074,26,27,27,234,21,28,16,139,30*7C
$GPGSV,3,3,12,05,14,180,37,25,03,318,,20,00,034,,51,49,195,36*7D
$GPRMC,080210.000,A,3353.7414,N,09832.0264,W,0.48,308.34,030412,,,D*76
$GPGGA,080211.000,3353.7416,N,09832.0267,W,2,09,1.1,311.9,M,-23.7,M,0.8,0000*48
$GPGSA,A,3,17,02,28,09,27,12,04,10,05,,,,2.2,1.1,1.9*3B
$GPRMC,080211.000,A,3353.7416,N,09832.0267,W,0.51,303.49,030412,,,D*7F
$GPGGA,080212.000,3353.7418,N,09832.0269,W,2,09,1.1,311.4,M,-23.7,M,0.8,0000*46
$GPGSA,A,3,17,02,28,09,27,12,04,10,05,,,,2.2,1.1,1.9*3B
$GPRMC,080212.000,A,3353.7418,N,09832.0269,W,0.39,330.49,030412,,,D*72
$GPGGA,080213.000,3353.7419,N,09832.0270,W,2,09,1.1,311.0,M,-23.7,M,0.8,0000*4A
$GPGSA,A,3,17,02,28,09,27,12,04,10,05,,,,2.2,1.1,1.9*3B
$GPRMC,080213.000,A,3353.7419,N,09832.0270,W,0.30,1.21,030412,,,D*7C
$GPGGA,080214.000,3353.7420,N,09832.0271,W,2,09,1.1,310.6,M,-23.7,M,0.8,0000*41
$GPGSA,A,3,17,02,28,09,27,12,04,10,05,,,,2.2,1.1,1.9*3B
$GPRMC,080214.000,A,3353.7420,N,09832.0271,W,0.26,5.94,030412,,,D*7D
$GPGGA,080215.000,3353.7421,N,09832.0271,W,2,09,1.1,310.3,M,-23.7,M,1.8,0000*45
$GPGSA,A,3,17,02,28,09,27,12,04,10,05,,,,2.2,1.1,1.9*3B
$GPGSV,3,1,12,04,70,032,32,02,68,248,32,12,43,316,26,10,42,125,34*7A
$GPGSV,3,2,12,09,30,251,14,17,29,074,26,27,27,234,21,28,16,139,30*7B
$GPGSV,3,3,12,05,14,180,37,25,03,318,,20,00,034,,51,49,195,36*7D
$GPRMC,080215.000,A,3353.7421,N,09832.0271,W,0.21,15.66,030412,,,D*46
$GPGGA,080216.000,3353.7421,N,09832.0272,W,2,09,1.1,310.1,M,-23.7,M,2.8,0000*44
$GPGSA,A,3,17,02,28,09,27,12,04,10,05,,,,2.2,1.1,1.9*3B
$GPRMC,080216.000,A,3353.7421,N,09832.0272,W,0.16,29.68,030412,,,D*43
$GPGGA,080217.000,3353.7422,N,09832.0272,W,2,09,1.1,309.8,M,-23.7,M,0.8,0000*45
$GPGSA,A,3,17,02,28,09,27,12,04,10,05,,,,2.2,1.1,1.9*3B
$GPRMC,080217.000,A,3353.7422,N,09832.0272,W,0.17,30.20,030412,,,D*44
$GPGGA,080218.000,3353.7422,N,09832.0273,W,2,09,1.1,309.6,M,-23.7,M,0.8,0000*45
$GPGSA,A,3,17,02,28,09,27,12,04,10,05,,,,2.2,1.1,1.9*3B
$GPRMC,080218.000,A,3353.7422,N,09832.0273,W,0.14,2.23,030412,,,D*7B
$GPGGA,080219.000,3353.7423,N,09832.0273,W,2,09,1.1,309.4,M,-23.7,M,0.8,0000*47
$GPGSA,A,3,17,02,28,09,27,12,04,10,05,,,,2.2,1.1,1.9*3B
$GPRMC,080219.000,A,3353.7423,N,09832.0273,W,0.19,20.74,030412,,,D*44
$GPGGA,080220.000,3353.7423,N,09832.0273,W,2,09,1.1,309.3,M,-23.7,M,0.8,0000*4A
$GPGSA,A,3,17,02,28,09,27,12,04,10,05,,,,2.2,1.1,1.9*3B
$GPGSV,3,1,12,04,70,032,32,02,68,248,32,12,43,316,26,10,42,125,35*7B
$GPGSV,3,2,12,09,30,251,15,17,29,074,26,27,27,234,20,28,16,139,30*7B
$GPGSV,3,3,12,05,14,180,37,25,03,318,,20,00,034,,51,49,195,36*7D
$GPRMC,080220.000,A,3353.7423,N,09832.0273,W,0.34,35.50,030412,,,D*43
$GPGGA,080221.000,3353.7424,N,09832.0273,W,2,09,1.1,309.2,M,-23.7,M,0.8,0000*4D
$GPGSA,A,3,17,02,28,09,27,12,04,10,05,,,,2.2,1.1,1.9*3B
$GPRMC,080221.000,A,3353.7424,N,09832.0273,W,0.33,44.42,030412,,,D*47
$GPGGA,080222.000,3353.7424,N,09832.0273,W,2,09,1.1,309.2,M,-23.7,M,1.8,0000*4F
$GPGSA,A,3,17,02,28,09,27,12,04,10,05,,,,2.2,1.1,1.9*3B
$GPRMC,080222.000,A,3353.7424,N,09832.0273,W,0.22,39.88,030412,,,D*48
$GPGGA,080223.000,3353.7424,N,09832.0273,W,2,09,1.1,309.4,M,-23.7,M,2.8,0000*4B
$GPGSA,A,3,17,02,28,09,27,12,04,10,05,,,,2.2,1.1,1.9*3B
$GPRMC,080223.000,A,3353.7424,N,09832.0273,W,0.11,317.02,030412,,,D*74
$GPGGA,080224.000,3353.7423,N,09832.0273,W,2,09,1.1,309.6,M,-23.7,M,0.8,0000*4B
$GPGSA,A,3,17,02,28,09,27,12,04,10,05,,,,2.2,1.1,1.9*3B
$GPRMC,080224.000,A,3353.7423,N,09832.0273,W,0.04,285.15,030412,,,D*7C
$GPGGA,080225.000,3353.7422,N,09832.0273,W,2,09,1.1,309.8,M,-23.7,M,0.8,0000*45
$GPGSA,A,3,17,02,28,09,27,12,04,10,05,,,,2.2,1.1,1.9*3B
$GPGSV,3,1,12,04,70,032,32,02,68,248,32,12,43,316,26,10,42,125,35*7B
$GPGSV,3,2,12,09,30,251,14,17,29,074,25,27,27,234,19,28,16,139,30*73
$GPGSV,3,3,12,05,14,180,37,25,03,318,,20,00,034,,51,49,195,37*7C
$GPRMC,080225.000,A,3353.7422,N,09832.0273,W,0.08,84.77,030412,,,D*47
$GPGGA,080226.000,3353.7421,N,09832.0273,W,2,09,1.1,310.0,M,-23.7,M,0.8,0000*45
$GPGSA,A,3,17,02,28,09,27,12,04,10,05,,,,2.2,1.1,1.9*3B
$GPRMC,080226.000,A,3353.7421,N,09832.0273,W,0.12,88.33,030412,,,D*40
$GPGGA,080227.000,3353.7421,N,09832.0272,W,2,09,1.1,310.1,M,-23.7,M,1.8,0000*45
$GPGSA,A,3,17,02,28,09,27,12,04,10,05,,,,2.2,1.1,1.9*3B
$GPRMC,080227.000,A,3353.7421,N,09832.0272,W,0.04,104.27,030412,,,D*77
$GPGGA,080228.000,3353.7420,N,09832.0272,W,2,09,1.1,310.2,M,-23.7,M,2.8,0000*4B
$GPGSA,A,3,17,02,28,09,27,12,04,10,05,,,,2.2,1.1,1.9*3B
$GPRMC,080228.000,A,3353.7420,N,09832.0272,W,0.24,79.67,030412,,,D*44
$GPGGA,080229.000,3353.7419,N,09832.0271,W,2,09,1.1,310.5,M,-23.7,M,3.8,0000*45
$GPGSA,A,3,17,02,28,09,27,12,04,10,05,,,,2.2,1.1,1.9*3B
$GPRMC,080229.000,A,3353.7419,N,09832.0271,W,0.15,150.37,030412,,,D*71
$GPGGA,080230.000,3353.7419,N,09832.0270,W,2,09,1.1,310.6,M,-23.7,M,0.8,0000*4C
$GPGSA,A,3,17,02,28,09,27,12,04,10,05,,,,2.2,1.1,1.9*3B
$GPGSV,3,1,12,04,70,032,33,02,68,248,32,12,43,316,26,10,42,125,35*7A
$GPGSV,3,2,12,09,30,251,13,17,29,074,24,27,27,234,18,28,16,139,30*74
$GPGSV,3,3,12,05,14,180,38,25,03,318,,20,00,034,,51,49,195,39*7D
$GPRMC,080230.000,A,3353.7419,N,09832.0270,W,0.59,73.92,030412,,,D*4F
$GPGGA,080231.000,3353.7419,N,09832.0269,W,2,09,1.1,310.7,M,-23.7,M,0.8,0000*44
$GPGSA,A,3,17,02,28,09,27,12,04,10,05,,,,2.2,1.1,1.9*3B
$GPRMC,080231.000,A,3353.7419,N,09832.0269,W,0.33,93.55,030412,,,D*4F
$GPGGA,080232.000,3353.7418,N,09832.0269,W,2,09,1.1,310.9,M,-23.7,M,0.8,0000*48
$GPGSA,A,3,17,02,28,09,27,12,04,10,05,,,,2.2,1.1,1.9*3B
$GPRMC,080232.000,A,3353.7418,N,09832.0269,W,0.22,147.58,030412,,,D*78
$GPGGA,080233.000,3353.7420,N,09832.0270,W,2,09,1.1,310.4,M,-23.7,M,0.8,0000*47
$GPGSA,A,3,17,02,28,09,27,12,04,10,05,,,,2.2,1.1,1.9*3B
$GPRMC,080233.000,A,3353.7420,N,09832.0270,W,0.30,95.01,030412,,,D*4B
$GPGGA,080234.000,3353.7422,N,09832.0271,W,2,08,1.2,310.0,M,-23.7,M,1.8,0000*44
$GPGSA,A,3,17,02,28,27,12,04,10,05,,,,,2.3,1.2,2.0*3A
$GPRMC,080234.000,A,3353.7422,N,09832.0271,W,0.16,106.62,030412,,,D*75
$GPGGA,080235.000,3353.7424,N,09832.0271,W,2,08,1.2,309.4,M,-23.7,M,2.8,0000*4C
$GPGSA,A,3,17,02,28,27,12,04,10,05,,,,,2.3,1.2,2.0*3A
$GPGSV,3,1,12,04,70,032,33,02,68,248,31,12,43,316,25,10,42,125,35*7A
$GPGSV,3,2,12,09,30,251,,17,29,074,21,27,27,234,19,28,16,139,31*73
$GPGSV,3,3,12,05,14,180,38,25,03,318,,20,00,034,,51,49,195,36*72
$GPRMC,080235.000,A,3353.7424,N,09832.0271,W,0.22,39.73,030412,,,D*48
$GPGGA,080236.000,3353.7426,N,09832.0272,W,2,08,1.2,308.8,M,-23.7,M,0.8,0000*41
$GPGSA,A,3,17,02,28,27,12,04,10,05,,,,,2.3,1.2,2.0*3A
$GPRMC,080236.000,A,3353.7426,N,09832.0272,W,0.26,15.99,030412,,,D*44
$GPGGA,080237.000,3353.7428,N,09832.0273,W,2,08,1.2,308.2,M,-23.7,M,0.8,0000*45
$GPGSA,A,3,17,02,28,27,12,04,10,05,,,,,2.3,1.2,2.0*3A
$GPRMC,080237.000,A,3353.7428,N,09832.0273,W,0.19,349.85,030412,,,D*71
$GPGGA,080238.000,3353.7429,N,09832.0274,W,2,08,1.2,307.9,M,-23.7,M,0.8,0000*48
$GPGSA,A,3,17,02,28,27,12,04,10,05,,,,,2.3,1.2,2.0*3A
$GPRMC,080238.000,A,3353.7429,N,09832.0274,W,0.12,48.47,030412,,,D*4F
$GPGGA,080239.000,3353.7430,N,09832.0275,W,2,08,1.2,307.5,M,-23.7,M,1.8,0000*4D
$GPGSA,A,3,17,02,28,27,12,04,10,05,,,,,2.3,1.2,2.0*3A
$GPRMC,080239.000,A,3353.7430,N,09832.0275,W,0.25,56.29,030412,,,D*44
$GPGGA,080240.000,3353.7430,N,09832.0275,W,2,08,1.2,307.4,M,-23.7,M,2.8,0000*41
$GPGSA,A,3,17,02,28,27,12,04,10,05,,,,,2.3,1.2,2.0*3A
$GPGSV,3,1,12,04,70,032,34,02,68,248,31,12,43,316,26,10,42,125,34*7F
$GPGSV,3,2,12,09,30,251,,17,29,074,22,27,27,234,20,28,16,139,31*7A
$GPGSV,3,3,12,05,14,180,38,25,03,318,,20,00,034,,51,49,195,36*72
$GPRMC,080240.000,A,3353.7430,N,09832.0275,W,0.13,265.35,030412,,,D*70
$GPGGA,080241.000,3353.7430,N,09832.0276,W,2,08,1.2,307.2,M,-23.7,M,3.8,0000*44
$GPGSA,A,3,17,02,28,27,12,04,10,05,,,,,2.3,1.2,2.0*3A
$GPRMC,080241.000,A,3353.7430,N,09832.0276,W,0.25,35.49,030412,,,D*4B
$GPGGA,080242.000,3353.7430,N,09832.0276,W,2,08,1.2,307.2,M,-23.7,M,0.8,0000*44
$GPGSA,A,3,17,02,28,27,12,04,10,05,,,,,2.3,1.2,2.0*3A
$GPRMC,080242.000,A,3353.7430,N,09832.0276,W,0.18,62.74,030412,,,D*4A
$GPGGA,080243.000,3353.7429,N,09832.0276,W,2,08,1.2,307.4,M,-23.7,M,0.8,0000*4B
$GPGSA,A,3,17,02,28,27,12,04,10,05,,,,,2.3,1.2,2.0*3A
$GPRMC,080243.000,A,3353.7429,N,09832.0276,W,0.09,78.56,030412,,,D*48
$GPGGA,080244.000,3353.7428,N,09832.0276,W,2,08,1.2,307.7,M,-23.7,M,0.8,0000*4E
$GPGSA,A,3,17,02,28,27,12,04,10,05,,,,,2.3,1.2,2.0*3A
$GPRMC,080244.000,A,3353.7428,N,09832.0276,W,0.15,265.26,030412,,,D*7A
$GPGGA,080245.000,3353.7427,N,09832.0276,W,2,08,1.2,308.0,M,-23.7,M,1.8,0000*49
$GPGSA,A,3,17,02,28,27,12,04,10,05,,,,,2.3,1.2,2.0*3A
$GPGSV,3,1,12,04,70,032,34,02,68,248,31,12,43,316,26,10,42,125,34*7F
$GPGSV,3,2,12,09,30,251,,17,29,074,23,27,27,234,20,28,16,139,32*78
$GPGSV,3,3,12,05,14,180,38,25,03,318,,20,00,034,,51,49,195,37*73
$GPRMC,080245.000,A,3353.7427,N,09832.0276,W,0.26,57.87,030412,,,D*4C
$GPGGA,080246.000,3353.7426,N,09832.0276,W,2,08,1.2,308.3,M,-23.7,M,2.8,0000*4B
$GPGSA,A,3,17,02,28,27,12,04,10,05,,,,,2.3,1.2,2.0*3A
$GPRMC,080246.000,A,3353.7426,N,09832.0276,W,0.09,248.69,030412,,,D*7F
$GPGGA,080247.000,3353.7425,N,09832.0277,W,2,08,1.2,308.8,M,-23.7,M,3.8,0000*42
$GPGSA,A,3,17,02,28,27,12,04,10,05,,,,,2.3,1.2,2.0*3A
$GPRMC,080247.000,A,3353.7425,N,09832.0277,W,0.16,240.73,030412,,,D*71
$GPGGA,080248.000,3353.7424,N,09832.0277,W,2,08,1.2,309.2,M,-23.7,M,0.8,0000*44
$GPGSA,A,3,17,02,28,27,12,04,10,05,,,,,2.3,1.2,2.0*3A
$GPRMC,080248.000,A,3353.7424,N,09832.0277,W,0.03,284.38,030412,,,D*7C
$GPGGA,080249.000,3353.7422,N,09832.0278,W,2,08,1.2,309.6,M,-23.7,M,0.8,0000*48
$GPGSA,A,3,17,02,28,27,12,04,10,05,,,,,2.3,1.2,2.0*3A
$GPRMC,080249.000,A,3353.7422,N,09832.0278,W,0.29,229.73,030412,,,D*74
$GPGGA,080250.000,3353.7420,N,09832.0278,W,2,08,1.2,310.1,M,-23.7,M,0.8,0000*4D
$GPGSA,A,3,17,02,28,27,12,04,10,05,,,,,2.3,1.2,2.0*3A
$GPGSV,3,1,12,04,70,032,34,02,68,248,31,12,43,316,26,10,42,125,34*7F
$GPGSV,3,2,12,09,30,250,,17,29,075,23,27,26,234,19,28,15,139,33*71
$GPGSV,3,3,12,05,14,179,38,25,04,318,,20,00,034,,51,49,195,36*73
$GPRMC,080250.000,A,3353.7420,N,09832.0278,W,0.49,224.01,030412,,,D*70
$GPGGA,080251.000,3353.7418,N,09832.0279,W,2,09,1.1,310.7,M,-23.7,M,0.8,0000*42
$GPGSA,A,3,17,02,28,09,27,12,04,10,05,,,,2.2,1.1,1.9*3B
$GPRMC,080251.000,A,3353.7418,N,09832.0279,W,0.35,189.24,030412,,,D*73
$GPGGA,080252.000,3353.7417,N,09832.0278,W,2,09,1.1,311.0,M,-23.7,M,1.8,0000*48
$GPGSA,A,3,17,02,28,09,27,12,04,10,05,,,,2.2,1.1,1.9*3B
$GPRMC,080252.000,A,3353.7417,N,09832.0278,W,0.21,109.47,030412,,,D*76
$GPGGA,080253.000,3353.7416,N,09832.0278,W,2,08,1.2,311.3,M,-23.7,M,2.8,0000*4A
$GPGSA,A,3,17,02,28,27,12,04,10,05,,,,,2.3,1.2,2.0*3A
$GPRMC,080253.000,A,3353.7416,N,09832.0278,W,0.24,116.93,030412,,,D*74
$GPGGA,080254.000,3353.7414,N,09832.0277,W,2,09,1.1,311.8,M,-23.7,M,3.8,0000*48
$GPGSA,A,3,17,02,28,09,27,12,04,10,05,,,,2.2,1.1,1.9*3B
$GPRMC,080254.000,A,3353.7414,N,09832.0277,W,0.26,157.73,030412,,,D*77
$GPGGA,080255.000,3353.7413,N,09832.0277,W,2,09,1.1,312.2,M,-23.7,M,0.8,0000*44
$GPGSA,A,3,17,02,28,09,27,12,04,10,05,,,,2.2,1.1,1.9*3B
$GPGSV,3,1,12,04,70,032,35,02,68,248,31,12,43,316,26,10,42,125,34*7E
$GPGSV,3,2,12,09,30,250,12,17,29,075,22,27,26,234,19,28,15,139,33*73
$GPGSV,3,3,12,05,14,179,38,25,04,318,,20,00,034,,51,49,195,36*73
$GPRMC,080255.000,A,3353.7413,N,09832.0277,W,0.29,150.68,030412,,,D*73
$GPGGA,080256.000,3353.7412,N,09832.0276,W,2,09,1.1,312.5,M,-23.7,M,0.8,0000*40
$GPGSA,A,3,17,02,28,09,27,12,04,10,05,,,,2.2,1.1,1.9*3B
$GPRMC,080256.000,A,3353.7412,N,09832.0276,W,0.53,80.03,030412,,,D*4C
$GPGGA,080257.000,3353.7412,N,09832.0275,W,2,09,1.1,312.8,M,-23.7,M,1.8,0000*4E
$GPGSA,A,3,17,02,28,09,27,12,04,10,05,,,,2.2,1.1,1.9*3B
$GPRMC,080257.000,A,3353.7412,N,09832.0275,W,0.55,75.12,030412,,,D*42
$GPGGA,080258.000,3353.7415,N,09832.0275,W,2,09,1.1,312.2,M,-23.7,M,0.8,0000*4D
$GPGSA,A,3,17,02,28,09,27,12,04,10,05,,,,2.2,1.1,1.9*3B
$GPRMC,080258.000,A,3353.7415,N,09832.0275,W,0.46,67.28,030412,,,D*42
$GPGGA,080259.000,3353.7413,N,09832.0274,W,2,09,1.1,312.7,M,-23.7,M,1.8,0000*4F
$GPGSA,A,3,17,02,28,09,27,12,04,10,05,,,,2.2,1.1,1.9*3B
$GPRMC,080259.000,A,3353.7413,N,09832.0274,W,0.24,106.01,030412,,,D*7D
$GPGGA,080300.000,3353.7413,N,09832.0273,W,2,09,1.1,313.0,M,-23.7,M,0.8,0000*42
$GPGSA,A,3,17,02,28,09,27,12,04,10,05,,,,2.2,1.1,1.9*3B
$GPGSV,3,1,12,04,70,032,35,02,68,248,31,12,43,316,25,10,42,125,34*7D
$GPGSV,3,2,12,09,30,250,13,17,29,075,22,27,26,234,20,28,15,139,34*7F
$GPGSV,3,3,12,05,14,179,38,25,04,318,,20,00,034,,51,49,195,36*73
$GPRMC,080300.000,A,3353.7413,N,09832.0273,W,0.25,86.10,030412,,,D*4F
$GPGGA,080301.000,3353.7412,N,09832.0274,W,2,09,1.1,313.3,M,-23.7,M,0.8,0000*46
$GPGSA,A,3,17,02,28,09,27,12,04,10,05,,,,2.2,1.1,1.9*3B
$GPRMC,080301.000,A,3353.7412,N,09832.0274,W,0.15,172.79,030412,,,D*7E
$GPGGA,080302.000,3353.7412,N,09832.0274,W,2,09,1.1,313.3,M,-23.7,M,0.8,0000*45
$GPGSA,A,3,17,02,28,09,27,12,04,10,05,,,,2.2,1.1,1.9*3B
$GPRMC,080302.000,A,3353.7412,N,09832.0274,W,0.15,122.12,030412,,,D*75
$GPGGA,080303.000,3353.7411,N,09832.0274,W,2,09,1.1,313.6,M,-23.7,M,0.8,0000*42
$GPGSA,A,3,17,02,28,09,27,12,04,10,05,,,,2.2,1.1,1.9*3B
$GPRMC,080303.000,A,3353.7411,N,09832.0274,W,0.18,102.27,030412,,,D*7E
$GPGGA,080304.000,3353.7411,N,09832.0274,W,2,09,1.1,313.8,M,-23.7,M,1.8,0000*4A
$GPGSA,A,3,17,02,28,09,27,12,04,10,05,,,,2.2,1.1,1.9*3B
$GPRMC,080304.000,A,3353.7411,N,09832.0274,W,0.17,179.77,030412,,,D*7F
$GPGGA,080305.000,3353.7411,N,09832.0275,W,2,09,1.1,313.7,M,-23.7,M,0.8,0000*44
$GPGSA,A,3,17,02,28,09,27,12,04,10,05,,,,2.2,1.1,1.9*3B
$GPGSV,3,1,12,04,70,032,35,02,68,248,32,12,43,316,25,10,42,125,34*7E
$GPGSV,3,2,12,09,30,250,16,17,29,075,23,27,26,234,20,28,15,139,34*7B
$GPGSV,3,3,12,05,14,179,38,25,04,318,,20,00,034,,51,49,195,39*7C
$GPRMC,080305.000,A,3353.7411,N,09832.0275,W,0.06,101.44,030412,,,D*70
$GPGGA,080306.000,3353.7411,N,09832.0276,W,2,09,1.1,313.6,M,-23.7,M,0.8,0000*45
$GPGSA,A,3,17,02,28,09,27,12,04,10,05,,,,2.2,1.1,1.9*3B
$GPRMC,080306.000,A,3353.7411,N,09832.0276,W,0.21,216.72,030412,,,D*75
$GPGGA,080307.000,3353.7411,N,09832.0277,W,2,09,1.1,313.5,M,-23.7,M,0.8,0000*46
$GPGSA,A,3,17,02,28,09,27,12,04,10,05,,,,2.2,1.1,1.9*3B
$GPRMC,080307.000,A,3353.7411,N,09832.0277,W,0.06,250.09,030412,,,D*7E
$GPGGA,080308.000,3353.7411,N,09832.0277,W,2,09,1.1,313.5,M,-23.7,M,0.8,0000*49
$GPGSA,A,3,17,02,28,09,27,12,04,10,05,,,,2.2,1.1,1.9*3B
$GPRMC,080308.000,A,3353.7411,N,09832.0277,W,0.07,83.41,030412,,,D*40
$GPGGA,080309.000,3353.7411,N,09832.0277,W,2,09,1.1,313.6,M,-23.7,M,1.8,0000*4A
$GPGSA,A,3,17,02,28,09,27,12,04,10,05,,,,2.2,1.1,1.9*3B
$GPRMC,080309.000,A,3353.7411,N,09832.0277,W,0.24,97.03,030412,,,D*43
$GPGGA,080310.000,3353.7411,N,09832.0277,W,2,09,1.1,313.7,M,-23.7,M,0.8,0000*42
$GPGSA,A,3,17,02,28,09,27,12,04,10,05,,,,2.2,1.1,1.9*3B
$GPGSV,3,1,11,04,70,032,35,02,68,249,32,12,43,316,25,10,42,124,34*7D
$GPGSV,3,2,11,09,30,250,16,17,29,075,23,27,26,234,19,28,15,139,34*72
$GPGSV,3,3,11,05,15,179,38,25,04,318,,51,49,195,36*44
$GPRMC,080310.000,A,3353.7411,N,09832.0277,W,0.21,106.13,030412,,,D*76
$GPGGA,080311.000,3353.7412,N,09832.0277,W,2,09,1.1,313.6,M,-23.7,M,1.8,0000*40
$GPGSA,A,3,17,02,28,09,27,12,04,10,05,,,,2.2,1.1,1.9*3B
$GPRMC,080311.000,A,3353.7412,N,09832.0277,W,0.42,85.45,030412,,,D*48
$GPGGA,080312.000,3353.7413,N,09832.0277,W,2,09,1.1,313.3,M,-23.7,M,2.8,0000*44
$GPGSA,A,3,17,02,28,09,27,12,04,10,05,,,,2.2,1.1,1.9*3B
$GPRMC,080312.000,A,3353.7413,N,09832.0277,W,0.07,110.97,030412,,,D*79
$GPGGA,080313.000,3353.7412,N,09832.0276,W,2,09,1.1,313.5,M,-23.7,M,0.8,0000*41
$GPGSA,A,3,17,02,28,09,27,12,04,10,05,,,,2.2,1.1,1.9*3B
$GPRMC,080313.000,A,3353.7412,N,09832.0276,W,0.29,63.56,030412,,,D*4C
$GPGGA,080314.000,3353.7411,N,09832.0276,W,2,09,1.1,313.9,M,-23.7,M,0.8,0000*49
$GPGSA,A,3,17,02,28,09,27,12,04,10,05,,,,2.2,1.1,1.9*3B
$GPRMC,080314.000,A,3353.7411,N,09832.0276,W,0.22,152.58,030412,,,D*7E
$GPGGA,080315.000,3353.7410,N,09832.0276,W,2,09,1.1,314.3,M,-23.7,M,1.8,0000*45
$GPGSA,A,3,17,02,28,09,27,12,04,10,05,,,,2.2,1.1,1.9*3B
$GPGSV,3,1,11,04,70,032,35,02,68,249,33,12,43,316,24,10,42,124,33*7A
$GPGSV,3,2,11,09,30,250,16,17,29,075,22,27,26,234,14,28,15,139,34*7E
$GPGSV,3,3,11,05,15,179,38,25,04,318,,51,49,195,37*45
$GPRMC,080315.000,A,3353.7410,N,09832.0276,W,0.03,279.83,030412,,,D*71
$GPGGA,080316.000,3353.7411,N,09832.0277,W,2,09,1.1,313.8,M,-23.7,M,2.8,0000*49
$GPGSA,A,3,17,02,28,09,27,12,04,10,05,,,,2.2,1.1,1.9*3B
$GPRMC,080316.000,A,3353.7411,N,09832.0277,W,0.35,288.38,030412,,,D*79
$GPGGA,080317.000,3353.7415,N,09832.0279,W,2,09,1.1,312.7,M,-23.7,M,3.8,0000*4D
$GPGSA,A,3,17,02,28,09,27,12,04,10,05,,,,2.2,1.1,1.9*3B
$GPRMC,080317.000,A,3353.7415,N,09832.0279,W,0.22,343.12,030412,,,D*7A
$GPGGA,080318.000,3353.7418,N,09832.0281,W,2,09,1.1,311.7,M,-23.7,M,0.8,0000*48
$GPGSA,A,3,17,02,28,09,27,12,04,10,05,,,,2.2,1.1,1.9*3B
$GPRMC,080318.000,A,3353.7418,N,09832.0281,W,0.38,334.35,030412,,,D*71
$GPGGA,080319.000,3353.7422,N,09832.0283,W,2,09,1.1,310.5,M,-23.7,M,0.8,0000*41
$GPGSA,A,3,17,02,28,09,27,12,04,10,05,,,,2.2,1.1,1.9*3B
$GPRMC,080319.000,A,3353.7422,N,09832.0283,W,0.62,346.35,030412,,,D*71
$GPGGA,080320.000,3353.7423,N,09832.0284,W,2,09,1.1,310.3,M,-23.7,M,0.8,0000*4B
$GPGSA,A,3,17,02,28,09,27,12,04,10,05,,,,2.2,1.1,1.9*3B
$GPGSV,3,1,11,04,70,032,35,02,68,249,33,12,43,316,23,10,42,124,33*7D
$GPGSV,3,2,11,09,30,250,15,17,29,075,21,27,26,234,15,28,15,139,34*7F
$GPGSV,3,3,11,05,15,179,38,25,04,318,,51,49,195,36*44
$GPRMC,080320.000,A,3353.7423,N,09832.0284,W,0.60,332.01,030412,,,D*7B
$GPGGA,080321.000,3353.7427,N,09832.0287,W,2,09,1.1,309.3,M,-23.7,M,0.8,0000*45
$GPGSA,A,3,17,02,28,09,27,12,04,10,05,,,,2.2,1.1,1.9*3B
$GPRMC,080321.000,A,3353.7427,N,09832.0287,W,0.61,315.02,030412,,,D*7A
$GPGGA,080322.000,3353.7431,N,09832.0289,W,2,09,1.1,307.9,M,-23.7,M,1.8,0000*4A
$GPGSA,A,3,17,02,28,09,27,12,04,10,05,,,,2.2,1.1,1.9*3B
$GPRMC,080322.000,A,3353.7431,N,09832.0289,W,0.58,10.10,030412,,,D*4F
$GPGGA,080323.000,3353.7433,N,09832.0288,W,2,09,1.1,307.3,M,-23.7,M,2.8,0000*41
$GPGSA,A,3,17,02,28,09,27,12,04,10,05,,,,2.2,1.1,1.9*3B
$GPRMC,080323.000,A,3353.7433,N,09832.0288,W,0.66,339.40,030412,,,D*7D
$GPGGA,080324.000,3353.7437,N,09832.0291,W,2,09,1.1,306.2,M,-23.7,M,0.8,0000*48
$GPGSA,A,3,17,02,28,09,27,12,04,10,05,,,,2.2,1.1,1.9*3B
$GPRMC,080324.000,A,3353.7437,N,09832.0291,W,0.52,350.08,030412,,,D*72
$GPGGA,080325.000,3353.7438,N,09832.0290,W,2,09,1.1,305.9,M,-23.7,M,0.8,0000*4F
$GPGSA,A,3,17,02,28,09,27,12,04,10,05,,,,2.2,1.1,1.9*3B
$GPGSV,3,1,11,04,70,032,36,02,68,249,33,12,43,316,22,10,42,124,32*7E
$GPGSV,3,2,11,09,30,250,16,17,29,075,22,27,26,234,14,28,15,139,34*7E
$GPGSV,3,3,11,05,15,179,38,25,04,318,,51,49,195,36*44
$GPRMC,080325.000,A,3353.7438,N,09832.0290,W,0.59,348.32,030412,,,D*76
$GPGGA,080326.000,3353.7438,N,09832.0291,W,2,09,1.1,305.9,M,-23.7,M,0.8,0000*4D
$GPGSA,A,3,17,02,28,09,27,12,04,10,05,,,,2.2,1.1,1.9*3B
$GPRMC,080326.000,A,3353.7438,N,09832.0291,W,0.60,321.06,030412,,,D*76
$GPGGA,080327.000,3353.7434,N,09832.0294,W,2,09,1.1,307.2,M,-23.7,M,1.8,0000*4D
$GPGSA,A,3,17,02,28,09,27,12,04,10,05,,,,2.2,1.1,1.9*3B
$GPRMC,080327.000,A,3353.7434,N,09832.0294,W,0.21,321.61,030412,,,D*7A
$GPGGA,080328.000,3353.7431,N,09832.0295,W,2,09,1.1,308.0,M,-23.7,M,2.8,0000*48
$GPGSA,A,3,17,02,28,09,27,12,04,10,05,,,,2.2,1.1,1.9*3B
$GPRMC,080328.000,A,3353.7431,N,09832.0295,W,0.28,333.02,030412,,,D*7E
$GPGGA,080329.000,3353.7432,N,09832.0295,W,2,09,1.1,307.6,M,-23.7,M,3.8,0000*42
$GPGSA,A,3,17,02,28,09,27,12,04,10,05,,,,2.2,1.1,1.9*3B
$GPRMC,080329.000,A,3353.7432,N,09832.0295,W,0.51,338.58,030412,,,D*76
$GPGGA,080330.000,3353.7431,N,09832.0295,W,2,09,1.1,307.9,M,-23.7,M,0.8,0000*45
$GPGSA,A,3,17,02,28,09,27,12,04,10,05,,,,2.2,1.1,1.9*3B
$GPGSV,3,1,11,04,70,032,36,02,68,249,33,12,43,316,21,10,42,124,31*7E
$GPGSV,3,2,11,09,30,250,14,17,29,075,23,27,26,234,12,28,15,139,34*7B
$GPGSV,3,3,11,05,15,179,38,25,04,318,,51,49,195,37*45
$GPRMC,080330.000,A,3353.7431,N,09832.0295,W,0.42,48.28,030412,,,D*4C
$GPGGA,080331.000,3353.7432,N,09832.0292,W,2,07,1.3,307.6,M,-23.7,M,0.8,0000*43
$GPGSA,A,3,17,02,28,12,04,10,05,,,,,,2.4,1.3,2.1*38
$GPRMC,080331.000,A,3353.7432,N,09832.0292,W,0.37,69.44,030412,,,D*42
$GPGGA,080332.000,3353.7433,N,09832.0289,W,2,07,1.3,307.2,M,-23.7,M,0.8,0000*4F
$GPGSA,A,3,17,02,28,12,04,10,05,,,,,,2.4,1.3,2.1*38
$GPRMC,080332.000,A,3353.7433,N,09832.0289,W,0.28,66.67,030412,,,D*4A
$GPGGA,080333.000,3353.7434,N,09832.0289,W,2,07,1.3,306.9,M,-23.7,M,1.8,0000*42
$GPGSA,A,3,17,02,28,12,04,10,05,,,,,,2.4,1.3,2.1*38
$GPRMC,080333.000,A,3353.7434,N,09832.0289,W,0.31,331.51,030412,,,D*70
$GPGGA,080334.000,3353.7437,N,09832.0288,W,2,07,1.3,306.2,M,-23.7,M,2.8,0000*4F
$GPGSA,A,3,17,02,28,12,04,10,05,,,,,,2.4,1.3,2.1*38
$GPRMC,080334.000,A,3353.7437,N,09832.0288,W,0.47,346.11,030412,,,D*70
$GPGGA,080335.000,3353.7435,N,09832.0288,W,2,07,1.3,307.0,M,-23.7,M,3.8,0000*4E
$GPGSA,A,3,17,02,28,12,04,10,05,,,,,,2.4,1.3,2.1*38
$GPGSV,3,1,11,04,70,032,36,02,68,249,33,12,43,316,20,10,42,124,31*7F
$GPGSV,3,2,11,09,30,250,,17,29,075,23,27,26,234,,28,15,139,34*7D
$GPGSV,3,3,11,05,15,179,38,25,04,318,,51,49,195,38*4A
$GPRMC,080335.000,A,3353.7435,N,09832.0288,W,0.18,353.66,030412,,,D*7D
$GPGGA,080336.000,3353.7435,N,09832.0287,W,2,07,1.3,307.1,M,-23.7,M,0.8,0000*40
$GPGSA,A,3,17,02,28,12,04,10,05,,,,,,2.4,1.3,2.1*38
$GPRMC,080336.000,A,3353.7435,N,09832.0287,W,0.34,24.26,030412,,,D*48
$GPGGA,080337.000,3353.7435,N,09832.0285,W,2,07,1.3,307.1,M,-23.7,M,0.8,0000*43
$GPGSA,A,3,17,02,28,12,04,10,05,,,,,,2.4,1.3,2.1*38
$GPRMC,080337.000,A,3353.7435,N,09832.0285,W,0.17,72.83,030412,,,D*46
$GPGGA,080338.000,3353.7438,N,09832.0282,W,2,07,1.3,306.2,M,-23.7,M,0.8,0000*44
$GPGSA,A,3,17,02,28,12,04,10,05,,,,,,2.4,1.3,2.1*38
$GPRMC,080338.000,A,3353.7438,N,09832.0282,W,0.20,43.58,030412,,,D*43
$GPGGA,080339.000,3353.7436,N,09832.0281,W,2,07,1.3,306.8,M,-23.7,M,1.8,0000*43
$GPGSA,A,3,17,02,28,12,04,10,05,,,,,,2.4,1.3,2.1*38
$GPRMC,080339.000,A,3353.7436,N,09832.0281,W,0.21,120.64,030412,,,D*75
$GPGGA,080340.000,3353.7432,N,09832.0280,W,2,07,1.3,308.0,M,-23.7,M,0.8,0000*4F
$GPGSA,A,3,17,02,28,12,04,10,05,,,,,,2.4,1.3,2.1*38
$GPGSV,3,1,11,04,70,032,36,02,68,249,33,12,43,316,19,10,42,124,31*75
$GPGSV,3,2,11,09,30,250,,17,29,075,23,27,26,234,,28,15,139,34*7D
$GPGSV,3,3,11,05,15,179,38,25,04,318,,51,49,195,36*44
$GPRMC,080340.000,A,3353.7432,N,09832.0280,W,0.37,107.49,030412,,,D*73
$GPGGA,080341.000,3353.7433,N,09832.0278,W,2,07,1.3,307.5,M,-23.7,M,0.8,0000*42
$GPGSA,A,3,17,02,28,12,04,10,05,,,,,,2.4,1.3,2.1*38
$GPRMC,080341.000,A,3353.7433,N,09832.0278,W,0.45,112.77,030412,,,D*78
$GPGGA,080342.000,3353.7430,N,09832.0276,W,2,07,1.3,308.4,M,-23.7,M,0.8,0000*42
$GPGSA,A,3,17,02,28,12,04,10,05,,,,,,2.4,1.3,2.1*38
$GPRMC,080342.000,A,3353.7430,N,09832.0276,W,0.53,116.48,030412,,,D*79
$GPGGA,080343.000,3353.7428,N,09832.0274,W,2,07,1.3,308.9,M,-23.7,M,0.8,0000*45
$GPGSA,A,3,17,02,28,12,04,10,05,,,,,,2.4,1.3,2.1*38
$GPRMC,080343.000,A,3353.7428,N,09832.0274,W,0.55,118.46,030412,,,D*75
$GPGGA,080344.000,3353.7426,N,09832.0272,W,2,07,1.3,309.6,M,-23.7,M,0.8,0000*44
$GPGSA,A,3,17,02,28,12,04,10,05,,,,,,2.4,1.3,2.1*38
$GPRMC,080344.000,A,3353.7426,N,09832.0272,W,0.67,102.98,030412,,,D*73
$GPGGA,080345.000,3353.7420,N,09832.0271,W,2,07,1.3,311.6,M,-23.7,M,1.8,0000*48
$GPGSA,A,3,17,02,28,12,04,10,05,,,,,,2.4,1.3,2.1*38
$GPGSV,3,1,11,04,70,032,36,02,68,249,33,12,43,316,19,10,42,124,31*75
$GPGSV,3,2,11,09,30,250,,17,29,075,24,27,26,234,,28,15,139,33*7D
$GPGSV,3,3,11,05,15,179,38,25,04,318,,51,49,195,36*44
$GPRMC,080345.000,A,3353.7420,N,09832.0271,W,0.63,136.86,030412,,,D*7B
$GPGGA,080346.000,3353.7416,N,09832.0270,W,2,07,1.3,312.9,M,-23.7,M,2.8,0000*40
$GPGSA,A,3,17,02,28,12,04,10,05,,,,,,2.4,1.3,2.1*38
$GPRMC,080346.000,A,3353.7416,N,09832.0270,W,0.31,150.22,030412,,,D*75
$GPGGA,080347.000,3353.7415,N,09832.0270,W,2,07,1.3,313.3,M,-23.7,M,3.8,0000*48
$GPGSA,A,3,17,02,28,12,04,10,05,,,,,,2.4,1.3,2.1*38
$GPRMC,080347.000,A,3353.7415,N,09832.0270,W,0.21,143.31,030412,,,D*76
$GPGGA,080348.000,3353.7412,N,09832.0269,W,2,07,1.3,314.3,M,-23.7,M,0.8,0000*4C
$GPGSA,A,3,17,02,28,12,04,10,05,,,,,,2.4,1.3,2.1*38
$GPRMC,080348.000,A,3353.7412,N,09832.0269,W,0.56,133.95,030412,,,D*7F
$GPGGA,080349.000,3353.7410,N,09832.0267,W,2,07,1.3,314.9,M,-23.7,M,0.8,0000*4B
$GPGSA,A,3,17,02,28,12,04,10,05,,,,,,2.4,1.3,2.1*38
$GPRMC,080349.000,A,3353.7410,N,09832.0267,W,0.76,130.86,030412,,,D*71
$GPGGA,080350.000,3353.7410,N,09832.0266,W,2,07,1.3,315.1,M,-23.7,M,0.8,0000*4B
$GPGSA,A,3,17,02,28,12,04,10,05,,,,,,2.4,1.3,2.1*38
$GPGSV,3,1,11,04,70,032,36,02,68,249,33,12,43,316,19,10,42,124,31*75
$GPGSV,3,2,11,09,30,250,,17,29,075,24,27,26,234,,28,15,139,33*7D
$GPGSV,3,3,11,05,15,179,38,25,04,318,,51,49,195,36*44
$GPRMC,080350.000,A,3353.7410,N,09832.0266,W,0.38,147.99,030412,,,D*7C
$GPGGA,080351.000,3353.7412,N,09832.0265,W,2,07,1.3,314.3,M,-23.7,M,1.8,0000*49
$GPGSA,A,3,17,02,28,12,04,10,05,,,,,,2.4,1.3,2.1*38
$GPRMC,080351.000,A,3353.7412,N,09832.0265,W,0.20,163.24,030412,,,D*75
$GPGGA,080352.000,3353.7415,N,09832.0265,W,2,07,1.3,313.7,M,-23.7,M,2.8,0000*4D
$GPGSA,A,3,17,02,28,12,04,10,05,,,,,,2.4,1.3,2.1*38
$GPRMC,080352.000,A,3353.7415,N,09832.0265,W,0.11,115.43,030412,,,D*73
$GPGGA,080353.000,3353.7417,N,09832.0264,W,2,07,1.3,313.0,M,-23.7,M,0.8,0000*4A
$GPGSA,A,3,17,02,28,12,04,10,05,,,,,,2.4,1.3,2.1*38
$GPRMC,080353.000,A,3353.7417,N,09832.0264,W,0.12,175.77,030412,,,D*73
$GPGGA,080354.000,3353.7419,N,09832.0264,W,2,07,1.3,312.3,M,-23.7,M,0.8,0000*41
$GPGSA,A,3,17,02,28,12,04,10,05,,,,,,2.4,1.3,2.1*38
$GPRMC,080354.000,A,3353.7419,N,09832.0264,W,0.14,67.99,030412,,,D*4E
$GPGGA,080355.000,3353.7413,N,09832.0258,W,2,07,1.3,314.4,M,-23.7,M,0.8,0000*44
$GPGSA,A,3,17,02,28,12,04,10,05,,,,,,2.4,1.3,2.1*38
$GPGSV,3,1,11,04,69,032,36,02,69,249,33,12,44,316,21,10,43,124,31*71
$GPGSV,3,2,11,09,30,250,,17,29,075,23,27,26,234,,28,15,139,32*7B
$GPGSV,3,3,11,05,15,179,38,25,04,319,,51,49,195,36*45
$GPRMC,080355.000,A,3353.7413,N,09832.0258,W,0.20,71.65,030412,,,D*49
$GPGGA,080356.000,3353.7414,N,09832.0258,W,2,07,1.3,314.3,M,-23.7,M,0.8,0000*47
$GPGSA,A,3,17,02,28,12,04,10,05,,,,,,2.4,1.3,2.1*38
$GPRMC,080356.000,A,3353.7414,N,09832.0258,W,0.12,322.25,030412,,,D*7D
$GPGGA,080357.000,3353.7415,N,09832.0257,W,2,07,1.3,313.9,M,-23.7,M,0.8,0000*45
$GPGSA,A,3,17,02,28,12,04,10,05,,,,,,2.4,1.3,2.1*38
$GPRMC,080357.000,A,3353.7415,N,09832.0257,W,0.11,116.06,030412,,,D*75
$GPGGA,080358.000,3353.7418,N,09832.0259,W,2,07,1.3,313.3,M,-23.7,M,1.8,0000*42
$GPGSA,A,3,17,02,28,12,04,10,05,,,,,,2.4,1.3,2.1*38
$GPRMC,080358.000,A,3353.7418,N,09832.0259,W,0.35,48.52,030412,,,D*44
$GPGGA,080359.000,3353.7419,N,09832.0258,W,2,07,1.3,313.1,M,-23.7,M,2.8,0000*42
$GPGSA,A,3,17,02,28,12,04,10,05,,,,,,2.4,1.3,2.1*38
$GPRMC,080359.000,A,3353.7419,N,09832.0258,W,0.26,57.28,030412,,,D*44
$GPGGA,080400.000,3353.7415,N,09832.0254,W,2,07,1.3,314.6,M,-23.7,M,0.8,0000*4B
$GPGSA,A,3,17,02,28,12,04,10,05,,,,,,2.4,1.3,2.1*38
$GPGSV,3,1,11,04,69,032,36,02,69,249,33,12,44,316,23,10,43,124,32*70
$GPGSV,3,2,11,09,30,250,,17,29,075,22,27,26,234,,28,15,139,32*7A
$GPGSV,3,3,11,05,15,179,38,25,04,319,,51,49,195,36*45
