$GPGGA,220322.000,3353.7511,N,09832.0245,W,2,05,2.6,304.6,M,-23.7,M,0.8,0000*44
$GPGSA,A,3,20,16,30,32,31,,,,,,,,5.8,2.6,5.2*39
$GPRMC,220322.000,A,3353.7511,N,09832.0245,W,0.70,312.66,290312,,,D*71
$GPGGA,220323.000,3353.7505,N,09832.0239,W,2,06,2.2,304.8,M,-23.7,M,0.8,0000*42
$GPGSA,A,3,20,23,16,30,32,31,,,,,,,5.6,2.2,5.2*32
$GPGSV,3,1,12,30,67,079,30,32,63,205,32,16,62,154,38,20,56,265,27*78
$GPGSV,3,2,12,23,38,314,20,31,30,049,32,06,10,143,,13,10,302,*7B
$GPGSV,3,3,12,03,08,157,31,14,06,108,,01,04,226,,29,01,047,*70
$GPRMC,220323.000,A,3353.7505,N,09832.0239,W,0.58,310.57,290312,,,D*74
$GPGGA,220324.000,3353.7504,N,09832.0237,W,2,06,2.2,304.9,M,-23.7,M,1.8,0000*4A
$GPGSA,A,3,20,23,16,30,32,31,,,,,,,5.6,2.2,5.2*32
$GPRMC,220324.000,A,3353.7504,N,09832.0237,W,0.04,317.61,290312,,,D*77
$GPGGA,220325.000,3353.7502,N,09832.0234,W,2,06,2.2,305.1,M,-23.7,M,0.8,0000*46
$GPGSA,A,3,20,23,16,30,32,31,,,,,,,5.6,2.2,5.1*31
$GPRMC,220325.000,A,3353.7502,N,09832.0234,W,0.03,303.56,290312,,,D*75
$GPGGA,220326.000,3353.7500,N,09832.0232,W,2,06,2.2,305.2,M,-23.7,M,1.8,0000*43
$GPGSA,A,3,20,23,16,30,32,31,,,,,,,5.6,2.2,5.1*31
$GPRMC,220326.000,A,3353.7500,N,09832.0232,W,0.12,304.81,290312,,,D*7F
$GPGGA,220327.000,3353.7499,N,09832.0231,W,2,06,2.2,305.3,M,-23.7,M,0.8,0000*40
$GPGSA,A,3,20,23,16,30,32,31,,,,,,,5.6,2.2,5.1*31
$GPRMC,220327.000,A,3353.7499,N,09832.0231,W,0.09,288.74,290312,,,D*79
$GPGGA,220328.000,3353.7498,N,09832.0230,W,2,06,2.2,305.3,M,-23.7,M,0.8,0000*4F
$GPGSA,A,3,20,23,16,30,32,31,,,,,,,5.6,2.2,5.1*31
$GPGSV,3,1,12,30,67,079,31,32,63,205,33,16,62,154,38,20,56,265,28*77
$GPGSV,3,2,12,23,38,314,22,31,30,049,33,06,10,143,,13,10,302,*78
$GPGSV,3,3,12,03,08,157,31,14,06,108,19,01,04,226,,29,01,047,*78
$GPRMC,220328.000,A,3353.7498,N,09832.0230,W,0.32,308.43,290312,,,D*73
$GPGGA,220329.000,3353.7495,N,09832.0227,W,2,06,2.2,305.4,M,-23.7,M,0.8,0000*42
$GPGSA,A,3,20,23,16,30,32,31,,,,,,,5.6,2.2,5.1*31
$GPRMC,220329.000,A,3353.7495,N,09832.0227,W,0.27,138.51,290312,,,D*7F
$GPGGA,220330.000,3353.7493,N,09832.0225,W,2,06,2.2,305.5,M,-23.7,M,1.8,0000*4E
$GPGSA,A,3,20,23,16,30,32,31,,,,,,,5.6,2.2,5.1*31
$GPRMC,220330.000,A,3353.7493,N,09832.0225,W,0.52,136.24,290312,,,D*7D
$GPGGA,220331.000,3353.7491,N,09832.0222,W,2,06,2.2,305.6,M,-23.7,M,0.8,0000*48
$GPGSA,A,3,20,23,16,30,32,31,,,,,,,5.6,2.2,5.1*31
$GPRMC,220331.000,A,3353.7491,N,09832.0222,W,0.09,146.71,290312,,,D*70
$GPGGA,220332.000,3353.7491,N,09832.0224,W,2,06,2.2,305.9,M,-23.7,M,1.8,0000*43
$GPGSA,A,3,20,23,16,30,32,31,,,,,,,5.6,2.2,5.1*31
$GPRMC,220332.000,A,3353.7491,N,09832.0224,W,0.13,148.01,290312,,,D*77
$GPGGA,220333.000,3353.7492,N,09832.0224,W,2,06,2.2,305.8,M,-23.7,M,0.8,0000*41
$GPGSA,A,3,20,23,16,30,32,31,,,,,,,5.6,2.2,5.1*31
$GPGSV,3,1,12,30,67,079,32,32,63,205,34,16,62,154,39,20,56,265,27*7D
$GPGSV,3,2,12,23,38,314,22,31,30,049,34,06,10,143,,13,10,302,*7F
$GPGSV,3,3,12,03,08,157,30,14,06,108,19,01,04,226,,29,01,047,*79
$GPRMC,220333.000,A,3353.7492,N,09832.0224,W,0.43,316.34,290312,,,D*7F
$GPGGA,220334.000,3353.7494,N,09832.0228,W,2,06,2.2,306.2,M,-23.7,M,0.8,0000*45
$GPGSA,A,3,20,23,16,30,32,31,,,,,,,5.6,2.2,5.1*31
$GPRMC,220334.000,A,3353.7494,N,09832.0228,W,0.09,325.12,290312,,,D*78
$GPGGA,220335.000,3353.7496,N,09832.0229,W,2,06,2.2,306.6,M,-23.7,M,0.8,0000*43
$GPGSA,A,3,20,23,16,30,32,31,,,,,,,5.6,2.2,5.1*31
$GPRMC,220335.000,A,3353.7496,N,09832.0229,W,0.07,326.26,290312,,,D*70
$GPGGA,220336.000,3353.7498,N,09832.0234,W,2,06,2.2,306.9,M,-23.7,M,1.8,0000*4C
$GPGSA,A,3,20,23,16,30,32,31,,,,,,,5.6,2.2,5.1*31
$GPRMC,220336.000,A,3353.7498,N,09832.0234,W,0.31,314.27,290312,,,D*74
$GPGGA,220337.000,3353.7501,N,09832.0238,W,2,06,2.2,307.5,M,-23.7,M,0.8,0000*4C
$GPGSA,A,3,20,23,16,30,32,31,,,,,,,5.6,2.2,5.1*31
$GPRMC,220337.000,A,3353.7501,N,09832.0238,W,0.59,315.73,290312,,,D*76
$GPGGA,220338.000,3353.7505,N,09832.0245,W,2,06,2.2,308.0,M,-23.7,M,1.8,0000*46
$GPGSA,A,3,20,23,16,30,32,31,,,,,,,5.6,2.2,5.1*31
$GPGSV,3,1,12,30,67,079,32,32,63,205,34,16,62,154,39,20,56,265,26*7C
$GPGSV,3,2,12,23,38,314,22,31,30,049,34,06,10,143,,13,10,302,*7F
$GPGSV,3,3,12,03,08,157,30,14,06,108,19,01,04,226,18,29,01,047,*70
$GPRMC,220338.000,A,3353.7505,N,09832.0245,W,0.28,323.63,290312,,,D*75
$GPGGA,220339.000,3353.7508,N,09832.0250,W,2,06,2.2,308.3,M,-23.7,M,0.8,0000*4C
$GPGSA,A,3,20,23,16,30,32,31,,,,,,,5.6,2.2,5.1*31
$GPRMC,220339.000,A,3353.7508,N,09832.0250,W,0.50,307.00,290312,,,D*71
$GPGGA,220340.000,3353.7511,N,09832.0254,W,2,06,2.2,308.2,M,-23.7,M,0.8,0000*4F
$GPGSA,A,3,20,23,16,30,32,31,,,,,,,5.6,2.2,5.1*31
$GPRMC,220340.000,A,3353.7511,N,09832.0254,W,0.71,311.14,290312,,,D*72
$GPGGA,220341.000,3353.7514,N,09832.0259,W,2,06,2.2,308.2,M,-23.7,M,0.8,0000*46
$GPGSA,A,3,20,23,16,30,32,31,,,,,,,5.6,2.2,5.1*31
$GPRMC,220341.000,A,3353.7514,N,09832.0259,W,0.92,311.16,290312,,,D*74
$GPGGA,220342.000,3353.7517,N,09832.0264,W,2,06,2.2,308.0,M,-23.7,M,0.8,0000*4A
$GPGSA,A,3,20,23,16,30,32,31,,,,,,,5.6,2.2,5.1*31
$GPRMC,220342.000,A,3353.7517,N,09832.0264,W,0.76,308.63,290312,,,D*7A
$GPGGA,220343.000,3353.7518,N,09832.0266,W,2,06,2.2,307.9,M,-23.7,M,1.8,0000*41
$GPGSA,A,3,20,23,16,30,32,31,,,,,,,5.6,2.2,5.1*31
$GPGSV,3,1,12,30,67,079,33,32,63,205,34,16,62,154,40,20,56,265,26*73
$GPGSV,3,2,12,23,38,314,21,31,30,049,34,06,10,143,20,13,10,302,*7E
$GPGSV,3,3,12,03,08,157,29,14,06,108,20,01,04,226,18,29,01,047,*72
$GPRMC,220343.000,A,3353.7518,N,09832.0266,W,0.24,302.76,290312,,,D*7F
$GPGGA,220344.000,3353.7518,N,09832.0266,W,2,06,2.2,307.8,M,-23.7,M,0.8,0000*46
$GPGSA,A,3,20,23,16,30,32,31,,,,,,,5.6,2.2,5.1*31
$GPRMC,220344.000,A,3353.7518,N,09832.0266,W,0.15,305.16,290312,,,D*7B
$GPGGA,220345.000,3353.7517,N,09832.0265,W,2,06,2.2,307.6,M,-23.7,M,0.8,0000*45
$GPGSA,A,3,20,23,16,30,32,31,,,,,,,5.6,2.2,5.1*31
$GPRMC,220345.000,A,3353.7517,N,09832.0265,W,0.22,323.04,290312,,,D*75
$GPGGA,220346.000,3353.7517,N,09832.0264,W,2,06,2.2,307.8,M,-23.7,M,0.8,0000*49
$GPGSA,A,3,20,23,16,30,32,31,,,,,,,5.6,2.2,5.1*31
$GPRMC,220346.000,A,3353.7517,N,09832.0264,W,0.05,309.69,290312,,,D*71
$GPGGA,220347.000,3353.7518,N,09832.0264,W,2,06,2.2,307.9,M,-23.7,M,0.8,0000*46
$GPGSA,A,3,20,23,16,30,32,31,,,,,,,5.6,2.2,5.1*31
$GPRMC,220347.000,A,3353.7518,N,09832.0264,W,0.03,294.78,290312,,,D*7C
$GPGGA,220348.000,3353.7517,N,09832.0263,W,2,06,2.2,308.0,M,-23.7,M,1.8,0000*46
$GPGSA,A,3,20,23,16,30,32,31,,,,,,,5.6,2.2,5.1*31
$GPGSV,3,1,12,30,67,079,33,32,63,205,34,16,62,154,40,20,56,265,26*73
$GPGSV,3,2,12,23,38,314,22,31,30,049,34,06,10,143,20,13,10,302,*7D
$GPGSV,3,3,12,03,08,157,28,14,06,108,20,01,04,226,18,29,01,047,*73
$GPRMC,220348.000,A,3353.7517,N,09832.0263,W,0.20,127.01,290312,,,D*7F
$GPGGA,220349.000,3353.7516,N,09832.0261,W,2,06,2.2,308.1,M,-23.7,M,2.8,0000*46
$GPGSA,A,3,20,23,16,30,32,31,,,,,,,5.6,2.2,5.1*31
$GPRMC,220349.000,A,3353.7516,N,09832.0261,W,0.51,132.07,290312,,,D*79
$GPGGA,220350.000,3353.7515,N,09832.0259,W,2,06,2.2,308.1,M,-23.7,M,3.8,0000*47
$GPGSA,A,3,20,23,16,30,32,31,,,,,,,5.6,2.2,5.1*31
$GPRMC,220350.000,A,3353.7515,N,09832.0259,W,0.13,123.34,290312,,,D*7F
$GPGGA,220351.000,3353.7514,N,09832.0258,W,2,06,2.2,308.1,M,-23.7,M,0.8,0000*45
$GPGSA,A,3,20,23,16,30,32,31,,,,,,,5.6,2.2,5.1*31
$GPRMC,220351.000,A,3353.7514,N,09832.0258,W,0.08,153.82,290312,,,D*7E
$GPGGA,220352.000,3353.7512,N,09832.0256,W,2,06,2.2,308.0,M,-23.7,M,0.8,0000*4F
$GPGSA,A,3,20,23,16,30,32,31,,,,,,,5.6,2.2,5.1*31
$GPRMC,220352.000,A,3353.7512,N,09832.0256,W,0.18,145.41,290312,,,D*7C
$GPGGA,220353.000,3353.7510,N,09832.0255,W,2,06,2.2,308.0,M,-23.7,M,0.8,0000*4F
$GPGSA,A,3,20,23,16,30,32,31,,,,,,,5.6,2.2,5.1*31
$GPGSV,3,1,12,30,67,079,33,32,63,205,33,16,62,154,40,20,56,265,27*75
$GPGSV,3,2,12,23,38,314,22,31,30,049,34,06,10,143,20,13,10,302,*7D
$GPGSV,3,3,12,03,08,157,28,14,06,108,19,01,04,226,16,29,01,047,*77
$GPRMC,220353.000,A,3353.7510,N,09832.0255,W,0.19,145.65,290312,,,D*7B
$GPGGA,220354.000,3353.7509,N,09832.0254,W,2,06,2.2,307.9,M,-23.7,M,1.8,0000*46
$GPGSA,A,3,20,23,16,30,32,31,,,,,,,5.6,2.2,5.1*31
$GPRMC,220354.000,A,3353.7509,N,09832.0254,W,0.44,140.60,290312,,,D*7D
$GPGGA,220355.000,3353.7508,N,09832.0253,W,2,06,2.2,307.7,M,-23.7,M,2.8,0000*4C
$GPGSA,A,3,20,23,16,30,32,31,,,,,,,5.6,2.2,5.1*31
$GPRMC,220355.000,A,3353.7508,N,09832.0253,W,0.14,157.82,290312,,,D*75
$GPGGA,220356.000,3353.7507,N,09832.0252,W,2,06,2.2,307.6,M,-23.7,M,3.8,0000*41
$GPGSA,A,3,20,23,16,30,32,31,,,,,,,5.6,2.2,5.1*31
$GPRMC,220356.000,A,3353.7507,N,09832.0252,W,0.19,154.01,290312,,,D*7D
$GPGGA,220357.000,3353.7505,N,09832.0250,W,2,06,2.2,307.4,M,-23.7,M,0.8,0000*41
$GPGSA,A,3,20,23,16,30,32,31,,,,,,,5.6,2.2,5.1*31
$GPRMC,220357.000,A,3353.7505,N,09832.0250,W,0.34,140.80,290312,,,D*7F
$GPGGA,220358.000,3353.7505,N,09832.0249,W,2,06,2.2,307.3,M,-23.7,M,0.8,0000*41
$GPGSA,A,3,20,23,16,30,32,31,,,,,,,5.6,2.2,5.1*31
$GPGSV,3,1,12,30,67,079,33,32,63,205,33,16,62,154,40,20,56,265,28*7A
$GPGSV,3,2,12,23,38,314,23,31,30,049,34,06,10,143,21,13,10,302,*7D
$GPGSV,3,3,12,03,08,157,28,14,06,108,14,01,04,226,,29,01,047,*7D
$GPRMC,220358.000,A,3353.7505,N,09832.0249,W,0.01,51.48,290312,,,D*4B
$GPGGA,220359.000,3353.7506,N,09832.0250,W,2,06,2.2,307.3,M,-23.7,M,0.8,0000*4B
$GPGSA,A,3,20,23,16,30,32,31,,,,,,,5.6,2.2,5.1*31
$GPRMC,220359.000,A,3353.7506,N,09832.0250,W,0.20,132.73,290312,,,D*7E
$GPGGA,220400.000,3353.7506,N,09832.0249,W,2,06,2.2,307.2,M,-23.7,M,1.8,0000*48
$GPGSA,A,3,20,23,16,30,32,31,,,,,,,5.6,2.2,5.1*31
$GPRMC,220400.000,A,3353.7506,N,09832.0249,W,0.39,131.68,290312,,,D*7C
$GPGGA,220401.000,3353.7506,N,09832.0249,W,2,06,2.2,307.1,M,-23.7,M,2.8,0000*49
$GPGSA,A,3,20,23,16,30,32,31,,,,,,,5.6,2.2,5.1*31
$GPRMC,220401.000,A,3353.7506,N,09832.0249,W,0.03,95.16,290312,,,D*42
$GPGGA,220402.000,3353.7506,N,09832.0249,W,2,06,2.2,307.0,M,-23.7,M,0.8,0000*49
$GPGSA,A,3,20,23,16,30,32,31,,,,,,,5.6,2.2,5.1*31
$GPRMC,220402.000,A,3353.7506,N,09832.0249,W,0.18,137.25,290312,,,D*72
$GPGGA,220403.000,3353.7506,N,09832.0249,W,2,06,2.2,307.0,M,-23.7,M,0.8,0000*48
$GPGSA,A,3,20,23,16,30,32,31,,,,,,,5.6,2.2,5.1*31
$GPGSV,3,1,12,30,67,079,33,32,63,205,33,16,62,154,39,20,56,265,28*74
$GPGSV,3,2,12,23,38,314,23,31,30,049,34,06,10,143,22,13,10,302,*7E
$GPGSV,3,3,12,03,08,157,27,14,06,108,12,01,04,226,,29,01,047,*74
$GPRMC,220403.000,A,3353.7506,N,09832.0249,W,0.26,318.92,290312,,,D*7D
$GPGGA,220404.000,3353.7504,N,09832.0247,W,2,06,2.2,306.9,M,-23.7,M,0.8,0000*4B
$GPGSA,A,3,20,23,16,30,32,31,,,,,,,5.6,2.2,5.1*31
$GPRMC,220404.000,A,3353.7504,N,09832.0247,W,0.20,161.89,290312,,,D*76
$GPGGA,220405.000,3353.7503,N,09832.0246,W,2,06,2.2,306.8,M,-23.7,M,0.8,0000*4D
$GPGSA,A,3,20,23,16,30,32,31,,,,,,,5.5,2.2,5.1*32
$GPRMC,220405.000,A,3353.7503,N,09832.0246,W,0.35,153.94,290312,,,D*78
$GPGGA,220406.000,3353.7504,N,09832.0248,W,2,06,2.2,306.7,M,-23.7,M,1.8,0000*49
$GPGSA,A,3,20,23,16,30,32,31,,,,,,,5.5,2.2,5.1*32
$GPRMC,220406.000,A,3353.7504,N,09832.0248,W,0.10,240.05,290312,,,D*7C
$GPGGA,220407.000,3353.7504,N,09832.0248,W,2,06,2.2,306.6,M,-23.7,M,2.8,0000*4A
$GPGSA,A,3,20,23,16,30,32,31,,,,,,,5.5,2.2,5.1*32
$GPRMC,220407.000,A,3353.7504,N,09832.0248,W,0.32,299.48,290312,,,D*70
$GPGGA,220408.000,3353.7504,N,09832.0250,W,2,06,2.2,306.5,M,-23.7,M,3.8,0000*4E
$GPGSA,A,3,20,23,16,30,32,31,,,,,,,5.5,2.2,5.1*32
$GPGSV,3,1,12,30,67,079,33,32,63,205,33,16,62,154,39,20,56,265,28*74
$GPGSV,3,2,12,23,38,314,23,31,30,049,33,06,10,143,22,13,10,302,*79
$GPGSV,3,3,12,03,08,157,27,14,06,108,11,01,04,226,,29,01,047,*77
$GPRMC,220408.000,A,3353.7504,N,09832.0250,W,0.17,175.77,290312,,,D*7C
$GPGGA,220409.000,3353.7503,N,09832.0249,W,2,06,2.2,306.3,M,-23.7,M,0.8,0000*45
$GPGSA,A,3,20,23,16,30,32,31,,,,,,,5.5,2.2,5.1*32
$GPRMC,220409.000,A,3353.7503,N,09832.0249,W,0.15,264.52,290312,,,D*74
$GPGGA,220410.000,3353.7502,N,09832.0248,W,2,06,2.2,306.3,M,-23.7,M,0.8,0000*4D
$GPGSA,A,3,20,23,16,30,32,31,,,,,,,5.5,2.2,5.1*32
$GPRMC,220410.000,A,3353.7502,N,09832.0248,W,0.23,144.02,290312,,,D*7D
$GPGGA,220411.000,3353.7503,N,09832.0248,W,2,06,2.2,306.3,M,-23.7,M,0.8,0000*4D
$GPGSA,A,3,20,23,16,30,32,31,,,,,,,5.5,2.2,5.1*32
$GPRMC,220411.000,A,3353.7503,N,09832.0248,W,0.09,143.25,290312,,,D*77
$GPGGA,220412.000,3353.7500,N,09832.0245,W,2,06,2.2,306.3,M,-23.7,M,0.8,0000*40
$GPGSA,A,3,20,23,16,30,32,31,,,,,,,5.5,2.2,5.1*32
$GPRMC,220412.000,A,3353.7500,N,09832.0245,W,0.19,136.93,290312,,,D*74
$GPGGA,220413.000,3353.7498,N,09832.0242,W,2,06,2.2,306.3,M,-23.7,M,0.8,0000*46
$GPGSA,A,3,20,23,16,30,32,31,,,,,,,5.5,2.2,5.1*32
$GPGSV,3,1,12,30,67,079,32,32,63,205,34,16,62,154,39,20,56,265,28*72
$GPGSV,3,2,12,23,38,314,24,31,30,049,33,06,10,143,23,13,10,302,13*7D
$GPGSV,3,3,12,03,08,157,27,14,06,108,,01,04,226,,29,01,047,*77
$GPRMC,220413.000,A,3353.7498,N,09832.0242,W,0.21,135.32,290312,,,D*71
$GPGGA,220414.000,3353.7498,N,09832.0242,W,2,06,2.2,306.3,M,-23.7,M,0.8,0000*41
$GPGSA,A,3,20,23,16,30,32,31,,,,,,,5.5,2.2,5.1*32
$GPRMC,220414.000,A,3353.7498,N,09832.0242,W,0.09,284.51,290312,,,D*70
$GPGGA,220415.000,3353.7498,N,09832.0241,W,2,06,2.2,306.4,M,-23.7,M,0.8,0000*44
$GPGSA,A,3,20,23,16,30,32,31,,,,,,,5.5,2.2,5.1*32
$GPRMC,220415.000,A,3353.7498,N,09832.0241,W,0.15,121.59,290312,,,D*7B
$GPGGA,220416.000,3353.7498,N,09832.0242,W,2,06,2.2,306.3,M,-23.7,M,0.8,0000*43
$GPGSA,A,3,20,23,16,30,32,31,,,,,,,5.5,2.2,5.1*32
$GPRMC,220416.000,A,3353.7498,N,09832.0242,W,0.18,282.94,290312,,,D*7D
$GPGGA,220417.000,3353.7502,N,09832.0247,W,2,06,2.2,306.3,M,-23.7,M,0.8,0000*45
$GPGSA,A,3,20,23,16,30,32,31,,,,,,,5.5,2.2,5.1*32
$GPRMC,220417.000,A,3353.7502,N,09832.0247,W,0.33,297.12,290312,,,D*78
$GPGGA,220418.000,3353.7504,N,09832.0249,W,2,06,2.2,306.2,M,-23.7,M,1.8,0000*42
$GPGSA,A,3,20,23,16,30,32,31,,,,,,,5.5,2.2,5.1*32
$GPGSV,3,1,12,30,67,079,32,32,63,205,34,16,62,154,39,20,56,265,28*72
$GPGSV,3,2,12,23,38,314,23,31,30,049,33,06,10,143,23,13,10,302,13*7A
$GPGSV,3,3,12,03,08,157,26,14,06,108,,01,04,226,,29,01,047,*76
$GPRMC,220418.000,A,3353.7504,N,09832.0249,W,0.19,281.31,290312,,,D*71
$GPGGA,220419.000,3353.7506,N,09832.0252,W,2,06,2.2,306.2,M,-23.7,M,2.8,0000*48
$GPGSA,A,3,20,23,16,30,32,31,,,,,,,5.5,2.2,5.1*32
$GPRMC,220419.000,A,3353.7506,N,09832.0252,W,0.34,297.91,290312,,,D*7A
$GPGGA,220420.000,3353.7507,N,09832.0254,W,2,06,2.2,306.2,M,-23.7,M,0.8,0000*47
$GPGSA,A,3,20,23,16,30,32,31,,,,,,,5.5,2.2,5.1*32
$GPRMC,220420.000,A,3353.7507,N,09832.0254,W,0.10,184.46,290312,,,D*7A
$GPGGA,220421.000,3353.7505,N,09832.0252,W,2,06,2.2,306.2,M,-23.7,M,0.8,0000*42
$GPGSA,A,3,20,23,16,30,32,31,,,,,,,5.5,2.2,5.1*32
$GPRMC,220421.000,A,3353.7505,N,09832.0252,W,0.27,154.37,290312,,,D*70
$GPGGA,220422.000,3353.7505,N,09832.0251,W,2,06,2.2,306.4,M,-23.7,M,0.8,0000*44
$GPGSA,A,3,20,23,16,30,32,31,,,,,,,5.5,2.2,5.1*32
$GPRMC,220422.000,A,3353.7505,N,09832.0251,W,0.49,136.47,290312,,,D*7B
$GPGGA,220423.000,3353.7507,N,09832.0253,W,2,06,2.2,306.5,M,-23.7,M,0.8,0000*44
$GPGSA,A,3,20,23,16,30,32,31,,,,,,,5.5,2.2,5.1*32
$GPGSV,3,1,12,30,67,079,32,32,63,205,34,16,62,154,38,20,56,265,27*7C
$GPGSV,3,2,12,23,38,314,23,31,30,049,33,06,10,143,24,13,10,302,13*7D
$GPGSV,3,3,12,03,08,157,26,14,06,108,14,01,04,226,,29,01,047,*73
$GPRMC,220423.000,A,3353.7507,N,09832.0253,W,0.20,309.33,290312,,,D*78
$GPGGA,220424.000,3353.7505,N,09832.0251,W,2,06,2.2,306.6,M,-23.7,M,1.8,0000*41
$GPGSA,A,3,20,23,16,30,32,31,,,,,,,5.5,2.2,5.1*32
$GPRMC,220424.000,A,3353.7505,N,09832.0251,W,0.04,130.99,290312,,,D*71
$GPGGA,220425.000,3353.7506,N,09832.0251,W,2,06,2.2,306.8,M,-23.7,M,2.8,0000*4E
$GPGSA,A,3,20,23,16,30,32,31,,,,,,,5.5,2.2,5.1*32
$GPRMC,220425.000,A,3353.7506,N,09832.0251,W,0.07,131.51,290312,,,D*75
$GPGGA,220426.000,3353.7507,N,09832.0252,W,2,06,2.2,307.0,M,-23.7,M,3.8,0000*47
$GPGSA,A,3,20,23,16,30,32,31,,,,,,,5.5,2.2,5.1*32
$GPRMC,220426.000,A,3353.7507,N,09832.0252,W,0.12,321.17,290312,,,D*71
$GPGGA,220427.000,3353.7510,N,09832.0254,W,2,06,2.2,307.2,M,-23.7,M,0.8,0000*47
$GPGSA,A,3,20,23,16,30,32,31,,,,,,,5.5,2.2,5.1*32
$GPRMC,220427.000,A,3353.7510,N,09832.0254,W,0.69,316.47,290312,,,D*7D
$GPGGA,220428.000,3353.7512,N,09832.0257,W,2,06,2.2,307.2,M,-23.7,M,0.8,0000*49
$GPGSA,A,3,20,23,16,30,32,31,,,,,,,5.5,2.2,5.1*32
$GPGSV,3,1,12,30,67,079,33,32,63,205,35,16,62,154,38,20,56,265,27*7C
$GPGSV,3,2,12,23,38,314,22,31,30,049,33,06,10,143,25,13,10,302,13*7D
$GPGSV,3,3,12,03,08,157,26,14,06,108,15,01,04,226,,29,01,047,*72
$GPRMC,220428.000,A,3353.7512,N,09832.0257,W,0.75,312.76,290312,,,D*78
$GPGGA,220429.000,3353.7513,N,09832.0258,W,2,06,2.2,307.2,M,-23.7,M,0.8,0000*46
$GPGSA,A,3,20,23,16,30,32,31,,,,,,,5.5,2.2,5.0*33
$GPRMC,220429.000,A,3353.7513,N,09832.0258,W,0.79,311.64,290312,,,D*7B
$GPGGA,220430.000,3353.7514,N,09832.0259,W,2,06,2.2,307.2,M,-23.7,M,1.8,0000*49
$GPGSA,A,3,20,23,16,30,32,31,,,,,,,5.5,2.2,5.0*33
$GPRMC,220430.000,A,3353.7514,N,09832.0259,W,0.29,304.56,290312,,,D*75
$GPGGA,220431.000,3353.7515,N,09832.0261,W,2,06,2.2,307.5,M,-23.7,M,2.8,0000*46
$GPGSA,A,3,20,23,16,30,32,31,,,,,,,5.5,2.2,5.0*33
$GPRMC,220431.000,A,3353.7515,N,09832.0261,W,0.41,305.19,290312,,,D*7A
$GPGGA,220432.000,3353.7515,N,09832.0261,W,2,06,2.2,307.5,M,-23.7,M,3.8,0000*44
$GPGSA,A,3,20,23,16,30,32,31,,,,,,,5.5,2.2,5.0*33
$GPRMC,220432.000,A,3353.7515,N,09832.0261,W,0.19,290.81,290312,,,D*78
$GPGGA,220433.000,3353.7512,N,09832.0256,W,2,06,2.2,307.2,M,-23.7,M,0.8,0000*42
$GPGSA,A,3,20,23,16,30,32,31,,,,,,,5.5,2.2,5.0*33
$GPGSV,3,1,12,30,67,079,32,32,63,205,35,16,62,154,38,20,56,265,24*7E
$GPGSV,3,2,12,23,38,314,22,31,30,049,33,06,10,143,26,13,10,302,12*7F
$GPGSV,3,3,12,03,08,157,27,14,06,108,16,01,04,226,,29,01,047,*70
$GPRMC,220433.000,A,3353.7512,N,09832.0256,W,0.50,136.14,290312,,,D*74
$GPGGA,220434.000,3353.7508,N,09832.0252,W,2,06,2.2,307.4,M,-23.7,M,0.8,0000*4C
$GPGSA,A,3,20,23,16,30,32,31,,,,,,,5.5,2.2,5.0*33
$GPRMC,220434.000,A,3353.7508,N,09832.0252,W,0.40,125.52,290312,,,D*7D
$GPGGA,220435.000,3353.7507,N,09832.0250,W,2,06,2.2,307.6,M,-23.7,M,0.8,0000*42
$GPGSA,A,3,20,23,16,30,32,31,,,,,,,5.5,2.2,5.0*33
$GPRMC,220435.000,A,3353.7507,N,09832.0250,W,0.19,286.00,290312,,,D*70
$GPGGA,220436.000,3353.7504,N,09832.0247,W,2,06,2.2,307.7,M,-23.7,M,1.8,0000*44
$GPGSA,A,3,20,23,16,30,32,31,,,,,,,5.5,2.2,5.0*33
$GPRMC,220436.000,A,3353.7504,N,09832.0247,W,0.13,200.78,290312,,,D*7D
$GPGGA,220437.000,3353.7503,N,09832.0246,W,2,06,2.2,308.0,M,-23.7,M,2.8,0000*48
$GPGSA,A,3,20,23,16,30,32,31,,,,,,,5.5,2.2,5.0*33
$GPRMC,220437.000,A,3353.7503,N,09832.0246,W,0.53,133.12,290312,,,D*71
$GPGGA,220438.000,3353.7506,N,09832.0248,W,2,06,2.2,308.3,M,-23.7,M,3.8,0000*4E
$GPGSA,A,3,20,23,16,30,32,31,,,,,,,5.5,2.2,5.0*33
$GPGSV,3,1,12,30,67,079,32,32,63,205,35,16,62,154,38,20,56,265,23*79
$GPGSV,3,2,12,23,38,314,22,31,30,049,32,06,10,143,27,13,10,302,*7C
$GPGSV,3,3,12,03,08,157,27,14,06,108,16,01,04,226,,29,01,047,*70
$GPRMC,220438.000,A,3353.7506,N,09832.0248,W,0.16,327.03,290312,,,D*73
$GPGGA,220439.000,3353.7508,N,09832.0249,W,2,06,2.2,308.5,M,-23.7,M,0.8,0000*45
$GPGSA,A,3,20,23,16,30,32,31,,,,,,,5.5,2.2,5.0*33
$GPRMC,220439.000,A,3353.7508,N,09832.0249,W,0.49,324.06,290312,,,D*71
$GPGGA,220440.000,3353.7511,N,09832.0249,W,2,06,2.2,308.3,M,-23.7,M,0.8,0000*45
$GPGSA,A,3,20,23,16,30,32,31,,,,,,,5.5,2.2,5.0*33
$GPRMC,220440.000,A,3353.7511,N,09832.0249,W,0.78,308.50,290312,,,D*78
$GPGGA,220441.000,3353.7511,N,09832.0247,W,2,05,2.7,308.1,M,-23.7,M,0.8,0000*4E
$GPGSA,A,3,20,16,30,32,31,,,,,,,,5.7,2.7,5.0*35
$GPRMC,220441.000,A,3353.7511,N,09832.0247,W,0.09,341.97,290312,,,D*77
$GPGGA,220442.000,3353.7510,N,09832.0246,W,2,06,2.2,308.2,M,-23.7,M,0.8,0000*48
$GPGSA,A,3,20,23,16,30,32,31,,,,,,,5.5,2.2,5.0*33
$GPRMC,220442.000,A,3353.7510,N,09832.0246,W,0.06,162.50,290312,,,D*73
$GPGGA,220443.000,3353.7512,N,09832.0251,W,2,06,2.2,308.5,M,-23.7,M,0.8,0000*4A
$GPGSA,A,3,20,23,16,30,32,31,,,,,,,5.5,2.2,5.0*33
$GPGSV,3,1,12,30,67,079,32,32,63,205,35,16,62,154,38,20,56,265,23*79
$GPGSV,3,2,12,23,38,314,19,31,30,049,32,06,10,143,27,13,10,302,*74
$GPGSV,3,3,12,03,08,157,28,14,06,108,17,01,04,226,,29,01,047,*7E
$GPRMC,220443.000,A,3353.7512,N,09832.0251,W,0.56,309.58,290312,,,D*74
$GPGGA,220444.000,3353.7516,N,09832.0255,W,2,06,2.2,308.7,M,-23.7,M,1.8,0000*4E
$GPGSA,A,3,20,23,16,30,32,31,,,,,,,5.5,2.2,5.0*33
$GPRMC,220444.000,A,3353.7516,N,09832.0255,W,0.19,329.88,290312,,,D*77
$GPGGA,220445.000,3353.7517,N,09832.0257,W,2,06,2.2,309.0,M,-23.7,M,0.8,0000*4B
$GPGSA,A,3,20,23,16,30,32,31,,,,,,,5.5,2.2,5.0*33
$GPRMC,220445.000,A,3353.7517,N,09832.0257,W,0.40,129.45,290312,,,D*7A
$GPGGA,220446.000,3353.7519,N,09832.0262,W,2,06,2.2,309.4,M,-23.7,M,0.8,0000*44
$GPGSA,A,3,20,23,16,30,32,31,,,,,,,5.5,2.2,5.0*33
$GPRMC,220446.000,A,3353.7519,N,09832.0262,W,0.20,130.18,290312,,,D*77
$GPGGA,220447.000,3353.7520,N,09832.0264,W,2,06,2.2,309.8,M,-23.7,M,0.8,0000*45
$GPGSA,A,3,20,23,16,30,32,31,,,,,,,5.5,2.2,5.0*33
$GPRMC,220447.000,A,3353.7520,N,09832.0264,W,0.67,300.24,290312,,,D*77
$GPGGA,220448.000,3353.7520,N,09832.0266,W,2,06,2.2,310.3,M,-23.7,M,1.8,0000*4A
$GPGSA,A,3,20,23,16,30,32,31,,,,,,,5.5,2.2,5.0*33
$GPGSV,3,1,12,30,67,079,32,32,63,205,35,16,62,154,39,20,56,265,22*79
$GPGSV,3,2,12,23,38,314,20,31,30,049,31,06,10,143,27,13,10,302,*7D
$GPGSV,3,3,12,03,08,157,28,14,06,108,17,01,04,226,,29,01,047,*7E
$GPRMC,220448.000,A,3353.7520,N,09832.0266,W,0.76,294.83,290312,,,D*7B
$GPGGA,220449.000,3353.7521,N,09832.0269,W,2,06,2.2,310.6,M,-23.7,M,2.8,0000*43
$GPGSA,A,3,20,23,16,30,32,31,,,,,,,5.5,2.2,5.0*33
$GPRMC,220449.000,A,3353.7521,N,09832.0269,W,0.69,309.37,290312,,,D*70
$GPGGA,220450.000,3353.7519,N,09832.0264,W,2,06,2.2,310.8,M,-23.7,M,3.8,0000*42
$GPGSA,A,3,20,23,16,30,32,31,,,,,,,5.5,2.2,5.0*33
$GPRMC,220450.000,A,3353.7519,N,09832.0264,W,0.24,108.15,290312,,,D*74
$GPGGA,220451.000,3353.7519,N,09832.0262,W,2,06,2.2,311.0,M,-23.7,M,0.8,0000*4F
$GPGSA,A,3,20,23,16,30,32,31,,,,,,,5.5,2.2,5.0*33
$GPRMC,220451.000,A,3353.7519,N,09832.0262,W,0.22,29.26,290312,,,D*47
$GPGGA,220452.000,3353.7520,N,09832.0263,W,2,06,2.2,311.2,M,-23.7,M,0.8,0000*45
$GPGSA,A,3,20,23,16,30,32,31,,,,,,,5.5,2.2,5.0*33
$GPRMC,220452.000,A,3353.7520,N,09832.0263,W,0.78,312.67,290312,,,D*7E
$GPGGA,220453.000,3353.7518,N,09832.0260,W,2,06,2.2,311.4,M,-23.7,M,0.8,0000*4A
$GPGSA,A,3,20,23,16,30,32,31,,,,,,,5.5,2.2,5.0*33
$GPGSV,3,1,12,30,67,079,32,32,63,205,34,16,62,154,39,20,56,265,21*7B
$GPGSV,3,2,12,23,38,314,21,31,30,049,31,06,10,143,26,13,10,302,*7D
$GPGSV,3,3,12,03,08,157,28,14,06,108,17,01,04,226,,29,01,047,*7E
$GPRMC,220453.000,A,3353.7518,N,09832.0260,W,0.21,307.31,290312,,,D*7C
$GPGGA,220454.000,3353.7515,N,09832.0254,W,2,06,2.2,311.5,M,-23.7,M,1.8,0000*47
$GPGSA,A,3,20,23,16,30,32,31,,,,,,,5.5,2.2,5.0*33
$GPRMC,220454.000,A,3353.7515,N,09832.0254,W,0.31,319.12,290312,,,D*7E
$GPGGA,220455.000,3353.7514,N,09832.0251,W,2,06,2.2,311.5,M,-23.7,M,2.8,0000*41
$GPGSA,A,3,20,23,16,30,32,31,,,,,,,5.5,2.2,5.0*33
$GPRMC,220455.000,A,3353.7514,N,09832.0251,W,0.22,311.25,290312,,,D*75
$GPGGA,220456.000,3353.7515,N,09832.0253,W,2,06,2.2,311.7,M,-23.7,M,3.8,0000*42
$GPGSA,A,3,20,23,16,30,32,31,,,,,,,5.5,2.2,5.0*33
$GPRMC,220456.000,A,3353.7515,N,09832.0253,W,0.11,295.77,290312,,,D*7F
$GPGGA,220457.000,3353.7511,N,09832.0247,W,2,06,2.2,311.8,M,-23.7,M,0.8,0000*4E
$GPGSA,A,3,20,23,16,30,32,31,,,,,,,5.5,2.2,5.0*33
$GPRMC,220457.000,A,3353.7511,N,09832.0247,W,0.48,119.17,290312,,,D*72
$GPGGA,220458.000,3353.7509,N,09832.0241,W,2,06,2.2,312.0,M,-23.7,M,0.8,0000*45
$GPGSA,A,3,20,23,16,30,32,31,,,,,,,5.5,2.2,5.0*33
$GPGSV,3,1,12,30,67,079,31,32,63,205,34,16,62,154,39,20,56,265,21*78
$GPGSV,3,2,12,23,38,314,21,31,30,049,31,06,10,143,21,13,10,302,*7A
$GPGSV,3,3,12,03,08,157,28,14,06,108,16,01,04,226,,29,01,047,*7F
$GPRMC,220458.000,A,3353.7509,N,09832.0241,W,0.29,105.44,290312,,,D*7E
$GPGGA,220459.000,3353.7505,N,09832.0236,W,2,06,2.2,312.3,M,-23.7,M,0.8,0000*4B
$GPGSA,A,3,20,23,16,30,32,31,,,,,,,5.5,2.2,5.0*33
$GPRMC,220459.000,A,3353.7505,N,09832.0236,W,0.06,174.89,290312,,,D*79
$GPGGA,220500.000,3353.7502,N,09832.0231,W,2,06,2.2,312.6,M,-23.7,M,1.8,0000*42
$GPGSA,A,3,20,23,16,30,32,31,,,,,,,5.5,2.2,5.0*33
$GPRMC,220500.000,A,3353.7502,N,09832.0231,W,0.96,122.73,290312,,,D*7B
$GPGGA,220501.000,3353.7498,N,09832.0225,W,2,06,2.2,312.8,M,-23.7,M,0.8,0000*4B
$GPGSA,A,3,20,23,16,30,32,31,,,,,,,5.5,2.2,5.0*33
$GPRMC,220501.000,A,3353.7498,N,09832.0225,W,0.61,119.91,290312,,,D*71
$GPGGA,220502.000,3353.7495,N,09832.0221,W,2,06,2.2,313.3,M,-23.7,M,1.8,0000*4A
$GPGSA,A,3,20,23,16,30,32,31,,,,,,,5.4,2.2,5.0*32
$GPRMC,220502.000,A,3353.7495,N,09832.0221,W,0.06,35.85,290312,,,D*40
$GPGGA,220503.000,3353.7495,N,09832.0220,W,2,05,2.2,313.7,M,-23.7,M,0.8,0000*4C
$GPGSA,A,3,23,16,30,32,31,,,,,,,,5.5,2.2,5.0*31
$GPGSV,3,1,12,30,67,079,31,32,63,205,34,16,62,154,39,20,56,265,15*7F
$GPGSV,3,2,12,23,38,314,21,31,30,049,31,06,10,143,22,13,10,302,*79
$GPGSV,3,3,12,03,08,157,27,14,06,108,15,01,04,226,,29,01,047,*73
$GPRMC,220503.000,A,3353.7495,N,09832.0220,W,0.51,307.68,290312,,,D*73
$GPGGA,220504.000,3353.7498,N,09832.0225,W,2,06,2.2,313.9,M,-23.7,M,0.8,0000*4E
$GPGSA,A,3,20,23,16,30,32,31,,,,,,,5.4,2.2,5.0*32
$GPRMC,220504.000,A,3353.7498,N,09832.0225,W,0.62,323.59,290312,,,D*78
$GPGGA,220505.000,3353.7498,N,09832.0223,W,2,06,2.2,314.1,M,-23.7,M,0.8,0000*46
$GPGSA,A,3,20,23,16,30,32,31,,,,,,,5.4,2.2,5.0*32
$GPRMC,220505.000,A,3353.7498,N,09832.0223,W,0.27,82.12,290312,,,D*49
$GPGGA,220506.000,3353.7501,N,09832.0227,W,2,06,2.2,314.3,M,-23.7,M,0.8,0000*42
$GPGSA,A,3,20,23,16,30,32,31,,,,,,,5.4,2.2,5.0*32
$GPRMC,220506.000,A,3353.7501,N,09832.0227,W,0.24,26.87,290312,,,D*4E
$GPGGA,220507.000,3353.7503,N,09832.0229,W,2,06,2.2,314.5,M,-23.7,M,1.8,0000*48
$GPGSA,A,3,20,23,16,30,32,31,,,,,,,5.4,2.2,5.0*32
$GPRMC,220507.000,A,3353.7503,N,09832.0229,W,0.59,106.30,290312,,,D*76
$GPGGA,220508.000,3353.7505,N,09832.0232,W,2,06,2.2,314.7,M,-23.7,M,2.8,0000*4A
$GPGSA,A,3,20,23,16,30,32,31,,,,,,,5.4,2.2,5.0*32
$GPGSV,3,1,12,30,67,079,32,32,63,205,34,16,62,154,39,20,56,265,16*7F
$GPGSV,3,2,12,23,38,314,20,31,30,049,31,06,10,143,20,13,10,302,*7A
$GPGSV,3,3,12,03,08,157,26,14,06,108,14,01,04,226,,29,01,047,*73
$GPRMC,220508.000,A,3353.7505,N,09832.0232,W,0.74,114.19,290312,,,D*72
$GPGGA,220509.000,3353.7505,N,09832.0230,W,2,06,2.2,314.8,M,-23.7,M,0.8,0000*44
$GPGSA,A,3,20,23,16,30,32,31,,,,,,,5.4,2.2,5.0*32
$GPRMC,220509.000,A,3353.7505,N,09832.0230,W,0.23,105.85,290312,,,D*76
$GPGGA,220510.000,3353.7508,N,09832.0234,W,2,06,2.2,315.0,M,-23.7,M,0.8,0000*4C
$GPGSA,A,3,20,23,16,30,32,31,,,,,,,5.4,2.2,5.0*32
$GPRMC,220510.000,A,3353.7508,N,09832.0234,W,0.12,157.16,290312,,,D*78
$GPGGA,220511.000,3353.7511,N,09832.0239,W,2,06,2.2,315.4,M,-23.7,M,0.8,0000*4C
$GPGSA,A,3,20,23,16,30,32,31,,,,,,,5.4,2.2,5.0*32
$GPRMC,220511.000,A,3353.7511,N,09832.0239,W,0.07,74.02,290312,,,D*4D
$GPGGA,220512.000,3353.7513,N,09832.0242,W,2,06,2.2,315.7,M,-23.7,M,1.8,0000*43
$GPGSA,A,3,20,23,16,30,32,31,,,,,,,5.4,2.2,5.0*32
$GPRMC,220512.000,A,3353.7513,N,09832.0242,W,0.20,128.71,290312,,,D*79
$GPGGA,220513.000,3353.7514,N,09832.0244,W,2,06,2.2,316.0,M,-23.7,M,0.8,0000*46
$GPGSA,A,3,20,23,16,30,32,31,,,,,,,5.4,2.2,5.0*32
$GPGSV,3,1,12,30,67,079,32,32,63,205,34,16,62,154,39,20,56,265,20*7A
$GPGSV,3,2,12,23,38,314,21,31,30,049,30,06,10,143,13,13,10,302,*7A
$GPGSV,3,3,12,03,08,157,22,14,06,108,14,01,04,226,,29,01,047,*77
$GPRMC,220513.000,A,3353.7514,N,09832.0244,W,0.10,15.39,290312,,,D*49
$GPGGA,220514.000,3353.7515,N,09832.0246,W,2,06,2.2,316.3,M,-23.7,M,1.8,0000*40
$GPGSA,A,3,20,23,16,30,32,31,,,,,,,5.4,2.2,5.0*32
$GPRMC,220514.000,A,3353.7515,N,09832.0246,W,0.03,12.67,290312,,,D*43
$GPGGA,220515.000,3353.7516,N,09832.0247,W,2,06,2.2,316.7,M,-23.7,M,0.8,0000*46
$GPGSA,A,3,20,23,16,30,32,31,,,,,,,5.4,2.2,5.0*32
$GPRMC,220515.000,A,3353.7516,N,09832.0247,W,0.28,105.34,290312,,,D*78
$GPGGA,220516.000,3353.7517,N,09832.0247,W,2,06,2.2,316.7,M,-23.7,M,0.8,0000*44
$GPGSA,A,3,20,23,16,30,32,31,,,,,,,5.4,2.2,5.0*32
$GPRMC,220516.000,A,3353.7517,N,09832.0247,W,0.32,329.05,290312,,,D*7F
$GPGGA,220517.000,3353.7518,N,09832.0248,W,2,06,2.2,316.8,M,-23.7,M,0.8,0000*4A
$GPGSA,A,3,20,23,16,30,32,31,,,,,,,5.4,2.2,5.0*32
$GPRMC,220517.000,A,3353.7518,N,09832.0248,W,0.30,340.62,290312,,,D*72
$GPGGA,220518.000,3353.7517,N,09832.0244,W,2,06,2.2,317.8,M,-23.7,M,1.8,0000*46
$GPGSA,A,3,20,23,16,30,32,31,,,,,,,5.4,2.2,5.0*32
$GPGSV,3,1,12,30,67,076,32,16,63,153,39,32,62,204,34,20,56,262,22*76
$GPGSV,3,2,12,23,39,315,22,31,29,050,24,06,11,142,15,13,11,303,*7A
$GPGSV,3,3,12,03,09,157,22,14,05,109,14,01,04,225,,29,01,046,*76
$GPRMC,220518.000,A,3353.7517,N,09832.0244,W,0.17,9.35,290312,,,D*77
$GPGGA,220519.000,3353.7516,N,09832.0243,W,2,06,2.2,318.3,M,-23.7,M,2.8,0000*46
$GPGSA,A,3,20,23,16,30,32,31,,,,,,,5.4,2.2,5.0*32
$GPRMC,220519.000,A,3353.7516,N,09832.0243,W,0.30,289.42,290312,,,D*7F
$GPGGA,220520.000,3353.7516,N,09832.0242,W,2,06,2.2,318.4,M,-23.7,M,3.8,0000*4B
$GPGSA,A,3,20,23,16,30,32,31,,,,,,,5.4,2.2,5.0*32
$GPRMC,220520.000,A,3353.7516,N,09832.0242,W,0.28,10.42,290312,,,D*4F
$GPGGA,220521.000,3353.7517,N,09832.0237,W,2,06,2.2,316.9,M,-23.7,M,0.8,0000*49
$GPGSA,A,3,20,23,16,30,32,31,,,,,,,5.4,2.2,5.0*32
$GPRMC,220521.000,A,3353.7517,N,09832.0237,W,0.16,43.50,290312,,,D*45
$GPGGA,220522.000,3353.7516,N,09832.0232,W,2,06,2.2,315.7,M,-23.7,M,0.8,0000*43
$GPGSA,A,3,20,23,16,30,32,31,,,,,,,5.4,2.2,5.0*32
$GPRMC,220522.000,A,3353.7516,N,09832.0232,W,0.91,103.61,290312,,,D*7A
$GPGGA,220523.000,3353.7515,N,09832.0229,W,2,06,2.2,314.6,M,-23.7,M,0.8,0000*4B
$GPGSA,A,3,20,23,16,30,32,31,,,,,,,5.4,2.2,5.0*32
$GPGSV,3,1,12,30,67,076,32,16,63,153,39,32,62,204,35,20,56,262,23*76
$GPGSV,3,2,12,23,39,315,22,31,29,050,24,06,11,142,15,13,11,303,*7A
$GPGSV,3,3,12,03,09,157,22,14,05,109,13,01,04,225,,29,01,046,*71
$GPRMC,220523.000,A,3353.7515,N,09832.0229,W,0.34,90.17,290312,,,D*47
$GPGGA,220524.000,3353.7517,N,09832.0232,W,2,06,2.2,314.5,M,-23.7,M,1.8,0000*46
$GPGSA,A,3,20,23,16,30,32,31,,,,,,,5.4,2.2,5.0*32
$GPRMC,220524.000,A,3353.7517,N,09832.0232,W,0.06,246.22,290312,,,D*76
$GPGGA,220525.000,3353.7519,N,09832.0233,W,2,06,2.2,314.0,M,-23.7,M,2.8,0000*4E
$GPGSA,A,3,20,23,16,30,32,31,,,,,,,5.4,2.2,5.0*32
$GPRMC,220525.000,A,3353.7519,N,09832.0233,W,0.43,124.50,290312,,,D*7B
$GPGGA,220526.000,3353.7518,N,09832.0231,W,2,05,2.7,314.4,M,-23.7,M,0.8,0000*4E
$GPGSA,A,3,20,16,30,32,31,,,,,,,,5.6,2.7,5.0*34
$GPRMC,220526.000,A,3353.7518,N,09832.0231,W,0.48,120.09,290312,,,D*78
$GPGGA,220527.000,3353.7517,N,09832.0230,W,2,05,2.7,314.5,M,-23.7,M,0.8,0000*40
$GPGSA,A,3,20,16,30,32,31,,,,,,,,5.6,2.7,5.0*34
$GPRMC,220527.000,A,3353.7517,N,09832.0230,W,0.47,38.65,290312,,,D*4A
$GPGGA,220528.000,3353.7518,N,09832.0233,W,2,05,2.7,315.2,M,-23.7,M,0.8,0000*45
$GPGSA,A,3,20,16,30,32,31,,,,,,,,5.6,2.7,4.9*3C
$GPGSV,3,1,12,30,67,076,32,16,63,153,38,32,62,204,35,20,56,262,23*77
$GPGSV,3,2,12,23,39,315,,31,29,050,24,06,11,142,16,13,11,303,*79
$GPGSV,3,3,12,03,09,157,22,14,05,109,13,01,04,225,19,29,01,046,*79
$GPRMC,220528.000,A,3353.7518,N,09832.0233,W,0.36,315.73,290312,,,D*74
$GPGGA,220529.000,3353.7517,N,09832.0233,W,2,05,2.7,315.2,M,-23.7,M,0.8,0000*4B
$GPGSA,A,3,20,16,30,32,31,,,,,,,,5.6,2.7,4.9*3C
$GPRMC,220529.000,A,3353.7517,N,09832.0233,W,0.34,225.78,290312,,,D*71
$GPGGA,220530.000,3353.7516,N,09832.0229,W,2,05,2.7,313.6,M,-23.7,M,0.8,0000*4B
$GPGSA,A,3,20,16,30,32,31,,,,,,,,5.6,2.7,4.9*3C
$GPRMC,220530.000,A,3353.7516,N,09832.0229,W,0.68,338.97,290312,,,D*76
$GPGGA,220531.000,3353.7513,N,09832.0221,W,2,05,2.7,312.8,M,-23.7,M,1.8,0000*49
$GPGSA,A,3,20,16,30,32,31,,,,,,,,5.6,2.7,4.9*3C
$GPRMC,220531.000,A,3353.7513,N,09832.0221,W,0.51,102.19,290312,,,D*7D
$GPGGA,220532.000,3353.7512,N,09832.0224,W,2,05,2.7,314.4,M,-23.7,M,0.8,0000*45
$GPGSA,A,3,20,16,30,32,31,,,,,,,,5.6,2.7,4.9*3C
$GPRMC,220532.000,A,3353.7512,N,09832.0224,W,0.39,186.57,290312,,,D*72
$GPGGA,220533.000,3353.7511,N,09832.0225,W,2,05,2.7,314.2,M,-23.7,M,0.8,0000*40
$GPGSA,A,3,20,16,30,32,31,,,,,,,,5.6,2.7,4.9*3C
$GPGSV,3,1,12,30,67,076,33,16,63,153,38,32,61,204,35,20,56,262,24*72
$GPGSV,3,2,12,23,39,315,,31,29,050,23,06,11,142,17,13,11,303,*7F
$GPGSV,3,3,12,03,09,157,16,14,05,109,13,01,03,225,19,29,01,046,*79
$GPRMC,220533.000,A,3353.7511,N,09832.0225,W,0.06,157.24,290312,,,D*75
$GPGGA,220534.000,3353.7513,N,09832.0227,W,2,05,2.7,313.3,M,-23.7,M,0.8,0000*41
$GPGSA,A,3,20,16,30,32,31,,,,,,,,5.6,2.7,4.9*3C
$GPRMC,220534.000,A,3353.7513,N,09832.0227,W,0.39,309.25,290312,,,D*76
$GPGGA,220535.000,3353.7513,N,09832.0232,W,2,05,2.7,314.3,M,-23.7,M,0.8,0000*43
$GPGSA,A,3,20,16,30,32,31,,,,,,,,5.6,2.7,4.9*3C
$GPRMC,220535.000,A,3353.7513,N,09832.0232,W,0.20,280.77,290312,,,D*7C
$GPGGA,220536.000,3353.7514,N,09832.0236,W,2,05,2.7,315.2,M,-23.7,M,1.8,0000*42
$GPGSA,A,3,20,16,30,32,31,,,,,,,,5.6,2.7,4.9*3C
$GPRMC,220536.000,A,3353.7514,N,09832.0236,W,0.15,341.11,290312,,,D*76
$GPGGA,220537.000,3353.7514,N,09832.0238,W,2,05,2.7,316.0,M,-23.7,M,2.8,0000*4F
$GPGSA,A,3,20,16,30,32,31,,,,,,,,5.6,2.7,4.9*3C
$GPRMC,220537.000,A,3353.7514,N,09832.0238,W,0.18,229.80,290312,,,D*73
$GPGGA,220538.000,3353.7513,N,09832.0240,W,2,05,2.7,317.4,M,-23.7,M,3.8,0000*4C
$GPGSA,A,3,20,16,30,32,31,,,,,,,,5.6,2.7,4.9*3C
$GPGSV,3,1,12,30,67,076,34,16,63,153,38,32,61,204,36,20,56,262,25*77
$GPGSV,3,2,12,23,39,315,,31,29,050,23,06,11,142,23,13,11,303,*78
$GPGSV,3,3,12,03,09,157,18,14,05,109,12,01,03,225,18,29,01,046,*77
$GPRMC,220538.000,A,3353.7513,N,09832.0240,W,0.01,114.61,290312,,,D*7E
$GPGGA,220539.000,3353.7516,N,09832.0244,W,2,06,2.2,318.3,M,-23.7,M,0.8,0000*41
$GPGSA,A,3,20,23,16,30,32,31,,,,,,,5.4,2.2,4.9*3A
$GPRMC,220539.000,A,3353.7516,N,09832.0244,W,0.07,89.21,290312,,,D*49
$GPGGA,220540.000,3353.7522,N,09832.0250,W,2,06,2.2,318.5,M,-23.7,M,0.8,0000*4B
$GPGSA,A,3,20,23,16,30,32,31,,,,,,,5.4,2.2,4.9*3A
$GPRMC,220540.000,A,3353.7522,N,09832.0250,W,0.48,281.39,290312,,,D*7D
$GPGGA,220541.000,3353.7521,N,09832.0253,W,2,06,2.2,319.8,M,-23.7,M,0.8,0000*46
$GPGSA,A,3,20,23,16,30,32,31,,,,,,,5.4,2.2,4.9*3A
$GPRMC,220541.000,A,3353.7521,N,09832.0253,W,0.56,300.44,290312,,,D*71
$GPGGA,220542.000,3353.7522,N,09832.0257,W,2,06,2.2,320.9,M,-23.7,M,1.8,0000*48
$GPGSA,A,3,20,23,16,30,32,31,,,,,,,5.4,2.2,4.9*3A
$GPRMC,220542.000,A,3353.7522,N,09832.0257,W,0.16,5.12,290312,,,D*74
$GPGGA,220543.000,3353.7520,N,09832.0255,W,2,06,2.2,322.3,M,-23.7,M,2.8,0000*42
$GPGSA,A,3,20,23,16,30,32,31,,,,,,,5.4,2.2,4.9*3A
$GPGSV,3,1,12,30,67,076,34,16,63,153,38,32,61,204,36,20,56,262,24*76
$GPGSV,3,2,12,23,39,315,21,31,29,050,22,06,11,142,23,13,11,303,*7A
$GPGSV,3,3,12,03,09,157,18,14,05,109,,01,03,225,18,29,01,046,*74
$GPRMC,220543.000,A,3353.7520,N,09832.0255,W,0.57,348.20,290312,,,D*7B
$GPGGA,220544.000,3353.7518,N,09832.0255,W,2,06,2.2,323.7,M,-23.7,M,3.8,0000*4A
$GPGSA,A,3,20,23,16,30,32,31,,,,,,,5.4,2.2,4.9*3A
$GPRMC,220544.000,A,3353.7518,N,09832.0255,W,0.38,348.68,290312,,,D*72
$GPGGA,220545.000,3353.7517,N,09832.0251,W,2,06,2.2,322.6,M,-23.7,M,0.8,0000*43
$GPGSA,A,3,20,23,16,30,32,31,,,,,,,5.4,2.2,4.9*3A
$GPRMC,220545.000,A,3353.7517,N,09832.0251,W,0.23,9.36,290312,,,D*7F
$GPGGA,220546.000,3353.7516,N,09832.0249,W,2,06,2.2,321.9,M,-23.7,M,0.8,0000*44
$GPGSA,A,3,20,23,16,30,32,31,,,,,,,5.4,2.2,4.9*3A
$GPRMC,220546.000,A,3353.7516,N,09832.0249,W,0.46,51.19,290312,,,D*47
$GPGGA,220547.000,3353.7515,N,09832.0247,W,2,06,2.2,321.9,M,-23.7,M,0.8,0000*48
$GPGSA,A,3,20,23,16,30,32,31,,,,,,,5.4,2.2,4.9*3A
$GPRMC,220547.000,A,3353.7515,N,09832.0247,W,0.60,14.25,290312,,,D*41
$GPGGA,220548.000,3353.7515,N,09832.0243,W,2,06,2.2,320.3,M,-23.7,M,0.8,0000*48
$GPGSA,A,3,20,23,16,30,32,31,,,,,,,5.4,2.2,4.9*3A
$GPGSV,3,1,12,30,67,076,34,16,63,153,39,32,61,204,36,20,56,262,25*76
$GPGSV,3,2,12,23,39,315,22,31,29,050,23,06,11,142,24,13,11,303,*7F
$GPGSV,3,3,12,03,09,157,19,14,05,109,,01,03,225,16,29,01,046,*7B
$GPRMC,220548.000,A,3353.7515,N,09832.0243,W,0.30,68.71,290312,,,D*45
$GPGGA,220549.000,3353.7517,N,09832.0248,W,2,06,2.2,321.5,M,-23.7,M,0.8,0000*47
$GPGSA,A,3,20,23,16,30,32,31,,,,,,,5.4,2.2,4.9*3A
$GPRMC,220549.000,A,3353.7517,N,09832.0248,W,0.30,262.09,290312,,,D*7A
$GPGGA,220550.000,3353.7518,N,09832.0250,W,2,06,2.2,321.7,M,-23.7,M,1.8,0000*4A
$GPGSA,A,3,20,23,16,30,32,31,,,,,,,5.4,2.2,4.9*3A
$GPRMC,220550.000,A,3353.7518,N,09832.0250,W,0.24,86.77,290312,,,D*40
$GPGGA,220551.000,3353.7515,N,09832.0244,W,2,06,2.2,320.0,M,-23.7,M,0.8,0000*44
$GPGSA,A,3,20,23,16,30,32,31,,,,,,,5.4,2.2,4.9*3A
$GPRMC,220551.000,A,3353.7515,N,09832.0244,W,0.57,49.38,290312,,,D*45
$GPGGA,220552.000,3353.7513,N,09832.0239,W,2,06,2.2,317.9,M,-23.7,M,0.8,0000*46
$GPGSA,A,3,20,23,16,30,32,31,,,,,,,5.4,2.2,4.9*3A
$GPRMC,220552.000,A,3353.7513,N,09832.0239,W,0.55,76.58,290312,,,D*42
$GPGGA,220553.000,3353.7510,N,09832.0232,W,2,06,2.2,315.1,M,-23.7,M,0.8,0000*45
$GPGSA,A,3,20,23,16,30,32,31,,,,,,,5.4,2.2,4.9*3A
$GPGSV,3,1,12,30,67,076,34,16,63,153,39,32,61,203,37,20,56,262,25*70
$GPGSV,3,2,12,23,39,315,23,31,29,050,23,06,11,142,24,13,11,303,*7E
$GPGSV,3,3,12,03,09,156,20,14,05,109,,01,03,225,,29,01,046,*77
$GPRMC,220553.000,A,3353.7510,N,09832.0232,W,0.18,134.26,290312,,,D*7C
$GPGGA,220554.000,3353.7509,N,09832.0232,W,2,06,2.2,313.9,M,-23.7,M,1.8,0000*45
$GPGSA,A,3,20,23,16,30,32,31,,,,,,,5.3,2.2,4.9*3D
$GPRMC,220554.000,A,3353.7509,N,09832.0232,W,0.28,18.44,290312,,,D*4B
$GPGGA,220555.000,3353.7510,N,09832.0233,W,2,06,2.2,313.7,M,-23.7,M,2.8,0000*40
$GPGSA,A,3,20,23,16,30,32,31,,,,,,,5.3,2.2,4.9*3D
$GPRMC,220555.000,A,3353.7510,N,09832.0233,W,0.20,46.20,290312,,,D*42
$GPGGA,220556.000,3353.7511,N,09832.0231,W,2,06,2.1,311.3,M,-23.7,M,3.8,0000*44
$GPGSA,A,3,20,23,16,30,32,31,,,,,,,5.3,2.1,4.9*3E
$GPRMC,220556.000,A,3353.7511,N,09832.0231,W,0.36,87.27,290312,,,D*4F
$GPGGA,220557.000,3353.7514,N,09832.0233,W,2,06,2.1,309.2,M,-23.7,M,0.8,0000*49
$GPGSA,A,3,20,23,16,30,32,31,,,,,,,5.3,2.1,4.9*3E
$GPRMC,220557.000,A,3353.7514,N,09832.0233,W,0.17,290.42,290312,,,D*7D
$GPGGA,220558.000,3353.7516,N,09832.0231,W,2,06,2.1,305.9,M,-23.7,M,0.8,0000*41
$GPGSA,A,3,20,23,16,30,32,31,,,,,,,5.3,2.1,4.9*3E
$GPGSV,3,1,12,30,67,076,34,16,63,153,39,32,61,203,36,20,56,262,26*72
$GPGSV,3,2,12,23,39,315,22,31,29,050,23,06,11,142,25,13,11,303,*7E
$GPGSV,3,3,12,03,09,156,20,14,05,109,,01,03,225,,29,01,046,*77
$GPRMC,220558.000,A,3353.7516,N,09832.0231,W,0.19,40.00,290312,,,D*45
$GPGGA,220559.000,3353.7516,N,09832.0228,W,2,06,2.1,303.0,M,-23.7,M,0.8,0000*47
$GPGSA,A,3,20,23,16,30,32,31,,,,,,,5.3,2.1,4.9*3E
$GPRMC,220559.000,A,3353.7516,N,09832.0228,W,0.31,111.08,290312,,,D*7B
$GPGGA,220600.000,3353.7516,N,09832.0226,W,2,06,2.1,300.4,M,-23.7,M,1.8,0000*40
$GPGSA,A,3,20,23,16,30,32,31,,,,,,,5.3,2.1,4.9*3E
$GPRMC,220600.000,A,3353.7516,N,09832.0226,W,0.57,131.18,290312,,,D*79
$GPGGA,220601.000,3353.7517,N,09832.0225,W,2,06,2.1,298.0,M,-23.7,M,0.8,0000*46
$GPGSA,A,3,20,23,16,30,32,31,,,,,,,5.3,2.1,4.9*3E
$GPRMC,220601.000,A,3353.7517,N,09832.0225,W,0.23,102.57,290312,,,D*72
$GPGGA,220602.000,3353.7517,N,09832.0225,W,2,05,2.7,297.4,M,-23.7,M,0.8,0000*4B
$GPGSA,A,3,20,16,30,32,31,,,,,,,,5.6,2.7,4.9*3C
$GPRMC,220602.000,A,3353.7517,N,09832.0225,W,0.09,82.08,290312,,,D*4A
$GPGGA,220603.000,3353.7516,N,09832.0225,W,2,05,2.7,296.6,M,-23.7,M,0.8,0000*48
$GPGSA,A,3,20,16,30,32,31,,,,,,,,5.6,2.7,4.9*3C
$GPGSV,3,1,12,30,67,076,35,16,63,153,39,32,61,203,37,20,56,262,28*7C
$GPGSV,3,2,12,23,39,315,,31,29,050,23,06,11,142,25,13,11,303,*7E
$GPGSV,3,3,12,03,09,156,19,14,05,109,,01,03,225,,29,01,046,*7D
$GPRMC,220603.000,A,3353.7516,N,09832.0225,W,0.24,198.85,290312,,,D*7A
$GPGGA,220604.000,3353.7515,N,09832.0224,W,2,05,2.7,295.1,M,-23.7,M,0.8,0000*49
$GPGSA,A,3,20,16,30,32,31,,,,,,,,5.6,2.7,4.9*3C
$GPRMC,220604.000,A,3353.7515,N,09832.0224,W,0.46,194.60,290312,,,D*7C
$GPGGA,220605.000,3353.7513,N,09832.0226,W,2,05,2.7,295.7,M,-23.7,M,0.8,0000*4A
$GPGSA,A,3,20,16,30,32,31,,,,,,,,5.6,2.7,4.9*3C
$GPRMC,220605.000,A,3353.7513,N,09832.0226,W,0.82,198.10,290312,,,D*7A
$GPGGA,220606.000,3353.7511,N,09832.0227,W,2,05,2.7,295.6,M,-23.7,M,1.8,0000*4A
$GPGSA,A,3,20,16,30,32,31,,,,,,,,5.6,2.7,4.9*3C
$GPRMC,220606.000,A,3353.7511,N,09832.0227,W,0.51,196.16,290312,,,D*7C
$GPGGA,220607.000,3353.7510,N,09832.0227,W,2,05,2.7,295.5,M,-23.7,M,2.8,0000*4A
$GPGSA,A,3,20,16,30,32,31,,,,,,,,5.6,2.7,4.9*3C
$GPRMC,220607.000,A,3353.7510,N,09832.0227,W,0.17,180.92,290312,,,D*75
$GPGGA,220608.000,3353.7510,N,09832.0226,W,2,05,2.7,294.0,M,-23.7,M,0.8,0000*42
$GPGSA,A,3,20,16,30,32,31,,,,,,,,5.6,2.7,4.9*3C
$GPGSV,3,1,12,30,67,076,35,16,63,153,39,32,61,203,37,20,56,262,28*7C
$GPGSV,3,2,12,23,39,315,,31,29,050,24,06,11,142,25,13,11,303,*79
$GPGSV,3,3,12,03,09,156,19,14,05,109,,01,03,225,16,29,01,046,*7A
$GPRMC,220608.000,A,3353.7510,N,09832.0226,W,0.06,79.91,290312,,,D*4F
$GPGGA,220609.000,3353.7509,N,09832.0224,W,2,05,2.7,292.6,M,-23.7,M,0.8,0000*49
$GPGSA,A,3,20,16,30,32,31,,,,,,,,5.6,2.7,4.9*3C
$GPRMC,220609.000,A,3353.7509,N,09832.0224,W,0.18,80.27,290312,,,D*40
$GPGGA,220610.000,3353.7509,N,09832.0223,W,2,05,2.7,292.0,M,-23.7,M,0.8,0000*40
$GPGSA,A,3,20,16,30,32,31,,,,,,,,5.6,2.7,4.9*3C
$GPRMC,220610.000,A,3353.7509,N,09832.0223,W,0.30,161.92,290312,,,D*75
$GPGGA,220611.000,3353.7508,N,09832.0222,W,2,05,2.7,291.2,M,-23.7,M,0.8,0000*40
$GPGSA,A,3,20,16,30,32,31,,,,,,,,5.6,2.7,4.9*3C
$GPRMC,220611.000,A,3353.7508,N,09832.0222,W,0.40,180.33,290312,,,D*77
$GPGGA,220612.000,3353.7506,N,09832.0222,W,2,06,2.1,291.7,M,-23.7,M,1.8,0000*4C
$GPGSA,A,3,20,23,16,30,32,31,,,,,,,5.3,2.1,4.9*3E
$GPRMC,220612.000,A,3353.7506,N,09832.0222,W,0.67,175.87,290312,,,D*7A
$GPGGA,220613.000,3353.7505,N,09832.0222,W,2,06,2.1,291.8,M,-23.7,M,2.8,0000*42
$GPGSA,A,3,20,23,16,30,32,31,,,,,,,5.3,2.1,4.9*3E
$GPGSV,3,1,12,30,67,076,36,16,63,153,39,32,61,203,37,20,56,262,29*7E
$GPGSV,3,2,12,23,39,315,20,31,29,050,24,06,11,142,25,13,11,303,*7B
$GPGSV,3,3,12,03,09,156,21,14,05,109,,01,03,225,17,29,01,046,*70
$GPRMC,220613.000,A,3353.7505,N,09832.0222,W,0.53,166.57,290312,,,D*70
$GPGGA,220614.000,3353.7505,N,09832.0220,W,2,06,2.1,290.6,M,-23.7,M,3.8,0000*49
$GPGSA,A,3,20,23,16,30,32,31,,,,,,,5.3,2.1,4.9*3E
$GPRMC,220614.000,A,3353.7505,N,09832.0220,W,0.62,140.83,290312,,,D*7A
$GPGGA,220615.000,3353.7501,N,09832.0216,W,2,06,2.1,290.6,M,-23.7,M,0.8,0000*4A
$GPGSA,A,3,20,23,16,30,32,31,,,,,,,5.3,2.1,4.9*3E
$GPRMC,220615.000,A,3353.7501,N,09832.0216,W,0.18,74.08,290312,,,D*42
$GPGGA,220616.000,3353.7499,N,09832.0215,W,2,06,2.1,290.7,M,-23.7,M,0.8,0000*4B
$GPGSA,A,3,20,23,16,30,32,31,,,,,,,5.3,2.1,4.9*3E
$GPRMC,220616.000,A,3353.7499,N,09832.0215,W,0.20,256.27,290312,,,D*76
$GPGGA,220617.000,3353.7496,N,09832.0213,W,2,06,2.1,291.2,M,-23.7,M,0.8,0000*47
$GPGSA,A,3,20,23,16,30,32,31,,,,,,,5.3,2.1,4.9*3E
$GPRMC,220617.000,A,3353.7496,N,09832.0213,W,0.48,189.38,290312,,,D*7F
$GPGGA,220618.000,3353.7496,N,09832.0210,W,2,06,2.1,288.5,M,-23.7,M,0.8,0000*44
$GPGSA,A,3,20,23,16,30,32,31,,,,,,,5.3,2.1,4.9*3E
$GPGSV,3,1,12,30,67,076,36,16,63,153,39,32,61,203,37,20,56,262,29*7E
$GPGSV,3,2,12,23,39,315,21,31,29,050,24,06,11,142,25,13,11,303,*7A
$GPGSV,3,3,12,03,09,156,23,14,05,109,,01,03,225,17,29,01,046,*72
$GPRMC,220618.000,A,3353.7496,N,09832.0210,W,0.36,104.90,290312,,,D*7D
$GPGGA,220619.000,3353.7496,N,09832.0207,W,2,06,2.1,285.6,M,-23.7,M,1.8,0000*4C
$GPGSA,A,3,20,23,16,30,32,31,,,,,,,5.3,2.1,4.8*3F
$GPRMC,220619.000,A,3353.7496,N,09832.0207,W,0.48,66.18,290312,,,D*46
$GPGGA,220620.000,3353.7499,N,09832.0207,W,2,06,2.1,283.5,M,-23.7,M,2.8,0000*4F
$GPGSA,A,3,20,23,16,30,32,31,,,,,,,5.3,2.1,4.8*3F
$GPRMC,220620.000,A,3353.7499,N,09832.0207,W,0.12,105.85,290312,,,D*7C
$GPGGA,220621.000,3353.7499,N,09832.0205,W,2,06,2.1,281.2,M,-23.7,M,0.8,0000*4B
$GPGSA,A,3,20,23,16,30,32,31,,,,,,,5.3,2.1,4.8*3F
$GPRMC,220621.000,A,3353.7499,N,09832.0205,W,0.47,102.84,290312,,,D*79
$GPGGA,220622.000,3353.7501,N,09832.0204,W,2,06,2.1,278.7,M,-23.7,M,0.8,0000*4A
$GPGSA,A,3,20,23,16,30,32,31,,,,,,,5.3,2.1,4.8*3F
$GPRMC,220622.000,A,3353.7501,N,09832.0204,W,0.48,122.61,290312,,,D*7D
$GPGGA,220623.000,3353.7501,N,09832.0206,W,2,06,2.1,279.4,M,-23.7,M,0.8,0000*4B
$GPGSA,A,3,20,23,16,30,32,31,,,,,,,5.3,2.1,4.8*3F
$GPGSV,3,1,12,30,67,075,37,16,64,152,39,32,61,203,37,20,56,261,29*79
$GPGSV,3,2,12,23,39,315,21,31,28,050,23,06,11,142,24,13,11,303,*7D
$GPGSV,3,3,12,03,09,156,23,14,05,109,,01,03,225,16,29,01,046,*73
$GPRMC,220623.000,A,3353.7501,N,09832.0206,W,0.78,163.38,290312,,,D*74
$GPGGA,220624.000,3353.7500,N,09832.0206,W,2,06,2.1,278.4,M,-23.7,M,1.8,0000*4D
$GPGSA,A,3,20,23,16,30,32,31,,,,,,,5.3,2.1,4.8*3F
$GPRMC,220624.000,A,3353.7500,N,09832.0206,W,0.91,166.05,290312,,,D*7E
$GPGGA,220625.000,3353.7502,N,09832.0209,W,2,06,2.1,278.3,M,-23.7,M,2.8,0000*45
$GPGSA,A,3,20,23,16,30,32,31,,,,,,,5.3,2.1,4.8*3F
$GPRMC,220625.000,A,3353.7502,N,09832.0209,W,0.84,165.02,290312,,,D*72
$GPGGA,220626.000,3353.7500,N,09832.0206,W,2,06,2.1,276.9,M,-23.7,M,3.8,0000*4E
$GPGSA,A,3,20,23,16,30,32,31,,,,,,,5.3,2.1,4.8*3F
$GPRMC,220626.000,A,3353.7500,N,09832.0206,W,0.31,157.21,290312,,,D*72
$GPGGA,220627.000,3353.7500,N,09832.0205,W,2,06,2.1,274.4,M,-23.7,M,0.8,0000*40
$GPGSA,A,3,20,23,16,30,32,31,,,,,,,5.3,2.1,4.8*3F
$GPRMC,220627.000,A,3353.7500,N,09832.0205,W,0.11,180.48,290312,,,D*77
$GPGGA,220628.000,3353.7499,N,09832.0204,W,2,06,2.1,273.5,M,-23.7,M,0.8,0000*49
$GPGSA,A,3,20,23,16,30,32,31,,,,,,,5.3,2.1,4.8*3F
$GPGSV,3,1,12,30,67,075,37,16,64,152,38,32,61,203,37,20,56,261,29*78
$GPGSV,3,2,12,23,39,315,22,31,28,050,23,06,11,142,24,13,11,303,*7E
$GPGSV,3,3,12,03,09,156,24,14,05,109,,01,03,225,15,29,01,046,*77
$GPRMC,220628.000,A,3353.7499,N,09832.0204,W,0.49,163.67,290312,,,D*75
$GPGGA,220629.000,3353.7498,N,09832.0206,W,2,06,2.1,274.5,M,-23.7,M,0.8,0000*4C
$GPGSA,A,3,20,23,16,30,32,31,,,,,,,5.3,2.1,4.8*3F
$GPRMC,220629.000,A,3353.7498,N,09832.0206,W,0.77,176.54,290312,,,D*7E
$GPGGA,220630.000,3353.7496,N,09832.0203,W,2,06,2.1,272.3,M,-23.7,M,1.8,0000*4E
$GPGSA,A,3,20,23,16,30,32,31,,,,,,,5.3,2.1,4.8*3F
$GPRMC,220630.000,A,3353.7496,N,09832.0203,W,0.56,158.58,290312,,,D*7E
$GPGGA,220631.000,3353.7496,N,09832.0204,W,2,06,2.1,271.8,M,-23.7,M,2.8,0000*43
$GPGSA,A,3,20,23,16,30,32,31,,,,,,,5.3,2.1,4.8*3F
$GPRMC,220631.000,A,3353.7496,N,09832.0204,W,0.15,244.48,290312,,,D*70
$GPGGA,220632.000,3353.7498,N,09832.0206,W,2,06,2.1,270.8,M,-23.7,M,3.8,0000*4C
$GPGSA,A,3,20,23,16,30,32,31,,,,,,,5.3,2.1,4.8*3F
$GPRMC,220632.000,A,3353.7498,N,09832.0206,W,0.19,83.68,290312,,,D*48
$GPGGA,220633.000,3353.7500,N,09832.0208,W,2,06,2.1,270.5,M,-23.7,M,0.8,0000*4D
$GPGSA,A,3,20,23,16,30,32,31,,,,,,,5.3,2.1,4.8*3F
$GPGSV,3,1,12,30,67,075,37,16,64,152,38,32,61,203,38,20,56,261,29*77
$GPGSV,3,2,12,23,39,315,22,31,28,050,23,06,11,142,23,13,11,303,*79
$GPGSV,3,3,12,03,09,156,24,14,05,109,,01,03,225,15,29,01,046,*77
$GPRMC,220633.000,A,3353.7500,N,09832.0208,W,0.34,149.47,290312,,,D*72
$GPGGA,220634.000,3353.7500,N,09832.0210,W,2,06,2.1,271.1,M,-23.7,M,0.8,0000*46
$GPGSA,A,3,20,23,16,30,32,31,,,,,,,5.3,2.1,4.8*3F
$GPRMC,220634.000,A,3353.7500,N,09832.0210,W,0.43,162.85,290312,,,D*7B
$GPGGA,220635.000,3353.7501,N,09832.0211,W,2,06,2.1,270.6,M,-23.7,M,0.8,0000*41
$GPGSA,A,3,20,23,16,30,32,31,,,,,,,5.3,2.1,4.8*3F
$GPRMC,220635.000,A,3353.7501,N,09832.0211,W,0.57,165.66,290312,,,D*75
$GPGGA,220636.000,3353.7501,N,09832.0211,W,2,06,2.1,269.9,M,-23.7,M,0.8,0000*45
$GPGSA,A,3,20,23,16,30,32,31,,,,,,,5.3,2.1,4.8*3F
$GPRMC,220636.000,A,3353.7501,N,09832.0211,W,0.32,143.17,290312,,,D*77
$GPGGA,220637.000,3353.7500,N,09832.0207,W,2,06,2.1,267.6,M,-23.7,M,1.8,0000*42
$GPGSA,A,3,20,23,16,30,32,31,,,,,,,5.3,2.1,4.8*3F
$GPRMC,220637.000,A,3353.7500,N,09832.0207,W,0.53,136.20,290312,,,D*71
$GPGGA,220638.000,3353.7499,N,09832.0205,W,2,06,2.1,266.0,M,-23.7,M,2.8,0000*4A
$GPGSA,A,3,20,23,16,30,32,31,,,,,,,5.3,2.1,4.8*3F
$GPGSV,3,1,12,30,67,075,38,16,64,152,38,32,61,203,38,20,56,261,29*78
$GPGSV,3,2,12,23,39,315,23,31,28,050,21,06,11,142,23,13,11,303,*7A
$GPGSV,3,3,12,03,09,156,26,14,05,109,,01,03,225,14,29,01,046,*74
$GPRMC,220638.000,A,3353.7499,N,09832.0205,W,0.81,151.37,290312,,,D*75
$GPGGA,220639.000,3353.7495,N,09832.0200,W,2,06,2.1,263.8,M,-23.7,M,0.8,0000*4D
$GPGSA,A,3,20,23,16,30,32,31,,,,,,,5.3,2.1,4.8*3F
$GPRMC,220639.000,A,3353.7495,N,09832.0200,W,0.48,168.19,290312,,,D*7E
$GPGGA,220640.000,3353.7494,N,09832.0198,W,2,06,2.1,262.5,M,-23.7,M,0.8,0000*4C
$GPGSA,A,3,20,23,16,30,32,31,,,,,,,5.3,2.1,4.8*3F
$GPRMC,220640.000,A,3353.7494,N,09832.0198,W,0.54,171.47,290312,,,D*7D
$GPGGA,220641.000,3353.7488,N,09832.0193,W,2,06,2.1,260.8,M,-23.7,M,0.8,0000*44
$GPGSA,A,3,20,23,16,30,32,31,,,,,,,5.3,2.1,4.8*3F
$GPRMC,220641.000,A,3353.7488,N,09832.0193,W,0.80,129.55,290312,,,D*7D
$GPGGA,220642.000,3353.7488,N,09832.0191,W,2,06,2.1,258.4,M,-23.7,M,1.8,0000*43
$GPGSA,A,3,20,23,16,30,32,31,,,,,,,5.3,2.1,4.8*3F
$GPRMC,220642.000,A,3353.7488,N,09832.0191,W,0.72,145.65,290312,,,D*78
$GPGGA,220643.000,3353.7490,N,09832.0193,W,2,06,2.1,257.6,M,-23.7,M,0.8,0000*45
$GPGSA,A,3,20,23,16,30,32,31,,,,,,,5.2,2.1,4.8*3E
$GPGSV,3,1,12,30,67,075,38,16,64,152,38,32,61,203,38,20,56,261,29*78
$GPGSV,3,2,12,23,39,315,23,31,28,050,23,06,11,142,23,13,11,303,*78
$GPGSV,3,3,12,03,09,156,27,14,05,109,,01,03,225,15,29,01,046,*74
$GPRMC,220643.000,A,3353.7490,N,09832.0193,W,0.53,160.79,290312,,,D*7B
$GPGGA,220644.000,3353.7491,N,09832.0198,W,2,06,2.1,259.3,M,-23.7,M,0.8,0000*43
$GPGSA,A,3,20,23,16,30,32,31,,,,,,,5.2,2.1,4.8*3E
$GPRMC,220644.000,A,3353.7491,N,09832.0198,W,0.38,236.17,290312,,,D*73
$GPGGA,220645.000,3353.7492,N,09832.0201,W,2,06,2.1,259.6,M,-23.7,M,0.8,0000*47
$GPGSA,A,3,20,23,16,30,32,31,,,,,,,5.2,2.1,4.8*3E
$GPRMC,220645.000,A,3353.7492,N,09832.0201,W,0.33,197.46,290312,,,D*75
$GPGGA,220646.000,3353.7493,N,09832.0203,W,2,06,2.1,260.2,M,-23.7,M,0.8,0000*49
$GPGSA,A,3,20,23,16,30,32,31,,,,,,,5.2,2.1,4.8*3E
$GPRMC,220646.000,A,3353.7493,N,09832.0203,W,0.09,123.53,290312,,,D*77
$GPGGA,220647.000,3353.7494,N,09832.0204,W,2,06,2.1,259.8,M,-23.7,M,0.8,0000*48
$GPGSA,A,3,20,23,16,30,32,31,,,,,,,5.2,2.1,4.8*3E
$GPRMC,220647.000,A,3353.7494,N,09832.0204,W,0.60,163.42,290312,,,D*7D
$GPGGA,220648.000,3353.7495,N,09832.0207,W,2,06,2.1,261.1,M,-23.7,M,1.8,0000*46
$GPGSA,A,3,20,23,16,30,32,31,,,,,,,5.2,2.1,4.8*3E
$GPGSV,3,1,12,30,67,075,38,16,64,152,38,32,61,203,38,20,56,261,30*70
$GPGSV,3,2,12,23,39,315,22,31,28,050,23,06,11,142,23,13,11,303,*79
$GPGSV,3,3,12,03,09,156,28,14,05,109,,01,03,225,16,29,01,046,*78
$GPRMC,220648.000,A,3353.7495,N,09832.0207,W,0.54,183.09,290312,,,D*76
$GPGGA,220649.000,3353.7495,N,09832.0209,W,2,06,2.1,262.7,M,-23.7,M,0.8,0000*4D
$GPGSA,A,3,20,23,16,30,32,31,,,,,,,5.2,2.1,4.8*3E
$GPRMC,220649.000,A,3353.7495,N,09832.0209,W,0.45,162.76,290312,,,D*7E
$GPGGA,220650.000,3353.7490,N,09832.0205,W,2,06,2.1,263.3,M,-23.7,M,0.8,0000*49
$GPGSA,A,3,20,23,16,30,32,31,,,,,,,5.2,2.1,4.8*3E
$GPRMC,220650.000,A,3353.7490,N,09832.0205,W,0.79,132.75,290312,,,D*76
$GPGGA,220651.000,3353.7488,N,09832.0204,W,2,06,2.1,264.6,M,-23.7,M,0.8,0000*42
$GPGSA,A,3,20,23,16,30,32,31,,,,,,,5.2,2.1,4.8*3E
$GPRMC,220651.000,A,3353.7488,N,09832.0204,W,0.78,140.85,290312,,,D*74
$GPGGA,220652.000,3353.7489,N,09832.0208,W,2,06,2.1,267.0,M,-23.7,M,0.8,0000*49
$GPGSA,A,3,20,23,16,30,32,31,,,,,,,5.2,2.1,4.8*3E
$GPRMC,220652.000,A,3353.7489,N,09832.0208,W,0.50,153.72,290312,,,D*7A
$GPGGA,220653.000,3353.7489,N,09832.0210,W,2,06,2.1,269.0,M,-23.7,M,0.8,0000*4F
$GPGSA,A,3,20,23,16,30,32,31,,,,,,,5.2,2.1,4.8*3E
$GPGSV,3,1,12,30,67,075,37,16,64,152,38,32,61,203,38,20,56,261,31*7E
$GPGSV,3,2,12,23,39,315,22,31,28,050,25,06,11,142,23,13,11,303,*7F
$GPGSV,3,3,12,03,09,156,28,14,05,109,15,01,03,225,18,29,01,046,*72
$GPRMC,220653.000,A,3353.7489,N,09832.0210,W,0.09,250.70,290312,,,D*7C
$GPGGA,220654.000,3353.7488,N,09832.0210,W,2,06,2.1,270.9,M,-23.7,M,1.8,0000*49
$GPGSA,A,3,20,23,16,30,32,31,,,,,,,5.2,2.1,4.8*3E
$GPRMC,220654.000,A,3353.7488,N,09832.0210,W,0.25,148.69,290312,,,D*76
$GPGGA,220655.000,3353.7492,N,09832.0215,W,2,06,2.1,272.9,M,-23.7,M,2.8,0000*47
$GPGSA,A,3,20,23,16,30,32,31,,,,,,,5.2,2.1,4.8*3E
$GPRMC,220655.000,A,3353.7492,N,09832.0215,W,0.25,317.29,290312,,,D*75
$GPGGA,220656.000,3353.7492,N,09832.0216,W,2,06,2.1,274.7,M,-23.7,M,3.8,0000*4E
$GPGSA,A,3,20,23,16,30,32,31,,,,,,,5.2,2.1,4.8*3E
$GPRMC,220656.000,A,3353.7492,N,09832.0216,W,0.07,134.47,290312,,,D*7E
$GPGGA,220657.000,3353.7491,N,09832.0215,W,2,06,2.1,276.1,M,-23.7,M,0.8,0000*48
$GPGSA,A,3,20,23,16,30,32,31,,,,,,,5.2,2.1,4.8*3E
$GPRMC,220657.000,A,3353.7491,N,09832.0215,W,0.11,338.00,290312,,,D*75
$GPGGA,220658.000,3353.7491,N,09832.0215,W,2,06,2.1,277.4,M,-23.7,M,0.8,0000*43
$GPGSA,A,3,20,23,16,30,32,31,,,,,,,5.2,2.1,4.8*3E
$GPGSV,3,1,12,30,67,075,37,16,64,152,38,32,61,203,39,20,56,261,31*7F
$GPGSV,3,2,12,23,39,315,23,31,28,050,26,06,11,142,19,13,11,303,*74
$GPGSV,3,3,12,03,09,156,28,14,05,109,14,01,03,225,17,29,01,046,*7C
$GPRMC,220658.000,A,3353.7491,N,09832.0215,W,0.17,5.42,290312,,,D*77
$GPGGA,220659.000,3353.7489,N,09832.0214,W,2,06,2.1,278.5,M,-23.7,M,0.8,0000*44
$GPGSA,A,3,20,23,16,30,32,31,,,,,,,5.2,2.1,4.8*3E
$GPRMC,220659.000,A,3353.7489,N,09832.0214,W,0.13,85.73,290312,,,D*40
$GPGGA,220700.000,3353.7488,N,09832.0213,W,2,06,2.1,279.7,M,-23.7,M,1.8,0000*4D
$GPGSA,A,3,20,23,16,30,32,31,,,,,,,5.2,2.1,4.8*3E
$GPRMC,220700.000,A,3353.7488,N,09832.0213,W,0.34,125.71,290312,,,D*77
$GPGGA,220701.000,3353.7487,N,09832.0211,W,2,06,2.1,280.6,M,-23.7,M,2.8,0000*45
$GPGSA,A,3,20,23,16,30,32,31,,,,,,,5.2,2.1,4.8*3E
$GPRMC,220701.000,A,3353.7487,N,09832.0211,W,0.28,114.60,290312,,,D*74
$GPGGA,220702.000,3353.7491,N,09832.0215,W,2,06,2.1,281.7,M,-23.7,M,0.8,0000*47
$GPGSA,A,3,20,23,16,30,32,31,,,,,,,5.2,2.1,4.8*3E
$GPRMC,220702.000,A,3353.7491,N,09832.0215,W,0.27,344.33,290312,,,D*7A
$GPGGA,220703.000,3353.7494,N,09832.0218,W,2,06,2.1,282.5,M,-23.7,M,0.8,0000*4F
$GPGSA,A,3,20,23,16,30,32,31,,,,,,,5.2,2.1,4.8*3E
$GPGSV,3,1,12,30,67,075,37,16,64,152,38,32,61,203,39,20,56,261,31*7F
$GPGSV,3,2,12,23,39,315,23,31,28,050,27,06,11,142,18,13,11,303,*74
$GPGSV,3,3,12,03,09,156,28,14,05,109,13,01,03,225,16,29,01,046,*7A
$GPRMC,220703.000,A,3353.7494,N,09832.0218,W,0.13,21.16,290312,,,D*43
$GPGGA,220704.000,3353.7495,N,09832.0218,W,2,06,2.1,283.4,M,-23.7,M,0.8,0000*49
$GPGSA,A,3,20,23,16,30,32,31,,,,,,,5.2,2.1,4.8*3E
$GPRMC,220704.000,A,3353.7495,N,09832.0218,W,0.16,99.49,290312,,,D*49
$GPGGA,220705.000,3353.7499,N,09832.0221,W,2,06,2.1,284.2,M,-23.7,M,0.8,0000*4F
$GPGSA,A,3,20,23,16,30,32,31,,,,,,,5.2,2.1,4.8*3E
$GPRMC,220705.000,A,3353.7499,N,09832.0221,W,0.41,337.73,290312,,,D*72
$GPGGA,220706.000,3353.7503,N,09832.0225,W,2,06,2.1,285.0,M,-23.7,M,1.8,0000*48
$GPGSA,A,3,20,23,16,30,32,31,,,,,,,5.2,2.1,4.8*3E
$GPRMC,220706.000,A,3353.7503,N,09832.0225,W,0.79,330.37,290312,,,D*7B
$GPGGA,220707.000,3353.7509,N,09832.0230,W,2,06,2.1,285.8,M,-23.7,M,2.8,0000*4C
$GPGSA,A,3,20,23,16,30,32,31,,,,,,,5.2,2.1,4.8*3E
$GPRMC,220707.000,A,3353.7509,N,09832.0230,W,1.07,327.65,290312,,,D*7D
$GPGGA,220708.000,3353.7513,N,09832.0234,W,2,06,2.1,286.6,M,-23.7,M,0.8,0000*43
$GPGSA,A,3,20,23,16,30,32,31,,,,,,,5.2,2.1,4.8*3E
$GPGSV,3,1,12,30,67,075,37,16,64,152,38,32,61,203,39,20,56,261,32*7C
$GPGSV,3,2,12,23,39,315,18,31,28,050,28,06,11,142,19,13,11,303,*72
$GPGSV,3,3,12,03,09,156,28,14,05,109,12,01,03,225,,29,01,046,*7C
$GPRMC,220708.000,A,3353.7513,N,09832.0234,W,0.77,329.19,290312,,,D*7E
$GPGGA,220709.000,3353.7513,N,09832.0234,W,2,05,2.7,287.1,M,-23.7,M,0.8,0000*41
$GPGSA,A,3,20,16,30,32,31,,,,,,,,5.5,2.7,4.8*3E
$GPRMC,220709.000,A,3353.7513,N,09832.0234,W,0.17,0.78,290312,,,D*76
$GPGGA,220710.000,3353.7515,N,09832.0235,W,2,06,2.1,287.7,M,-23.7,M,0.8,0000*4D
$GPGSA,A,3,20,23,16,30,32,31,,,,,,,5.2,2.1,4.7*31
$GPRMC,220710.000,A,3353.7515,N,09832.0235,W,0.17,19.32,290312,,,D*4F
$GPGGA,220711.000,3353.7509,N,09832.0229,W,2,06,2.1,287.9,M,-23.7,M,0.8,0000*42
$GPGSA,A,3,20,23,16,30,32,31,,,,,,,5.2,2.1,4.7*31
$GPRMC,220711.000,A,3353.7509,N,09832.0229,W,0.53,122.26,290312,,,D*72
$GPGGA,220712.000,3353.7506,N,09832.0226,W,2,06,2.1,288.2,M,-23.7,M,1.8,0000*44
$GPGSA,A,3,20,23,16,30,32,31,,,,,,,5.2,2.1,4.7*31
$GPRMC,220712.000,A,3353.7506,N,09832.0226,W,0.67,125.21,290312,,,D*76
$GPGGA,220713.000,3353.7504,N,09832.0224,W,2,06,2.1,288.6,M,-23.7,M,2.8,0000*42
$GPGSA,A,3,20,23,16,30,32,31,,,,,,,5.2,2.1,4.7*31
$GPGSV,3,1,12,30,67,075,37,16,64,152,38,32,61,203,39,20,56,261,32*7C
$GPGSV,3,2,12,23,39,315,19,31,28,050,28,06,11,142,19,13,11,303,*73
$GPGSV,3,3,12,03,09,156,29,14,05,109,12,01,03,225,,29,01,046,*7D
$GPRMC,220713.000,A,3353.7504,N,09832.0224,W,0.31,113.69,290312,,,D*7D
$GPGGA,220714.000,3353.7506,N,09832.0225,W,2,06,2.1,289.0,M,-23.7,M,3.8,0000*40
$GPGSA,A,3,20,23,16,30,32,31,,,,,,,5.2,2.1,4.7*31
$GPRMC,220714.000,A,3353.7506,N,09832.0225,W,0.15,43.73,290312,,,D*40
$GPGGA,220715.000,3353.7506,N,09832.0225,W,2,06,2.1,289.4,M,-23.7,M,0.8,0000*46
$GPGSA,A,3,20,23,16,30,32,31,,,,,,,5.2,2.1,4.7*31
$GPRMC,220715.000,A,3353.7506,N,09832.0225,W,0.25,107.16,290312,,,D*70
$GPGGA,220716.000,3353.7502,N,09832.0221,W,2,06,2.1,289.6,M,-23.7,M,0.8,0000*47
$GPGSA,A,3,20,23,16,30,32,31,,,,,,,5.2,2.1,4.7*31
$GPRMC,220716.000,A,3353.7502,N,09832.0221,W,0.38,121.53,290312,,,D*7A
$GPGGA,220717.000,3353.7498,N,09832.0218,W,2,06,2.1,289.7,M,-23.7,M,0.8,0000*4F
$GPGSA,A,3,20,23,16,30,32,31,,,,,,,5.2,2.1,4.7*31
$GPRMC,220717.000,A,3353.7498,N,09832.0218,W,0.09,33.11,290312,,,D*45
$GPGGA,220718.000,3353.7499,N,09832.0219,W,2,06,2.1,290.1,M,-23.7,M,1.8,0000*4F
$GPGSA,A,3,20,23,16,30,32,31,,,,,,,5.2,2.1,4.7*31
$GPGSV,3,1,12,30,67,075,38,16,64,152,38,32,61,203,39,20,56,261,32*73
$GPGSV,3,2,12,23,39,315,20,31,28,050,29,06,11,142,18,13,11,303,*79
$GPGSV,3,3,12,03,09,156,29,14,05,109,12,01,03,225,,29,01,046,*7D
$GPRMC,220718.000,A,3353.7499,N,09832.0219,W,0.24,341.21,290312,,,D*70
$GPGGA,220719.000,3353.7500,N,09832.0220,W,2,06,2.1,290.4,M,-23.7,M,2.8,0000*43
$GPGSA,A,3,20,23,16,30,32,31,,,,,,,5.2,2.1,4.7*31
$GPRMC,220719.000,A,3353.7500,N,09832.0220,W,0.12,92.71,290312,,,D*47
$GPGGA,220720.000,3353.7499,N,09832.0218,W,2,06,2.1,290.6,M,-23.7,M,3.8,0000*40
$GPGSA,A,3,20,23,16,30,32,31,,,,,,,5.2,2.1,4.7*31
$GPRMC,220720.000,A,3353.7499,N,09832.0218,W,0.45,131.11,290312,,,D*7B
$GPGGA,220721.000,3353.7499,N,09832.0219,W,2,06,2.1,290.9,M,-23.7,M,0.8,0000*4C
$GPGSA,A,3,20,23,16,30,32,31,,,,,,,5.2,2.1,4.7*31
$GPRMC,220721.000,A,3353.7499,N,09832.0219,W,0.43,131.12,290312,,,D*7E
$GPGGA,220722.000,3353.7498,N,09832.0219,W,2,06,2.1,291.0,M,-23.7,M,0.8,0000*46
$GPGSA,A,3,20,23,16,30,32,31,,,,,,,5.2,2.1,4.7*31
$GPRMC,220722.000,A,3353.7498,N,09832.0219,W,0.08,83.41,290312,,,D*4D
$GPGGA,220723.000,3353.7502,N,09832.0222,W,2,06,2.1,291.4,M,-23.7,M,0.8,0000*49
$GPGSA,A,3,20,23,16,30,32,31,,,,,,,5.2,2.1,4.7*31
$GPGSV,3,1,12,30,67,075,38,16,64,152,38,32,61,203,38,20,56,261,32*72
$GPGSV,3,2,12,23,39,315,21,31,28,050,29,06,11,142,18,13,11,303,*78
$GPGSV,3,3,12,03,09,156,29,14,05,109,,01,03,225,,29,01,046,*7E
$GPRMC,220723.000,A,3353.7502,N,09832.0222,W,0.09,1.10,290312,,,D*79
$GPGGA,220724.000,3353.7505,N,09832.0225,W,2,06,2.1,291.8,M,-23.7,M,0.8,0000*42
$GPGSA,A,3,20,23,16,30,32,31,,,,,,,5.2,2.1,4.7*31
$GPRMC,220724.000,A,3353.7505,N,09832.0225,W,0.11,96.23,290312,,,D*49
$GPGGA,220725.000,3353.7505,N,09832.0226,W,2,06,2.1,291.9,M,-23.7,M,0.8,0000*41
$GPGSA,A,3,20,23,16,30,32,31,,,,,,,5.2,2.1,4.7*31
$GPRMC,220725.000,A,3353.7505,N,09832.0226,W,0.28,124.75,290312,,,D*7A
$GPGGA,220726.000,3353.7507,N,09832.0228,W,2,06,2.1,292.2,M,-23.7,M,0.8,0000*46
$GPGSA,A,3,20,23,16,30,32,31,,,,,,,5.2,2.1,4.7*31
$GPRMC,220726.000,A,3353.7507,N,09832.0228,W,0.21,125.57,290312,,,D*7D
$GPGGA,220727.000,3353.7509,N,09832.0230,W,2,06,2.1,292.5,M,-23.7,M,0.8,0000*47
