$GPGGA,124250.000,3353.7450,N,09832.0201,W,1,04,3.4,310.6,M,-23.7,M,,0000*61
$GPGSA,A,3,05,26,29,15,,,,,,,,,7.0,3.4,6.2*38
$GPRMC,124250.000,A,3353.7450,N,09832.0201,W,0.66,264.03,020412,,,A*79
$GPGGA,124251.000,3353.7449,N,09832.0205,W,1,04,3.4,309.1,M,-23.7,M,,0000*63
$GPGSA,A,3,05,26,29,15,,,,,,,,,7.0,3.4,6.2*38
$GPGSV,3,1,10,29,79,227,28,15,48,150,43,26,44,081,32,21,37,305,*74
$GPGSV,3,2,10,18,35,245,24,05,28,047,33,25,13,212,,30,10,298,*7A
$GPGSV,3,3,10,02,08,097,18,16,03,323,*73
$GPRMC,124251.000,A,3353.7449,N,09832.0205,W,0.87,265.54,020412,,,A*78
$GPGGA,124252.000,3353.7448,N,09832.0207,W,1,05,2.0,308.0,M,-23.7,M,,0000*67
$GPGSA,A,3,25,05,26,29,15,,,,,,,,2.7,2.0,1.8*35
$GPRMC,124252.000,A,3353.7448,N,09832.0207,W,0.46,268.35,020412,,,A*7F
$GPGGA,124253.000,3353.7448,N,09832.0207,W,1,05,2.0,307.5,M,-23.7,M,,0000*6C
$GPGSA,A,3,25,05,26,29,15,,,,,,,,2.7,2.0,1.8*35
$GPRMC,124253.000,A,3353.7448,N,09832.0207,W,0.14,283.64,020412,,,A*78
$GPGGA,124254.000,3353.7448,N,09832.0207,W,1,05,2.0,307.4,M,-23.7,M,,0000*6A
$GPGSA,A,3,25,05,26,29,15,,,,,,,,2.7,2.0,1.8*35
$GPRMC,124254.000,A,3353.7448,N,09832.0207,W,0.26,276.43,020412,,,A*71
$GPGGA,124255.000,3353.7448,N,09832.0205,W,1,05,2.0,307.7,M,-23.7,M,,0000*6A
$GPGSA,A,3,25,05,26,29,15,,,,,,,,2.7,2.0,1.8*35
$GPRMC,124255.000,A,3353.7448,N,09832.0205,W,0.10,53.67,020412,,,A*44
$GPGGA,124256.000,3353.7448,N,09832.0205,W,1,05,2.0,308.0,M,-23.7,M,,0000*61
$GPGSA,A,3,25,05,26,29,15,,,,,,,,2.7,2.0,1.8*35
$GPGSV,3,1,10,29,79,227,28,15,48,150,43,26,44,081,32,21,37,305,22*74
$GPGSV,3,2,10,18,35,245,24,05,28,047,32,25,13,212,22,30,10,298,*7B
$GPGSV,3,3,10,02,08,097,15,16,03,323,*7E
$GPRMC,124256.000,A,3353.7448,N,09832.0205,W,0.10,318.26,020412,,,A*7E
$GPGGA,124257.000,3353.7448,N,09832.0205,W,1,05,2.0,308.5,M,-23.7,M,,0000*65
$GPGSA,A,3,25,05,26,29,15,,,,,,,,2.7,2.0,1.8*35
$GPRMC,124257.000,A,3353.7448,N,09832.0205,W,0.45,284.51,020412,,,A*7B
$GPGGA,124258.000,3353.7449,N,09832.0204,W,1,05,2.0,309.1,M,-23.7,M,,0000*6F
$GPGSA,A,3,25,05,26,29,15,,,,,,,,2.7,2.0,1.8*35
$GPRMC,124258.000,A,3353.7449,N,09832.0204,W,0.28,300.47,020412,,,A*75
$GPGGA,124259.000,3353.7449,N,09832.0202,W,1,05,2.0,309.8,M,-23.7,M,,0000*61
$GPGSA,A,3,25,05,26,29,15,,,,,,,,2.7,2.0,1.8*35
$GPRMC,124259.000,A,3353.7449,N,09832.0202,W,0.27,71.73,020412,,,A*4F
$GPGGA,124300.000,3353.7450,N,09832.0199,W,1,04,3.4,310.6,M,-23.7,M,,0000*67
$GPGSA,A,3,05,26,29,15,,,,,,,,,7.0,3.4,6.2*38
$GPRMC,124300.000,A,3353.7450,N,09832.0199,W,0.47,84.46,020412,,,A*41
$GPGGA,124301.000,3353.7450,N,09832.0196,W,1,04,3.4,311.3,M,-23.7,M,,0000*6D
$GPGSA,A,3,05,26,29,15,,,,,,,,,7.0,3.4,6.2*38
$GPGSV,3,1,10,29,79,227,27,15,48,150,43,26,44,081,32,21,37,305,23*7A
$GPGSV,3,2,10,18,35,245,22,05,28,047,32,25,13,212,17,30,10,298,*7B
$GPGSV,3,3,10,02,08,097,,16,03,323,*7A
$GPRMC,124301.000,A,3353.7450,N,09832.0196,W,0.62,90.92,020412,,,A*44
$GPGGA,124302.000,3353.7450,N,09832.0193,W,1,04,3.4,312.0,M,-23.7,M,,0000*6B
$GPGSA,A,3,05,26,29,15,,,,,,,,,7.0,3.4,6.2*38
$GPRMC,124302.000,A,3353.7450,N,09832.0193,W,0.73,89.61,020412,,,A*46
$GPGGA,124303.000,3353.7450,N,09832.0190,W,1,04,3.4,312.6,M,-23.7,M,,0000*6F
$GPGSA,A,3,05,26,29,15,,,,,,,,,7.0,3.4,6.2*38
$GPRMC,124303.000,A,3353.7450,N,09832.0190,W,0.70,90.29,020412,,,A*43
$GPGGA,124304.000,3353.7451,N,09832.0189,W,1,04,3.4,313.2,M,-23.7,M,,0000*64
$GPGSA,A,3,05,26,29,15,,,,,,,,,7.0,3.4,6.2*38
$GPRMC,124304.000,A,3353.7451,N,09832.0189,W,0.11,61.81,020412,,,A*46
$GPGGA,124305.000,3353.7451,N,09832.0189,W,1,04,3.4,313.5,M,-23.7,M,,0000*62
$GPGSA,A,3,05,26,29,15,,,,,,,,,7.0,3.4,6.2*38
$GPRMC,124305.000,A,3353.7451,N,09832.0189,W,0.20,291.97,020412,,,A*7F
$GPGGA,124306.000,3353.7452,N,09832.0192,W,1,04,3.4,313.7,M,-23.7,M,,0000*6A
$GPGSA,A,3,05,26,29,15,,,,,,,,,7.0,3.4,6.2*38
$GPGSV,3,1,10,29,79,227,22,15,48,150,43,26,44,081,33,21,37,305,24*79
$GPGSV,3,2,10,18,35,245,18,05,28,047,31,25,13,212,17,30,10,298,*71
$GPGSV,3,3,10,02,08,097,19,16,03,323,*72
$GPRMC,124306.000,A,3353.7452,N,09832.0192,W,0.87,288.56,020412,,,A*7D
$GPGGA,124307.000,3353.7453,N,09832.0196,W,1,04,3.4,314.1,M,-23.7,M,,0000*6F
$GPGSA,A,3,05,26,29,15,,,,,,,,,7.1,3.4,6.2*39
$GPRMC,124307.000,A,3353.7453,N,09832.0196,W,0.89,292.80,020412,,,A*77
$GPGGA,124308.000,3353.7454,N,09832.0198,W,1,04,3.4,314.4,M,-23.7,M,,0000*6C
$GPGSA,A,3,05,26,29,15,,,,,,,,,7.1,3.4,6.2*39
$GPRMC,124308.000,A,3353.7454,N,09832.0198,W,0.41,308.70,020412,,,A*78
$GPGGA,124309.000,3353.7455,N,09832.0199,W,1,05,2.0,314.9,M,-23.7,M,,0000*64
$GPGSA,A,3,25,05,26,29,15,,,,,,,,2.7,2.0,1.8*35
$GPRMC,124309.000,A,3353.7455,N,09832.0199,W,0.27,336.69,020412,,,A*7C
$GPGGA,124310.000,3353.7456,N,09832.0201,W,1,05,2.0,315.4,M,-23.7,M,,0000*61
$GPGSA,A,3,25,05,26,29,15,,,,,,,,2.7,2.0,1.8*35
$GPRMC,124310.000,A,3353.7456,N,09832.0201,W,0.47,301.01,020412,,,A*79
$GPGGA,124311.000,3353.7457,N,09832.0202,W,1,05,2.0,315.6,M,-23.7,M,,0000*60
$GPGSA,A,3,25,05,26,29,15,,,,,,,,2.7,2.0,1.8*35
$GPGSV,3,1,10,29,79,227,24,15,48,150,43,26,44,081,32,21,37,305,25*7F
$GPGSV,3,2,10,18,35,245,20,05,28,047,31,25,13,212,17,30,10,298,*7A
$GPGSV,3,3,10,02,08,097,21,16,03,323,*79
$GPRMC,124311.000,A,3353.7457,N,09832.0202,W,0.43,301.51,020412,,,A*7B
$GPGGA,124312.000,3353.7457,N,09832.0205,W,1,05,2.0,315.5,M,-23.7,M,,0000*67
$GPGSA,A,3,25,05,26,29,15,,,,,,,,2.7,2.0,1.8*35
$GPRMC,124312.000,A,3353.7457,N,09832.0205,W,0.74,288.56,020412,,,A*7C
$GPGGA,124313.000,3353.7457,N,09832.0206,W,1,05,2.0,315.2,M,-23.7,M,,0000*62
$GPGSA,A,3,25,05,26,29,15,,,,,,,,2.7,2.0,1.8*35
$GPRMC,124313.000,A,3353.7457,N,09832.0206,W,0.16,91.67,020412,,,A*42
$GPGGA,124314.000,3353.7457,N,09832.0206,W,1,05,2.0,314.8,M,-23.7,M,,0000*6E
$GPGSA,A,3,25,05,26,29,15,,,,,,,,2.7,2.0,1.8*35
$GPRMC,124314.000,A,3353.7457,N,09832.0206,W,0.27,108.06,020412,,,A*71
$GPGGA,124315.000,3353.7457,N,09832.0208,W,1,05,2.0,314.2,M,-23.7,M,,0000*6B
$GPGSA,A,3,25,05,26,29,15,,,,,,,,2.7,2.0,1.8*35
$GPRMC,124315.000,A,3353.7457,N,09832.0208,W,0.33,278.07,020412,,,A*7E
$GPGGA,124316.000,3353.7457,N,09832.0212,W,1,05,2.0,313.5,M,-23.7,M,,0000*63
$GPGSA,A,3,25,05,26,29,15,,,,,,,,2.7,2.0,1.8*35
$GPGSV,3,1,10,29,79,227,23,15,48,150,43,26,44,081,33,21,37,305,26*7A
$GPGSV,3,2,10,18,35,245,20,05,28,047,30,25,13,212,18,30,10,298,*74
$GPGSV,3,3,10,02,08,097,22,16,03,323,*7A
$GPRMC,124316.000,A,3353.7457,N,09832.0212,W,0.80,283.96,020412,,,A*72
$GPGGA,124317.000,3353.7457,N,09832.0215,W,1,05,2.0,312.8,M,-23.7,M,,0000*69
$GPGSA,A,3,25,05,26,29,15,,,,,,,,2.7,2.0,1.8*35
$GPRMC,124317.000,A,3353.7457,N,09832.0215,W,0.80,289.74,020412,,,A*72
$GPGGA,124318.000,3353.7458,N,09832.0218,W,1,05,2.0,312.1,M,-23.7,M,,0000*6D
$GPGSA,A,3,25,05,26,29,15,,,,,,,,2.7,2.0,1.8*35
$GPRMC,124318.000,A,3353.7458,N,09832.0218,W,0.74,287.00,020412,,,A*79
$GPGGA,124319.000,3353.7458,N,09832.0219,W,1,04,2.5,311.7,M,-23.7,M,,0000*6C
$GPGSA,A,3,25,05,26,15,,,,,,,,,2.7,2.5,1.0*33
$GPRMC,124319.000,A,3353.7458,N,09832.0219,W,0.18,304.85,020412,,,A*74
$GPGGA,124320.000,3353.7458,N,09832.0220,W,1,04,2.5,311.3,M,-23.7,M,,0000*68
$GPGSA,A,3,25,05,26,15,,,,,,,,,2.7,2.5,1.0*33
$GPRMC,124320.000,A,3353.7458,N,09832.0220,W,0.13,327.02,020412,,,A*71
$GPGGA,124321.000,3353.7458,N,09832.0220,W,1,04,2.5,311.1,M,-23.7,M,,0000*6B
$GPGSA,A,3,25,05,26,15,,,,,,,,,2.7,2.5,1.0*33
$GPGSV,3,1,10,29,79,227,16,15,48,150,43,26,44,081,33,21,37,305,26*7C
$GPGSV,3,2,10,18,35,245,22,05,28,047,30,25,13,212,24,30,10,298,*79
$GPGSV,3,3,10,02,08,097,21,16,03,323,*79
$GPRMC,124321.000,A,3353.7458,N,09832.0220,W,0.27,83.16,020412,,,A*4F
$GPGGA,124322.000,3353.7458,N,09832.0221,W,1,04,2.5,310.9,M,-23.7,M,,0000*60
$GPGSA,A,3,25,05,26,15,,,,,,,,,2.7,2.5,1.0*33
$GPRMC,124322.000,A,3353.7458,N,09832.0221,W,0.29,299.39,020412,,,A*77
$GPGGA,124323.000,3353.7459,N,09832.0223,W,1,04,2.5,310.7,M,-23.7,M,,0000*6C
$GPGSA,A,3,25,05,26,15,,,,,,,,,2.7,2.5,1.0*33
$GPRMC,124323.000,A,3353.7459,N,09832.0223,W,0.45,301.28,020412,,,A*7F
$GPGGA,124324.000,3353.7459,N,09832.0226,W,1,04,2.5,310.6,M,-23.7,M,,0000*6F
$GPGSA,A,3,25,05,26,15,,,,,,,,,2.7,2.5,1.0*33
$GPRMC,124324.000,A,3353.7459,N,09832.0226,W,0.60,302.12,020412,,,A*70
$GPGGA,124325.000,3353.7461,N,09832.0231,W,1,05,2.0,310.9,M,-23.7,M,,0000*68
$GPGSA,A,3,25,05,26,29,15,,,,,,,,2.7,2.0,1.8*35
$GPRMC,124325.000,A,3353.7461,N,09832.0231,W,1.04,300.50,020412,,,A*7B
$GPGGA,124326.000,3353.7464,N,09832.0236,W,1,05,2.0,311.5,M,-23.7,M,,0000*64
$GPGSA,A,3,25,05,26,29,15,,,,,,,,2.7,2.0,1.8*35
$GPGSV,3,1,10,29,79,227,17,15,48,150,43,26,44,081,33,21,37,305,26*7D
$GPGSV,3,2,10,18,35,245,23,05,28,047,29,25,13,212,24,30,10,298,*70
$GPGSV,3,3,10,02,08,097,21,16,03,323,*79
$GPRMC,124326.000,A,3353.7464,N,09832.0236,W,1.18,300.94,020412,,,A*7F
$GPGGA,124327.000,3353.7465,N,09832.0238,W,1,05,2.0,311.7,M,-23.7,M,,0000*68
$GPGSA,A,3,25,05,26,29,15,,,,,,,,2.7,2.0,1.8*35
$GPRMC,124327.000,A,3353.7465,N,09832.0238,W,0.51,307.40,020412,,,A*73
$GPGGA,124328.000,3353.7464,N,09832.0237,W,1,05,2.0,311.7,M,-23.7,M,,0000*69
$GPGSA,A,3,25,05,26,29,15,,,,,,,,2.7,2.0,1.8*35
$GPRMC,124328.000,A,3353.7464,N,09832.0237,W,0.11,80.48,020412,,,A*42
$GPGGA,124329.000,3353.7464,N,09832.0236,W,1,04,2.5,311.6,M,-23.7,M,,0000*6C
$GPGSA,A,3,25,05,26,15,,,,,,,,,2.7,2.5,1.0*33
$GPRMC,124329.000,A,3353.7464,N,09832.0236,W,0.28,106.25,020412,,,A*7C
$GPGGA,124330.000,3353.7464,N,09832.0236,W,1,04,2.5,311.5,M,-23.7,M,,0000*67
$GPGSA,A,3,25,05,26,15,,,,,,,,,2.7,2.5,1.0*33
$GPRMC,124330.000,A,3353.7464,N,09832.0236,W,0.10,350.22,020412,,,A*79
$GPGGA,124331.000,3353.7464,N,09832.0236,W,1,04,2.5,311.5,M,-23.7,M,,0000*66
$GPGSA,A,3,25,05,26,15,,,,,,,,,2.7,2.5,1.0*33
$GPGSV,3,1,10,29,79,227,19,15,48,150,43,26,44,081,33,21,37,305,26*73
$GPGSV,3,2,10,18,35,245,22,05,28,047,28,25,13,212,25,30,10,298,*71
$GPGSV,3,3,10,02,08,097,20,16,03,323,*78
$GPRMC,124331.000,A,3353.7464,N,09832.0236,W,0.13,343.15,020412,,,A*7D
$GPGGA,124332.000,3353.7465,N,09832.0236,W,1,04,2.5,311.6,M,-23.7,M,,0000*67
$GPGSA,A,3,25,05,26,15,,,,,,,,,2.7,2.5,1.0*33
$GPRMC,124332.000,A,3353.7465,N,09832.0236,W,0.39,312.12,020412,,,A*74
$GPGGA,124333.000,3353.7466,N,09832.0237,W,1,04,2.5,311.8,M,-23.7,M,,0000*6A
$GPGSA,A,3,25,05,26,15,,,,,,,,,2.7,2.5,1.0*33
$GPRMC,124333.000,A,3353.7466,N,09832.0237,W,0.64,308.70,020412,,,A*70
$GPGGA,124334.000,3353.7466,N,09832.0237,W,1,05,2.0,311.8,M,-23.7,M,,0000*69
$GPGSA,A,3,25,05,26,29,15,,,,,,,,2.7,2.0,1.8*35
$GPRMC,124334.000,A,3353.7466,N,09832.0237,W,0.16,333.38,020412,,,A*76
$GPGGA,124335.000,3353.7466,N,09832.0235,W,1,05,2.0,311.7,M,-23.7,M,,0000*65
$GPGSA,A,3,25,05,26,29,15,,,,,,,,2.7,2.0,1.8*35
$GPRMC,124335.000,A,3353.7466,N,09832.0235,W,0.08,0.05,020412,,,A*77
$GPGGA,124336.000,3353.7465,N,09832.0233,W,1,05,2.0,311.5,M,-23.7,M,,0000*61
$GPGSA,A,3,25,05,26,29,15,,,,,,,,2.7,2.0,1.8*35
$GPGSV,3,1,10,29,79,227,19,15,48,150,43,26,44,081,33,21,37,305,27*72
$GPGSV,3,2,10,18,35,245,23,05,28,047,27,25,13,212,25,30,10,298,*7F
$GPGSV,3,3,10,02,08,097,20,16,03,323,*78
$GPRMC,124336.000,A,3353.7465,N,09832.0233,W,0.12,84.04,020412,,,A*47
$GPGGA,124337.000,3353.7465,N,09832.0230,W,1,04,2.5,311.2,M,-23.7,M,,0000*60
$GPGSA,A,3,25,05,26,15,,,,,,,,,2.7,2.5,1.0*33
$GPRMC,124337.000,A,3353.7465,N,09832.0230,W,0.32,114.22,020412,,,A*7B
$GPGGA,124338.000,3353.7463,N,09832.0225,W,1,05,2.0,310.6,M,-23.7,M,,0000*6C
$GPGSA,A,3,25,05,26,29,15,,,,,,,,2.7,2.0,1.8*35
$GPRMC,124338.000,A,3353.7463,N,09832.0225,W,0.62,112.96,020412,,,A*7A
$GPGGA,124339.000,3353.7462,N,09832.0222,W,1,05,2.0,310.0,M,-23.7,M,,0000*6D
$GPGSA,A,3,25,05,26,29,15,,,,,,,,2.7,2.0,1.8*35
$GPRMC,124339.000,A,3353.7462,N,09832.0222,W,0.24,114.11,020412,,,A*76
$GPGGA,124340.000,3353.7462,N,09832.0219,W,1,05,2.0,309.3,M,-23.7,M,,0000*60
$GPGSA,A,3,25,05,26,29,15,,,,,,,,2.7,2.0,1.8*35
$GPRMC,124340.000,A,3353.7462,N,09832.0219,W,0.15,86.48,020412,,,A*44
$GPGGA,124341.000,3353.7461,N,09832.0215,W,1,05,2.0,308.5,M,-23.7,M,,0000*69
$GPGSA,A,3,25,05,26,29,15,,,,,,,,2.7,2.0,1.8*35
$GPGSV,3,1,10,29,79,227,19,15,48,150,43,26,44,081,33,21,37,305,27*72
$GPGSV,3,2,10,18,35,245,25,05,28,047,26,25,13,212,25,30,10,298,14*7D
$GPGSV,3,3,10,02,08,097,20,16,03,323,*78
$GPRMC,124341.000,A,3353.7461,N,09832.0215,W,0.16,70.43,020412,,,A*4B
$GPGGA,124342.000,3353.7460,N,09832.0211,W,1,05,2.0,307.5,M,-23.7,M,,0000*60
$GPGSA,A,3,25,05,26,29,15,,,,,,,,2.7,2.0,1.8*35
$GPRMC,124342.000,A,3353.7460,N,09832.0211,W,0.20,88.85,020412,,,A*45
$GPGGA,124343.000,3353.7459,N,09832.0207,W,1,05,2.0,306.3,M,-23.7,M,,0000*6B
$GPGSA,A,3,25,05,26,29,15,,,,,,,,2.7,2.0,1.8*35
$GPRMC,124343.000,A,3353.7459,N,09832.0207,W,0.08,97.73,020412,,,A*44
$GPGGA,124344.000,3353.7459,N,09832.0203,W,1,05,2.0,305.2,M,-23.7,M,,0000*6A
$GPGSA,A,3,25,05,26,29,15,,,,,,,,2.7,2.0,1.8*35
$GPRMC,124344.000,A,3353.7459,N,09832.0203,W,0.18,87.56,020412,,,A*40
$GPGGA,124345.000,3353.7457,N,09832.0198,W,1,05,2.0,304.0,M,-23.7,M,,0000*67
$GPGSA,A,3,25,05,26,29,15,,,,,,,,2.7,2.0,1.8*35
$GPRMC,124345.000,A,3353.7457,N,09832.0198,W,0.61,104.02,020412,,,A*7B
$GPGGA,124346.000,3353.7455,N,09832.0191,W,1,05,2.0,302.7,M,-23.7,M,,0000*6E
$GPGSA,A,3,25,05,26,29,15,,,,,,,,2.7,2.0,1.8*35
$GPGSV,3,1,10,29,79,227,20,15,48,150,44,26,44,081,33,21,37,305,27*7F
$GPGSV,3,2,10,18,35,245,26,05,28,047,26,25,13,212,21,30,10,298,13*7D
$GPGSV,3,3,10,02,08,097,20,16,03,323,*78
$GPRMC,124346.000,A,3353.7455,N,09832.0191,W,1.01,111.62,020412,,,A*76
$GPGGA,124347.000,3353.7453,N,09832.0185,W,1,05,2.0,301.2,M,-23.7,M,,0000*6A
$GPGSA,A,3,25,05,26,29,15,,,,,,,,2.7,2.0,1.8*35
$GPRMC,124347.000,A,3353.7453,N,09832.0185,W,0.91,116.16,020412,,,A*78
$GPGGA,124348.000,3353.7451,N,09832.0181,W,1,05,2.0,299.7,M,-23.7,M,,0000*66
$GPGSA,A,3,25,05,26,29,15,,,,,,,,2.7,2.0,1.8*35
$GPRMC,124348.000,A,3353.7451,N,09832.0181,W,0.40,136.21,020412,,,A*7B
$GPGGA,124349.000,3353.7450,N,09832.0179,W,1,05,2.0,297.9,M,-23.7,M,,0000*61
$GPGSA,A,3,25,05,26,29,15,,,,,,,,2.7,2.0,1.8*35
$GPRMC,124349.000,A,3353.7450,N,09832.0179,W,0.29,232.39,020412,,,A*7D
$GPGGA,124350.000,3353.7448,N,09832.0176,W,1,05,2.0,296.1,M,-23.7,M,,0000*66
$GPGSA,A,3,25,05,26,29,15,,,,,,,,2.7,2.0,1.8*35
$GPRMC,124350.000,A,3353.7448,N,09832.0176,W,0.16,243.58,020412,,,A*7E
$GPGGA,124351.000,3353.7446,N,09832.0173,W,1,05,2.0,294.3,M,-23.7,M,,0000*6C
$GPGSA,A,3,25,05,26,29,15,,,,,,,,2.7,2.0,1.8*35
$GPGSV,3,1,10,29,79,227,21,15,48,150,44,26,44,081,33,21,37,305,27*7E
$GPGSV,3,2,10,18,35,245,25,05,28,047,27,25,13,212,21,30,10,298,12*7E
$GPGSV,3,3,10,02,08,097,20,16,03,323,*78
$GPRMC,124351.000,A,3353.7446,N,09832.0173,W,0.17,140.83,020412,,,A*73
$GPGGA,124352.000,3353.7445,N,09832.0169,W,1,05,2.0,292.6,M,-23.7,M,,0000*64
$GPGSA,A,3,25,05,26,29,15,,,,,,,,2.7,2.0,1.8*35
$GPRMC,124352.000,A,3353.7445,N,09832.0169,W,0.22,136.00,020412,,,A*74
$GPGGA,124353.000,3353.7443,N,09832.0166,W,1,05,2.0,291.1,M,-23.7,M,,0000*68
$GPGSA,A,3,25,05,26,29,15,,,,,,,,2.7,2.0,1.8*35
$GPRMC,124353.000,A,3353.7443,N,09832.0166,W,0.26,118.66,020412,,,A*74
$GPGGA,124354.000,3353.7442,N,09832.0166,W,1,04,3.4,289.9,M,-23.7,M,,0000*6B
$GPGSA,A,3,05,26,29,15,,,,,,,,,7.1,3.4,6.2*39
$GPRMC,124354.000,A,3353.7442,N,09832.0166,W,0.51,271.11,020412,,,A*7E
$GPGGA,124355.000,3353.7442,N,09832.0166,W,1,04,3.4,288.8,M,-23.7,M,,0000*6A
$GPGSA,A,3,05,26,29,15,,,,,,,,,7.1,3.4,6.2*39
$GPRMC,124355.000,A,3353.7442,N,09832.0166,W,0.41,265.06,020412,,,A*7D
$GPGGA,124356.000,3353.7441,N,09832.0167,W,1,04,3.4,287.9,M,-23.7,M,,0000*65
$GPGSA,A,3,05,26,29,15,,,,,,,,,7.1,3.4,6.2*39
$GPGSV,3,1,11,29,79,227,21,15,48,150,44,26,44,081,33,21,37,305,26*7E
$GPGSV,3,2,11,18,35,245,25,05,28,047,27,25,13,212,,30,10,298,12*7C
$GPGSV,3,3,11,02,08,097,21,16,03,323,,48,36,230,28*4A
$GPRMC,124356.000,A,3353.7441,N,09832.0167,W,0.53,269.16,020412,,,A*72
$GPGGA,124357.000,3353.7441,N,09832.0169,W,1,04,3.4,287.0,M,-23.7,M,,0000*63
$GPGSA,A,3,05,26,29,15,,,,,,,,,7.1,3.4,6.2*39
$GPRMC,124357.000,A,3353.7441,N,09832.0169,W,0.68,275.68,020412,,,A*71
$GPGGA,124358.000,3353.7441,N,09832.0172,W,1,04,3.4,286.2,M,-23.7,M,,0000*65
$GPGSA,A,3,05,26,29,15,,,,,,,,,7.1,3.4,6.2*39
$GPRMC,124358.000,A,3353.7441,N,09832.0172,W,0.84,281.57,020412,,,A*71
$GPGGA,124359.000,3353.7440,N,09832.0174,W,1,04,3.4,285.4,M,-23.7,M,,0000*66
$GPGSA,A,3,05,26,29,15,,,,,,,,,7.1,3.4,6.2*39
$GPRMC,124359.000,A,3353.7440,N,09832.0174,W,0.36,263.60,020412,,,A*76
$GPGGA,124400.000,3353.7441,N,09832.0178,W,1,04,3.4,284.9,M,-23.7,M,,0000*6C
$GPGSA,A,3,05,26,29,15,,,,,,,,,7.1,3.4,6.2*39
$GPRMC,124400.000,A,3353.7441,N,09832.0178,W,1.25,285.02,020412,,,A*7F
$GPGGA,124401.000,3353.7441,N,09832.0182,W,1,04,3.4,284.3,M,-23.7,M,,0000*62
$GPGSA,A,3,05,26,29,15,,,,,,,,,7.1,3.4,6.2*39
$GPGSV,3,1,11,29,79,227,21,15,48,150,44,26,44,081,32,21,37,305,25*7C
$GPGSV,3,2,11,18,35,245,25,05,28,047,28,25,13,212,,30,10,298,11*70
$GPGSV,3,3,11,02,08,097,21,16,03,323,,48,36,230,27*45
$GPRMC,124401.000,A,3353.7441,N,09832.0182,W,0.88,284.13,020412,,,A*7C
$GPGGA,124402.000,3353.7441,N,09832.0184,W,1,05,2.0,284.0,M,-23.7,M,,0000*60
$GPGSA,A,3,05,26,29,15,25,,,,,,,,2.7,2.0,1.8*35
$GPRMC,124402.000,A,3353.7441,N,09832.0184,W,0.20,289.27,020412,,,A*71
$GPGGA,124403.000,3353.7442,N,09832.0186,W,1,05,2.0,283.9,M,-23.7,M,,0000*6E
$GPGSA,A,3,05,26,29,15,25,,,,,,,,2.7,2.0,1.8*35
$GPRMC,124403.000,A,3353.7442,N,09832.0186,W,0.33,289.63,020412,,,A*73
$GPGGA,124404.000,3353.7442,N,09832.0187,W,1,05,2.0,284.3,M,-23.7,M,,0000*65
$GPGSA,A,3,05,26,29,15,25,,,,,,,,2.7,2.0,1.8*35
$GPRMC,124404.000,A,3353.7442,N,09832.0187,W,0.25,88.90,020412,,,A*4D
$GPGGA,124405.000,3353.7442,N,09832.0187,W,1,05,2.0,285.0,M,-23.7,M,,0000*66
$GPGSA,A,3,05,26,29,15,25,,,,,,,,2.7,2.0,1.8*35
$GPRMC,124405.000,A,3353.7442,N,09832.0187,W,0.25,76.04,020412,,,A*40
$GPGGA,124406.000,3353.7443,N,09832.0189,W,1,05,2.0,286.0,M,-23.7,M,,0000*69
$GPGSA,A,3,05,26,29,15,25,,,,,,,,2.7,2.0,1.8*35
$GPGSV,3,1,11,29,79,227,21,15,48,150,44,26,44,081,32,21,37,305,25*7C
$GPGSV,3,2,11,18,35,245,24,05,28,047,28,25,13,212,20,30,10,298,*73
$GPGSV,3,3,11,02,08,097,23,16,03,323,,48,36,230,28*48
$GPRMC,124406.000,A,3353.7443,N,09832.0189,W,0.70,301.66,020412,,,A*7B
$GPGGA,124407.000,3353.7445,N,09832.0192,W,1,05,2.0,287.0,M,-23.7,M,,0000*65
$GPGSA,A,3,05,26,29,15,25,,,,,,,,2.7,2.0,1.8*35
$GPRMC,124407.000,A,3353.7445,N,09832.0192,W,0.78,290.23,020412,,,A*76
$GPGGA,124408.000,3353.7446,N,09832.0195,W,1,05,2.0,287.9,M,-23.7,M,,0000*67
$GPGSA,A,3,05,26,29,15,25,,,,,,,,2.7,2.0,1.8*35
$GPRMC,124408.000,A,3353.7446,N,09832.0195,W,0.76,293.24,020412,,,A*77
$GPGGA,124409.000,3353.7447,N,09832.0199,W,1,05,2.0,288.9,M,-23.7,M,,0000*64
$GPGSA,A,3,05,26,29,15,25,,,,,,,,2.7,2.0,1.8*35
$GPRMC,124409.000,A,3353.7447,N,09832.0199,W,0.90,293.84,020412,,,A*79
$GPGGA,124410.000,3353.7449,N,09832.0203,W,1,05,2.0,290.1,M,-23.7,M,,0000*63
$GPGSA,A,3,05,26,29,15,25,,,,,,,,2.7,2.0,1.8*35
$GPRMC,124410.000,A,3353.7449,N,09832.0203,W,1.07,297.68,020412,,,A*76
$GPGGA,124411.000,3353.7451,N,09832.0208,W,1,05,2.0,291.4,M,-23.7,M,,0000*64
$GPGSA,A,3,05,26,29,15,25,,,,,,,,2.7,2.0,1.8*35
$GPGSV,3,1,11,29,79,227,22,15,48,150,44,26,44,081,33,21,37,305,24*7F
$GPGSV,3,2,11,18,35,245,24,05,28,047,28,25,13,212,19,30,10,298,*79
$GPGSV,3,3,11,02,08,097,24,16,03,323,,48,36,230,27*40
$GPRMC,124411.000,A,3353.7451,N,09832.0208,W,1.07,296.35,020412,,,A*7C
$GPGGA,124412.000,3353.7453,N,09832.0212,W,1,05,2.0,292.9,M,-23.7,M,,0000*60
$GPGSA,A,3,05,26,29,15,25,,,,,,,,2.7,2.0,1.8*35
$GPRMC,124412.000,A,3353.7453,N,09832.0212,W,0.68,314.55,020412,,,A*73
$GPGGA,124413.000,3353.7455,N,09832.0215,W,1,05,2.0,294.3,M,-23.7,M,,0000*6C
$GPGSA,A,3,05,26,29,15,25,,,,,,,,2.7,2.0,1.8*35
$GPRMC,124413.000,A,3353.7455,N,09832.0215,W,0.35,352.78,020412,,,A*76
$GPGGA,124414.000,3353.7456,N,09832.0215,W,1,05,2.0,295.7,M,-23.7,M,,0000*6D
$GPGSA,A,3,05,26,29,15,25,,,,,,,,2.7,2.0,1.8*35
$GPRMC,124414.000,A,3353.7456,N,09832.0215,W,0.67,81.77,020412,,,A*47
$GPGGA,124415.000,3353.7457,N,09832.0218,W,1,05,2.0,297.0,M,-23.7,M,,0000*65
$GPGSA,A,3,05,26,29,15,25,,,,,,,,2.7,2.0,1.8*35
$GPRMC,124415.000,A,3353.7457,N,09832.0218,W,0.27,84.44,020412,,,A*4B
$GPGGA,124416.000,3353.7458,N,09832.0222,W,1,05,2.0,298.2,M,-23.7,M,,0000*6D
$GPGSA,A,3,05,26,29,15,25,,,,,,,,2.7,2.0,1.8*35
$GPGSV,3,1,11,29,79,227,22,15,48,150,44,26,44,081,32,21,37,305,24*7E
$GPGSV,3,2,11,18,35,245,23,05,28,047,28,25,13,212,18,30,10,298,*7F
$GPGSV,3,3,11,02,08,097,24,16,03,323,,48,36,230,26*41
$GPRMC,124416.000,A,3353.7458,N,09832.0222,W,0.12,355.30,020412,,,A*74
$GPGGA,124417.000,3353.7460,N,09832.0226,W,1,05,2.0,299.4,M,-23.7,M,,0000*64
$GPGSA,A,3,05,26,29,15,25,,,,,,,,2.7,2.0,1.8*35
$GPRMC,124417.000,A,3353.7460,N,09832.0226,W,0.19,51.22,020412,,,A*45
$GPGGA,124418.000,3353.7461,N,09832.0230,W,1,05,2.0,300.6,M,-23.7,M,,0000*6E
$GPGSA,A,3,05,26,29,15,25,,,,,,,,2.7,2.0,1.8*35
$GPRMC,124418.000,A,3353.7461,N,09832.0230,W,0.17,21.81,020412,,,A*4C
$GPGGA,124419.000,3353.7464,N,09832.0237,W,1,05,2.0,301.9,M,-23.7,M,,0000*63
$GPGSA,A,3,05,26,29,15,25,,,,,,,,2.7,2.0,1.8*35
$GPRMC,124419.000,A,3353.7464,N,09832.0237,W,0.72,306.93,020412,,,A*79
$GPGGA,124420.000,3353.7467,N,09832.0245,W,1,05,2.0,303.3,M,-23.7,M,,0000*67
$GPGSA,A,3,05,26,29,15,25,,,,,,,,2.7,2.0,1.8*35
$GPRMC,124420.000,A,3353.7467,N,09832.0245,W,1.13,299.50,020412,,,A*7B
$GPGGA,124421.000,3353.7470,N,09832.0253,W,1,05,2.0,304.7,M,-23.7,M,,0000*64
$GPGSA,A,3,05,26,29,15,25,,,,,,,,2.7,2.0,1.8*35
$GPGSV,3,1,10,29,79,227,23,15,48,150,44,26,44,081,33,21,37,305,24*7F
$GPGSV,3,2,10,18,35,245,21,05,28,047,27,25,13,212,18,30,10,298,*73
$GPGSV,3,3,10,02,08,097,24,16,03,323,*7C
$GPRMC,124421.000,A,3353.7470,N,09832.0253,W,1.13,302.27,020412,,,A*78
$GPGGA,124422.000,3353.7473,N,09832.0261,W,1,05,2.0,306.3,M,-23.7,M,,0000*63
$GPGSA,A,3,05,26,29,15,25,,,,,,,,2.7,2.0,1.8*35
$GPRMC,124422.000,A,3353.7473,N,09832.0261,W,1.23,299.10,020412,,,A*7D
$GPGGA,124423.000,3353.7475,N,09832.0268,W,1,05,2.0,307.8,M,-23.7,M,,0000*67
$GPGSA,A,3,05,26,29,15,25,,,,,,,,2.7,2.0,1.8*35
$GPRMC,124423.000,A,3353.7475,N,09832.0268,W,0.88,307.91,020412,,,A*7C
$GPGGA,124424.000,3353.7479,N,09832.0276,W,1,05,2.0,309.6,M,-23.7,M,,0000*63
$GPGSA,A,3,05,26,29,15,25,,,,,,,,2.7,2.0,1.8*35
$GPRMC,124424.000,A,3353.7479,N,09832.0276,W,1.41,308.01,020412,,,A*7A
$GPGGA,124425.000,3353.7482,N,09832.0282,W,1,05,2.0,311.3,M,-23.7,M,,0000*61
$GPGSA,A,3,05,26,29,15,25,,,,,,,,2.7,2.0,1.8*35
$GPRMC,124425.000,A,3353.7482,N,09832.0282,W,1.15,304.34,020412,,,A*7F
$GPGGA,124426.000,3353.7485,N,09832.0287,W,1,05,2.0,312.8,M,-23.7,M,,0000*68
$GPGSA,A,3,05,26,29,15,25,,,,,,,,2.7,2.0,1.8*35
$GPGSV,3,1,10,29,79,227,24,15,48,150,44,26,44,081,33,21,37,305,24*78
$GPGSV,3,2,10,18,35,245,13,05,28,047,28,25,13,212,19,30,10,298,*7C
$GPGSV,3,3,10,02,08,097,20,16,03,323,*78
$GPRMC,124426.000,A,3353.7485,N,09832.0287,W,1.06,302.27,020412,,,A*78
$GPGGA,124427.000,3353.7487,N,09832.0290,W,1,05,2.0,314.3,M,-23.7,M,,0000*60
$GPGSA,A,3,05,26,29,15,25,,,,,,,,2.7,2.0,1.8*35
$GPRMC,124427.000,A,3353.7487,N,09832.0290,W,0.54,343.21,020412,,,A*78
$GPGGA,124428.000,3353.7489,N,09832.0289,W,1,05,2.0,315.7,M,-23.7,M,,0000*6C
$GPGSA,A,3,05,26,29,15,25,,,,,,,,2.7,2.0,1.8*35
$GPRMC,124428.000,A,3353.7489,N,09832.0289,W,0.75,75.87,020412,,,A*48
$GPGGA,124429.000,3353.7489,N,09832.0287,W,1,05,2.0,317.0,M,-23.7,M,,0000*66
$GPGSA,A,3,05,26,29,15,25,,,,,,,,2.7,2.0,1.8*35
$GPRMC,124429.000,A,3353.7489,N,09832.0287,W,1.09,86.54,020412,,,A*4F
$GPGGA,124430.000,3353.7490,N,09832.0284,W,1,04,3.4,318.1,M,-23.7,M,,0000*6F
$GPGSA,A,3,05,26,29,15,,,,,,,,,7.1,3.4,6.2*39
$GPRMC,124430.000,A,3353.7490,N,09832.0284,W,0.92,88.44,020412,,,A*40
$GPGGA,124431.000,3353.7490,N,09832.0282,W,1,04,3.4,319.1,M,-23.7,M,,0000*69
$GPGSA,A,3,05,26,29,15,,,,,,,,,7.1,3.4,6.2*39
$GPGSV,3,1,10,29,79,227,25,15,48,150,45,26,44,081,33,21,37,305,25*79
$GPGSV,3,2,10,18,35,245,16,05,28,047,28,25,13,212,,30,10,298,*71
$GPGSV,3,3,10,02,08,097,21,16,03,323,*79
$GPRMC,124431.000,A,3353.7490,N,09832.0282,W,0.75,87.66,020412,,,A*41
$GPGGA,124432.000,3353.7490,N,09832.0281,W,1,04,3.4,319.9,M,-23.7,M,,0000*61
$GPGSA,A,3,05,26,29,15,,,,,,,,,7.1,3.4,6.2*39
$GPRMC,124432.000,A,3353.7490,N,09832.0281,W,0.66,87.00,020412,,,A*43
$GPGGA,124433.000,3353.7491,N,09832.0279,W,1,04,3.4,320.7,M,-23.7,M,,0000*62
$GPGSA,A,3,05,26,29,15,,,,,,,,,7.1,3.4,6.2*39
$GPRMC,124433.000,A,3353.7491,N,09832.0279,W,0.54,81.95,020412,,,A*4F
$GPGGA,124434.000,3353.7491,N,09832.0278,W,1,04,3.4,321.3,M,-23.7,M,,0000*61
$GPGSA,A,3,05,26,29,15,,,,,,,,,7.1,3.4,6.2*39
$GPRMC,124434.000,A,3353.7491,N,09832.0278,W,0.46,80.24,020412,,,A*41
$GPGGA,124435.000,3353.7491,N,09832.0277,W,1,04,3.4,321.8,M,-23.7,M,,0000*64
$GPGSA,A,3,05,26,29,15,,,,,,,,,7.1,3.4,6.2*39
$GPRMC,124435.000,A,3353.7491,N,09832.0277,W,0.36,73.35,020412,,,A*44
$GPGGA,124436.000,3353.7491,N,09832.0276,W,1,04,3.4,322.2,M,-23.7,M,,0000*6F
$GPGSA,A,3,05,26,29,15,,,,,,,,,7.1,3.4,6.2*39
$GPGSV,3,1,10,29,79,227,26,15,48,150,45,26,44,081,34,21,37,305,25*7D
$GPGSV,3,2,10,18,35,245,15,05,28,047,28,25,13,212,,30,10,298,*72
$GPGSV,3,3,10,02,08,097,22,16,03,323,*7A
$GPRMC,124436.000,A,3353.7491,N,09832.0276,W,0.31,72.03,020412,,,A*45
$GPGGA,124437.000,3353.7491,N,09832.0276,W,1,04,3.4,322.6,M,-23.7,M,,0000*6A
$GPGSA,A,3,05,26,29,15,,,,,,,,,7.1,3.4,6.2*39
$GPRMC,124437.000,A,3353.7491,N,09832.0276,W,0.28,73.46,020412,,,A*4C
$GPGGA,124438.000,3353.7491,N,09832.0276,W,1,04,3.4,322.9,M,-23.7,M,,0000*6A
$GPGSA,A,3,05,26,29,15,,,,,,,,,7.1,3.4,6.2*39
$GPRMC,124438.000,A,3353.7491,N,09832.0276,W,0.25,69.75,020412,,,A*45
$GPGGA,124439.000,3353.7491,N,09832.0276,W,1,04,3.4,323.0,M,-23.7,M,,0000*63
$GPGSA,A,3,05,26,29,15,,,,,,,,,7.1,3.4,6.2*39
$GPRMC,124439.000,A,3353.7491,N,09832.0276,W,0.21,62.17,020412,,,A*4F
$GPGGA,124440.000,3353.7491,N,09832.0276,W,1,04,3.4,323.1,M,-23.7,M,,0000*6C
$GPGSA,A,3,05,26,29,15,,,,,,,,,7.1,3.4,6.2*39
$GPRMC,124440.000,A,3353.7491,N,09832.0276,W,0.20,68.46,020412,,,A*4E
$GPGGA,124441.000,3353.7491,N,09832.0276,W,1,04,3.4,323.1,M,-23.7,M,,0000*6D
$GPGSA,A,3,05,26,29,15,,,,,,,,,7.1,3.4,6.2*39
$GPGSV,3,1,10,29,79,227,27,15,48,150,45,26,44,081,34,21,37,305,25*7C
$GPGSV,3,2,10,18,35,245,13,05,28,047,28,25,13,212,,30,10,298,*74
$GPGSV,3,3,10,02,08,097,23,16,03,323,*7B
$GPRMC,124441.000,A,3353.7491,N,09832.0276,W,0.15,68.82,020412,,,A*41
$GPGGA,124442.000,3353.7491,N,09832.0276,W,1,04,3.4,323.0,M,-23.7,M,,0000*6F
$GPGSA,A,3,05,26,29,15,,,,,,,,,7.1,3.4,6.2*39
$GPRMC,124442.000,A,3353.7491,N,09832.0276,W,0.13,49.19,020412,,,A*45
$GPGGA,124443.000,3353.7491,N,09832.0277,W,1,05,2.0,322.9,M,-23.7,M,,0000*63
$GPGSA,A,3,25,05,26,29,15,,,,,,,,2.7,2.0,1.8*35
$GPRMC,124443.000,A,3353.7491,N,09832.0277,W,0.22,292.26,020412,,,A*7F
$GPGGA,124444.000,3353.7491,N,09832.0277,W,1,05,2.0,323.3,M,-23.7,M,,0000*6F
$GPGSA,A,3,25,05,26,29,15,,,,,,,,2.7,2.0,1.8*35
$GPRMC,124444.000,A,3353.7491,N,09832.0277,W,0.29,301.42,020412,,,A*7A
$GPGGA,124445.000,3353.7491,N,09832.0277,W,1,05,2.0,323.6,M,-23.7,M,,0000*6B
$GPGSA,A,3,25,05,26,29,15,,,,,,,,2.7,2.0,1.8*35
$GPRMC,124445.000,A,3353.7491,N,09832.0277,W,0.35,295.99,020412,,,A*7C
$GPGGA,124446.000,3353.7491,N,09832.0277,W,1,05,2.0,323.9,M,-23.7,M,,0000*67
$GPGSA,A,3,25,05,26,29,15,,,,,,,,2.7,2.0,1.8*35
$GPGSV,3,1,10,29,79,227,28,15,48,150,45,26,44,081,34,21,37,305,24*72
$GPGSV,3,2,10,18,35,245,14,05,28,047,28,25,13,212,20,30,10,298,*71
$GPGSV,3,3,10,02,08,097,25,16,03,323,*7D
$GPRMC,124446.000,A,3353.7491,N,09832.0277,W,0.47,292.48,020412,,,A*71
$GPGGA,124447.000,3353.7491,N,09832.0276,W,1,05,2.0,324.4,M,-23.7,M,,0000*6D
$GPGSA,A,3,25,05,26,29,15,,,,,,,,2.7,2.0,1.8*35
$GPRMC,124447.000,A,3353.7491,N,09832.0276,W,0.24,320.45,020412,,,A*71
$GPGGA,124448.000,3353.7492,N,09832.0273,W,1,05,2.0,325.1,M,-23.7,M,,0000*60
$GPGSA,A,3,25,05,26,29,15,,,,,,,,2.7,2.0,1.8*35
$GPRMC,124448.000,A,3353.7492,N,09832.0273,W,0.34,66.01,020412,,,A*48
$GPGGA,124449.000,3353.7492,N,09832.0270,W,1,05,2.0,325.7,M,-23.7,M,,0000*64
$GPGSA,A,3,25,05,26,29,15,,,,,,,,2.7,2.0,1.8*35
$GPRMC,124449.000,A,3353.7492,N,09832.0270,W,0.17,58.31,020412,,,A*45
$GPGGA,124450.000,3353.7492,N,09832.0269,W,1,05,2.0,326.3,M,-23.7,M,,0000*63
$GPGSA,A,3,25,05,26,29,15,,,,,,,,2.7,2.0,1.8*35
$GPRMC,124450.000,A,3353.7492,N,09832.0269,W,0.14,347.08,020412,,,A*71
$GPGGA,124451.000,3353.7492,N,09832.0268,W,1,05,2.0,326.8,M,-23.7,M,,0000*68
$GPGSA,A,3,25,05,26,29,15,,,,,,,,2.7,2.0,1.8*35
$GPGSV,3,1,10,29,79,227,28,15,48,150,45,26,44,081,34,21,37,305,19*7C
$GPGSV,3,2,10,18,35,245,15,05,28,047,28,25,13,212,20,30,10,298,*70
$GPGSV,3,3,10,02,08,097,26,16,03,323,*7E
$GPRMC,124451.000,A,3353.7492,N,09832.0268,W,0.31,294.49,020412,,,A*7C
$GPGGA,124452.000,3353.7492,N,09832.0266,W,1,05,2.0,327.2,M,-23.7,M,,0000*6E
$GPGSA,A,3,25,05,26,29,15,,,,,,,,2.7,2.0,1.8*35
$GPRMC,124452.000,A,3353.7492,N,09832.0266,W,0.18,44.58,020412,,,A*45
$GPGGA,124453.000,3353.7492,N,09832.0264,W,1,05,2.0,327.6,M,-23.7,M,,0000*69
$GPGSA,A,3,25,05,26,29,15,,,,,,,,2.7,2.0,1.8*35
$GPRMC,124453.000,A,3353.7492,N,09832.0264,W,0.19,62.67,020412,,,A*4F
$GPGGA,124454.000,3353.7492,N,09832.0263,W,1,05,2.0,327.8,M,-23.7,M,,0000*67
$GPGSA,A,3,25,05,26,29,15,,,,,,,,2.7,2.0,1.8*35
$GPRMC,124454.000,A,3353.7492,N,09832.0263,W,0.22,294.64,020412,,,A*7F
$GPGGA,124455.000,3353.7492,N,09832.0263,W,1,05,2.0,327.9,M,-23.7,M,,0000*67
$GPGSA,A,3,25,05,26,29,15,,,,,,,,2.7,2.0,1.8*35
$GPRMC,124455.000,A,3353.7492,N,09832.0263,W,0.30,289.82,020412,,,A*79
$GPGGA,124456.000,3353.7492,N,09832.0263,W,1,05,2.0,328.0,M,-23.7,M,,0000*62
$GPGSA,A,3,25,05,26,29,15,,,,,,,,2.7,2.0,1.8*35
$GPGSV,3,1,10,29,79,227,28,15,48,150,45,26,44,081,34,21,37,305,19*7C
$GPGSV,3,2,10,18,35,245,16,05,28,047,27,25,13,212,21,30,10,298,*7D
$GPGSV,3,3,10,02,08,097,27,16,03,323,*7F
$GPRMC,124456.000,A,3353.7492,N,09832.0263,W,0.44,286.43,020412,,,A*7B
$GPGGA,124457.000,3353.7492,N,09832.0264,W,1,05,2.0,328.0,M,-23.7,M,,0000*64
$GPGSA,A,3,25,05,26,29,15,,,,,,,,2.7,2.0,1.8*35
$GPRMC,124457.000,A,3353.7492,N,09832.0264,W,0.55,282.03,020412,,,A*7D
$GPGGA,124458.000,3353.7492,N,09832.0264,W,1,05,2.0,327.9,M,-23.7,M,,0000*6D
$GPGSA,A,3,25,05,26,29,15,,,,,,,,2.7,2.0,1.8*35
$GPRMC,124458.000,A,3353.7492,N,09832.0264,W,0.57,281.08,020412,,,A*78
$GPGGA,124459.000,3353.7492,N,09832.0264,W,1,05,2.0,327.9,M,-23.7,M,,0000*6C
$GPGSA,A,3,25,05,26,29,15,,,,,,,,2.7,2.0,1.8*35
$GPRMC,124459.000,A,3353.7492,N,09832.0264,W,0.20,306.10,020412,,,A*7E
$GPGGA,124500.000,3353.7492,N,09832.0262,W,1,05,2.0,327.8,M,-23.7,M,,0000*66
$GPGSA,A,3,25,05,26,29,15,,,,,,,,2.7,2.0,1.8*35
$GPRMC,124500.000,A,3353.7492,N,09832.0262,W,0.17,56.66,020412,,,A*46
$GPGGA,124501.000,3353.7492,N,09832.0262,W,1,05,2.0,327.9,M,-23.7,M,,0000*66
$GPGSA,A,3,25,05,26,29,15,,,,,,,,2.7,2.0,1.8*35
$GPGSV,3,1,10,29,79,227,29,15,48,150,45,26,44,081,34,21,37,305,18*7C
$GPGSV,3,2,10,18,35,245,16,05,28,047,27,25,13,212,19,30,10,298,*76
$GPGSV,3,3,10,02,08,097,27,16,03,323,*7F
$GPRMC,124501.000,A,3353.7492,N,09832.0262,W,0.19,289.54,020412,,,A*78
$GPGGA,124502.000,3353.7492,N,09832.0260,W,1,05,2.0,328.0,M,-23.7,M,,0000*61
$GPGSA,A,3,25,05,26,29,15,,,,,,,,2.7,2.0,1.8*35
$GPRMC,124502.000,A,3353.7492,N,09832.0260,W,0.20,63.29,020412,,,A*4F
$GPGGA,124503.000,3353.7492,N,09832.0258,W,1,05,2.0,328.3,M,-23.7,M,,0000*68
$GPGSA,A,3,25,05,26,29,15,,,,,,,,2.7,2.0,1.8*35
$GPRMC,124503.000,A,3353.7492,N,09832.0258,W,0.14,57.49,020412,,,A*43
$GPGGA,124504.000,3353.7492,N,09832.0257,W,1,05,2.0,328.5,M,-23.7,M,,0000*66
$GPGSA,A,3,25,05,26,29,15,,,,,,,,2.7,2.0,1.8*35
$GPRMC,124504.000,A,3353.7492,N,09832.0257,W,0.20,294.44,020412,,,A*7C
$GPGGA,124505.000,3353.7492,N,09832.0255,W,1,05,2.0,328.9,M,-23.7,M,,0000*69
$GPGSA,A,3,25,05,26,29,15,,,,,,,,2.7,2.0,1.8*35
$GPRMC,124505.000,A,3353.7492,N,09832.0255,W,0.12,27.07,020412,,,A*43
$GPGGA,124506.000,3353.7492,N,09832.0253,W,1,05,2.0,329.3,M,-23.7,M,,0000*67
$GPGSA,A,3,25,05,26,29,15,,,,,,,,2.7,2.0,1.8*35
$GPGSV,3,1,10,29,79,227,29,15,48,150,44,26,44,081,34,21,37,305,18*7D
$GPGSV,3,2,10,18,35,245,18,05,28,047,27,25,13,212,21,30,10,298,*73
$GPGSV,3,3,10,02,08,097,27,16,03,323,*7F
$GPRMC,124506.000,A,3353.7492,N,09832.0253,W,0.33,71.90,020412,,,A*48
$GPGGA,124507.000,3353.7492,N,09832.0251,W,1,05,2.0,329.8,M,-23.7,M,,0000*6F
$GPGSA,A,3,25,05,26,29,15,,,,,,,,2.7,2.0,1.8*35
$GPRMC,124507.000,A,3353.7492,N,09832.0251,W,0.24,66.46,020412,,,A*40
$GPGGA,124508.000,3353.7492,N,09832.0248,W,1,05,2.0,330.4,M,-23.7,M,,0000*6C
$GPGSA,A,3,25,05,26,29,15,,,,,,,,2.7,2.0,1.8*35
$GPRMC,124508.000,A,3353.7492,N,09832.0248,W,0.20,57.22,020412,,,A*43
$GPGGA,124509.000,3353.7493,N,09832.0245,W,1,05,2.0,331.1,M,-23.7,M,,0000*65
$GPGSA,A,3,25,05,26,29,15,,,,,,,,2.7,2.0,1.8*35
$GPRMC,124509.000,A,3353.7493,N,09832.0245,W,0.52,77.49,020412,,,A*44
$GPGGA,124510.000,3353.7493,N,09832.0242,W,1,05,2.0,331.9,M,-23.7,M,,0000*62
$GPGSA,A,3,25,05,26,29,15,,,,,,,,2.7,2.0,1.8*35
$GPRMC,124510.000,A,3353.7493,N,09832.0242,W,0.17,52.86,020412,,,A*4E
$GPGGA,124511.000,3353.7493,N,09832.0240,W,1,05,2.0,332.8,M,-23.7,M,,0000*63
$GPGSA,A,3,25,05,26,29,15,,,,,,,,2.7,2.0,1.8*35
$GPGSV,3,1,10,29,79,227,29,15,48,150,44,26,44,081,34,21,37,305,16*73
$GPGSV,3,2,10,18,35,245,22,05,28,047,27,25,13,212,22,30,10,298,*79
$GPGSV,3,3,10,02,08,097,27,16,03,323,*7F
$GPRMC,124511.000,A,3353.7493,N,09832.0240,W,0.12,13.66,020412,,,A*43
$GPGGA,124512.000,3353.7494,N,09832.0239,W,1,05,2.0,333.6,M,-23.7,M,,0000*66
$GPGSA,A,3,25,05,26,29,15,,,,,,,,2.7,2.0,1.8*35
$GPRMC,124512.000,A,3353.7494,N,09832.0239,W,0.19,311.91,020412,,,A*7B
$GPGGA,124513.000,3353.7495,N,09832.0237,W,1,05,2.0,334.4,M,-23.7,M,,0000*6D
$GPGSA,A,3,25,05,26,29,15,,,,,,,,2.7,2.0,1.8*35
$GPRMC,124513.000,A,3353.7495,N,09832.0237,W,0.19,315.31,020412,,,A*7B
$GPGGA,124514.000,3353.7495,N,09832.0236,W,1,05,2.0,335.2,M,-23.7,M,,0000*6C
$GPGSA,A,3,25,05,26,29,15,,,,,,,,2.7,2.0,1.8*35
$GPRMC,124514.000,A,3353.7495,N,09832.0236,W,0.28,301.64,020412,,,A*7A
$GPGGA,124515.000,3353.7496,N,09832.0235,W,1,05,2.0,335.9,M,-23.7,M,,0000*66
$GPGSA,A,3,25,05,26,29,15,,,,,,,,2.7,2.0,1.8*35
$GPRMC,124515.000,A,3353.7496,N,09832.0235,W,0.26,307.65,020412,,,A*72
$GPGGA,124516.000,3353.7496,N,09832.0233,W,1,05,2.0,336.6,M,-23.7,M,,0000*6F
$GPGSA,A,3,25,05,26,29,15,,,,,,,,2.7,2.0,1.8*35
$GPGSV,3,1,10,29,79,221,29,15,49,149,44,26,44,080,35,21,38,305,14*71
$GPGSV,3,2,10,18,36,246,21,05,27,047,26,25,12,212,22,30,10,297,*7A
$GPGSV,3,3,10,02,07,098,27,16,03,322,*7E
$GPRMC,124516.000,A,3353.7496,N,09832.0233,W,0.16,4.10,020412,,,A*76
$GPGGA,124517.000,3353.7497,N,09832.0232,W,1,05,2.0,337.2,M,-23.7,M,,0000*6B
$GPGSA,A,3,25,05,26,29,15,,,,,,,,2.7,2.0,1.8*35
$GPRMC,124517.000,A,3353.7497,N,09832.0232,W,0.19,310.11,020412,,,A*7F
$GPGGA,124518.000,3353.7497,N,09832.0231,W,1,05,2.0,337.8,M,-23.7,M,,0000*6D
$GPGSA,A,3,25,05,26,29,15,,,,,,,,2.7,2.0,1.8*35
$GPRMC,124518.000,A,3353.7497,N,09832.0231,W,0.23,302.25,020412,,,A*7E
$GPGGA,124519.000,3353.7498,N,09832.0230,W,1,05,2.0,338.3,M,-23.7,M,,0000*66
$GPGSA,A,3,25,05,26,29,15,,,,,,,,2.7,2.0,1.8*35
$GPRMC,124519.000,A,3353.7498,N,09832.0230,W,0.35,290.89,020412,,,A*7A
$GPGGA,124520.000,3353.7498,N,09832.0228,W,1,05,2.0,338.9,M,-23.7,M,,0000*6F
$GPGSA,A,3,25,05,26,29,15,,,,,,,,2.7,2.0,1.8*35
$GPRMC,124520.000,A,3353.7498,N,09832.0228,W,0.15,336.28,020412,,,A*7D
$GPGGA,124521.000,3353.7499,N,09832.0227,W,1,05,2.0,339.4,M,-23.7,M,,0000*6C
$GPGSA,A,3,25,05,26,29,15,,,,,,,,2.7,2.0,1.8*35
$GPGSV,3,1,10,29,79,221,30,15,49,149,44,26,44,080,35,21,38,305,*7C
$GPGSV,3,2,10,18,36,246,20,05,27,047,27,25,12,212,21,30,10,297,*79
$GPGSV,3,3,10,02,07,098,27,16,03,322,*7E
$GPRMC,124521.000,A,3353.7499,N,09832.0227,W,0.22,309.71,020412,,,A*76
$GPGGA,124522.000,3353.7499,N,09832.0225,W,1,05,2.0,340.0,M,-23.7,M,,0000*67
$GPGSA,A,3,25,05,26,29,15,,,,,,,,2.7,2.0,1.8*35
$GPRMC,124522.000,A,3353.7499,N,09832.0225,W,0.25,59.89,020412,,,A*41
$GPGGA,124523.000,3353.7500,N,09832.0222,W,1,05,2.0,340.6,M,-23.7,M,,0000*66
$GPGSA,A,3,25,05,26,29,15,,,,,,,,2.7,2.0,1.8*35
$GPRMC,124523.000,A,3353.7500,N,09832.0222,W,0.31,74.42,020412,,,A*4B
$GPGGA,124524.000,3353.7500,N,09832.0220,W,1,05,2.0,341.2,M,-23.7,M,,0000*66
$GPGSA,A,3,25,05,26,29,15,,,,,,,,2.7,2.0,1.8*35
$GPRMC,124524.000,A,3353.7500,N,09832.0220,W,0.36,73.90,020412,,,A*41
$GPGGA,124525.000,3353.7500,N,09832.0218,W,1,05,2.0,341.7,M,-23.7,M,,0000*69
$GPGSA,A,3,25,05,26,29,15,,,,,,,,2.7,2.0,1.8*35
$GPRMC,124525.000,A,3353.7500,N,09832.0218,W,0.08,343.80,020412,,,A*77
$GPGGA,124526.000,3353.7501,N,09832.0216,W,1,05,2.0,342.2,M,-23.7,M,,0000*63
$GPGSA,A,3,25,05,26,29,15,,,,,,,,2.7,2.0,1.8*35
$GPGSV,3,1,10,29,79,221,30,15,49,149,44,26,44,080,35,21,38,305,*7C
$GPGSV,3,2,10,18,36,246,,05,27,047,26,25,12,212,21,30,10,297,*7A
$GPGSV,3,3,10,02,07,098,27,16,03,322,*7E
$GPRMC,124526.000,A,3353.7501,N,09832.0216,W,0.29,74.01,020412,,,A*46
$GPGGA,124527.000,3353.7501,N,09832.0215,W,1,05,2.0,342.7,M,-23.7,M,,0000*64
$GPGSA,A,3,25,05,26,29,15,,,,,,,,2.7,2.0,1.8*35
$GPRMC,124527.000,A,3353.7501,N,09832.0215,W,0.18,65.17,020412,,,A*41
$GPGGA,124528.000,3353.7501,N,09832.0214,W,1,05,2.0,343.0,M,-23.7,M,,0000*6C
$GPGSA,A,3,25,05,26,29,15,,,,,,,,2.7,2.0,1.8*35
$GPRMC,124528.000,A,3353.7501,N,09832.0214,W,0.11,2.51,020412,,,A*75
$GPGGA,124529.000,3353.7501,N,09832.0214,W,1,05,2.0,343.2,M,-23.7,M,,0000*6F
$GPGSA,A,3,25,05,26,29,15,,,,,,,,2.7,2.0,1.8*35
$GPRMC,124529.000,A,3353.7501,N,09832.0214,W,0.28,290.95,020412,,,A*7F
$GPGGA,124530.000,3353.7501,N,09832.0215,W,1,05,2.0,343.2,M,-23.7,M,,0000*66
$GPGSA,A,3,25,05,26,29,15,,,,,,,,2.7,2.0,1.8*35
$GPRMC,124530.000,A,3353.7501,N,09832.0215,W,0.50,283.50,020412,,,A*72
$GPGGA,124531.000,3353.7501,N,09832.0218,W,1,05,2.0,342.9,M,-23.7,M,,0000*60
$GPGSA,A,3,25,05,26,29,15,,,,,,,,2.7,2.0,1.8*35
$GPGSV,3,1,10,29,79,221,30,15,49,149,44,26,44,080,36,21,38,305,*7F
$GPGSV,3,2,10,18,36,246,,05,27,047,26,25,12,212,20,30,10,297,*7B
$GPGSV,3,3,10,02,07,098,26,16,03,322,*7F
$GPRMC,124531.000,A,3353.7501,N,09832.0218,W,0.67,283.88,020412,,,A*7F
$GPGGA,124532.000,3353.7501,N,09832.0220,W,1,05,2.1,342.4,M,-23.7,M,,0000*64
$GPGSA,A,3,25,05,26,29,15,,,,,,,,2.7,2.1,1.8*34
$GPRMC,124532.000,A,3353.7501,N,09832.0220,W,0.70,281.50,020412,,,A*76
$GPGGA,124533.000,3353.7501,N,09832.0222,W,1,05,2.1,341.6,M,-23.7,M,,0000*66
$GPGSA,A,3,25,05,26,29,15,,,,,,,,2.7,2.1,1.8*34
$GPRMC,124533.000,A,3353.7501,N,09832.0222,W,0.52,283.66,020412,,,A*72
$GPGGA,124534.000,3353.7500,N,09832.0224,W,1,05,2.1,340.8,M,-23.7,M,,0000*69
$GPGSA,A,3,25,05,26,29,15,,,,,,,,2.7,2.1,1.8*34
$GPRMC,124534.000,A,3353.7500,N,09832.0224,W,0.26,293.30,020412,,,A*73
$GPGGA,124535.000,3353.7500,N,09832.0226,W,1,05,2.1,339.8,M,-23.7,M,,0000*64
$GPGSA,A,3,25,05,26,29,15,,,,,,,,2.7,2.1,1.8*34
$GPRMC,124535.000,A,3353.7500,N,09832.0226,W,0.19,291.75,020412,,,A*7F
$GPGGA,124536.000,3353.7500,N,09832.0228,W,1,05,2.1,338.7,M,-23.7,M,,0000*67
$GPGSA,A,3,25,05,26,29,15,,,,,,,,2.7,2.1,1.8*34
$GPGSV,3,1,10,29,79,221,30,15,49,149,44,26,44,080,36,21,38,305,*7F
$GPGSV,3,2,10,18,36,246,,05,27,047,26,25,12,212,19,30,10,297,*71
$GPGSV,3,3,10,02,07,098,26,16,03,322,*7F
$GPRMC,124536.000,A,3353.7500,N,09832.0228,W,0.27,280.75,020412,,,A*7F
$GPGGA,124537.000,3353.7499,N,09832.0230,W,1,05,2.1,337.7,M,-23.7,M,,0000*61
$GPGSA,A,3,25,05,26,29,15,,,,,,,,2.7,2.1,1.8*34
$GPRMC,124537.000,A,3353.7499,N,09832.0230,W,0.22,283.19,020412,,,A*7A
$GPGGA,124538.000,3353.7499,N,09832.0230,W,1,05,2.1,336.9,M,-23.7,M,,0000*61
$GPGSA,A,3,25,05,26,29,15,,,,,,,,2.7,2.1,1.8*34
$GPRMC,124538.000,A,3353.7499,N,09832.0230,W,0.04,20.00,020412,,,A*42
$GPGGA,124539.000,3353.7499,N,09832.0232,W,1,05,2.1,336.2,M,-23.7,M,,0000*69
$GPGSA,A,3,25,05,26,29,15,,,,,,,,2.7,2.1,1.8*34
$GPRMC,124539.000,A,3353.7499,N,09832.0232,W,0.38,281.03,020412,,,A*74
$GPGGA,124540.000,3353.7498,N,09832.0233,W,1,05,2.1,335.6,M,-23.7,M,,0000*60
$GPGSA,A,3,25,05,26,29,15,,,,,,,,2.7,2.1,1.8*34
$GPRMC,124540.000,A,3353.7498,N,09832.0233,W,0.25,286.58,020412,,,A*7F
$GPGGA,124541.000,3353.7498,N,09832.0234,W,1,05,2.1,335.1,M,-23.7,M,,0000*61
$GPGSA,A,3,25,05,26,29,15,,,,,,,,2.7,2.1,1.8*34
$GPGSV,3,1,10,29,79,221,30,15,49,149,44,26,44,080,36,21,38,305,*7F
$GPGSV,3,2,10,18,36,246,,05,27,047,26,25,12,212,20,30,10,297,*7B
$GPGSV,3,3,10,02,07,098,26,16,03,322,*7F
$GPRMC,124541.000,A,3353.7498,N,09832.0234,W,0.08,16.68,020412,,,A*4E
$GPGGA,124542.000,3353.7498,N,09832.0235,W,1,05,2.1,334.7,M,-23.7,M,,0000*64
$GPGSA,A,3,25,05,26,29,15,,,,,,,,2.7,2.1,1.8*34
$GPRMC,124542.000,A,3353.7498,N,09832.0235,W,0.31,283.92,020412,,,A*7D
$GPGGA,124543.000,3353.7498,N,09832.0235,W,1,05,2.1,334.5,M,-23.7,M,,0000*67
$GPGSA,A,3,25,05,26,29,15,,,,,,,,2.7,2.1,1.8*34
$GPRMC,124543.000,A,3353.7498,N,09832.0235,W,0.09,10.79,020412,,,A*4A
$GPGGA,124544.000,3353.7498,N,09832.0234,W,1,05,2.1,334.4,M,-23.7,M,,0000*60
$GPGSA,A,3,25,05,26,29,15,,,,,,,,2.7,2.1,1.8*34
$GPRMC,124544.000,A,3353.7498,N,09832.0234,W,0.10,31.01,020412,,,A*48
$GPGGA,124545.000,3353.7498,N,09832.0233,W,1,05,2.1,334.5,M,-23.7,M,,0000*67
$GPGSA,A,3,25,05,26,29,15,,,,,,,,2.7,2.1,1.8*34
$GPRMC,124545.000,A,3353.7498,N,09832.0233,W,0.26,76.36,020412,,,A*4C
$GPGGA,124546.000,3353.7498,N,09832.0232,W,1,05,2.1,334.6,M,-23.7,M,,0000*66
$GPGSA,A,3,25,05,26,29,15,,,,,,,,2.7,2.1,1.8*34
$GPGSV,3,1,10,29,79,221,31,15,49,149,44,26,44,080,36,21,38,305,*7E
$GPGSV,3,2,10,18,36,246,,05,27,047,27,25,12,212,21,30,10,297,*7B
$GPGSV,3,3,10,02,07,098,26,16,03,322,*7F
$GPRMC,124546.000,A,3353.7498,N,09832.0232,W,0.08,44.01,020412,,,A*47
$GPGGA,124547.000,3353.7498,N,09832.0232,W,1,05,2.1,334.8,M,-23.7,M,,0000*69
$GPGSA,A,3,25,05,26,29,15,,,,,,,,2.7,2.1,1.8*34
$GPRMC,124547.000,A,3353.7498,N,09832.0232,W,0.16,309.99,020412,,,A*72
$GPGGA,124548.000,3353.7498,N,09832.0231,W,1,05,2.1,335.2,M,-23.7,M,,0000*6E
$GPGSA,A,3,25,05,26,29,15,,,,,,,,2.7,2.1,1.8*34
$GPRMC,124548.000,A,3353.7498,N,09832.0231,W,0.28,67.93,020412,,,A*42
$GPGGA,124549.000,3353.7498,N,09832.0228,W,1,05,2.1,335.6,M,-23.7,M,,0000*63
$GPGSA,A,3,25,05,26,29,15,,,,,,,,2.7,2.1,1.8*34
$GPRMC,124549.000,A,3353.7498,N,09832.0228,W,0.49,80.76,020412,,,A*4E
$GPGGA,124550.000,3353.7498,N,09832.0227,W,1,05,2.1,336.0,M,-23.7,M,,0000*61
$GPGSA,A,3,25,05,26,29,15,,,,,,,,2.7,2.1,1.8*34
$GPRMC,124550.000,A,3353.7498,N,09832.0227,W,0.34,81.25,020412,,,A*44
$GPGGA,124551.000,3353.7498,N,09832.0226,W,1,05,2.1,336.3,M,-23.7,M,,0000*62
$GPGSA,A,3,25,05,26,29,15,,,,,,,,2.7,2.1,1.8*34
$GPGSV,3,1,10,29,79,221,32,15,49,149,43,26,44,080,36,21,38,305,*7A
$GPGSV,3,2,10,18,36,246,23,05,27,047,27,25,12,212,20,30,10,297,*7B
$GPGSV,3,3,10,02,07,098,25,16,03,322,*7C
$GPRMC,124551.000,A,3353.7498,N,09832.0226,W,0.11,39.18,020412,,,A*4E
$GPGGA,124552.000,3353.7498,N,09832.0226,W,1,04,3.4,336.6,M,-23.7,M,,0000*61
$GPGSA,A,3,05,26,29,15,,,,,,,,,7.1,3.4,6.3*38
$GPRMC,124552.000,A,3353.7498,N,09832.0226,W,0.09,31.70,020412,,,A*42
$GPGGA,124553.000,3353.7498,N,09832.0225,W,1,04,3.4,336.8,M,-23.7,M,,0000*6D
$GPGSA,A,3,05,26,29,15,,,,,,,,,7.1,3.4,6.3*38
$GPRMC,124553.000,A,3353.7498,N,09832.0225,W,0.09,11.41,020412,,,A*40
$GPGGA,124554.000,3353.7498,N,09832.0225,W,1,04,3.4,337.0,M,-23.7,M,,0000*63
$GPGSA,A,3,05,26,29,15,,,,,,,,,7.1,3.4,6.3*38
$GPRMC,124554.000,A,3353.7498,N,09832.0225,W,0.09,16.52,020412,,,A*42
$GPGGA,124555.000,3353.7498,N,09832.0225,W,1,04,3.4,337.1,M,-23.7,M,,0000*63
$GPGSA,A,3,05,26,29,15,,,,,,,,,7.1,3.4,6.3*38
$GPRMC,124555.000,A,3353.7498,N,09832.0225,W,0.10,355.20,020412,,,A*7A
$GPGGA,124556.000,3353.7498,N,09832.0225,W,1,04,3.4,337.2,M,-23.7,M,,0000*63
$GPGSA,A,3,05,26,29,15,,,,,,,,,7.1,3.4,6.3*38
$GPGSV,3,1,10,29,79,221,32,15,49,149,43,26,44,080,36,21,38,305,*7A
$GPGSV,3,2,10,18,36,246,24,05,27,047,27,25,12,212,,30,10,297,*7E
$GPGSV,3,3,10,02,07,098,25,16,03,322,*7C
$GPRMC,124556.000,A,3353.7498,N,09832.0225,W,0.11,329.53,020412,,,A*77
$GPGGA,124557.000,3353.7497,N,09832.0225,W,1,04,3.4,337.2,M,-23.7,M,,0000*6D
$GPGSA,A,3,05,26,29,15,,,,,,,,,7.2,3.4,6.3*3B
$GPRMC,124557.000,A,3353.7497,N,09832.0225,W,0.08,336.86,020412,,,A*77
$GPGGA,124558.000,3353.7497,N,09832.0225,W,1,04,3.4,337.2,M,-23.7,M,,0000*62
$GPGSA,A,3,05,26,29,15,,,,,,,,,7.2,3.4,6.3*3B
$GPRMC,124558.000,A,3353.7497,N,09832.0225,W,0.12,308.24,020412,,,A*76
$GPGGA,124559.000,3353.7497,N,09832.0226,W,1,04,3.5,337.1,M,-23.7,M,,0000*62
$GPGSA,A,3,05,26,29,15,,,,,,,,,7.2,3.5,6.3*3A
$GPRMC,124559.000,A,3353.7497,N,09832.0226,W,0.14,313.56,020412,,,A*7D
$GPGGA,124600.000,3353.7497,N,09832.0226,W,1,04,3.5,336.9,M,-23.7,M,,0000*64
$GPGSA,A,3,05,26,29,15,,,,,,,,,7.2,3.5,6.3*3A
$GPRMC,124600.000,A,3353.7497,N,09832.0226,W,0.15,298.40,020412,,,A*76
$GPGGA,124601.000,3353.7496,N,09832.0227,W,1,04,3.5,336.7,M,-23.7,M,,0000*6B
$GPGSA,A,3,05,26,29,15,,,,,,,,,7.2,3.5,6.3*3A
$GPGSV,3,1,10,29,79,221,33,15,49,149,43,26,44,080,37,21,38,305,*7A
$GPGSV,3,2,10,18,36,246,24,05,27,047,27,25,12,212,,30,10,297,*7E
$GPGSV,3,3,10,02,07,098,25,16,03,322,*7C
$GPRMC,124601.000,A,3353.7496,N,09832.0227,W,0.15,301.33,020412,,,A*72
$GPGGA,124602.000,3353.7496,N,09832.0228,W,1,04,3.5,336.5,M,-23.7,M,,0000*65
$GPGSA,A,3,05,26,29,15,,,,,,,,,7.2,3.5,6.3*3A
$GPRMC,124602.000,A,3353.7496,N,09832.0228,W,0.17,295.19,020412,,,A*78
$GPGGA,124603.000,3353.7496,N,09832.0228,W,1,04,3.5,336.1,M,-23.7,M,,0000*60
$GPGSA,A,3,05,26,29,15,,,,,,,,,7.2,3.5,6.3*3A
$GPRMC,124603.000,A,3353.7496,N,09832.0228,W,0.19,296.53,020412,,,A*7A
$GPGGA,124604.000,3353.7495,N,09832.0229,W,1,04,3.5,335.8,M,-23.7,M,,0000*6F
$GPGSA,A,3,05,26,29,15,,,,,,,,,7.2,3.5,6.3*3A
$GPRMC,124604.000,A,3353.7495,N,09832.0229,W,0.22,292.80,020412,,,A*7D
$GPGGA,124605.000,3353.7495,N,09832.0230,W,1,04,3.5,335.4,M,-23.7,M,,0000*6A
$GPGSA,A,3,05,26,29,15,,,,,,,,,7.2,3.5,6.3*3A
$GPRMC,124605.000,A,3353.7495,N,09832.0230,W,0.25,283.18,020412,,,A*72
$GPGGA,124606.000,3353.7495,N,09832.0232,W,1,04,3.5,334.9,M,-23.7,M,,0000*67
$GPGSA,A,3,05,26,29,15,,,,,,,,,7.2,3.5,6.3*3A
$GPGSV,3,1,10,29,79,221,34,15,49,149,43,26,44,080,37,21,38,305,*7D
$GPGSV,3,2,10,18,36,246,24,05,27,047,27,25,12,212,,30,10,297,*7E
$GPGSV,3,3,10,02,07,098,25,16,03,322,*7C
$GPRMC,124606.000,A,3353.7495,N,09832.0232,W,0.23,289.43,020412,,,A*71
$GPGGA,124607.000,3353.7494,N,09832.0233,W,1,04,3.5,334.4,M,-23.7,M,,0000*6B
$GPGSA,A,3,05,26,29,15,,,,,,,,,7.2,3.5,6.3*3A
$GPRMC,124607.000,A,3353.7494,N,09832.0233,W,0.26,288.60,020412,,,A*75
$GPGGA,124608.000,3353.7494,N,09832.0234,W,1,05,2.1,334.0,M,-23.7,M,,0000*63
$GPGSA,A,3,05,26,29,25,15,,,,,,,,2.7,2.1,1.8*34
$GPRMC,124608.000,A,3353.7494,N,09832.0234,W,0.25,287.18,020412,,,A*7E
$GPGGA,124609.000,3353.7493,N,09832.0234,W,1,05,2.1,333.8,M,-23.7,M,,0000*6A
$GPGSA,A,3,05,26,29,25,15,,,,,,,,2.7,2.1,1.8*34
$GPRMC,124609.000,A,3353.7493,N,09832.0234,W,0.09,335.81,020412,,,A*7E
$GPGGA,124610.000,3353.7493,N,09832.0233,W,1,05,2.1,333.8,M,-23.7,M,,0000*65
$GPGSA,A,3,05,26,29,25,15,,,,,,,,2.7,2.1,1.8*34
$GPRMC,124610.000,A,3353.7493,N,09832.0233,W,0.14,60.63,020412,,,A*42
$GPGGA,124611.000,3353.7493,N,09832.0233,W,1,05,2.1,333.9,M,-23.7,M,,0000*65
$GPGSA,A,3,05,26,29,25,15,,,,,,,,2.7,2.1,1.8*34
$GPGSV,3,1,10,29,79,221,34,15,49,149,43,26,44,080,37,21,38,305,17*7B
$GPGSV,3,2,10,18,36,246,24,05,27,047,27,25,12,212,20,30,10,297,*7C
$GPGSV,3,3,10,02,07,098,24,16,03,322,*7D
$GPRMC,124611.000,A,3353.7493,N,09832.0233,W,0.24,292.44,020412,,,A*7A
$GPGGA,124612.000,3353.7493,N,09832.0232,W,1,05,2.1,334.2,M,-23.7,M,,0000*6B
$GPGSA,A,3,05,26,29,25,15,,,,,,,,2.7,2.1,1.8*34
$GPRMC,124612.000,A,3353.7493,N,09832.0232,W,0.14,328.41,020412,,,A*7E
$GPGGA,124613.000,3353.7493,N,09832.0231,W,1,05,2.1,334.6,M,-23.7,M,,0000*6D
$GPGSA,A,3,05,26,29,25,15,,,,,,,,2.7,2.1,1.8*34
$GPRMC,124613.000,A,3353.7493,N,09832.0231,W,0.28,290.47,020412,,,A*77
$GPGGA,124614.000,3353.7493,N,09832.0230,W,1,05,2.1,334.9,M,-23.7,M,,0000*64
$GPGSA,A,3,05,26,29,25,15,,,,,,,,2.7,2.1,1.8*34
$GPRMC,124614.000,A,3353.7493,N,09832.0230,W,0.08,1.65,020412,,,A*79
$GPGGA,124615.000,3353.7493,N,09832.0228,W,1,05,2.1,335.2,M,-23.7,M,,0000*66
$GPGSA,A,3,05,26,29,25,15,,,,,,,,2.7,2.1,1.8*34
$GPRMC,124615.000,A,3353.7493,N,09832.0228,W,0.28,67.87,020412,,,A*4F
$GPGGA,124616.000,3353.7492,N,09832.0225,W,1,05,2.1,335.7,M,-23.7,M,,0000*6C
$GPGSA,A,3,05,26,29,25,15,,,,,,,,2.7,2.1,1.8*34
$GPGSV,3,1,10,29,79,221,34,15,49,149,42,26,44,080,37,21,38,305,19*74
$GPGSV,3,2,10,18,36,246,24,05,27,047,26,25,12,212,21,30,10,297,*7C
$GPGSV,3,3,10,02,07,098,23,16,03,322,*7A
$GPRMC,124616.000,A,3353.7492,N,09832.0225,W,0.45,82.95,020412,,,A*43
$GPGGA,124617.000,3353.7492,N,09832.0224,W,1,05,2.1,336.2,M,-23.7,M,,0000*6A
$GPGSA,A,3,05,26,29,25,15,,,,,,,,2.7,2.1,1.8*34
$GPRMC,124617.000,A,3353.7492,N,09832.0224,W,0.06,39.10,020412,,,A*49
$GPGGA,124618.000,3353.7492,N,09832.0224,W,1,05,2.1,336.5,M,-23.7,M,,0000*62
$GPGSA,A,3,05,26,29,25,15,,,,,,,,2.7,2.1,1.8*34
$GPRMC,124618.000,A,3353.7492,N,09832.0224,W,0.27,289.76,020412,,,A*7C
$GPGGA,124619.000,3353.7491,N,09832.0224,W,1,05,2.1,336.6,M,-23.7,M,,0000*63
$GPGSA,A,3,05,26,29,25,15,,,,,,,,2.7,2.1,1.8*34
$GPRMC,124619.000,A,3353.7491,N,09832.0224,W,0.24,298.72,020412,,,A*79
$GPGGA,124620.000,3353.7491,N,09832.0225,W,1,05,2.1,336.7,M,-23.7,M,,0000*69
$GPGSA,A,3,05,26,29,25,15,,,,,,,,2.7,2.1,1.8*34
$GPRMC,124620.000,A,3353.7491,N,09832.0225,W,0.40,286.45,020412,,,A*7B
$GPGGA,124621.000,3353.7490,N,09832.0225,W,1,05,2.1,336.6,M,-23.7,M,,0000*68
$GPGSA,A,3,05,26,29,25,15,,,,,,,,2.7,2.1,1.7*3B
$GPGSV,3,1,11,29,79,221,34,15,49,149,42,26,44,080,37,21,38,305,20*7F
$GPGSV,3,2,11,18,36,246,25,05,27,047,26,25,12,212,20,30,10,297,*7D
$GPGSV,3,3,11,02,07,098,23,16,03,322,,48,36,230,29*48
$GPRMC,124621.000,A,3353.7490,N,09832.0225,W,0.10,357.99,020412,,,A*72
$GPGGA,124622.000,3353.7490,N,09832.0224,W,1,05,2.1,336.6,M,-23.7,M,,0000*6A
$GPGSA,A,3,05,26,29,25,15,,,,,,,,2.7,2.1,1.7*3B
$GPRMC,124622.000,A,3353.7490,N,09832.0224,W,0.11,41.12,020412,,,A*46
$GPGGA,124623.000,3353.7489,N,09832.0225,W,1,05,2.1,336.2,M,-23.7,M,,0000*66
$GPGSA,A,3,05,26,29,25,15,,,,,,,,2.7,2.1,1.7*3B
$GPRMC,124623.000,A,3353.7489,N,09832.0225,W,0.22,301.44,020412,,,A*7A
$GPGGA,124624.000,3353.7489,N,09832.0226,W,1,05,2.1,335.7,M,-23.7,M,,0000*64
$GPGSA,A,3,05,26,29,25,15,,,,,,,,2.7,2.1,1.7*3B
$GPRMC,124624.000,A,3353.7489,N,09832.0226,W,0.28,288.05,020412,,,A*71
$GPGGA,124625.000,3353.7488,N,09832.0226,W,1,05,2.1,335.1,M,-23.7,M,,0000*62
$GPGSA,A,3,05,26,29,25,15,,,,,,,,2.7,2.1,1.7*3B
$GPRMC,124625.000,A,3353.7488,N,09832.0226,W,0.11,311.39,020412,,,A*75
$GPGGA,124626.000,3353.7488,N,09832.0227,W,1,05,2.1,334.3,M,-23.7,M,,0000*63
$GPGSA,A,3,05,26,29,25,15,,,,,,,,2.7,2.1,1.7*3B
$GPGSV,3,1,11,29,79,221,34,15,49,149,42,26,44,080,37,21,38,305,21*7E
$GPGSV,3,2,11,18,36,246,25,05,27,047,25,25,12,212,19,30,10,297,*74
$GPGSV,3,3,11,02,07,098,22,16,03,322,,48,36,230,28*48
$GPRMC,124626.000,A,3353.7488,N,09832.0227,W,0.08,344.30,020412,,,A*76
$GPGGA,124627.000,3353.7488,N,09832.0227,W,1,04,3.5,333.6,M,-23.7,M,,0000*64
$GPGSA,A,3,05,26,29,15,,,,,,,,,7.2,3.5,6.3*3A
$GPRMC,124627.000,A,3353.7488,N,09832.0227,W,0.15,23.83,020412,,,A*41
$GPGGA,124628.000,3353.7487,N,09832.0228,W,1,05,2.1,332.7,M,-23.7,M,,0000*6F
$GPGSA,A,3,05,26,29,25,15,,,,,,,,2.7,2.1,1.7*3B
$GPRMC,124628.000,A,3353.7487,N,09832.0228,W,0.16,74.96,020412,,,A*4B
$GPGGA,124629.000,3353.7487,N,09832.0229,W,1,05,2.1,331.8,M,-23.7,M,,0000*63
$GPGSA,A,3,05,26,29,25,15,,,,,,,,2.7,2.1,1.7*3B
$GPRMC,124629.000,A,3353.7487,N,09832.0229,W,0.02,329.93,020412,,,A*70
$GPGGA,124630.000,3353.7486,N,09832.0230,W,1,05,2.1,330.7,M,-23.7,M,,0000*6C
$GPGSA,A,3,05,26,29,25,15,,,,,,,,2.7,2.1,1.7*3B
$GPRMC,124630.000,A,3353.7486,N,09832.0230,W,0.08,310.22,020412,,,A*7B
$GPGGA,124631.000,3353.7486,N,09832.0232,W,1,05,2.1,329.5,M,-23.7,M,,0000*65
$GPGSA,A,3,05,26,29,25,15,,,,,,,,2.7,2.1,1.7*3B
$GPGSV,3,1,10,29,79,221,34,15,49,149,41,26,44,080,38,21,38,305,21*73
$GPGSV,3,2,10,18,36,246,25,05,27,047,25,25,12,212,19,30,10,297,*75
$GPGSV,3,3,10,02,07,098,21,16,03,322,*78
$GPRMC,124631.000,A,3353.7486,N,09832.0232,W,0.03,340.61,020412,,,A*71
$GPGGA,124632.000,3353.7486,N,09832.0233,W,1,05,2.1,328.3,M,-23.7,M,,0000*60
$GPGSA,A,3,05,26,29,25,15,,,,,,,,2.7,2.1,1.7*3B
$GPRMC,124632.000,A,3353.7486,N,09832.0233,W,0.07,24.06,020412,,,A*47
$GPGGA,124633.000,3353.7486,N,09832.0234,W,1,05,2.1,327.1,M,-23.7,M,,0000*6B
$GPGSA,A,3,05,26,29,25,15,,,,,,,,2.7,2.1,1.7*3B
$GPRMC,124633.000,A,3353.7486,N,09832.0234,W,0.08,39.84,020412,,,A*48
$GPGGA,124634.000,3353.7487,N,09832.0235,W,1,05,2.1,325.9,M,-23.7,M,,0000*66
$GPGSA,A,3,05,26,29,25,15,,,,,,,,2.7,2.1,1.7*3B
$GPRMC,124634.000,A,3353.7487,N,09832.0235,W,0.37,0.71,020412,,,A*73
$GPGGA,124635.000,3353.7488,N,09832.0237,W,1,05,2.1,324.8,M,-23.7,M,,0000*6A
$GPGSA,A,3,05,26,29,25,15,,,,,,,,2.7,2.1,1.7*3B
$GPRMC,124635.000,A,3353.7488,N,09832.0237,W,0.34,318.12,020412,,,A*73
$GPGGA,124636.000,3353.7489,N,09832.0239,W,1,05,2.1,323.8,M,-23.7,M,,0000*61
$GPGSA,A,3,05,26,29,25,15,,,,,,,,2.7,2.1,1.7*3B
$GPGSV,3,1,10,29,79,221,35,15,49,149,41,26,44,080,38,21,38,305,21*72
$GPGSV,3,2,10,18,36,246,25,05,27,047,24,25,12,212,21,30,10,297,*7F
$GPGSV,3,3,10,02,07,098,20,16,03,322,*79
$GPRMC,124636.000,A,3353.7489,N,09832.0239,W,0.39,285.04,020412,,,A*70
$GPGGA,124637.000,3353.7489,N,09832.0240,W,1,05,2.1,322.9,M,-23.7,M,,0000*6E
$GPGSA,A,3,05,26,29,25,15,,,,,,,,2.7,2.1,1.7*3B
$GPRMC,124637.000,A,3353.7489,N,09832.0240,W,0.27,283.05,020412,,,A*77
$GPGGA,124638.000,3353.7490,N,09832.0240,W,1,05,2.1,322.2,M,-23.7,M,,0000*62
$GPGSA,A,3,05,26,29,25,15,,,,,,,,2.7,2.1,1.7*3B
$GPRMC,124638.000,A,3353.7490,N,09832.0240,W,0.04,39.18,020412,,,A*4E
$GPGGA,124639.000,3353.7491,N,09832.0241,W,1,05,2.1,321.5,M,-23.7,M,,0000*67
$GPGSA,A,3,05,26,29,25,15,,,,,,,,2.7,2.1,1.7*3B
$GPRMC,124639.000,A,3353.7491,N,09832.0241,W,0.05,93.95,020412,,,A*4B
$GPGGA,124640.000,3353.7492,N,09832.0240,W,1,05,2.1,320.9,M,-23.7,M,,0000*66
$GPGSA,A,3,05,26,29,25,15,,,,,,,,2.7,2.1,1.7*3B
$GPRMC,124640.000,A,3353.7492,N,09832.0240,W,0.23,24.91,020412,,,A*4B
$GPGGA,124641.000,3353.7494,N,09832.0240,W,1,05,2.1,320.5,M,-23.7,M,,0000*6D
$GPGSA,A,3,05,26,29,25,15,,,,,,,,2.7,2.1,1.7*3B
$GPGSV,3,1,10,29,79,221,35,15,49,149,41,26,44,080,38,21,38,305,20*73
$GPGSV,3,2,10,18,36,246,26,05,27,047,23,25,12,212,23,30,10,297,*79
$GPGSV,3,3,10,02,07,098,20,16,03,322,*79
$GPRMC,124641.000,A,3353.7494,N,09832.0240,W,0.30,27.37,020412,,,A*41
$GPGGA,124642.000,3353.7495,N,09832.0239,W,1,05,2.1,320.2,M,-23.7,M,,0000*66
$GPGSA,A,3,05,26,29,25,15,,,,,,,,2.7,2.1,1.7*3B
$GPRMC,124642.000,A,3353.7495,N,09832.0239,W,0.17,53.80,020412,,,A*47
$GPGGA,124643.000,3353.7496,N,09832.0239,W,1,05,2.1,320.0,M,-23.7,M,,0000*66
$GPGSA,A,3,05,26,29,25,15,,,,,,,,2.7,2.1,1.7*3B
$GPRMC,124643.000,A,3353.7496,N,09832.0239,W,0.16,52.30,020412,,,A*4E
$GPGGA,124644.000,3353.7497,N,09832.0238,W,1,05,2.1,319.9,M,-23.7,M,,0000*62
$GPGSA,A,3,05,26,29,25,15,,,,,,,,2.7,2.1,1.7*3B
$GPRMC,124644.000,A,3353.7497,N,09832.0238,W,0.14,95.21,020412,,,A*40
$GPGGA,124645.000,3353.7498,N,09832.0237,W,1,05,2.1,319.9,M,-23.7,M,,0000*63
$GPGSA,A,3,05,26,29,25,15,,,,,,,,2.7,2.1,1.7*3B
$GPRMC,124645.000,A,3353.7498,N,09832.0237,W,0.15,104.49,020412,,,A*77
$GPGGA,124646.000,3353.7499,N,09832.0236,W,1,05,2.1,319.9,M,-23.7,M,,0000*60
$GPGSA,A,3,05,26,29,25,15,,,,,,,,2.7,2.1,1.7*3B
$GPGSV,3,1,10,29,79,221,35,15,49,149,41,26,44,080,38,21,38,305,20*73
$GPGSV,3,2,10,18,36,246,26,05,27,047,23,25,12,212,24,30,10,297,*7E
$GPGSV,3,3,10,02,07,098,21,16,03,322,*78
$GPRMC,124646.000,A,3353.7499,N,09832.0236,W,0.18,68.16,020412,,,A*48
$GPGGA,124647.000,3353.7501,N,09832.0236,W,1,05,2.1,320.0,M,-23.7,M,,0000*62
$GPGSA,A,3,05,26,29,25,15,,,,,,,,2.7,2.1,1.7*3B
$GPRMC,124647.000,A,3353.7501,N,09832.0236,W,0.26,34.89,020412,,,A*4B
$GPGGA,124648.000,3353.7502,N,09832.0235,W,1,05,2.1,320.2,M,-23.7,M,,0000*6F
$GPGSA,A,3,05,26,29,25,15,,,,,,,,2.7,2.1,1.7*3B
$GPRMC,124648.000,A,3353.7502,N,09832.0235,W,0.17,350.45,020412,,,A*77
$GPGGA,124649.000,3353.7503,N,09832.0235,W,1,05,2.1,320.4,M,-23.7,M,,0000*69
$GPGSA,A,3,05,26,29,25,15,,,,,,,,2.7,2.1,1.7*3B
$GPRMC,124649.000,A,3353.7503,N,09832.0235,W,0.03,5.72,020412,,,A*75
$GPGGA,124650.000,3353.7505,N,09832.0234,W,1,05,2.1,320.6,M,-23.7,M,,0000*64
$GPGSA,A,3,05,26,29,25,15,,,,,,,,2.7,2.1,1.7*3B
$GPRMC,124650.000,A,3353.7505,N,09832.0234,W,0.27,347.56,020412,,,A*7F
$GPGGA,124651.000,3353.7507,N,09832.0234,W,1,05,2.1,320.9,M,-23.7,M,,0000*68
$GPGSA,A,3,05,26,29,25,15,,,,,,,,2.7,2.1,1.7*3B
$GPGSV,3,1,10,29,79,221,35,15,49,149,41,26,44,080,38,21,38,305,21*72
$GPGSV,3,2,10,18,36,246,26,05,27,047,22,25,12,212,24,30,10,297,*7F
$GPGSV,3,3,10,02,07,098,22,16,03,322,*7B
$GPRMC,124651.000,A,3353.7507,N,09832.0234,W,0.20,321.32,020412,,,A*79
$GPGGA,124652.000,3353.7508,N,09832.0234,W,1,05,2.1,321.1,M,-23.7,M,,0000*6D
$GPGSA,A,3,05,26,29,25,15,,,,,,,,2.7,2.1,1.7*3B
$GPRMC,124652.000,A,3353.7508,N,09832.0234,W,0.09,320.33,020412,,,A*7E
$GPGGA,124653.000,3353.7509,N,09832.0233,W,1,05,2.1,321.4,M,-23.7,M,,0000*6F
$GPGSA,A,3,05,26,29,25,15,,,,,,,,2.7,2.1,1.7*3B
$GPRMC,124653.000,A,3353.7509,N,09832.0233,W,0.03,267.87,020412,,,A*7E
$GPGGA,124654.000,3353.7510,N,09832.0232,W,1,05,2.1,321.8,M,-23.7,M,,0000*6D
$GPGSA,A,3,05,26,29,25,15,,,,,,,,2.7,2.1,1.7*3B
$GPRMC,124654.000,A,3353.7510,N,09832.0232,W,0.30,98.78,020412,,,A*42
$GPGGA,124655.000,3353.7511,N,09832.0230,W,1,05,2.1,322.1,M,-23.7,M,,0000*65
$GPGSA,A,3,05,26,29,25,15,,,,,,,,2.7,2.1,1.7*3B
$GPRMC,124655.000,A,3353.7511,N,09832.0230,W,0.35,64.29,020412,,,A*42
$GPGGA,124656.000,3353.7512,N,09832.0230,W,1,05,2.1,322.3,M,-23.7,M,,0000*67
$GPGSA,A,3,05,26,29,25,15,,,,,,,,2.7,2.1,1.7*3B
$GPGSV,3,1,10,29,79,221,35,15,49,149,41,26,44,080,38,21,38,305,22*71
$GPGSV,3,2,10,18,36,246,27,05,27,047,22,25,12,212,24,30,10,297,*7E
$GPGSV,3,3,10,02,07,098,23,16,03,322,*7A
$GPRMC,124656.000,A,3353.7512,N,09832.0230,W,0.16,339.99,020412,,,A*73
$GPGGA,124657.000,3353.7513,N,09832.0229,W,1,05,2.1,322.5,M,-23.7,M,,0000*69
$GPGSA,A,3,05,26,29,25,15,,,,,,,,2.7,2.1,1.7*3B
$GPRMC,124657.000,A,3353.7513,N,09832.0229,W,0.12,80.22,020412,,,A*4E
$GPGGA,124658.000,3353.7514,N,09832.0229,W,1,05,2.1,322.5,M,-23.7,M,,0000*61
$GPGSA,A,3,05,26,29,25,15,,,,,,,,2.7,2.1,1.7*3B
$GPRMC,124658.000,A,3353.7514,N,09832.0229,W,0.23,101.56,020412,,,A*7F
$GPGGA,124659.000,3353.7515,N,09832.0230,W,1,05,2.1,322.3,M,-23.7,M,,0000*6F
$GPGSA,A,3,05,26,29,25,15,,,,,,,,2.7,2.1,1.7*3B
$GPRMC,124659.000,A,3353.7515,N,09832.0230,W,0.12,301.57,020412,,,A*76
$GPGGA,124700.000,3353.7516,N,09832.0230,W,1,05,2.1,321.9,M,-23.7,M,,0000*68
$GPGSA,A,3,05,26,29,25,15,,,,,,,,2.7,2.1,1.7*3B
$GPRMC,124700.000,A,3353.7516,N,09832.0230,W,0.24,3.16,020412,,,A*79
$GPGGA,124701.000,3353.7517,N,09832.0231,W,1,05,2.1,321.4,M,-23.7,M,,0000*64
$GPGSA,A,3,05,26,29,25,15,,,,,,,,2.7,2.1,1.7*3B
$GPGSV,3,1,10,29,79,221,35,15,49,149,41,26,44,080,39,21,38,305,23*71
$GPGSV,3,2,10,18,36,246,27,05,27,047,21,25,12,212,23,30,10,297,*7A
$GPGSV,3,3,10,02,07,098,24,16,03,322,*7D
$GPRMC,124701.000,A,3353.7517,N,09832.0231,W,0.08,64.10,020412,,,A*41
$GPGGA,124702.000,3353.7517,N,09832.0232,W,1,05,2.1,320.9,M,-23.7,M,,0000*68
$GPGSA,A,3,05,26,29,25,15,,,,,,,,2.7,2.1,1.7*3B
$GPRMC,124702.000,A,3353.7517,N,09832.0232,W,0.04,274.46,020412,,,A*7D
$GPGGA,124703.000,3353.7518,N,09832.0233,W,1,05,2.1,320.2,M,-23.7,M,,0000*6C
$GPGSA,A,3,05,26,29,25,15,,,,,,,,2.7,2.1,1.7*3B
$GPRMC,124703.000,A,3353.7518,N,09832.0233,W,0.11,296.57,020412,,,A*7A
$GPGGA,124704.000,3353.7519,N,09832.0236,W,1,05,2.1,319.4,M,-23.7,M,,0000*63
$GPGSA,A,3,05,26,29,25,15,,,,,,,,2.7,2.1,1.7*3B
$GPRMC,124704.000,A,3353.7519,N,09832.0236,W,0.35,278.22,020412,,,A*7D
$GPGGA,124705.000,3353.7520,N,09832.0238,W,1,05,2.1,318.5,M,-23.7,M,,0000*66
$GPGSA,A,3,05,26,29,25,15,,,,,,,,2.7,2.1,1.7*3B
$GPRMC,124705.000,A,3353.7520,N,09832.0238,W,0.20,277.33,020412,,,A*73
