$GPGGA,182139.000,3352.4612,N,09831.1897,W,2,08,1.3,285.2,M,-23.7,M,0.8,0000*45
$GPGSA,A,3,11,31,14,01,25,22,32,18,,,,,1.9,1.3,1.4*34
$GPGSV,3,1,11,22,65,088,28,14,63,003,30,31,51,191,28,11,24,296,31*7E
$GPGSV,3,2,11,18,23,113,28,25,20,100,32,01,16,317,33,32,12,305,27*7E
$GPGSV,3,3,11,12,11,060,,19,07,257,19,51,49,195,27*4A
$GPRMC,182139.000,A,3352.4612,N,09831.1897,W,0.04,170.05,310312,,,D*7E
$GPGGA,182140.000,3352.4612,N,09831.1897,W,2,08,1.3,284.9,M,-23.7,M,0.8,0000*41
$GPGSA,A,3,11,31,14,01,25,22,32,18,,,,,1.9,1.3,1.4*34
$GPRMC,182140.000,A,3352.4612,N,09831.1897,W,0.03,186.94,310312,,,D*76
$GPGGA,182141.000,3352.4612,N,09831.1897,W,2,08,1.3,284.8,M,-23.7,M,0.8,0000*41
$GPGSA,A,3,11,31,14,01,25,22,32,18,,,,,1.9,1.3,1.4*34
$GPRMC,182141.000,A,3352.4612,N,09831.1897,W,0.04,146.98,310312,,,D*70
$GPGGA,182142.000,3352.4612,N,09831.1897,W,2,08,1.3,284.7,M,-23.7,M,1.8,0000*4C
$GPGSA,A,3,11,31,14,01,25,22,32,18,,,,,1.9,1.3,1.4*34
$GPRMC,182142.000,A,3352.4612,N,09831.1897,W,0.02,139.03,310312,,,D*7F
$GPGGA,182143.000,3352.4612,N,09831.1897,W,2,08,1.3,284.6,M,-23.7,M,2.8,0000*4F
$GPGSA,A,3,11,31,14,01,25,22,32,18,,,,,1.9,1.3,1.4*34
$GPRMC,182143.000,A,3352.4612,N,09831.1897,W,0.06,175.85,310312,,,D*7C
$GPGGA,182144.000,3352.4612,N,09831.1897,W,2,08,1.3,284.5,M,-23.7,M,3.8,0000*4A
$GPGSA,A,3,11,31,14,01,25,22,32,18,,,,,1.9,1.3,1.4*34
$GPGSV,3,1,11,22,64,088,29,14,63,003,31,31,51,191,30,11,24,296,32*75
$GPGSV,3,2,11,18,23,113,29,25,20,100,33,01,17,317,33,32,13,305,28*71
$GPGSV,3,3,11,12,11,060,,19,07,257,23,51,49,195,28*4C
$GPRMC,182144.000,A,3352.4612,N,09831.1897,W,0.03,111.61,310312,,,D*76
$GPGGA,182145.000,3352.4612,N,09831.1897,W,2,08,1.3,284.3,M,-23.7,M,0.8,0000*4E
$GPGSA,A,3,11,31,14,01,25,22,32,18,,,,,1.9,1.3,1.4*34
$GPRMC,182145.000,A,3352.4612,N,09831.1897,W,0.07,117.88,310312,,,D*72
$GPGGA,182146.000,3352.4612,N,09831.1897,W,2,08,1.3,284.2,M,-23.7,M,1.8,0000*4D
$GPGSA,A,3,11,31,14,01,25,22,32,18,,,,,1.9,1.3,1.4*34
$GPRMC,182146.000,A,3352.4612,N,09831.1897,W,0.05,83.76,310312,,,D*4E
$GPGGA,182147.000,3352.4612,N,09831.1897,W,2,08,1.3,284.1,M,-23.7,M,0.8,0000*4E
$GPGSA,A,3,11,31,14,01,25,22,32,18,,,,,1.9,1.3,1.4*34
$GPRMC,182147.000,A,3352.4612,N,09831.1897,W,0.08,77.00,310312,,,D*48
$GPGGA,182148.000,3352.4612,N,09831.1896,W,2,08,1.3,283.9,M,-23.7,M,1.8,0000*4E
$GPGSA,A,3,11,31,14,01,25,22,32,18,,,,,1.9,1.3,1.4*34
$GPRMC,182148.000,A,3352.4612,N,09831.1896,W,0.09,65.82,310312,,,D*4E
$GPGGA,182149.000,3352.4613,N,09831.1896,W,2,08,1.3,283.8,M,-23.7,M,2.8,0000*4C
$GPGSA,A,3,11,31,14,01,25,22,32,18,,,,,1.9,1.3,1.4*34
$GPGSV,3,1,11,22,64,088,30,14,63,003,31,31,51,191,30,11,24,296,33*7C
$GPGSV,3,2,11,18,23,113,29,25,20,100,33,01,17,317,33,32,13,305,29*70
$GPGSV,3,3,11,12,11,060,,19,07,256,23,51,49,195,28*4D
$GPRMC,182149.000,A,3352.4613,N,09831.1896,W,0.07,85.98,310312,,,D*45
$GPGGA,182150.000,3352.4613,N,09831.1896,W,2,08,1.3,283.7,M,-23.7,M,0.8,0000*49
$GPGSA,A,3,11,31,14,01,25,22,32,18,,,,,1.9,1.3,1.4*34
$GPRMC,182150.000,A,3352.4613,N,09831.1896,W,0.07,71.10,310312,,,D*46
$GPGGA,182151.000,3352.4615,N,09831.1893,W,2,08,1.3,284.5,M,-23.7,M,1.8,0000*4F
$GPGSA,A,3,11,31,14,01,25,22,32,18,,,,,1.9,1.3,1.4*34
$GPRMC,182151.000,A,3352.4615,N,09831.1893,W,0.13,60.79,310312,,,D*4E
$GPGGA,182152.000,3352.4616,N,09831.1890,W,2,08,1.3,285.1,M,-23.7,M,0.8,0000*48
$GPGSA,A,3,11,31,14,01,25,22,32,18,,,,,1.9,1.3,1.4*34
$GPRMC,182152.000,A,3352.4616,N,09831.1890,W,0.13,57.18,310312,,,D*4E
$GPGGA,182153.000,3352.4618,N,09831.1888,W,2,08,1.3,285.6,M,-23.7,M,0.8,0000*49
$GPGSA,A,3,11,31,14,01,25,22,32,18,,,,,1.9,1.3,1.4*34
$GPRMC,182153.000,A,3352.4618,N,09831.1888,W,0.10,51.75,310312,,,D*46
$GPGGA,182154.000,3352.4619,N,09831.1886,W,2,08,1.3,286.1,M,-23.7,M,1.8,0000*44
$GPGSA,A,3,11,31,14,01,25,22,32,18,,,,,1.9,1.3,1.4*34
$GPGSV,3,1,11,22,64,088,30,14,63,003,31,31,51,191,30,11,24,296,33*7C
$GPGSV,3,2,11,18,23,113,29,25,20,100,33,01,17,317,33,32,13,305,29*70
$GPGSV,3,3,11,12,11,060,15,19,07,256,22,51,49,195,27*47
$GPRMC,182154.000,A,3352.4619,N,09831.1886,W,0.08,67.80,310312,,,D*48
$GPGGA,182155.000,3352.4619,N,09831.1885,W,2,08,1.3,286.5,M,-23.7,M,0.8,0000*43
$GPGSA,A,3,11,31,14,01,25,22,32,18,,,,,1.9,1.3,1.4*34
$GPRMC,182155.000,A,3352.4619,N,09831.1885,W,0.09,53.96,310312,,,D*4B
$GPGGA,182156.000,3352.4620,N,09831.1883,W,2,08,1.3,286.9,M,-23.7,M,1.8,0000*41
$GPGSA,A,3,11,31,14,01,25,22,32,18,,,,,1.9,1.3,1.4*34
$GPRMC,182156.000,A,3352.4620,N,09831.1883,W,0.08,56.77,310312,,,D*4F
$GPGGA,182157.000,3352.4621,N,09831.1882,W,2,08,1.3,287.2,M,-23.7,M,0.8,0000*4B
$GPGSA,A,3,11,31,14,01,25,22,32,18,,,,,1.9,1.3,1.4*34
$GPRMC,182157.000,A,3352.4621,N,09831.1882,W,0.05,57.63,310312,,,D*47
$GPGGA,182158.000,3352.4621,N,09831.1881,W,2,08,1.3,287.5,M,-23.7,M,0.8,0000*40
$GPGSA,A,3,11,31,14,01,25,22,32,18,,,,,1.9,1.3,1.4*34
$GPRMC,182158.000,A,3352.4621,N,09831.1881,W,0.03,151.39,310312,,,D*75
$GPGGA,182159.000,3352.4621,N,09831.1880,W,2,08,1.3,287.8,M,-23.7,M,0.8,0000*4D
$GPGSA,A,3,11,31,14,01,25,22,32,18,,,,,1.9,1.3,1.4*34
$GPGSV,3,1,11,22,64,088,31,14,63,003,31,31,51,191,30,11,24,296,33*7D
$GPGSV,3,2,11,18,23,113,30,25,20,100,33,01,17,317,33,32,13,305,29*78
$GPGSV,3,3,11,12,11,060,15,19,07,256,21,51,49,195,27*44
$GPRMC,182159.000,A,3352.4621,N,09831.1880,W,0.04,59.66,310312,,,D*41
$GPGGA,182200.000,3352.4621,N,09831.1879,W,2,08,1.3,288.1,M,-23.7,M,1.8,0000*43
$GPGSA,A,3,11,31,14,01,25,22,32,18,,,,,1.9,1.3,1.4*34
$GPRMC,182200.000,A,3352.4621,N,09831.1879,W,0.03,109.03,310312,,,D*78
$GPGGA,182201.000,3352.4621,N,09831.1878,W,2,08,1.3,288.3,M,-23.7,M,2.8,0000*42
$GPGSA,A,3,11,31,14,01,25,22,32,18,,,,,1.9,1.3,1.4*34
$GPRMC,182201.000,A,3352.4621,N,09831.1878,W,0.04,66.88,310312,,,D*44
$GPGGA,182202.000,3352.4621,N,09831.1878,W,2,08,1.3,288.5,M,-23.7,M,3.8,0000*46
$GPGSA,A,3,11,31,14,01,25,22,32,18,,,,,1.9,1.3,1.4*34
$GPRMC,182202.000,A,3352.4621,N,09831.1878,W,0.02,113.86,310312,,,D*7C
$GPGGA,182203.000,3352.4621,N,09831.1877,W,2,08,1.3,288.7,M,-23.7,M,4.8,0000*4D
$GPGSA,A,3,11,31,14,01,25,22,32,18,,,,,1.9,1.3,1.4*34
$GPRMC,182203.000,A,3352.4621,N,09831.1877,W,0.04,103.43,310312,,,D*7C
$GPGGA,182204.000,3352.4622,N,09831.1876,W,2,08,1.3,288.9,M,-23.7,M,5.8,0000*47
$GPGSA,A,3,11,31,14,01,25,22,32,18,,,,,1.9,1.3,1.4*34
$GPGSV,3,1,11,22,64,088,31,14,63,003,32,31,51,191,31,11,24,296,34*78
$GPGSV,3,2,11,18,23,113,30,25,20,100,33,01,17,317,33,32,13,305,29*78
$GPGSV,3,3,11,12,11,060,15,19,07,256,20,51,49,195,27*45
$GPRMC,182204.000,A,3352.4622,N,09831.1876,W,0.05,62.42,310312,,,D*4F
$GPGGA,182205.000,3352.4621,N,09831.1876,W,2,08,1.3,289.0,M,-23.7,M,0.8,0000*48
$GPGSA,A,3,11,31,14,01,25,22,32,18,,,,,1.9,1.3,1.4*34
$GPRMC,182205.000,A,3352.4621,N,09831.1876,W,0.05,176.70,310312,,,D*78
$GPGGA,182206.000,3352.4621,N,09831.1876,W,2,08,1.3,289.2,M,-23.7,M,1.8,0000*48
$GPGSA,A,3,11,31,14,01,25,22,32,18,,,,,1.9,1.3,1.4*34
$GPRMC,182206.000,A,3352.4621,N,09831.1876,W,0.03,143.51,310312,,,D*78
$GPGGA,182207.000,3352.4621,N,09831.1875,W,2,08,1.3,289.3,M,-23.7,M,2.8,0000*48
$GPGSA,A,3,11,31,14,01,25,22,32,18,,,,,1.9,1.3,1.4*34
$GPRMC,182207.000,A,3352.4621,N,09831.1875,W,0.04,169.01,310312,,,D*70
$GPGGA,182208.000,3352.4620,N,09831.1876,W,2,08,1.3,289.0,M,-23.7,M,3.8,0000*47
$GPGSA,A,3,11,31,14,01,25,22,32,18,,,,,1.9,1.3,1.4*34
$GPRMC,182208.000,A,3352.4620,N,09831.1876,W,0.09,197.05,310312,,,D*75
$GPGGA,182209.000,3352.4619,N,09831.1877,W,2,08,1.3,288.6,M,-23.7,M,0.8,0000*49
$GPGSA,A,3,11,31,14,01,25,22,32,18,,,,,1.9,1.3,1.4*34
$GPGSV,3,1,11,22,64,088,31,14,63,003,32,31,51,191,31,11,24,296,34*78
$GPGSV,3,2,11,18,23,113,30,25,20,100,32,01,17,317,33,32,13,305,29*79
$GPGSV,3,3,11,12,11,060,14,19,07,256,,51,49,195,27*46
$GPRMC,182209.000,A,3352.4619,N,09831.1877,W,0.08,196.78,310312,,,D*75
$GPGGA,182210.000,3352.4619,N,09831.1878,W,2,08,1.3,288.3,M,-23.7,M,0.8,0000*4B
$GPGSA,A,3,11,31,14,01,25,22,32,18,,,,,1.9,1.3,1.4*34
$GPRMC,182210.000,A,3352.4619,N,09831.1878,W,0.04,203.53,310312,,,D*78
$GPGGA,182211.000,3352.4618,N,09831.1879,W,2,08,1.3,288.0,M,-23.7,M,0.8,0000*49
$GPGSA,A,3,11,31,14,01,25,22,32,18,,,,,1.9,1.3,1.4*34
$GPRMC,182211.000,A,3352.4618,N,09831.1879,W,0.03,128.04,310312,,,D*76
$GPGGA,182212.000,3352.4618,N,09831.1880,W,2,08,1.3,287.7,M,-23.7,M,1.8,0000*45
$GPGSA,A,3,11,31,14,01,25,22,32,18,,,,,1.9,1.3,1.4*34
$GPRMC,182212.000,A,3352.4618,N,09831.1880,W,0.02,75.93,310312,,,D*45
$GPGGA,182213.000,3352.4617,N,09831.1881,W,2,08,1.3,287.3,M,-23.7,M,2.8,0000*4D
$GPGSA,A,3,11,31,14,01,25,22,32,18,,,,,1.9,1.3,1.4*34
$GPRMC,182213.000,A,3352.4617,N,09831.1881,W,0.02,131.36,310312,,,D*74
$GPGGA,182214.000,3352.4617,N,09831.1881,W,2,08,1.3,287.0,M,-23.7,M,3.8,0000*48
$GPGSA,A,3,11,31,14,01,25,22,32,18,,,,,1.9,1.3,1.4*34
$GPGSV,3,1,11,22,64,089,31,14,63,004,32,31,51,192,32,11,24,296,34*7E
$GPGSV,3,2,11,18,23,113,30,25,20,100,32,01,17,317,33,32,13,305,29*79
$GPGSV,3,3,11,12,11,060,16,19,06,256,,51,49,195,27*45
$GPRMC,182214.000,A,3352.4617,N,09831.1881,W,0.03,91.36,310312,,,D*49
$GPGGA,182215.000,3352.4617,N,09831.1882,W,2,08,1.3,286.7,M,-23.7,M,0.8,0000*4F
$GPGSA,A,3,11,31,14,01,25,22,32,18,,,,,1.9,1.3,1.4*34
$GPRMC,182215.000,A,3352.4617,N,09831.1882,W,0.03,114.28,310312,,,D*78
$GPGGA,182216.000,3352.4618,N,09831.1881,W,2,08,1.3,287.1,M,-23.7,M,1.8,0000*46
$GPGSA,A,3,11,31,14,01,25,22,32,18,,,,,1.9,1.3,1.4*34
$GPRMC,182216.000,A,3352.4618,N,09831.1881,W,0.04,110.51,310312,,,D*7A
$GPGGA,182217.000,3352.4619,N,09831.1879,W,2,08,1.3,287.4,M,-23.7,M,2.8,0000*47
$GPGSA,A,3,11,31,14,01,25,22,32,18,,,,,1.9,1.3,1.4*34
$GPRMC,182217.000,A,3352.4619,N,09831.1879,W,0.08,54.43,310312,,,D*43
$GPGGA,182218.000,3352.4620,N,09831.1879,W,2,08,1.3,287.6,M,-23.7,M,0.8,0000*42
$GPGSA,A,3,11,31,14,01,25,22,32,18,,,,,1.9,1.3,1.4*34
$GPRMC,182218.000,A,3352.4620,N,09831.1879,W,0.07,60.09,310312,,,D*40
$GPGGA,182219.000,3352.4620,N,09831.1878,W,2,08,1.3,287.8,M,-23.7,M,0.8,0000*4C
$GPGSA,A,3,11,31,14,01,25,22,32,18,,,,,1.9,1.3,1.4*34
$GPGSV,3,1,11,22,64,089,31,14,63,004,32,31,51,192,32,11,24,296,34*7E
$GPGSV,3,2,11,18,23,113,30,25,20,099,31,01,17,317,32,32,13,305,30*72
$GPGSV,3,3,11,12,11,060,18,19,06,256,,51,49,195,27*4B
$GPRMC,182219.000,A,3352.4620,N,09831.1878,W,0.04,71.69,310312,,,D*45
$GPGGA,182220.000,3352.4621,N,09831.1876,W,2,08,1.3,287.8,M,-23.7,M,1.8,0000*48
$GPGSA,A,3,11,31,14,01,25,22,32,18,,,,,1.9,1.3,1.4*34
$GPRMC,182220.000,A,3352.4621,N,09831.1876,W,0.08,54.38,310312,,,D*4F
$GPGGA,182221.000,3352.4621,N,09831.1876,W,2,08,1.3,288.0,M,-23.7,M,2.8,0000*4D
$GPGSA,A,3,11,31,14,01,25,22,32,18,,,,,1.9,1.3,1.4*34
$GPRMC,182221.000,A,3352.4621,N,09831.1876,W,0.06,60.27,310312,,,D*49
$GPGGA,182222.000,3352.4622,N,09831.1875,W,2,08,1.3,288.1,M,-23.7,M,0.8,0000*4D
$GPGSA,A,3,11,31,14,01,25,22,32,18,,,,,1.9,1.3,1.4*34
$GPRMC,182222.000,A,3352.4622,N,09831.1875,W,0.03,57.83,310312,,,D*45
$GPGGA,182223.000,3352.4622,N,09831.1875,W,2,08,1.3,288.3,M,-23.7,M,0.8,0000*4E
$GPGSA,A,3,11,31,14,01,25,22,32,18,,,,,1.9,1.3,1.4*34
$GPRMC,182223.000,A,3352.4622,N,09831.1875,W,0.04,107.80,310312,,,D*74
$GPGGA,182224.000,3352.4622,N,09831.1874,W,2,08,1.3,288.3,M,-23.7,M,1.8,0000*49
$GPGSA,A,3,11,31,14,01,25,22,32,18,,,,,1.9,1.3,1.4*34
$GPGSV,3,1,11,22,64,089,31,14,63,004,32,31,51,192,32,11,24,296,34*7E
$GPGSV,3,2,11,18,23,113,29,25,20,099,30,01,17,317,32,32,13,305,30*7B
$GPGSV,3,3,11,12,11,060,19,19,06,256,,51,49,195,28*45
$GPRMC,182224.000,A,3352.4622,N,09831.1874,W,0.04,84.71,310312,,,D*46
$GPGGA,182225.000,3352.4622,N,09831.1873,W,2,08,1.3,288.3,M,-23.7,M,2.8,0000*4C
$GPGSA,A,3,11,31,14,01,25,22,32,18,,,,,1.9,1.3,1.4*34
$GPRMC,182225.000,A,3352.4622,N,09831.1873,W,0.03,145.86,310312,,,D*73
$GPGGA,182226.000,3352.4622,N,09831.1872,W,2,08,1.3,288.2,M,-23.7,M,3.8,0000*4E
$GPGSA,A,3,11,31,14,01,25,22,32,18,,,,,1.9,1.3,1.4*34
$GPRMC,182226.000,A,3352.4622,N,09831.1872,W,0.03,148.74,310312,,,D*71
$GPGGA,182227.000,3352.4622,N,09831.1871,W,2,08,1.3,288.1,M,-23.7,M,4.8,0000*48
$GPGSA,A,3,11,31,14,01,25,22,32,18,,,,,1.9,1.3,1.4*34
$GPRMC,182227.000,A,3352.4622,N,09831.1871,W,0.05,115.36,310312,,,D*7B
$GPGGA,182228.000,3352.4621,N,09831.1871,W,2,08,1.3,287.7,M,-23.7,M,5.8,0000*4C
$GPGSA,A,3,11,31,14,01,25,22,32,18,,,,,1.9,1.3,1.4*34
$GPRMC,182228.000,A,3352.4621,N,09831.1871,W,0.05,170.54,310312,,,D*70
$GPGGA,182229.000,3352.4620,N,09831.1872,W,2,08,1.3,287.3,M,-23.7,M,6.8,0000*48
$GPGSA,A,3,11,31,14,01,25,22,32,18,,,,,1.9,1.3,1.4*34
$GPGSV,3,1,11,22,64,089,31,14,63,004,32,31,51,192,31,11,24,296,35*7C
$GPGSV,3,2,11,18,23,113,29,25,20,099,29,01,17,317,32,32,13,305,30*73
$GPGSV,3,3,11,12,11,060,19,19,06,256,,51,49,195,27*4A
$GPRMC,182229.000,A,3352.4620,N,09831.1872,W,0.03,172.05,310312,,,D*73
$GPGGA,182230.000,3352.4620,N,09831.1873,W,2,08,1.3,287.0,M,-23.7,M,7.8,0000*43
$GPGSA,A,3,11,31,14,01,25,22,32,18,,,,,1.9,1.3,1.4*34
$GPRMC,182230.000,A,3352.4620,N,09831.1873,W,0.10,181.27,310312,,,D*74
$GPGGA,182231.000,3352.4619,N,09831.1874,W,2,08,1.3,286.6,M,-23.7,M,8.8,0000*47
$GPGSA,A,3,11,31,14,01,25,22,32,18,,,,,1.9,1.3,1.4*34
$GPRMC,182231.000,A,3352.4619,N,09831.1874,W,0.07,183.13,310312,,,D*7B
$GPGGA,182232.000,3352.4619,N,09831.1873,W,2,08,1.3,286.7,M,-23.7,M,9.8,0000*43
$GPGSA,A,3,11,31,14,01,25,22,32,18,,,,,1.9,1.3,1.4*34
$GPRMC,182232.000,A,3352.4619,N,09831.1873,W,0.06,138.92,310312,,,D*77
$GPGGA,182233.000,3352.4620,N,09831.1871,W,2,08,1.3,286.7,M,-23.7,M,0.8,0000*43
$GPGSA,A,3,11,31,14,01,25,22,32,18,,,,,1.9,1.3,1.4*34
$GPRMC,182233.000,A,3352.4620,N,09831.1871,W,0.03,103.40,310312,,,D*7C
$GPGGA,182234.000,3352.4620,N,09831.1870,W,2,08,1.3,286.6,M,-23.7,M,1.8,0000*45
$GPGSA,A,3,11,31,14,01,25,22,32,18,,,,,1.9,1.3,1.4*34
$GPGSV,3,1,11,22,64,089,31,14,63,004,32,31,51,192,31,11,24,296,35*7C
$GPGSV,3,2,11,18,23,113,29,25,20,099,28,01,17,317,32,32,13,305,30*72
$GPGSV,3,3,11,12,11,060,19,19,06,256,16,51,49,195,27*4D
$GPRMC,182234.000,A,3352.4620,N,09831.1870,W,0.07,85.71,310312,,,D*43
$GPGGA,182235.000,3352.4620,N,09831.1868,W,2,08,1.3,286.6,M,-23.7,M,2.8,0000*4E
$GPGSA,A,3,11,31,14,01,25,22,32,18,,,,,1.9,1.3,1.4*34
$GPRMC,182235.000,A,3352.4620,N,09831.1868,W,0.07,72.52,310312,,,D*42
$GPGGA,182236.000,3352.4621,N,09831.1867,W,2,08,1.3,286.5,M,-23.7,M,3.8,0000*41
$GPGSA,A,3,11,31,14,01,25,22,32,18,,,,,1.9,1.3,1.4*34
$GPRMC,182236.000,A,3352.4621,N,09831.1867,W,0.05,91.99,310312,,,D*47
$GPGGA,182237.000,3352.4621,N,09831.1865,W,2,08,1.3,286.3,M,-23.7,M,4.8,0000*43
$GPGSA,A,3,11,31,14,01,25,22,32,18,,,,,1.9,1.3,1.4*34
$GPRMC,182237.000,A,3352.4621,N,09831.1865,W,0.05,76.30,310312,,,D*4E
$GPGGA,182238.000,3352.4621,N,09831.1864,W,2,08,1.3,286.2,M,-23.7,M,0.8,0000*48
$GPGSA,A,3,11,31,14,01,25,22,32,18,,,,,1.9,1.3,1.4*34
$GPRMC,182238.000,A,3352.4621,N,09831.1864,W,0.05,89.20,310312,,,D*41
$GPGGA,182239.000,3352.4621,N,09831.1865,W,2,08,1.3,285.8,M,-23.7,M,1.8,0000*40
$GPGSA,A,3,11,31,14,01,25,22,32,18,,,,,1.9,1.3,1.4*34
$GPGSV,3,1,11,22,64,089,31,14,63,004,32,31,51,192,31,11,24,296,35*7C
$GPGSV,3,2,11,18,23,113,29,25,20,099,27,01,17,317,32,32,13,305,30*7D
$GPGSV,3,3,11,12,11,060,20,19,06,256,17,51,49,195,27*46
$GPRMC,182239.000,A,3352.4621,N,09831.1865,W,0.04,149.66,310312,,,D*7F
$GPGGA,182240.000,3352.4620,N,09831.1865,W,2,08,1.3,285.5,M,-23.7,M,2.8,0000*41
$GPGSA,A,3,11,31,14,01,25,22,32,18,,,,,1.9,1.3,1.4*34
$GPRMC,182240.000,A,3352.4620,N,09831.1865,W,0.05,141.26,310312,,,D*7D
$GPGGA,182241.000,3352.4620,N,09831.1866,W,2,08,1.3,285.2,M,-23.7,M,0.8,0000*46
$GPGSA,A,3,11,31,14,01,25,22,32,18,,,,,1.9,1.3,1.4*34
$GPRMC,182241.000,A,3352.4620,N,09831.1866,W,0.04,132.56,310312,,,D*7D
$GPGGA,182242.000,3352.4619,N,09831.1866,W,2,08,1.3,284.9,M,-23.7,M,1.8,0000*44
$GPGSA,A,3,11,31,14,01,25,22,32,18,,,,,1.9,1.3,1.4*34
$GPRMC,182242.000,A,3352.4619,N,09831.1866,W,0.06,169.40,310312,,,D*7F
$GPGGA,182243.000,3352.4619,N,09831.1867,W,2,08,1.3,284.7,M,-23.7,M,0.8,0000*4B
$GPGSA,A,3,11,31,14,01,25,22,32,18,,,,,1.9,1.3,1.4*34
$GPRMC,182243.000,A,3352.4619,N,09831.1867,W,0.05,145.21,310312,,,D*75
$GPGGA,182244.000,3352.4618,N,09831.1867,W,2,08,1.3,284.4,M,-23.7,M,1.8,0000*4F
$GPGSA,A,3,11,31,14,01,25,22,32,18,,,,,1.9,1.3,1.4*34
$GPGSV,3,1,11,22,64,089,31,14,63,004,32,31,51,192,31,11,24,296,35*7C
$GPGSV,3,2,11,18,23,113,29,25,20,099,27,01,17,317,33,32,13,305,30*7C
$GPGSV,3,3,11,12,11,060,21,19,06,256,19,51,49,195,27*49
$GPRMC,182244.000,A,3352.4618,N,09831.1867,W,0.04,143.69,310312,,,D*78
$GPGGA,182245.000,3352.4618,N,09831.1868,W,2,08,1.3,284.2,M,-23.7,M,2.8,0000*44
$GPGSA,A,3,11,31,14,01,25,22,32,18,,,,,1.9,1.3,1.4*34
$GPRMC,182245.000,A,3352.4618,N,09831.1868,W,0.05,145.55,310312,,,D*7E
$GPGGA,182246.000,3352.4618,N,09831.1869,W,2,08,1.3,284.0,M,-23.7,M,0.8,0000*46
$GPGSA,A,3,11,31,14,01,25,22,32,18,,,,,1.9,1.3,1.4*34
$GPRMC,182246.000,A,3352.4618,N,09831.1869,W,0.05,166.10,310312,,,D*7C
$GPGGA,182247.000,3352.4617,N,09831.1869,W,2,08,1.3,283.8,M,-23.7,M,1.8,0000*46
$GPGSA,A,3,11,31,14,01,25,22,32,18,,,,,1.9,1.3,1.4*34
$GPRMC,182247.000,A,3352.4617,N,09831.1869,W,0.06,154.81,310312,,,D*78
$GPGGA,182248.000,3352.4618,N,09831.1867,W,2,08,1.3,283.8,M,-23.7,M,2.8,0000*4B
$GPGSA,A,3,11,31,14,01,25,22,32,18,,,,,1.9,1.3,1.4*34
$GPRMC,182248.000,A,3352.4618,N,09831.1867,W,0.06,86.76,310312,,,D*40
$GPGGA,182249.000,3352.4618,N,09831.1867,W,2,08,1.3,283.6,M,-23.7,M,3.8,0000*45
$GPGSA,A,3,11,31,14,01,25,22,32,18,,,,,1.9,1.3,1.4*34
$GPGSV,3,1,11,22,64,089,31,14,63,004,32,31,51,192,31,11,24,296,35*7C
$GPGSV,3,2,11,18,23,113,29,25,20,099,27,01,17,317,33,32,13,305,31*7D
$GPGSV,3,3,11,12,11,059,22,19,06,256,21,51,49,195,27*4B
$GPRMC,182249.000,A,3352.4618,N,09831.1867,W,0.03,158.64,310312,,,D*75
$GPGGA,182250.000,3352.4618,N,09831.1865,W,2,08,1.3,283.5,M,-23.7,M,4.8,0000*4B
$GPGSA,A,3,11,31,14,01,25,22,32,18,,,,,1.9,1.3,1.4*34
$GPRMC,182250.000,A,3352.4618,N,09831.1865,W,0.05,97.94,310312,,,D*44
$GPGGA,182251.000,3352.4619,N,09831.1865,W,2,08,1.3,283.5,M,-23.7,M,0.8,0000*4F
$GPGSA,A,3,11,31,14,01,25,22,32,18,,,,,1.9,1.3,1.4*34
$GPRMC,182251.000,A,3352.4619,N,09831.1865,W,0.05,91.03,310312,,,D*4C
$GPGGA,182252.000,3352.4619,N,09831.1865,W,2,08,1.3,283.5,M,-23.7,M,1.8,0000*4D
$GPGSA,A,3,11,31,14,01,25,22,32,18,,,,,1.9,1.3,1.4*34
$GPRMC,182252.000,A,3352.4619,N,09831.1865,W,0.05,106.73,310312,,,D*77
$GPGGA,182253.000,3352.4619,N,09831.1866,W,2,08,1.3,283.2,M,-23.7,M,0.8,0000*49
$GPGSA,A,3,11,31,14,01,25,22,32,18,,,,,1.9,1.3,1.4*34
$GPRMC,182253.000,A,3352.4619,N,09831.1866,W,0.05,109.97,310312,,,D*70
$GPGGA,182254.000,3352.4618,N,09831.1867,W,2,08,1.3,283.0,M,-23.7,M,1.8,0000*4D
$GPGSA,A,3,11,31,14,01,25,22,32,18,,,,,1.9,1.3,1.4*34
$GPGSV,3,1,11,22,64,089,31,14,63,004,32,31,51,192,31,11,24,296,34*7D
$GPGSV,3,2,11,18,23,113,30,25,20,099,28,01,17,317,33,32,13,305,31*7A
$GPGSV,3,3,11,12,11,059,22,19,06,256,22,51,49,195,28*47
$GPRMC,182254.000,A,3352.4618,N,09831.1867,W,0.06,158.73,310312,,,D*7A
$GPGGA,182255.000,3352.4617,N,09831.1867,W,2,08,1.3,282.8,M,-23.7,M,0.8,0000*4B
$GPGSA,A,3,11,31,14,01,25,22,32,18,,,,,1.9,1.3,1.4*34
$GPRMC,182255.000,A,3352.4617,N,09831.1867,W,0.04,116.08,310312,,,D*70
$GPGGA,182256.000,3352.4617,N,09831.1868,W,2,08,1.3,282.6,M,-23.7,M,1.8,0000*48
$GPGSA,A,3,11,31,14,01,25,22,32,18,,,,,1.9,1.3,1.4*34
$GPRMC,182256.000,A,3352.4617,N,09831.1868,W,0.06,146.29,310312,,,D*78
$GPGGA,182257.000,3352.4616,N,09831.1868,W,2,08,1.3,282.3,M,-23.7,M,0.8,0000*4C
$GPGSA,A,3,11,31,14,01,25,22,32,18,,,,,1.9,1.3,1.4*34
$GPRMC,182257.000,A,3352.4616,N,09831.1868,W,0.06,160.32,310312,,,D*76
$GPGGA,182258.000,3352.4616,N,09831.1869,W,2,08,1.3,282.2,M,-23.7,M,0.8,0000*43
$GPGSA,A,3,11,31,14,01,25,22,32,18,,,,,1.9,1.3,1.4*34
$GPRMC,182258.000,A,3352.4616,N,09831.1869,W,0.07,175.45,310312,,,D*7D
$GPGGA,182259.000,3352.4616,N,09831.1869,W,2,08,1.3,282.0,M,-23.7,M,0.8,0000*40
$GPGSA,A,3,11,31,14,01,25,22,32,18,,,,,1.9,1.3,1.4*34
$GPGSV,3,1,11,22,64,089,31,14,63,004,32,31,51,192,31,11,24,296,34*7D
$GPGSV,3,2,11,18,23,113,30,25,20,099,28,01,17,317,33,32,13,305,31*7A
$GPGSV,3,3,11,12,11,059,21,19,06,256,23,51,49,195,28*45
$GPRMC,182259.000,A,3352.4616,N,09831.1869,W,0.05,124.66,310312,,,D*7B
$GPGGA,182300.000,3352.4615,N,09831.1870,W,2,08,1.3,281.9,M,-23.7,M,1.8,0000*4D
$GPGSA,A,3,11,31,14,01,25,22,32,18,,,,,1.9,1.3,1.4*34
$GPRMC,182300.000,A,3352.4615,N,09831.1870,W,0.05,171.85,310312,,,D*70
$GPGGA,182301.000,3352.4616,N,09831.1867,W,2,08,1.3,282.0,M,-23.7,M,2.8,0000*40
$GPGSA,A,3,11,31,14,01,25,22,32,18,,,,,1.9,1.3,1.4*34
$GPRMC,182301.000,A,3352.4616,N,09831.1867,W,0.07,69.27,310312,,,D*46
$GPGGA,182302.000,3352.4617,N,09831.1864,W,2,08,1.3,281.9,M,-23.7,M,3.8,0000*4A
$GPGSA,A,3,11,31,14,01,25,22,32,18,,,,,1.9,1.3,1.4*34
$GPRMC,182302.000,A,3352.4617,N,09831.1864,W,0.06,86.28,310312,,,D*48
$GPGGA,182303.000,3352.4618,N,09831.1862,W,2,08,1.3,281.8,M,-23.7,M,0.8,0000*40
$GPGSA,A,3,11,31,14,01,25,22,32,18,,,,,1.9,1.3,1.4*34
$GPRMC,182303.000,A,3352.4618,N,09831.1862,W,0.11,48.27,310312,,,D*4B
$GPGGA,182304.000,3352.4617,N,09831.1862,W,2,08,1.3,281.7,M,-23.7,M,0.8,0000*47
$GPGSA,A,3,11,31,14,01,25,22,32,18,,,,,1.9,1.3,1.4*34
$GPGSV,3,1,11,22,64,089,31,14,63,004,32,31,51,192,30,11,24,296,34*7C
$GPGSV,3,2,11,18,23,113,30,25,20,099,29,01,17,317,33,32,13,305,31*7B
$GPGSV,3,3,11,12,11,059,20,19,06,256,23,51,49,195,27*4B
$GPRMC,182304.000,A,3352.4617,N,09831.1862,W,0.03,120.09,310312,,,D*73
$GPGGA,182305.000,3352.4618,N,09831.1860,W,2,08,1.3,281.7,M,-23.7,M,0.8,0000*4B
$GPGSA,A,3,11,31,14,01,25,22,32,18,,,,,1.9,1.3,1.4*34
$GPRMC,182305.000,A,3352.4618,N,09831.1860,W,0.03,111.64,310312,,,D*76
$GPGGA,182306.000,3352.4617,N,09831.1861,W,2,08,1.3,281.5,M,-23.7,M,0.8,0000*44
$GPGSA,A,3,11,31,14,01,25,22,32,18,,,,,1.9,1.3,1.4*34
$GPRMC,182306.000,A,3352.4617,N,09831.1861,W,0.04,178.42,310312,,,D*77
$GPGGA,182307.000,3352.4617,N,09831.1862,W,2,08,1.3,281.4,M,-23.7,M,1.8,0000*46
$GPGSA,A,3,11,31,14,01,25,22,32,18,,,,,1.9,1.3,1.4*34
$GPRMC,182307.000,A,3352.4617,N,09831.1862,W,0.06,194.28,310312,,,D*79
$GPGGA,182308.000,3352.4617,N,09831.1860,W,2,08,1.3,281.4,M,-23.7,M,2.8,0000*48
$GPGSA,A,3,11,31,14,01,25,22,32,18,,,,,1.9,1.3,1.4*34
$GPRMC,182308.000,A,3352.4617,N,09831.1860,W,0.04,168.32,310312,,,D*7E
$GPGGA,182309.000,3352.4618,N,09831.1858,W,2,08,1.3,281.6,M,-23.7,M,3.8,0000*4E
$GPGSA,A,3,11,31,14,01,25,22,32,18,,,,,1.9,1.3,1.4*34
$GPGSV,3,1,11,22,64,089,32,14,63,004,32,31,51,192,30,11,24,296,35*7E
$GPGSV,3,2,11,18,23,113,29,25,20,099,29,01,17,317,34,32,13,305,31*74
$GPGSV,3,3,11,12,11,059,21,19,06,256,23,51,49,195,27*4A
$GPRMC,182309.000,A,3352.4618,N,09831.1858,W,0.04,59.75,310312,,,D*4B
$GPGGA,182310.000,3352.4619,N,09831.1856,W,2,08,1.3,281.6,M,-23.7,M,0.8,0000*4A
$GPGSA,A,3,11,31,14,01,25,22,32,18,,,,,1.9,1.3,1.4*34
$GPRMC,182310.000,A,3352.4619,N,09831.1856,W,0.06,66.32,310312,,,D*41
$GPGGA,182311.000,3352.4619,N,09831.1854,W,2,08,1.3,281.5,M,-23.7,M,0.8,0000*4A
$GPGSA,A,3,11,31,14,01,25,22,32,18,,,,,1.9,1.3,1.4*34
$GPRMC,182311.000,A,3352.4619,N,09831.1854,W,0.06,59.50,310312,,,D*4A
$GPGGA,182312.000,3352.4619,N,09831.1853,W,2,08,1.3,281.5,M,-23.7,M,1.8,0000*4F
$GPGSA,A,3,11,31,14,01,25,22,32,18,,,,,1.9,1.3,1.4*34
$GPRMC,182312.000,A,3352.4619,N,09831.1853,W,0.09,48.15,310312,,,D*40
$GPGGA,182313.000,3352.4619,N,09831.1851,W,2,08,1.3,281.4,M,-23.7,M,2.8,0000*4E
$GPGSA,A,3,11,31,14,01,25,22,32,18,,,,,1.9,1.3,1.4*34
$GPRMC,182313.000,A,3352.4619,N,09831.1851,W,0.05,54.31,310312,,,D*44
$GPGGA,182314.000,3352.4619,N,09831.1850,W,2,08,1.3,281.3,M,-23.7,M,3.8,0000*4E
$GPGSA,A,3,11,31,14,01,25,22,32,18,,,,,1.9,1.3,1.4*34
$GPGSV,3,1,11,22,64,089,32,14,63,004,32,31,51,192,30,11,24,296,35*7E
$GPGSV,3,2,11,18,23,113,29,25,20,099,29,01,17,317,34,32,13,305,30*75
$GPGSV,3,3,11,12,11,059,21,19,06,256,22,51,49,195,27*4B
$GPRMC,182314.000,A,3352.4619,N,09831.1850,W,0.06,64.93,310312,,,D*4A
$GPGGA,182315.000,3352.4619,N,09831.1848,W,2,08,1.3,281.2,M,-23.7,M,0.8,0000*44
$GPGSA,A,3,11,31,14,01,25,22,32,18,,,,,1.9,1.3,1.4*34
$GPRMC,182315.000,A,3352.4619,N,09831.1848,W,0.05,42.36,310312,,,D*4A
$GPGGA,182316.000,3352.4619,N,09831.1847,W,2,08,1.3,281.0,M,-23.7,M,1.8,0000*4B
$GPGSA,A,3,11,31,14,01,25,22,32,18,,,,,1.9,1.3,1.4*34
$GPRMC,182316.000,A,3352.4619,N,09831.1847,W,0.04,80.86,310312,,,D*42
$GPGGA,182317.000,3352.4619,N,09831.1846,W,2,08,1.3,280.9,M,-23.7,M,2.8,0000*40
$GPGSA,A,3,11,31,14,01,25,22,32,18,,,,,1.9,1.3,1.4*34
$GPRMC,182317.000,A,3352.4619,N,09831.1846,W,0.03,86.01,310312,,,D*4C
$GPGGA,182318.000,3352.4619,N,09831.1845,W,2,08,1.3,280.7,M,-23.7,M,3.8,0000*43
$GPGSA,A,3,11,31,14,01,25,22,32,18,,,,,1.9,1.3,1.4*34
$GPRMC,182318.000,A,3352.4619,N,09831.1845,W,0.04,91.70,310312,,,D*47
$GPGGA,182319.000,3352.4619,N,09831.1843,W,2,08,1.3,280.6,M,-23.7,M,4.8,0000*42
$GPGSA,A,3,11,31,14,01,25,22,32,18,,,,,1.9,1.3,1.4*34
$GPGSV,3,1,11,22,64,090,32,14,63,005,32,31,52,192,30,11,24,295,36*74
$GPGSV,3,2,11,18,22,113,29,25,20,099,29,01,17,316,34,32,13,305,30*75
$GPGSV,3,3,11,12,11,059,20,19,06,256,22,51,49,195,27*4A
$GPRMC,182319.000,A,3352.4619,N,09831.1843,W,0.05,63.92,310312,,,D*40
$GPGGA,182320.000,3352.4619,N,09831.1842,W,2,08,1.3,280.4,M,-23.7,M,0.8,0000*4F
$GPGSA,A,3,11,31,14,01,25,22,32,18,,,,,1.9,1.3,1.4*34
$GPRMC,182320.000,A,3352.4619,N,09831.1842,W,0.02,129.30,310312,,,D*7B
$GPGGA,182321.000,3352.4619,N,09831.1841,W,2,08,1.3,280.2,M,-23.7,M,0.8,0000*4B
$GPGSA,A,3,11,31,14,01,25,22,32,18,,,,,1.9,1.3,1.4*34
$GPRMC,182321.000,A,3352.4619,N,09831.1841,W,0.04,93.92,310312,,,D*47
$GPGGA,182322.000,3352.4619,N,09831.1840,W,2,08,1.3,280.0,M,-23.7,M,0.8,0000*4B
$GPGSA,A,3,11,31,14,01,25,22,32,18,,,,,1.9,1.3,1.4*34
$GPRMC,182322.000,A,3352.4619,N,09831.1840,W,0.02,120.76,310312,,,D*70
$GPGGA,182323.000,3352.4619,N,09831.1839,W,2,08,1.3,279.8,M,-23.7,M,1.8,0000*4B
$GPGSA,A,3,11,31,14,01,25,22,32,18,,,,,1.9,1.3,1.4*34
$GPRMC,182323.000,A,3352.4619,N,09831.1839,W,0.04,102.52,310312,,,D*7F
$GPGGA,182324.000,3352.4619,N,09831.1838,W,2,08,1.3,279.6,M,-23.7,M,2.8,0000*40
$GPGSA,A,3,11,31,14,01,25,22,32,18,,,,,1.9,1.3,1.4*34
$GPGSV,3,1,11,22,64,090,32,14,63,005,32,31,52,192,31,11,24,295,36*75
$GPGSV,3,2,11,18,22,113,29,25,20,099,28,01,17,316,34,32,13,305,29*7C
$GPGSV,3,3,11,12,11,059,15,19,06,256,21,51,49,195,27*4F
$GPRMC,182324.000,A,3352.4619,N,09831.1838,W,0.02,121.71,310312,,,D*7F
$GPGGA,182325.000,3352.4620,N,09831.1844,W,2,08,1.3,281.9,M,-23.7,M,3.8,0000*49
$GPGSA,A,3,11,31,14,01,25,22,32,18,,,,,1.9,1.3,1.4*34
$GPRMC,182325.000,A,3352.4620,N,09831.1844,W,0.01,108.61,310312,,,D*76
$GPGGA,182326.000,3352.4621,N,09831.1850,W,2,08,1.3,283.6,M,-23.7,M,4.8,0000*44
$GPGSA,A,3,11,31,14,01,25,22,32,18,,,,,1.9,1.3,1.4*34
$GPRMC,182326.000,A,3352.4621,N,09831.1850,W,0.03,342.81,310312,,,D*71
$GPGGA,182327.000,3352.4622,N,09831.1853,W,2,08,1.3,285.0,M,-23.7,M,5.8,0000*44
$GPGSA,A,3,11,31,14,01,25,22,32,18,,,,,1.9,1.3,1.4*34
$GPRMC,182327.000,A,3352.4622,N,09831.1853,W,0.02,4.52,310312,,,D*7E
$GPGGA,182328.000,3352.4622,N,09831.1856,W,2,08,1.3,286.0,M,-23.7,M,0.8,0000*48
$GPGSA,A,3,11,31,14,01,25,22,32,18,,,,,1.9,1.3,1.4*34
$GPRMC,182328.000,A,3352.4622,N,09831.1856,W,0.07,11.57,310312,,,D*40
$GPGGA,182329.000,3352.4623,N,09831.1859,W,2,08,1.3,286.9,M,-23.7,M,0.8,0000*4E
$GPGSA,A,3,11,31,14,01,25,22,32,18,,,,,1.9,1.3,1.4*34
$GPGSV,3,1,11,22,64,090,32,14,63,005,32,31,52,192,31,11,24,295,36*75
$GPGSV,3,2,11,18,22,113,29,25,20,099,29,01,17,316,34,32,13,305,28*7C
$GPGSV,3,3,11,12,11,059,15,19,06,256,21,51,49,195,27*4F
$GPRMC,182329.000,A,3352.4623,N,09831.1859,W,0.03,322.41,310312,,,D*7F
$GPGGA,182330.000,3352.4623,N,09831.1861,W,2,08,1.3,287.7,M,-23.7,M,1.8,0000*43
$GPGSA,A,3,11,31,14,01,25,22,32,18,,,,,1.9,1.3,1.4*34
$GPRMC,182330.000,A,3352.4623,N,09831.1861,W,0.03,356.98,310312,,,D*7B
$GPGGA,182331.000,3352.4624,N,09831.1863,W,2,08,1.3,288.3,M,-23.7,M,0.8,0000*4D
$GPGSA,A,3,11,31,14,01,25,22,32,18,,,,,1.9,1.3,1.4*34
$GPRMC,182331.000,A,3352.4624,N,09831.1863,W,0.05,11.96,310312,,,D*47
$GPGGA,182332.000,3352.4624,N,09831.1865,W,2,08,1.3,288.9,M,-23.7,M,1.8,0000*43
$GPGSA,A,3,11,31,14,01,25,22,32,18,,,,,1.9,1.3,1.4*34
$GPRMC,182332.000,A,3352.4624,N,09831.1865,W,0.02,349.11,310312,,,D*74
$GPGGA,182333.000,3352.4626,N,09831.1866,W,2,08,1.3,289.7,M,-23.7,M,0.8,0000*4D
$GPGSA,A,3,11,31,14,01,25,22,32,18,,,,,1.9,1.3,1.4*34
$GPRMC,182333.000,A,3352.4626,N,09831.1866,W,0.08,8.95,310312,,,D*74
$GPGGA,182334.000,3352.4627,N,09831.1866,W,2,08,1.3,290.1,M,-23.7,M,0.8,0000*45
$GPGSA,A,3,11,31,14,01,25,22,32,18,,,,,1.9,1.3,1.4*34
$GPGSV,3,1,11,22,64,090,32,14,63,005,32,31,52,192,31,11,24,295,36*75
$GPGSV,3,2,11,18,22,113,29,25,20,099,29,01,17,316,34,32,13,305,27*73
$GPGSV,3,3,11,12,11,059,16,19,06,256,21,51,49,195,27*4C
$GPRMC,182334.000,A,3352.4627,N,09831.1866,W,0.02,352.64,310312,,,D*7A
$GPGGA,182335.000,3352.4628,N,09831.1865,W,2,08,1.3,290.4,M,-23.7,M,0.8,0000*4D
$GPGSA,A,3,11,31,14,01,25,22,32,18,,,,,1.9,1.3,1.4*34
$GPRMC,182335.000,A,3352.4628,N,09831.1865,W,0.04,30.50,310312,,,D*41
$GPGGA,182336.000,3352.4630,N,09831.1865,W,2,08,1.3,290.8,M,-23.7,M,1.8,0000*4A
$GPGSA,A,3,11,31,14,01,25,22,32,18,,,,,1.9,1.3,1.4*34
$GPRMC,182336.000,A,3352.4630,N,09831.1865,W,0.06,41.39,310312,,,D*40
$GPGGA,182337.000,3352.4629,N,09831.1865,W,2,08,1.3,290.6,M,-23.7,M,0.8,0000*4C
$GPGSA,A,3,11,31,14,01,25,22,32,18,,,,,1.9,1.3,1.4*34
$GPRMC,182337.000,A,3352.4629,N,09831.1865,W,0.02,207.02,310312,,,D*75
$GPGGA,182338.000,3352.4628,N,09831.1865,W,2,08,1.3,290.5,M,-23.7,M,1.8,0000*40
$GPGSA,A,3,11,31,14,01,25,22,32,18,,,,,1.9,1.3,1.4*34
$GPRMC,182338.000,A,3352.4628,N,09831.1865,W,0.05,172.74,310312,,,D*7C
$GPGGA,182339.000,3352.4629,N,09831.1865,W,2,08,1.3,290.7,M,-23.7,M,2.8,0000*41
$GPGSA,A,3,11,31,14,01,25,22,32,18,,,,,1.9,1.3,1.4*34
$GPGSV,3,1,11,22,64,090,32,14,63,005,32,31,52,192,31,11,24,295,35*76
$GPGSV,3,2,11,18,22,113,29,25,20,099,30,01,17,316,34,32,13,305,26*7A
$GPGSV,3,3,11,12,11,059,18,19,06,256,21,51,49,195,27*42
$GPRMC,182339.000,A,3352.4629,N,09831.1865,W,0.04,89.36,310312,,,D*4E
$GPGGA,182340.000,3352.4628,N,09831.1865,W,2,08,1.3,290.6,M,-23.7,M,0.8,0000*4D
$GPGSA,A,3,11,31,14,01,25,22,32,18,,,,,1.9,1.3,1.4*34
$GPRMC,182340.000,A,3352.4628,N,09831.1865,W,0.06,64.92,310312,,,D*4E
$GPGGA,182341.000,3352.4628,N,09831.1865,W,2,08,1.3,290.4,M,-23.7,M,1.8,0000*4F
$GPGSA,A,3,11,31,14,01,25,22,32,18,,,,,1.9,1.3,1.4*34
$GPRMC,182341.000,A,3352.4628,N,09831.1865,W,0.03,51.59,310312,,,D*4B
$GPGGA,182342.000,3352.4628,N,09831.1865,W,2,08,1.3,290.3,M,-23.7,M,2.8,0000*48
$GPGSA,A,3,11,31,14,01,25,22,32,18,,,,,1.9,1.3,1.4*34
$GPRMC,182342.000,A,3352.4628,N,09831.1865,W,0.07,44.52,310312,,,D*43
$GPGGA,182343.000,3352.4627,N,09831.1865,W,2,08,1.3,290.1,M,-23.7,M,3.8,0000*45
$GPGSA,A,3,11,31,14,01,25,22,32,18,,,,,1.9,1.3,1.4*34
$GPRMC,182343.000,A,3352.4627,N,09831.1865,W,0.05,37.28,310312,,,D*46
$GPGGA,182344.000,3352.4627,N,09831.1865,W,2,08,1.3,290.0,M,-23.7,M,4.8,0000*44
$GPGSA,A,3,11,31,14,01,25,22,32,18,,,,,1.9,1.3,1.4*34
$GPGSV,3,1,11,22,64,090,32,14,63,005,32,31,52,192,31,11,24,295,35*76
$GPGSV,3,2,11,18,22,113,29,25,20,099,30,01,17,316,34,32,13,305,25*79
$GPGSV,3,3,11,12,11,059,20,19,06,256,21,51,49,195,27*49
$GPRMC,182344.000,A,3352.4627,N,09831.1865,W,0.03,77.58,310312,,,D*44
$GPGGA,182345.000,3352.4627,N,09831.1866,W,2,08,1.3,289.8,M,-23.7,M,5.8,0000*47
$GPGSA,A,3,11,31,14,01,25,22,32,18,,,,,1.9,1.3,1.4*34
$GPRMC,182345.000,A,3352.4627,N,09831.1866,W,0.05,44.12,310312,,,D*4E
$GPGGA,182346.000,3352.4626,N,09831.1866,W,2,08,1.3,289.7,M,-23.7,M,0.8,0000*4F
$GPGSA,A,3,11,31,14,01,25,22,32,18,,,,,1.9,1.3,1.4*34
$GPRMC,182346.000,A,3352.4626,N,09831.1866,W,0.04,126.53,310312,,,D*7D
$GPGGA,182347.000,3352.4626,N,09831.1866,W,2,08,1.3,289.6,M,-23.7,M,1.8,0000*4E
$GPGSA,A,3,11,31,14,01,25,22,32,18,,,,,1.9,1.3,1.4*34
$GPRMC,182347.000,A,3352.4626,N,09831.1866,W,0.05,204.00,310312,,,D*78
$GPGGA,182348.000,3352.4626,N,09831.1866,W,2,08,1.3,289.5,M,-23.7,M,2.8,0000*41
$GPGSA,A,3,11,31,14,01,25,22,32,18,,,,,1.9,1.3,1.4*34
$GPRMC,182348.000,A,3352.4626,N,09831.1866,W,0.05,166.28,310312,,,D*7A
$GPGGA,182349.000,3352.4625,N,09831.1866,W,2,08,1.3,289.4,M,-23.7,M,3.8,0000*43
$GPGSA,A,3,11,31,14,01,25,22,32,18,,,,,1.9,1.3,1.4*34
$GPGSV,3,1,11,22,64,090,32,14,63,005,32,31,52,192,32,11,24,295,35*75
$GPGSV,3,2,11,18,22,113,29,25,20,099,30,01,17,316,34,32,13,305,25*79
$GPGSV,3,3,11,12,11,059,20,19,06,256,22,51,49,195,27*4A
$GPRMC,182349.000,A,3352.4625,N,09831.1866,W,0.06,165.70,310312,,,D*75
$GPGGA,182350.000,3352.4625,N,09831.1867,W,2,08,1.3,289.3,M,-23.7,M,4.8,0000*4A
$GPGSA,A,3,11,31,14,01,25,22,32,18,,,,,1.9,1.3,1.4*34
$GPRMC,182350.000,A,3352.4625,N,09831.1867,W,0.03,150.88,310312,,,D*78
$GPGGA,182351.000,3352.4625,N,09831.1867,W,2,08,1.3,289.2,M,-23.7,M,0.8,0000*4E
$GPGSA,A,3,11,31,14,01,25,22,32,18,,,,,1.9,1.3,1.4*34
$GPRMC,182351.000,A,3352.4625,N,09831.1867,W,0.06,156.69,310312,,,D*75
$GPGGA,182352.000,3352.4624,N,09831.1866,W,2,08,1.3,289.2,M,-23.7,M,0.8,0000*4D
$GPGSA,A,3,11,31,14,01,25,22,32,18,,,,,1.9,1.3,1.4*34
$GPRMC,182352.000,A,3352.4624,N,09831.1866,W,0.07,52.99,310312,,,D*4D
$GPGGA,182353.000,3352.4625,N,09831.1866,W,2,08,1.3,289.1,M,-23.7,M,0.8,0000*4E
$GPGSA,A,3,11,31,14,01,25,22,32,18,,,,,1.9,1.3,1.4*34
$GPRMC,182353.000,A,3352.4625,N,09831.1866,W,0.04,38.23,310312,,,D*43
$GPGGA,182354.000,3352.4625,N,09831.1866,W,2,08,1.3,288.9,M,-23.7,M,0.8,0000*40
$GPGSA,A,3,11,31,14,01,25,22,32,18,,,,,1.9,1.3,1.4*34
$GPGSV,3,1,11,22,64,090,32,14,63,005,32,31,52,192,32,11,24,295,35*75
$GPGSV,3,2,11,18,22,113,29,25,20,099,29,01,17,316,33,32,13,305,25*76
$GPGSV,3,3,11,12,11,059,21,19,06,256,21,51,49,195,27*48
$GPRMC,182354.000,A,3352.4625,N,09831.1866,W,0.05,70.88,310312,,,D*48
$GPGGA,182355.000,3352.4625,N,09831.1866,W,2,08,1.3,288.8,M,-23.7,M,1.8,0000*41
$GPGSA,A,3,11,31,14,01,25,22,32,18,,,,,1.9,1.3,1.4*34
$GPRMC,182355.000,A,3352.4625,N,09831.1866,W,0.04,41.31,310312,,,D*48
$GPGGA,182356.000,3352.4626,N,09831.1867,W,2,08,1.3,289.1,M,-23.7,M,2.8,0000*4B
$GPGSA,A,3,11,31,14,01,25,22,32,18,,,,,1.9,1.3,1.4*34
$GPRMC,182356.000,A,3352.4626,N,09831.1867,W,0.06,42.81,310312,,,D*43
$GPGGA,182357.000,3352.4626,N,09831.1868,W,2,08,1.3,289.4,M,-23.7,M,3.8,0000*41
$GPGSA,A,3,11,31,14,01,25,22,32,18,,,,,1.9,1.3,1.4*34
$GPRMC,182357.000,A,3352.4626,N,09831.1868,W,0.04,11.63,310312,,,D*45
$GPGGA,182358.000,3352.4627,N,09831.1869,W,2,08,1.3,289.7,M,-23.7,M,0.8,0000*4E
$GPGSA,A,3,11,31,14,01,25,22,32,18,,,,,1.9,1.3,1.4*34
$GPRMC,182358.000,A,3352.4627,N,09831.1869,W,0.03,149.44,310312,,,D*74
$GPGGA,182359.000,3352.4627,N,09831.1870,W,2,08,1.3,289.9,M,-23.7,M,1.8,0000*48
$GPGSA,A,3,11,31,14,01,25,22,32,18,,,,,1.9,1.3,1.4*34
$GPGSV,3,1,11,22,64,090,32,14,63,005,32,31,52,192,33,11,24,295,35*74
$GPGSV,3,2,11,18,22,113,30,25,20,099,29,01,17,316,33,32,13,305,25*7E
$GPGSV,3,3,11,12,11,059,21,19,06,256,21,51,49,195,28*47
$GPRMC,182359.000,A,3352.4627,N,09831.1870,W,0.05,168.33,310312,,,D*78
$GPGGA,182400.000,3352.4627,N,09831.1871,W,2,08,1.3,290.1,M,-23.7,M,2.8,0000*41
$GPGSA,A,3,11,31,14,01,25,22,32,18,,,,,1.9,1.3,1.4*34
$GPRMC,182400.000,A,3352.4627,N,09831.1871,W,0.01,183.15,310312,,,D*77
$GPGGA,182401.000,3352.4627,N,09831.1872,W,2,08,1.3,290.3,M,-23.7,M,3.8,0000*40
$GPGSA,A,3,11,31,14,01,25,22,32,18,,,,,1.9,1.3,1.4*34
$GPRMC,182401.000,A,3352.4627,N,09831.1872,W,0.04,201.95,310312,,,D*71
$GPGGA,182402.000,3352.4628,N,09831.1873,W,2,08,1.3,290.5,M,-23.7,M,4.8,0000*4C
$GPGSA,A,3,11,31,14,01,25,22,32,18,,,,,1.9,1.3,1.4*34
$GPRMC,182402.000,A,3352.4628,N,09831.1873,W,0.05,200.83,310312,,,D*7B
$GPGGA,182403.000,3352.4628,N,09831.1874,W,2,08,1.3,290.6,M,-23.7,M,0.8,0000*4D
$GPGSA,A,3,11,31,14,01,25,22,32,18,,,,,1.9,1.3,1.4*34
$GPRMC,182403.000,A,3352.4628,N,09831.1874,W,0.03,204.10,310312,,,D*75
$GPGGA,182404.000,3352.4628,N,09831.1874,W,2,08,1.3,290.7,M,-23.7,M,1.8,0000*4A
$GPGSA,A,3,11,31,14,01,25,22,32,18,,,,,1.9,1.3,1.4*34
$GPGSV,3,1,11,22,64,090,32,14,63,005,33,31,52,192,33,11,24,295,35*75
$GPGSV,3,2,11,18,22,113,30,25,20,099,29,01,17,316,33,32,13,305,26*7D
$GPGSV,3,3,11,12,11,059,21,19,06,256,22,51,49,195,27*4B
$GPRMC,182404.000,A,3352.4628,N,09831.1874,W,0.05,184.57,310312,,,D*7C
$GPGGA,182405.000,3352.4628,N,09831.1875,W,2,08,1.3,290.9,M,-23.7,M,2.8,0000*47
$GPGSA,A,3,11,31,14,01,25,22,32,18,,,,,1.9,1.3,1.4*34
$GPRMC,182405.000,A,3352.4628,N,09831.1875,W,0.05,207.39,310312,,,D*7C
$GPGGA,182406.000,3352.4628,N,09831.1876,W,2,08,1.3,291.0,M,-23.7,M,3.8,0000*4E
$GPGSA,A,3,11,31,14,01,25,22,32,18,,,,,1.9,1.3,1.4*34
$GPRMC,182406.000,A,3352.4628,N,09831.1876,W,0.06,197.12,310312,,,D*7C
$GPGGA,182407.000,3352.4628,N,09831.1876,W,2,08,1.3,291.1,M,-23.7,M,4.8,0000*49
$GPGSA,A,3,11,31,14,01,25,22,32,18,,,,,1.9,1.3,1.4*34
$GPRMC,182407.000,A,3352.4628,N,09831.1876,W,0.03,202.89,310312,,,D*75
$GPGGA,182408.000,3352.4628,N,09831.1877,W,2,08,1.3,291.2,M,-23.7,M,5.8,0000*45
$GPGSA,A,3,11,31,14,01,25,22,32,18,,,,,1.9,1.3,1.4*34
$GPRMC,182408.000,A,3352.4628,N,09831.1877,W,0.06,194.75,310312,,,D*71
$GPGGA,182409.000,3352.4628,N,09831.1877,W,2,08,1.3,291.4,M,-23.7,M,6.8,0000*41
$GPGSA,A,3,11,31,14,01,25,22,32,18,,,,,1.9,1.3,1.4*34
$GPGSV,3,1,11,22,64,090,32,14,63,005,32,31,52,192,32,11,24,295,36*76
$GPGSV,3,2,11,18,22,113,31,25,20,099,29,01,17,316,33,32,13,305,26*7C
$GPGSV,3,3,11,12,11,059,21,19,06,256,23,51,49,195,27*4A
$GPRMC,182409.000,A,3352.4628,N,09831.1877,W,0.04,186.12,310312,,,D*70
$GPGGA,182410.000,3352.4628,N,09831.1878,W,2,08,1.3,291.5,M,-23.7,M,7.8,0000*46
$GPGSA,A,3,11,31,14,01,25,22,32,18,,,,,1.9,1.3,1.4*34
$GPRMC,182410.000,A,3352.4628,N,09831.1878,W,0.07,200.43,310312,,,D*7D
$GPGGA,182411.000,3352.4628,N,09831.1879,W,2,08,1.3,291.6,M,-23.7,M,0.8,0000*42
$GPGSA,A,3,11,31,14,01,25,22,32,18,,,,,1.9,1.3,1.4*34
$GPRMC,182411.000,A,3352.4628,N,09831.1879,W,0.06,197.53,310312,,,D*70
$GPGGA,182412.000,3352.4628,N,09831.1879,W,2,08,1.3,291.7,M,-23.7,M,1.8,0000*41
$GPGSA,A,3,11,31,14,01,25,22,32,18,,,,,1.9,1.3,1.4*34
$GPRMC,182412.000,A,3352.4628,N,09831.1879,W,0.04,199.74,310312,,,D*7A
$GPGGA,182413.000,3352.4628,N,09831.1880,W,2,08,1.3,291.8,M,-23.7,M,2.8,0000*4A
$GPGSA,A,3,11,31,14,01,25,22,32,18,,,,,1.9,1.3,1.4*34
$GPRMC,182413.000,A,3352.4628,N,09831.1880,W,0.04,185.35,310312,,,D*75
$GPGGA,182414.000,3352.4628,N,09831.1880,W,2,08,1.3,291.9,M,-23.7,M,3.8,0000*4D
$GPGSA,A,3,11,31,14,01,25,22,32,18,,,,,1.9,1.3,1.4*34
$GPGSV,3,1,11,22,64,090,32,14,63,005,32,31,52,192,32,11,24,295,36*76
$GPGSV,3,2,11,18,22,113,31,25,20,099,29,01,17,316,33,32,13,305,27*7D
$GPGSV,3,3,11,12,11,059,20,19,06,256,23,51,49,195,28*44
$GPRMC,182414.000,A,3352.4628,N,09831.1880,W,0.02,169.63,310312,,,D*75
$GPGGA,182415.000,3352.4628,N,09831.1881,W,2,08,1.3,292.0,M,-23.7,M,0.8,0000*44
$GPGSA,A,3,11,31,14,01,25,22,32,18,,,,,1.9,1.3,1.4*34
$GPRMC,182415.000,A,3352.4628,N,09831.1881,W,0.05,198.16,310312,,,D*7E
$GPGGA,182416.000,3352.4628,N,09831.1881,W,2,08,1.3,292.0,M,-23.7,M,1.8,0000*46
$GPGSA,A,3,11,31,14,01,25,22,32,18,,,,,1.9,1.3,1.4*34
$GPRMC,182416.000,A,3352.4628,N,09831.1881,W,0.06,193.71,310312,,,D*74
$GPGGA,182417.000,3352.4628,N,09831.1882,W,2,08,1.3,292.1,M,-23.7,M,2.8,0000*46
$GPGSA,A,3,11,31,14,01,25,22,32,18,,,,,1.9,1.3,1.4*34
$GPRMC,182417.000,A,3352.4628,N,09831.1882,W,0.05,198.27,310312,,,D*7D
$GPGGA,182418.000,3352.4628,N,09831.1882,W,2,08,1.3,292.2,M,-23.7,M,3.8,0000*4B
$GPGSA,A,3,11,31,14,01,25,22,32,18,,,,,1.9,1.3,1.4*34
$GPRMC,182418.000,A,3352.4628,N,09831.1882,W,0.03,199.37,310312,,,D*74
$GPGGA,182419.000,3352.4628,N,09831.1883,W,2,08,1.3,292.2,M,-23.7,M,4.8,0000*4C
$GPGSA,A,3,11,31,14,01,25,22,32,18,,,,,1.9,1.3,1.4*34
$GPGSV,3,1,11,22,64,091,32,14,62,006,32,31,52,192,32,11,24,295,37*74
$GPGSV,3,2,11,18,22,114,31,25,20,099,29,01,17,316,34,32,13,306,27*7E
$GPGSV,3,3,11,12,11,059,20,19,06,256,24,51,49,195,28*43
$GPRMC,182419.000,A,3352.4628,N,09831.1883,W,0.03,154.44,310312,,,D*71
$GPGGA,182420.000,3352.4628,N,09831.1883,W,2,08,1.3,292.3,M,-23.7,M,5.8,0000*46
$GPGSA,A,3,11,31,14,01,25,22,32,18,,,,,1.9,1.3,1.4*34
$GPRMC,182420.000,A,3352.4628,N,09831.1883,W,0.09,206.17,310312,,,D*73
$GPGGA,182421.000,3352.4628,N,09831.1884,W,2,08,1.3,292.3,M,-23.7,M,6.8,0000*43
$GPGSA,A,3,11,31,14,01,25,22,32,18,,,,,1.9,1.3,1.4*34
$GPRMC,182421.000,A,3352.4628,N,09831.1884,W,0.05,181.71,310312,,,D*75
$GPGGA,182422.000,3352.4628,N,09831.1884,W,2,08,1.3,292.4,M,-23.7,M,7.8,0000*46
$GPGSA,A,3,11,31,14,01,25,22,32,18,,,,,1.9,1.3,1.4*34
$GPRMC,182422.000,A,3352.4628,N,09831.1884,W,0.05,193.58,310312,,,D*7E
$GPGGA,182423.000,3352.4628,N,09831.1884,W,2,08,1.3,292.4,M,-23.7,M,8.8,0000*48
$GPGSA,A,3,11,31,14,01,25,22,32,18,,,,,1.9,1.3,1.4*34
$GPRMC,182423.000,A,3352.4628,N,09831.1884,W,0.05,194.88,310312,,,D*75
$GPGGA,182424.000,3352.4628,N,09831.1885,W,2,08,1.3,292.4,M,-23.7,M,9.8,0000*4F
$GPGSA,A,3,11,31,14,01,25,22,32,18,,,,,1.9,1.3,1.4*34
$GPGSV,3,1,11,22,64,091,32,14,62,006,32,31,52,192,32,11,24,295,36*75
$GPGSV,3,2,11,18,22,114,31,25,20,099,29,01,17,316,34,32,13,306,27*7E
$GPGSV,3,3,11,12,11,059,20,19,06,256,24,51,49,195,28*43
$GPRMC,182424.000,A,3352.4628,N,09831.1885,W,0.03,181.72,310312,,,D*74
$GPGGA,182425.000,3352.4628,N,09831.1885,W,2,08,1.3,292.5,M,-23.7,M,10.8,0000*77
$GPGSA,A,3,11,31,14,01,25,22,32,18,,,,,1.9,1.3,1.4*34
$GPRMC,182425.000,A,3352.4628,N,09831.1885,W,0.06,179.54,310312,,,D*73
$GPGGA,182426.000,3352.4628,N,09831.1885,W,2,08,1.3,292.5,M,-23.7,M,11.8,0000*75
$GPGSA,A,3,11,31,14,01,25,22,32,18,,,,,1.9,1.3,1.4*34
$GPRMC,182426.000,A,3352.4628,N,09831.1885,W,0.04,196.18,310312,,,D*7B
$GPGGA,182427.000,3352.4628,N,09831.1886,W,2,08,1.3,292.6,M,-23.7,M,0.8,0000*44
$GPGSA,A,3,11,31,14,01,25,22,32,18,,,,,1.9,1.3,1.4*34
$GPRMC,182427.000,A,3352.4628,N,09831.1886,W,0.05,175.10,310312,,,D*7D
$GPGGA,182428.000,3352.4628,N,09831.1886,W,2,08,1.3,292.7,M,-23.7,M,1.8,0000*4B
$GPGSA,A,3,11,31,14,01,25,22,32,18,,,,,1.9,1.3,1.4*34
$GPRMC,182428.000,A,3352.4628,N,09831.1886,W,0.05,182.18,310312,,,D*72
$GPGGA,182429.000,3352.4629,N,09831.1886,W,2,08,1.3,292.7,M,-23.7,M,0.8,0000*4A
$GPGSA,A,3,11,31,14,01,25,22,32,18,,,,,1.9,1.3,1.4*34
$GPGSV,3,1,11,22,64,091,32,14,62,006,32,31,52,192,32,11,24,295,36*75
$GPGSV,3,2,11,18,22,114,31,25,20,099,29,01,17,316,34,32,13,306,28*71
$GPGSV,3,3,11,12,11,059,20,19,06,256,24,51,49,195,28*43
$GPRMC,182429.000,A,3352.4629,N,09831.1886,W,0.06,190.61,310312,,,D*7C
$GPGGA,182430.000,3352.4629,N,09831.1886,W,2,08,1.3,292.8,M,-23.7,M,1.8,0000*4C
$GPGSA,A,3,11,31,14,01,25,22,32,18,,,,,1.9,1.3,1.4*34
$GPRMC,182430.000,A,3352.4629,N,09831.1886,W,0.05,164.75,310312,,,D*79
$GPGGA,182431.000,3352.4629,N,09831.1886,W,2,08,1.3,292.9,M,-23.7,M,2.8,0000*4F
$GPGSA,A,3,11,31,14,01,25,22,32,18,,,,,1.9,1.3,1.4*34
$GPRMC,182431.000,A,3352.4629,N,09831.1886,W,0.04,193.06,310312,,,D*75
$GPGGA,182432.000,3352.4629,N,09831.1887,W,2,08,1.3,293.0,M,-23.7,M,3.8,0000*44
$GPGSA,A,3,11,31,14,01,25,22,32,18,,,,,2.0,1.3,1.4*3E
$GPRMC,182432.000,A,3352.4629,N,09831.1887,W,0.05,188.31,310312,,,D*78
$GPGGA,182433.000,3352.4628,N,09831.1887,W,2,08,1.3,293.0,M,-23.7,M,0.8,0000*47
$GPGSA,A,3,11,31,14,01,25,22,32,18,,,,,2.0,1.3,1.4*3E
$GPRMC,182433.000,A,3352.4628,N,09831.1887,W,0.08,190.28,310312,,,D*74
$GPGGA,182434.000,3352.4628,N,09831.1888,W,2,08,1.3,293.1,M,-23.7,M,1.8,0000*4F
$GPGSA,A,3,11,31,14,01,25,22,32,18,,,,,2.0,1.3,1.4*3E
$GPGSV,3,1,11,22,64,091,32,14,62,006,32,31,52,192,32,11,24,295,36*75
$GPGSV,3,2,11,18,22,114,31,25,20,099,29,01,17,316,34,32,13,306,28*71
$GPGSV,3,3,11,12,11,059,21,19,06,256,24,51,49,195,28*42
$GPRMC,182434.000,A,3352.4628,N,09831.1888,W,0.05,161.83,310312,,,D*7E
$GPGGA,182435.000,3352.4627,N,09831.1888,W,2,08,1.3,293.1,M,-23.7,M,0.8,0000*40
$GPGSA,A,3,11,31,14,01,25,22,32,18,,,,,2.0,1.3,1.4*3E
$GPRMC,182435.000,A,3352.4627,N,09831.1888,W,0.05,189.44,310312,,,D*7D
$GPGGA,182436.000,3352.4627,N,09831.1888,W,2,08,1.3,293.1,M,-23.7,M,1.8,0000*42
$GPGSA,A,3,11,31,14,01,25,22,32,18,,,,,2.0,1.3,1.4*3E
$GPRMC,182436.000,A,3352.4627,N,09831.1888,W,0.03,153.40,310312,,,D*7B
$GPGGA,182437.000,3352.4627,N,09831.1889,W,2,08,1.3,293.1,M,-23.7,M,2.8,0000*41
$GPGSA,A,3,11,31,14,01,25,22,32,18,,,,,2.0,1.3,1.4*3E
$GPRMC,182437.000,A,3352.4627,N,09831.1889,W,0.04,172.37,310312,,,D*7F
$GPGGA,182438.000,3352.4627,N,09831.1889,W,2,08,1.3,293.2,M,-23.7,M,3.8,0000*4C
$GPGSA,A,3,11,31,14,01,25,22,32,18,,,,,2.0,1.3,1.4*3E
$GPRMC,182438.000,A,3352.4627,N,09831.1889,W,0.03,134.89,310312,,,D*70
$GPGGA,182439.000,3352.4627,N,09831.1889,W,2,08,1.3,293.2,M,-23.7,M,4.8,0000*4A
$GPGSA,A,3,11,31,14,01,25,22,32,18,,,,,2.0,1.3,1.4*3E
$GPGSV,3,1,11,22,64,091,32,14,62,006,32,31,52,192,32,11,24,295,35*76
$GPGSV,3,2,11,18,22,114,30,25,20,099,28,01,17,316,35,32,13,306,27*7F
$GPGSV,3,3,11,12,11,059,22,19,06,256,22,51,49,195,28*47
$GPRMC,182439.000,A,3352.4627,N,09831.1889,W,0.04,183.18,310312,,,D*72
$GPGGA,182440.000,3352.4626,N,09831.1889,W,2,08,1.3,293.1,M,-23.7,M,5.8,0000*47
$GPGSA,A,3,11,31,14,01,25,22,32,18,,,,,2.0,1.3,1.4*3E
$GPRMC,182440.000,A,3352.4626,N,09831.1889,W,0.04,134.61,310312,,,D*7F
$GPGGA,182441.000,3352.4626,N,09831.1889,W,2,08,1.3,292.9,M,-23.7,M,0.8,0000*4A
$GPGSA,A,3,11,31,14,01,25,22,32,18,,,,,2.0,1.3,1.4*3E
$GPRMC,182441.000,A,3352.4626,N,09831.1889,W,0.07,178.80,310312,,,D*7A
$GPGGA,182442.000,3352.4626,N,09831.1889,W,2,08,1.3,292.6,M,-23.7,M,0.8,0000*46
$GPGSA,A,3,11,31,14,01,25,22,32,18,,,,,2.0,1.3,1.4*3E
$GPRMC,182442.000,A,3352.4626,N,09831.1889,W,0.08,187.97,310312,,,D*70
$GPGGA,182443.000,3352.4626,N,09831.1889,W,2,08,1.3,292.6,M,-23.7,M,1.8,0000*46
$GPGSA,A,3,11,31,14,01,25,22,32,18,,,,,2.0,1.3,1.4*3E
$GPRMC,182443.000,A,3352.4626,N,09831.1889,W,0.04,126.67,310312,,,D*79
$GPGGA,182444.000,3352.4625,N,09831.1888,W,2,08,1.3,292.4,M,-23.7,M,2.8,0000*42
$GPGSA,A,3,11,31,14,01,25,22,32,18,,,,,2.0,1.3,1.4*3E
$GPGSV,3,1,11,22,64,091,32,14,62,006,31,31,52,192,32,11,24,295,35*75
$GPGSV,3,2,11,18,22,114,29,25,20,099,28,01,17,316,35,32,13,306,26*76
$GPGSV,3,3,11,12,11,059,21,19,06,256,21,51,49,195,28*47
$GPRMC,182444.000,A,3352.4625,N,09831.1888,W,0.09,183.29,310312,,,D*74
$GPGGA,182445.000,3352.4625,N,09831.1889,W,2,08,1.3,292.4,M,-23.7,M,0.8,0000*40
$GPGSA,A,3,11,31,14,01,25,22,32,18,,,,,2.0,1.3,1.4*3E
$GPRMC,182445.000,A,3352.4625,N,09831.1889,W,0.06,190.74,310312,,,D*71
$GPGGA,182446.000,3352.4626,N,09831.1889,W,2,08,1.3,292.4,M,-23.7,M,0.8,0000*40
$GPGSA,A,3,11,31,14,01,25,22,32,18,,,,,2.0,1.3,1.4*3E
$GPRMC,182446.000,A,3352.4626,N,09831.1889,W,0.03,93.45,310312,,,D*44
$GPGGA,182447.000,3352.4627,N,09831.1888,W,2,08,1.3,292.2,M,-23.7,M,0.8,0000*47
$GPGSA,A,3,11,31,14,01,25,22,32,18,,,,,2.0,1.3,1.4*3E
$GPRMC,182447.000,A,3352.4627,N,09831.1888,W,0.05,79.54,310312,,,D*47
$GPGGA,182448.000,3352.4628,N,09831.1887,W,2,08,1.3,292.3,M,-23.7,M,1.8,0000*48
$GPGSA,A,3,11,31,14,01,25,22,32,18,,,,,2.0,1.3,1.4*3E
$GPRMC,182448.000,A,3352.4628,N,09831.1887,W,0.05,76.47,310312,,,D*45
$GPGGA,182449.000,3352.4629,N,09831.1887,W,2,08,1.3,292.3,M,-23.7,M,2.8,0000*4B
$GPGSA,A,3,11,31,14,01,25,22,32,18,,,,,2.0,1.3,1.4*3E
$GPGSV,3,1,11,22,64,091,33,14,62,006,31,31,52,192,31,11,24,295,36*74
$GPGSV,3,2,11,18,22,114,29,25,20,098,27,01,18,316,35,32,14,306,26*70
$GPGSV,3,3,11,12,11,058,16,19,06,255,20,51,49,195,28*40
$GPRMC,182449.000,A,3352.4629,N,09831.1887,W,0.05,68.02,310312,,,D*4B
$GPGGA,182450.000,3352.4629,N,09831.1886,W,2,08,1.3,292.0,M,-23.7,M,3.8,0000*40
$GPGSA,A,3,11,31,14,01,25,22,32,18,,,,,2.0,1.3,1.4*3E
$GPRMC,182450.000,A,3352.4629,N,09831.1886,W,0.06,72.38,310312,,,D*43
$GPGGA,182451.000,3352.4630,N,09831.1885,W,2,08,1.3,291.8,M,-23.7,M,4.8,0000*46
$GPGSA,A,3,11,31,14,01,25,22,32,18,,,,,2.0,1.3,1.4*3E
$GPRMC,182451.000,A,3352.4630,N,09831.1885,W,0.06,68.71,310312,,,D*4F
$GPGGA,182452.000,3352.4631,N,09831.1885,W,2,08,1.3,291.9,M,-23.7,M,0.8,0000*41
$GPGSA,A,3,11,31,14,01,25,22,32,18,,,,,2.0,1.3,1.4*3E
$GPRMC,182452.000,A,3352.4631,N,09831.1885,W,0.03,88.23,310312,,,D*41
$GPGGA,182453.000,3352.4631,N,09831.1885,W,2,08,1.3,291.9,M,-23.7,M,0.8,0000*40
$GPGSA,A,3,11,31,14,01,25,22,32,18,,,,,2.0,1.3,1.4*3E
$GPRMC,182453.000,A,3352.4631,N,09831.1885,W,0.01,247.45,310312,,,D*73
$GPGGA,182454.000,3352.4632,N,09831.1885,W,2,08,1.3,291.7,M,-23.7,M,1.8,0000*4B
$GPGSA,A,3,11,31,14,01,25,22,32,18,,,,,2.0,1.3,1.4*3E
$GPGSV,3,1,11,22,64,091,33,14,62,006,31,31,52,192,31,11,24,295,36*74
$GPGSV,3,2,11,18,22,114,28,25,20,098,27,01,18,316,35,32,14,306,25*72
$GPGSV,3,3,11,12,11,058,12,19,06,255,19,51,49,195,28*4E
$GPRMC,182454.000,A,3352.4632,N,09831.1885,W,0.03,132.59,310312,,,D*79
$GPGGA,182455.000,3352.4632,N,09831.1885,W,2,08,1.3,291.7,M,-23.7,M,2.8,0000*49
$GPGSA,A,3,11,31,14,01,25,22,32,18,,,,,2.0,1.3,1.4*3E
$GPRMC,182455.000,A,3352.4632,N,09831.1885,W,0.03,196.57,310312,,,D*78
$GPGGA,182456.000,3352.4633,N,09831.1885,W,2,08,1.3,291.7,M,-23.7,M,3.8,0000*4A
$GPGSA,A,3,11,31,14,01,25,22,32,18,,,,,2.0,1.3,1.4*3E
$GPRMC,182456.000,A,3352.4633,N,09831.1885,W,0.02,169.77,310312,,,D*79
$GPGGA,182457.000,3352.4633,N,09831.1884,W,2,08,1.3,291.5,M,-23.7,M,4.8,0000*4F
$GPGSA,A,3,11,31,14,01,25,22,32,18,,,,,2.0,1.3,1.4*3E
$GPRMC,182457.000,A,3352.4633,N,09831.1884,W,0.03,176.12,310312,,,D*75
$GPGGA,182458.000,3352.4633,N,09831.1884,W,2,08,1.3,291.3,M,-23.7,M,5.8,0000*47
$GPGSA,A,3,11,31,14,01,25,22,32,18,,,,,2.0,1.3,1.4*3E
$GPRMC,182458.000,A,3352.4633,N,09831.1884,W,0.02,311.62,310312,,,D*7F
$GPGGA,182459.000,3352.4634,N,09831.1883,W,2,08,1.3,291.0,M,-23.7,M,0.8,0000*40
$GPGSA,A,3,11,31,14,01,25,22,32,18,,,,,2.0,1.3,1.4*3E
$GPGSV,3,1,11,22,64,091,32,14,62,006,31,31,52,192,31,11,24,295,36*75
$GPGSV,3,2,11,18,22,114,28,25,20,098,27,01,18,316,35,32,14,306,25*72
$GPGSV,3,3,11,12,11,058,14,19,06,255,19,51,49,195,28*48
$GPRMC,182459.000,A,3352.4634,N,09831.1883,W,0.03,17.76,310312,,,D*4F
$GPGGA,182500.000,3352.4634,N,09831.1883,W,2,08,1.3,291.1,M,-23.7,M,1.8,0000*4D
$GPGSA,A,3,11,31,14,01,25,22,32,18,,,,,2.0,1.3,1.4*3E
$GPRMC,182500.000,A,3352.4634,N,09831.1883,W,0.05,70.04,310312,,,D*40
$GPGGA,182501.000,3352.4635,N,09831.1883,W,2,08,1.3,290.8,M,-23.7,M,2.8,0000*46
$GPGSA,A,3,11,31,14,01,25,22,32,18,,,,,2.0,1.3,1.4*3E
$GPRMC,182501.000,A,3352.4635,N,09831.1883,W,0.05,81.54,310312,,,D*4B
$GPGGA,182502.000,3352.4635,N,09831.1882,W,2,08,1.3,290.6,M,-23.7,M,3.8,0000*4B
$GPGSA,A,3,11,31,14,01,25,22,32,18,,,,,2.0,1.3,1.4*3E
$GPRMC,182502.000,A,3352.4635,N,09831.1882,W,0.05,83.82,310312,,,D*40
$GPGGA,182503.000,3352.4635,N,09831.1881,W,2,08,1.3,290.4,M,-23.7,M,0.8,0000*48
$GPGSA,A,3,11,31,14,01,25,22,32,18,,,,,2.0,1.3,1.4*3E
$GPRMC,182503.000,A,3352.4635,N,09831.1881,W,0.06,65.04,310312,,,D*47
$GPGGA,182504.000,3352.4635,N,09831.1880,W,2,08,1.3,290.2,M,-23.7,M,0.8,0000*48
$GPGSA,A,3,11,31,14,01,25,22,32,18,,,,,2.0,1.3,1.4*3E
$GPGSV,3,1,11,22,64,091,32,14,62,006,31,31,52,192,31,11,24,295,36*75
$GPGSV,3,2,11,18,22,114,28,25,20,098,28,01,18,316,35,32,14,306,25*7D
$GPGSV,3,3,11,12,11,058,16,19,06,255,20,51,49,195,28*40
$GPRMC,182504.000,A,3352.4635,N,09831.1880,W,0.09,123.82,310312,,,D*73
$GPGGA,182505.000,3352.4636,N,09831.1880,W,2,08,1.3,290.0,M,-23.7,M,0.8,0000*48
$GPGSA,A,3,11,31,14,01,25,22,32,18,,,,,2.0,1.3,1.4*3E
$GPRMC,182505.000,A,3352.4636,N,09831.1880,W,0.08,142.96,310312,,,D*72
$GPGGA,182506.000,3352.4636,N,09831.1879,W,2,08,1.3,289.7,M,-23.7,M,0.8,0000*42
$GPGSA,A,3,11,31,14,01,25,22,32,18,,,,,2.0,1.3,1.4*3E
$GPRMC,182506.000,A,3352.4636,N,09831.1879,W,0.04,138.85,310312,,,D*74
$GPGGA,182507.000,3352.4636,N,09831.1879,W,2,08,1.3,290.0,M,-23.7,M,1.8,0000*4D
$GPGSA,A,3,11,31,14,01,25,22,32,18,,,,,2.0,1.3,1.4*3E
$GPRMC,182507.000,A,3352.4636,N,09831.1879,W,0.03,205.04,310312,,,D*76
$GPGGA,182508.000,3352.4637,N,09831.1880,W,2,08,1.3,290.2,M,-23.7,M,2.8,0000*44
$GPGSA,A,3,11,31,14,01,25,22,32,18,,,,,2.0,1.3,1.4*3E
$GPRMC,182508.000,A,3352.4637,N,09831.1880,W,0.02,148.06,310312,,,D*77
$GPGGA,182509.000,3352.4637,N,09831.1879,W,2,08,1.3,289.7,M,-23.7,M,0.8,0000*4C
$GPGSA,A,3,11,31,14,01,25,22,32,18,,,,,2.0,1.3,1.4*3E
$GPGSV,3,1,11,22,64,091,32,14,62,006,31,31,52,192,30,11,24,295,36*74
$GPGSV,3,2,11,18,22,114,28,25,20,098,28,01,18,316,34,32,14,306,26*7F
$GPGSV,3,3,11,12,11,058,15,19,06,255,20,51,49,195,28*43
$GPRMC,182509.000,A,3352.4637,N,09831.1879,W,0.07,197.72,310312,,,D*74
$GPGGA,182510.000,3352.4636,N,09831.1878,W,2,08,1.3,289.4,M,-23.7,M,0.8,0000*47
$GPGSA,A,3,11,31,14,01,25,22,32,18,,,,,2.0,1.3,1.4*3E
$GPRMC,182510.000,A,3352.4636,N,09831.1878,W,0.11,192.31,310312,,,D*79
$GPGGA,182511.000,3352.4637,N,09831.1878,W,2,08,1.3,289.5,M,-23.7,M,0.8,0000*46
$GPGSA,A,3,11,31,14,01,25,22,32,18,,,,,2.0,1.3,1.4*3E
$GPRMC,182511.000,A,3352.4637,N,09831.1878,W,0.05,166.31,310312,,,D*77
$GPGGA,182512.000,3352.4637,N,09831.1879,W,2,08,1.3,289.6,M,-23.7,M,1.8,0000*46
$GPGSA,A,3,11,31,14,01,25,22,32,18,,,,,2.0,1.3,1.4*3E
$GPRMC,182512.000,A,3352.4637,N,09831.1879,W,0.02,135.53,310312,,,D*70
$GPGGA,182513.000,3352.4637,N,09831.1879,W,2,08,1.3,289.7,M,-23.7,M,2.8,0000*45
$GPGSA,A,3,11,31,14,01,25,22,32,18,,,,,2.0,1.3,1.4*3E
$GPRMC,182513.000,A,3352.4637,N,09831.1879,W,0.04,175.06,310312,,,D*73
$GPGGA,182514.000,3352.4637,N,09831.1879,W,2,08,1.3,289.8,M,-23.7,M,3.8,0000*4C
$GPGSA,A,3,11,31,14,01,25,22,32,18,,,,,2.0,1.3,1.4*3E
$GPGSV,3,1,11,22,64,091,31,14,62,006,31,31,52,192,30,11,24,295,36*77
$GPGSV,3,2,11,18,22,114,29,25,20,098,28,01,18,316,34,32,14,306,26*7E
$GPGSV,3,3,11,12,11,058,15,19,06,255,20,51,49,195,27*4C
$GPRMC,182514.000,A,3352.4637,N,09831.1879,W,0.05,183.63,310312,,,D*7F
$GPGGA,182515.000,3352.4638,N,09831.1880,W,2,08,1.3,289.9,M,-23.7,M,0.8,0000*46
$GPGSA,A,3,11,31,14,01,25,22,32,18,,,,,2.0,1.3,1.4*3E
$GPRMC,182515.000,A,3352.4638,N,09831.1880,W,0.03,76.37,310312,,,D*4B
$GPGGA,182516.000,3352.4638,N,09831.1880,W,2,08,1.3,290.1,M,-23.7,M,1.8,0000*44
$GPGSA,A,3,11,31,14,01,25,22,32,18,,,,,2.0,1.3,1.4*3E
$GPRMC,182516.000,A,3352.4638,N,09831.1880,W,0.07,43.47,310312,,,D*4D
$GPGGA,182517.000,3352.4639,N,09831.1880,W,2,08,1.3,290.2,M,-23.7,M,0.8,0000*46
$GPGSA,A,3,11,31,14,01,25,22,32,18,,,,,2.0,1.3,1.4*3E
$GPRMC,182517.000,A,3352.4639,N,09831.1880,W,0.03,98.23,310312,,,D*4D
$GPGGA,182518.000,3352.4639,N,09831.1880,W,2,08,1.3,290.3,M,-23.7,M,0.8,0000*48
$GPGSA,A,3,11,31,14,01,25,22,32,18,,,,,2.0,1.3,1.4*3E
$GPRMC,182518.000,A,3352.4639,N,09831.1880,W,0.03,36.39,310312,,,D*4D
$GPGGA,182519.000,3352.4640,N,09831.1880,W,2,08,1.3,290.5,M,-23.7,M,1.8,0000*40
$GPGSA,A,3,11,31,14,01,25,22,32,18,,,,,2.0,1.3,1.4*3E
$GPGSV,3,1,11,22,64,092,31,14,62,007,31,31,53,192,29,11,25,294,35*7F
$GPGSV,3,2,11,18,22,114,29,25,20,098,29,01,18,316,34,32,14,306,27*7E
$GPGSV,3,3,11,12,11,058,18,19,06,255,20,51,49,195,28*4E
$GPRMC,182519.000,A,3352.4640,N,09831.1880,W,0.03,63.42,310312,,,D*4E
$GPGGA,182520.000,3352.4640,N,09831.1880,W,2,08,1.3,290.6,M,-23.7,M,2.8,0000*4A
$GPGSA,A,3,11,31,14,01,25,22,32,18,,,,,2.0,1.3,1.4*3E
$GPRMC,182520.000,A,3352.4640,N,09831.1880,W,0.01,182.78,310312,,,D*71
$GPGGA,182521.000,3352.4640,N,09831.1881,W,2,08,1.3,290.7,M,-23.7,M,3.8,0000*4A
$GPGSA,A,3,11,31,14,01,25,22,32,18,,,,,2.0,1.3,1.4*3E
$GPRMC,182521.000,A,3352.4640,N,09831.1881,W,0.03,53.40,310312,,,D*45
$GPGGA,182522.000,3352.4641,N,09831.1881,W,2,08,1.3,290.8,M,-23.7,M,0.8,0000*44
$GPGSA,A,3,11,31,14,01,25,22,32,18,,,,,2.0,1.3,1.4*3E
$GPRMC,182522.000,A,3352.4641,N,09831.1881,W,0.03,49.94,310312,,,D*45
$GPGGA,182523.000,3352.4641,N,09831.1881,W,2,08,1.3,290.9,M,-23.7,M,1.8,0000*45
$GPGSA,A,3,11,31,14,01,25,22,32,18,,,,,2.0,1.3,1.4*3E
$GPRMC,182523.000,A,3352.4641,N,09831.1881,W,0.01,43.51,310312,,,D*45
$GPGGA,182524.000,3352.4641,N,09831.1881,W,2,08,1.3,291.1,M,-23.7,M,2.8,0000*48
$GPGSA,A,3,11,31,14,01,25,22,32,18,,,,,2.0,1.3,1.4*3E
$GPGSV,3,1,11,22,64,092,31,14,62,007,31,31,53,192,29,11,25,294,35*7F
$GPGSV,3,2,11,18,22,114,29,25,20,098,29,01,18,316,34,32,14,306,28*71
$GPGSV,3,3,11,12,11,058,20,19,06,255,21,51,49,195,28*44
$GPRMC,182524.000,A,3352.4641,N,09831.1881,W,0.01,42.79,310312,,,D*49
$GPGGA,182525.000,3352.4641,N,09831.1881,W,2,08,1.3,291.0,M,-23.7,M,3.8,0000*49
$GPGSA,A,3,11,31,14,01,25,22,32,18,,,,,2.0,1.3,1.4*3E
$GPRMC,182525.000,A,3352.4641,N,09831.1881,W,0.03,87.28,310312,,,D*47
$GPGGA,182526.000,3352.4641,N,09831.1881,W,2,08,1.3,290.9,M,-23.7,M,4.8,0000*45
$GPGSA,A,3,11,31,14,01,25,22,32,18,,,,,2.0,1.3,1.4*3E
$GPRMC,182526.000,A,3352.4641,N,09831.1881,W,0.01,166.65,310312,,,D*71
$GPGGA,182527.000,3352.4640,N,09831.1881,W,2,08,1.3,290.8,M,-23.7,M,0.8,0000*40
$GPGSA,A,3,11,31,14,01,25,22,32,18,,,,,2.0,1.3,1.4*3E
$GPRMC,182527.000,A,3352.4640,N,09831.1881,W,0.04,178.54,310312,,,D*79
$GPGGA,182528.000,3352.4639,N,09831.1881,W,2,08,1.3,290.8,M,-23.7,M,0.8,0000*41
$GPGSA,A,3,11,31,14,01,25,22,32,18,,,,,2.0,1.3,1.4*3E
$GPRMC,182528.000,A,3352.4639,N,09831.1881,W,0.10,204.78,310312,,,D*7B
$GPGGA,182529.000,3352.4638,N,09831.1882,W,2,08,1.3,290.9,M,-23.7,M,0.8,0000*43
$GPGSA,A,3,11,31,14,01,25,22,32,18,,,,,2.0,1.3,1.4*3E
$GPGSV,3,1,11,22,64,092,30,14,62,007,31,31,53,192,28,11,25,294,35*7F
$GPGSV,3,2,11,18,22,114,29,25,20,098,28,01,18,316,34,32,14,306,28*70
$GPGSV,3,3,11,12,11,058,20,19,06,255,21,51,49,195,27*4B
$GPRMC,182529.000,A,3352.4638,N,09831.1882,W,0.12,190.98,310312,,,D*7A
$GPGGA,182530.000,3352.4637,N,09831.1882,W,2,08,1.3,291.0,M,-23.7,M,0.8,0000*4C
$GPGSA,A,3,11,31,14,01,25,22,32,18,,,,,2.0,1.3,1.4*3E
$GPRMC,182530.000,A,3352.4637,N,09831.1882,W,0.11,197.85,310312,,,D*75
$GPGGA,182531.000,3352.4636,N,09831.1883,W,2,08,1.3,291.2,M,-23.7,M,1.8,0000*4E
$GPGSA,A,3,11,31,14,01,25,22,32,18,,,,,2.0,1.3,1.4*3E
$GPRMC,182531.000,A,3352.4636,N,09831.1883,W,0.11,195.70,310312,,,D*7C
$GPGGA,182532.000,3352.4635,N,09831.1884,W,2,08,1.3,291.3,M,-23.7,M,2.8,0000*4B
$GPGSA,A,3,11,31,14,01,25,22,32,18,,,,,2.0,1.3,1.4*3E
$GPRMC,182532.000,A,3352.4635,N,09831.1884,W,0.08,196.04,310312,,,D*73
$GPGGA,182533.000,3352.4634,N,09831.1885,W,2,08,1.3,291.4,M,-23.7,M,0.8,0000*4F
$GPGSA,A,3,11,31,14,01,25,22,32,18,,,,,2.0,1.3,1.4*3E
$GPRMC,182533.000,A,3352.4634,N,09831.1885,W,0.12,203.47,310312,,,D*71
$GPGGA,182534.000,3352.4633,N,09831.1885,W,2,08,1.3,291.6,M,-23.7,M,0.8,0000*4D
$GPGSA,A,3,11,31,14,01,25,22,32,18,,,,,2.0,1.3,1.4*3E
$GPGSV,3,1,11,22,64,092,30,14,62,007,31,31,53,192,27,11,25,294,36*73
$GPGSV,3,2,11,18,22,114,29,25,20,098,28,01,18,316,34,32,14,306,29*71
$GPGSV,3,3,11,12,11,058,14,19,06,255,21,51,49,195,27*4C
$GPRMC,182534.000,A,3352.4633,N,09831.1885,W,0.09,183.16,310312,,,D*74
$GPGGA,182535.000,3352.4632,N,09831.1886,W,2,08,1.3,291.6,M,-23.7,M,0.8,0000*4E
$GPGSA,A,3,11,31,14,01,25,22,32,18,,,,,2.0,1.3,1.4*3E
$GPRMC,182535.000,A,3352.4632,N,09831.1886,W,0.17,32.52,310312,,,D*43
$GPGGA,182536.000,3352.4631,N,09831.1886,W,2,08,1.3,291.7,M,-23.7,M,1.8,0000*4E
$GPGSA,A,3,11,31,14,01,25,22,32,18,,,,,2.0,1.3,1.4*3E
$GPRMC,182536.000,A,3352.4631,N,09831.1886,W,0.05,133.95,310312,,,D*7B
$GPGGA,182537.000,3352.4630,N,09831.1887,W,2,08,1.3,291.9,M,-23.7,M,2.8,0000*42
$GPGSA,A,3,11,31,14,01,25,22,32,18,,,,,2.0,1.3,1.4*3E
$GPRMC,182537.000,A,3352.4630,N,09831.1887,W,0.04,138.49,310312,,,D*71
$GPGGA,182538.000,3352.4629,N,09831.1887,W,2,08,1.3,291.9,M,-23.7,M,3.8,0000*44
$GPGSA,A,3,11,31,14,01,25,22,32,18,,,,,2.0,1.3,1.4*3E
$GPRMC,182538.000,A,3352.4629,N,09831.1887,W,0.07,171.50,310312,,,D*70
$GPGGA,182539.000,3352.4628,N,09831.1888,W,2,08,1.3,292.1,M,-23.7,M,0.8,0000*43
$GPGSA,A,3,11,31,14,01,25,22,32,18,,,,,2.0,1.3,1.4*3E
$GPGSV,3,1,11,22,64,092,29,14,62,007,31,31,53,192,26,11,25,294,36*7A
$GPGSV,3,2,11,18,22,114,30,25,20,098,27,01,18,316,34,32,14,306,29*76
$GPGSV,3,3,11,12,11,058,15,19,06,255,22,51,49,195,28*41
$GPRMC,182539.000,A,3352.4628,N,09831.1888,W,0.05,74.01,310312,,,D*4D
$GPGGA,182540.000,3352.4627,N,09831.1889,W,2,08,1.3,292.3,M,-23.7,M,0.8,0000*41
$GPGSA,A,3,11,31,14,01,25,22,32,18,,,,,2.0,1.3,1.4*3E
$GPRMC,182540.000,A,3352.4627,N,09831.1889,W,0.03,112.48,310312,,,D*77
$GPGGA,182541.000,3352.4626,N,09831.1889,W,2,08,1.3,292.5,M,-23.7,M,0.8,0000*47
