$GPGGA,000014.000,3353.7543,N,09832.0222,W,2,07,1.6,312.7,M,-23.7,M,1.8,0000*42
$GPGSA,A,3,03,06,30,16,23,19,13,,,,,,2.9,1.6,2.4*32
$GPGSV,3,1,12,23,85,155,37,13,60,321,20,03,48,106,38,16,44,040,39*7D
$GPGSV,3,2,12,06,40,085,34,07,33,297,,19,28,149,35,10,21,299,*70
$GPGSV,3,3,12,20,18,202,,30,17,046,24,32,08,180,31,08,04,277,*7C
$GPRMC,000014.000,A,3353.7543,N,09832.0222,W,0.25,69.32,010412,,,D*42
$GPGGA,000015.000,3353.7544,N,09832.0224,W,2,07,1.6,311.9,M,-23.7,M,0.8,0000*4E
$GPGSA,A,3,03,06,30,16,23,19,13,,,,,,2.9,1.6,2.4*32
$GPRMC,000015.000,A,3353.7544,N,09832.0224,W,0.18,282.27,010412,,,D*7F
$GPGGA,000016.000,3353.7545,N,09832.0227,W,2,07,1.6,311.1,M,-23.7,M,0.8,0000*47
$GPGSA,A,3,03,06,30,16,23,19,13,,,,,,2.9,1.6,2.4*32
$GPRMC,000016.000,A,3353.7545,N,09832.0227,W,0.34,272.94,010412,,,D*77
$GPGGA,000017.000,3353.7545,N,09832.0228,W,2,07,1.6,310.6,M,-23.7,M,0.8,0000*4F
$GPGSA,A,3,03,06,30,16,23,19,13,,,,,,2.9,1.6,2.4*32
$GPRMC,000017.000,A,3353.7545,N,09832.0228,W,0.05,356.16,010412,,,D*76
$GPGGA,000018.000,3353.7546,N,09832.0230,W,2,07,1.6,310.1,M,-23.7,M,1.8,0000*4C
$GPGSA,A,3,03,06,30,16,23,19,13,,,,,,2.9,1.6,2.4*32
$GPRMC,000018.000,A,3353.7546,N,09832.0230,W,0.30,294.89,010412,,,D*7C
$GPGGA,000019.000,3353.7547,N,09832.0232,W,2,07,1.6,309.3,M,-23.7,M,2.8,0000*47
$GPGSA,A,3,03,06,30,16,23,19,13,,,,,,2.9,1.6,2.4*32
$GPGSV,3,1,12,23,85,155,37,13,60,321,22,03,48,106,40,16,44,040,40*7E
$GPGSV,3,2,12,06,40,085,34,07,33,297,,19,28,149,36,10,21,299,*73
$GPGSV,3,3,12,20,18,202,,30,17,046,26,32,08,180,32,08,04,277,*7D
$GPRMC,000019.000,A,3353.7547,N,09832.0232,W,0.07,322.03,010412,,,D*74
$GPGGA,000020.000,3353.7548,N,09832.0234,W,2,07,1.6,308.5,M,-23.7,M,0.8,0000*41
$GPGSA,A,3,03,06,30,16,23,19,13,,,,,,2.9,1.6,2.4*32
$GPRMC,000020.000,A,3353.7548,N,09832.0234,W,0.24,292.82,010412,,,D*75
$GPGGA,000021.000,3353.7549,N,09832.0235,W,2,07,1.6,308.3,M,-23.7,M,0.8,0000*46
$GPGSA,A,3,03,06,30,16,23,19,13,,,,,,2.9,1.6,2.4*32
$GPRMC,000021.000,A,3353.7549,N,09832.0235,W,0.12,5.03,010412,,,D*74
$GPGGA,000022.000,3353.7549,N,09832.0235,W,2,07,1.7,308.1,M,-23.7,M,0.8,0000*46
$GPGSA,A,3,03,06,30,16,23,19,13,,,,,,2.9,1.7,2.4*33
$GPRMC,000022.000,A,3353.7549,N,09832.0235,W,0.18,53.50,010412,,,D*48
$GPGGA,000023.000,3353.7550,N,09832.0236,W,2,07,1.7,307.9,M,-23.7,M,0.8,0000*4B
$GPGSA,A,3,03,06,30,16,23,19,13,,,,,,2.9,1.7,2.4*33
$GPRMC,000023.000,A,3353.7550,N,09832.0236,W,0.12,316.62,010412,,,D*7B
$GPGGA,000024.000,3353.7550,N,09832.0237,W,2,07,1.7,308.0,M,-23.7,M,1.8,0000*4A
$GPGSA,A,3,03,06,30,16,23,19,13,,,,,,2.9,1.7,2.4*33
$GPGSV,3,1,12,23,85,155,38,13,60,321,21,03,48,106,40,16,44,040,40*72
$GPGSV,3,2,12,06,40,085,34,07,33,297,,19,28,149,37,10,21,299,*72
$GPGSV,3,3,12,20,18,202,,30,17,046,27,32,08,180,33,08,04,277,*7D
$GPRMC,000024.000,A,3353.7550,N,09832.0237,W,0.10,60.26,010412,,,D*4D
$GPGGA,000025.000,3353.7550,N,09832.0236,W,2,07,1.7,308.1,M,-23.7,M,0.8,0000*4A
$GPGSA,A,3,03,06,30,16,23,19,13,,,,,,2.9,1.7,2.4*33
$GPRMC,000025.000,A,3353.7550,N,09832.0236,W,0.28,78.25,010412,,,D*4C
$GPGGA,000026.000,3353.7550,N,09832.0236,W,2,07,1.7,308.1,M,-23.7,M,1.8,0000*48
$GPGSA,A,3,03,06,30,16,23,19,13,,,,,,2.9,1.7,2.4*33
$GPRMC,000026.000,A,3353.7550,N,09832.0236,W,0.11,50.05,010412,,,D*4D
$GPGGA,000027.000,3353.7550,N,09832.0236,W,2,07,1.7,308.2,M,-23.7,M,0.8,0000*4B
$GPGSA,A,3,03,06,30,16,23,19,13,,,,,,2.9,1.7,2.4*33
$GPRMC,000027.000,A,3353.7550,N,09832.0236,W,0.31,99.28,010412,,,D*44
$GPGGA,000028.000,3353.7550,N,09832.0236,W,2,07,1.7,308.1,M,-23.7,M,0.8,0000*47
$GPGSA,A,3,03,06,30,16,23,19,13,,,,,,2.9,1.7,2.4*33
$GPRMC,000028.000,A,3353.7550,N,09832.0236,W,0.37,92.81,010412,,,D*45
$GPGGA,000029.000,3353.7550,N,09832.0236,W,2,07,1.7,308.1,M,-23.7,M,0.8,0000*46
$GPGSA,A,3,03,06,30,16,23,19,13,,,,,,2.9,1.7,2.4*33
$GPGSV,3,1,12,23,85,155,38,13,60,321,20,03,48,106,41,16,44,040,40*72
$GPGSV,3,2,12,06,40,085,35,07,33,297,,19,28,149,37,10,21,299,*73
$GPGSV,3,3,12,20,18,202,,30,17,046,28,32,08,180,34,08,04,277,*75
$GPRMC,000029.000,A,3353.7550,N,09832.0236,W,0.19,86.50,010412,,,D*41
$GPGGA,000030.000,3353.7550,N,09832.0236,W,2,07,1.7,308.0,M,-23.7,M,1.8,0000*4E
$GPGSA,A,3,03,06,30,16,23,19,13,,,,,,2.9,1.7,2.4*33
$GPRMC,000030.000,A,3353.7550,N,09832.0236,W,0.21,82.08,010412,,,D*4B
$GPGGA,000031.000,3353.7549,N,09832.0237,W,2,08,1.2,307.9,M,-23.7,M,2.8,0000*49
$GPGSA,A,3,03,20,06,30,16,23,19,13,,,,,2.0,1.2,1.6*3C
$GPRMC,000031.000,A,3353.7549,N,09832.0237,W,0.16,106.63,010412,,,D*77
$GPGGA,000032.000,3353.7549,N,09832.0238,W,2,08,1.2,307.7,M,-23.7,M,3.8,0000*4A
$GPGSA,A,3,03,20,06,30,16,23,19,13,,,,,2.0,1.2,1.6*3C
$GPRMC,000032.000,A,3353.7549,N,09832.0238,W,0.08,214.72,010412,,,D*74
$GPGGA,000033.000,3353.7549,N,09832.0239,W,2,08,1.2,307.7,M,-23.7,M,0.8,0000*49
$GPGSA,A,3,03,20,06,30,16,23,19,13,,,,,2.0,1.2,1.6*3C
$GPRMC,000033.000,A,3353.7549,N,09832.0239,W,0.19,316.21,010412,,,D*71
$GPGGA,000034.000,3353.7550,N,09832.0240,W,2,08,1.2,307.7,M,-23.7,M,0.8,0000*48
$GPGSA,A,3,03,20,06,30,16,23,19,13,,,,,2.0,1.2,1.6*3C
$GPGSV,3,1,12,23,85,155,38,13,60,321,20,03,48,106,40,16,44,040,40*73
$GPGSV,3,2,12,06,40,085,35,07,33,297,,19,28,149,37,10,21,299,*73
$GPGSV,3,3,12,20,18,202,21,30,17,046,29,32,08,180,34,08,04,277,*77
$GPRMC,000034.000,A,3353.7550,N,09832.0240,W,0.16,288.59,010412,,,D*76
$GPGGA,000035.000,3353.7550,N,09832.0241,W,2,08,1.2,307.8,M,-23.7,M,0.8,0000*47
$GPGSA,A,3,03,20,06,30,16,23,19,13,,,,,2.0,1.2,1.6*3C
$GPRMC,000035.000,A,3353.7550,N,09832.0241,W,0.23,74.02,010412,,,D*4F
$GPGGA,000036.000,3353.7550,N,09832.0241,W,2,08,1.2,307.9,M,-23.7,M,1.8,0000*44
$GPGSA,A,3,03,20,06,30,16,23,19,13,,,,,2.0,1.2,1.6*3C
$GPRMC,000036.000,A,3353.7550,N,09832.0241,W,0.06,128.58,010412,,,D*7C
$GPGGA,000037.000,3353.7550,N,09832.0241,W,2,08,1.2,308.1,M,-23.7,M,2.8,0000*41
$GPGSA,A,3,03,20,06,30,16,23,19,13,,,,,2.0,1.2,1.6*3C
$GPRMC,000037.000,A,3353.7550,N,09832.0241,W,0.39,72.31,010412,,,D*40
$GPGGA,000038.000,3353.7550,N,09832.0241,W,2,08,1.2,308.4,M,-23.7,M,3.8,0000*4A
$GPGSA,A,3,03,20,06,30,16,23,19,13,,,,,2.0,1.2,1.6*3C
$GPRMC,000038.000,A,3353.7550,N,09832.0241,W,0.41,73.97,010412,,,D*4D
$GPGGA,000039.000,3353.7550,N,09832.0240,W,2,08,1.2,308.4,M,-23.7,M,0.8,0000*49
$GPGSA,A,3,03,20,06,30,16,23,19,13,,,,,2.0,1.2,1.6*3C
$GPGSV,3,1,12,23,85,155,38,13,60,321,19,03,48,106,40,16,44,040,40*79
$GPGSV,3,2,12,06,40,085,35,07,33,297,,19,28,149,37,10,21,299,*73
$GPGSV,3,3,12,20,18,202,22,30,17,046,30,32,08,180,34,08,04,277,*7C
$GPRMC,000039.000,A,3353.7550,N,09832.0240,W,0.27,97.81,010412,,,D*40
$GPGGA,000040.000,3353.7550,N,09832.0240,W,2,08,1.2,308.6,M,-23.7,M,0.8,0000*45
$GPGSA,A,3,03,20,06,30,16,23,19,13,,,,,2.0,1.2,1.6*3C
$GPRMC,000040.000,A,3353.7550,N,09832.0240,W,0.37,81.74,010412,,,D*42
$GPGGA,000041.000,3353.7549,N,09832.0239,W,2,08,1.2,308.7,M,-23.7,M,0.8,0000*43
$GPGSA,A,3,03,20,06,30,16,23,19,13,,,,,2.0,1.2,1.6*3C
$GPRMC,000041.000,A,3353.7549,N,09832.0239,W,0.29,103.13,010412,,,D*70
$GPGGA,000042.000,3353.7549,N,09832.0238,W,2,08,1.2,308.9,M,-23.7,M,0.8,0000*4F
$GPGSA,A,3,03,20,06,30,16,23,19,13,,,,,2.0,1.2,1.6*3C
$GPRMC,000042.000,A,3353.7549,N,09832.0238,W,0.57,89.01,010412,,,D*4B
$GPGGA,000043.000,3353.7549,N,09832.0238,W,2,08,1.2,309.1,M,-23.7,M,1.8,0000*46
$GPGSA,A,3,03,20,06,30,16,23,19,13,,,,,2.0,1.2,1.6*3C
$GPRMC,000043.000,A,3353.7549,N,09832.0238,W,0.29,74.34,010412,,,D*47
$GPGGA,000044.000,3353.7549,N,09832.0238,W,2,08,1.2,309.2,M,-23.7,M,0.8,0000*43
$GPGSA,A,3,03,20,06,30,16,23,19,13,,,,,2.0,1.2,1.6*3C
$GPGSV,3,1,12,23,85,155,38,13,60,321,20,03,48,106,40,16,44,040,40*73
$GPGSV,3,2,12,06,40,085,35,07,33,297,21,19,28,149,37,10,21,299,*70
$GPGSV,3,3,12,20,18,202,23,30,17,046,30,32,08,180,34,08,04,277,*7D
$GPRMC,000044.000,A,3353.7549,N,09832.0238,W,0.19,265.80,010412,,,D*7E
$GPGGA,000045.000,3353.7549,N,09832.0239,W,2,08,1.2,309.4,M,-23.7,M,0.8,0000*45
$GPGSA,A,3,03,20,06,30,16,23,19,13,,,,,2.0,1.2,1.6*3C
$GPRMC,000045.000,A,3353.7549,N,09832.0239,W,0.15,299.27,010412,,,D*7C
$GPGGA,000046.000,3353.7549,N,09832.0239,W,2,08,1.2,309.6,M,-23.7,M,0.8,0000*44
$GPGSA,A,3,03,20,06,30,16,23,19,13,,,,,2.0,1.2,1.6*3C
$GPRMC,000046.000,A,3353.7549,N,09832.0239,W,0.36,82.19,010412,,,D*4B
$GPGGA,000047.000,3353.7549,N,09832.0238,W,2,08,1.2,309.9,M,-23.7,M,0.8,0000*4B
$GPGSA,A,3,03,20,06,30,16,23,19,13,,,,,2.0,1.2,1.6*3C
$GPRMC,000047.000,A,3353.7549,N,09832.0238,W,0.46,78.96,010412,,,D*4E
$GPGGA,000048.000,3353.7549,N,09832.0237,W,2,08,1.2,310.1,M,-23.7,M,1.8,0000*4A
$GPGSA,A,3,03,20,06,30,16,23,19,13,,,,,2.0,1.2,1.6*3C
$GPRMC,000048.000,A,3353.7549,N,09832.0237,W,0.50,78.09,010412,,,D*4F
$GPGGA,000049.000,3353.7549,N,09832.0238,W,2,08,1.2,310.3,M,-23.7,M,2.8,0000*45
$GPGSA,A,3,03,20,06,30,16,23,19,13,,,,,2.0,1.2,1.6*3C
$GPGSV,3,1,12,23,85,155,38,13,60,321,19,03,48,106,40,16,44,040,40*79
$GPGSV,3,2,12,06,40,085,35,07,33,297,22,19,28,149,37,10,21,299,*73
$GPGSV,3,3,12,20,18,202,23,30,17,046,31,32,08,180,34,08,04,277,*7C
$GPRMC,000049.000,A,3353.7549,N,09832.0238,W,0.10,67.29,010412,,,D*49
$GPGGA,000050.000,3353.7549,N,09832.0238,W,2,08,1.2,310.5,M,-23.7,M,3.8,0000*4A
$GPGSA,A,3,03,20,06,30,16,23,19,13,,,,,2.0,1.2,1.6*3C
$GPRMC,000050.000,A,3353.7549,N,09832.0238,W,0.16,9.58,010412,,,D*79
$GPGGA,000051.000,3353.7550,N,09832.0239,W,2,08,1.2,310.6,M,-23.7,M,0.8,0000*42
$GPGSA,A,3,03,20,06,30,16,23,19,13,,,,,2.0,1.2,1.6*3C
$GPRMC,000051.000,A,3353.7550,N,09832.0239,W,0.17,336.06,010412,,,D*74
$GPGGA,000052.000,3353.7550,N,09832.0240,W,2,08,1.2,310.6,M,-23.7,M,0.8,0000*4F
$GPGSA,A,3,03,20,06,30,16,23,19,13,,,,,2.0,1.2,1.6*3C
$GPRMC,000052.000,A,3353.7550,N,09832.0240,W,0.05,294.33,010412,,,D*75
$GPGGA,000053.000,3353.7550,N,09832.0240,W,2,08,1.2,310.7,M,-23.7,M,0.8,0000*4F
$GPGSA,A,3,03,20,06,30,16,23,19,13,,,,,2.0,1.2,1.6*3C
$GPRMC,000053.000,A,3353.7550,N,09832.0240,W,0.20,64.72,010412,,,D*4B
$GPGGA,000054.000,3353.7550,N,09832.0240,W,2,08,1.2,310.6,M,-23.7,M,1.8,0000*48
$GPGSA,A,3,03,20,06,30,16,23,19,13,,,,,2.0,1.2,1.6*3C
$GPGSV,3,1,12,23,85,155,38,13,60,321,19,03,48,106,40,16,44,040,40*79
$GPGSV,3,2,12,06,40,085,35,07,33,297,22,19,28,149,37,10,21,299,*73
$GPGSV,3,3,12,20,18,202,23,30,17,046,31,32,08,180,34,08,04,277,*7C
$GPRMC,000054.000,A,3353.7550,N,09832.0240,W,0.21,95.53,010412,,,D*40
$GPGGA,000055.000,3353.7549,N,09832.0240,W,2,08,1.2,310.6,M,-23.7,M,2.8,0000*42
$GPGSA,A,3,03,20,06,30,16,23,19,13,,,,,2.0,1.2,1.6*3C
$GPRMC,000055.000,A,3353.7549,N,09832.0240,W,0.17,100.19,010412,,,D*7F
$GPGGA,000056.000,3353.7549,N,09832.0239,W,2,08,1.2,310.6,M,-23.7,M,3.8,0000*4E
$GPGSA,A,3,03,20,06,30,16,23,19,13,,,,,2.0,1.2,1.6*3C
$GPRMC,000056.000,A,3353.7549,N,09832.0239,W,0.42,83.77,010412,,,D*40
$GPGGA,000057.000,3353.7549,N,09832.0238,W,2,08,1.2,310.9,M,-23.7,M,0.8,0000*42
$GPGSA,A,3,03,20,06,30,16,23,19,13,,,,,2.0,1.2,1.6*3C
$GPRMC,000057.000,A,3353.7549,N,09832.0238,W,0.50,81.58,010412,,,D*4C
$GPGGA,000058.000,3353.7549,N,09832.0238,W,2,08,1.2,311.1,M,-23.7,M,0.8,0000*44
$GPGSA,A,3,03,20,06,30,16,23,19,13,,,,,2.0,1.2,1.6*3C
$GPRMC,000058.000,A,3353.7549,N,09832.0238,W,0.03,66.28,010412,,,D*4B
$GPGGA,000059.000,3353.7549,N,09832.0239,W,2,08,1.2,311.1,M,-23.7,M,0.8,0000*44
$GPGSA,A,3,03,20,06,30,16,23,19,13,,,,,2.0,1.2,1.6*3C
$GPGSV,3,1,12,23,85,155,38,13,60,321,18,03,48,106,40,16,44,040,40*78
$GPGSV,3,2,12,06,40,085,35,07,33,297,23,19,28,149,37,10,21,299,*72
$GPGSV,3,3,12,20,18,202,23,30,17,046,31,32,08,180,35,08,04,277,*7D
$GPRMC,000059.000,A,3353.7549,N,09832.0239,W,0.45,272.75,010412,,,D*76
$GPGGA,000100.000,3353.7549,N,09832.0242,W,2,08,1.2,311.1,M,-23.7,M,0.8,0000*45
$GPGSA,A,3,03,20,06,30,16,23,19,13,,,,,2.0,1.2,1.6*3C
$GPRMC,000100.000,A,3353.7549,N,09832.0242,W,0.52,274.60,010412,,,D*73
$GPGGA,000101.000,3353.7549,N,09832.0243,W,2,08,1.2,311.1,M,-23.7,M,1.8,0000*44
$GPGSA,A,3,03,20,06,30,16,23,19,13,,,,,2.0,1.2,1.6*3C
$GPRMC,000101.000,A,3353.7549,N,09832.0243,W,0.24,260.34,010412,,,D*76
$GPGGA,000102.000,3353.7548,N,09832.0244,W,2,08,1.2,311.1,M,-23.7,M,0.8,0000*40
$GPGSA,A,3,03,20,06,30,16,23,19,13,,,,,2.0,1.2,1.6*3C
$GPRMC,000102.000,A,3353.7548,N,09832.0244,W,0.26,279.81,010412,,,D*77
$GPGGA,000103.000,3353.7548,N,09832.0245,W,2,08,1.2,311.2,M,-23.7,M,0.8,0000*43
$GPGSA,A,3,03,20,06,30,16,23,19,13,,,,,2.0,1.2,1.6*3C
$GPRMC,000103.000,A,3353.7548,N,09832.0245,W,0.11,64.48,010412,,,D*48
$GPGGA,000104.000,3353.7548,N,09832.0244,W,2,08,1.2,311.2,M,-23.7,M,0.8,0000*45
$GPGSA,A,3,03,20,06,30,16,23,19,13,,,,,2.0,1.2,1.6*3C
$GPGSV,3,1,12,23,85,155,38,13,60,321,19,03,48,106,40,16,44,040,40*79
$GPGSV,3,2,12,06,40,085,35,07,33,297,24,19,28,149,37,10,21,299,*75
$GPGSV,3,3,12,20,18,202,23,30,17,046,31,32,08,180,35,08,04,277,*7D
$GPRMC,000104.000,A,3353.7548,N,09832.0244,W,0.53,75.77,010412,,,D*44
$GPGGA,000105.000,3353.7548,N,09832.0243,W,2,08,1.2,311.2,M,-23.7,M,0.8,0000*43
$GPGSA,A,3,03,20,06,30,16,23,19,13,,,,,2.0,1.2,1.6*3C
$GPRMC,000105.000,A,3353.7548,N,09832.0243,W,0.14,93.00,010412,,,D*49
$GPGGA,000106.000,3353.7548,N,09832.0242,W,2,08,1.2,311.3,M,-23.7,M,1.8,0000*41
$GPGSA,A,3,03,20,06,30,16,23,19,13,,,,,2.0,1.2,1.6*3C
$GPRMC,000106.000,A,3353.7548,N,09832.0242,W,0.51,80.45,010412,,,D*49
$GPGGA,000107.000,3353.7548,N,09832.0242,W,2,08,1.2,311.3,M,-23.7,M,2.8,0000*43
$GPGSA,A,3,03,20,06,30,16,23,19,13,,,,,2.0,1.2,1.6*3C
$GPRMC,000107.000,A,3353.7548,N,09832.0242,W,0.13,40.95,010412,,,D*4F
$GPGGA,000108.000,3353.7548,N,09832.0242,W,2,08,1.2,311.2,M,-23.7,M,3.8,0000*4C
$GPGSA,A,3,03,20,06,30,16,23,19,13,,,,,2.0,1.2,1.6*3C
$GPRMC,000108.000,A,3353.7548,N,09832.0242,W,0.15,85.16,010412,,,D*44
$GPGGA,000109.000,3353.7548,N,09832.0242,W,2,08,1.2,311.2,M,-23.7,M,0.8,0000*4E
$GPGSA,A,3,03,20,06,30,16,23,19,13,,,,,2.0,1.2,1.6*3C
$GPGSV,3,1,12,23,85,155,38,13,60,321,19,03,48,106,40,16,44,040,39*77
$GPGSV,3,2,12,06,40,085,35,07,33,297,24,19,28,149,37,10,21,299,*75
$GPGSV,3,3,12,20,18,202,23,30,17,046,31,32,08,180,35,08,04,277,*7D
$GPRMC,000109.000,A,3353.7548,N,09832.0242,W,0.11,138.27,010412,,,D*74
$GPGGA,000110.000,3353.7548,N,09832.0242,W,2,08,1.2,311.3,M,-23.7,M,0.8,0000*47
$GPGSA,A,3,03,20,06,30,16,23,19,13,,,,,2.0,1.2,1.6*3C
$GPRMC,000110.000,A,3353.7548,N,09832.0242,W,0.10,155.45,010412,,,D*72
$GPGGA,000111.000,3353.7547,N,09832.0243,W,2,08,1.2,311.3,M,-23.7,M,0.8,0000*48
$GPGSA,A,3,03,20,06,30,16,23,19,13,,,,,2.0,1.2,1.6*3C
$GPRMC,000111.000,A,3353.7547,N,09832.0243,W,0.11,330.93,010412,,,D*76
$GPGGA,000112.000,3353.7547,N,09832.0243,W,2,08,1.2,311.4,M,-23.7,M,1.8,0000*4D
$GPGSA,A,3,03,20,06,30,16,23,19,13,,,,,2.0,1.2,1.6*3C
$GPRMC,000112.000,A,3353.7547,N,09832.0243,W,0.18,330.61,010412,,,D*71
$GPGGA,000113.000,3353.7547,N,09832.0243,W,2,08,1.2,311.6,M,-23.7,M,0.8,0000*4F
$GPGSA,A,3,03,20,06,30,16,23,19,13,,,,,2.0,1.2,1.6*3C
$GPRMC,000113.000,A,3353.7547,N,09832.0243,W,0.19,75.52,010412,,,D*43
$GPGGA,000114.000,3353.7547,N,09832.0243,W,2,08,1.2,311.7,M,-23.7,M,1.8,0000*48
$GPGSA,A,3,03,20,06,30,16,23,19,13,,,,,2.0,1.2,1.6*3C
$GPGSV,3,1,12,23,85,155,38,13,60,321,19,03,48,106,40,16,44,040,39*77
$GPGSV,3,2,12,06,40,085,36,07,33,297,24,19,28,149,37,10,21,299,*76
$GPGSV,3,3,12,20,18,202,22,30,17,046,32,32,08,180,35,08,04,277,*7F
$GPRMC,000114.000,A,3353.7547,N,09832.0243,W,0.25,85.16,010412,,,D*44
$GPGGA,000115.000,3353.7547,N,09832.0244,W,2,08,1.2,311.6,M,-23.7,M,0.8,0000*4E
$GPGSA,A,3,03,20,06,30,16,23,19,13,,,,,2.0,1.2,1.6*3C
$GPRMC,000115.000,A,3353.7547,N,09832.0244,W,0.10,307.71,010412,,,D*7C
$GPGGA,000116.000,3353.7547,N,09832.0245,W,2,08,1.2,311.4,M,-23.7,M,0.8,0000*4E
$GPGSA,A,3,03,20,06,30,16,23,19,13,,,,,2.0,1.2,1.6*3C
$GPRMC,000116.000,A,3353.7547,N,09832.0245,W,0.21,285.28,010412,,,D*7B
$GPGGA,000117.000,3353.7547,N,09832.0245,W,2,08,1.2,311.4,M,-23.7,M,0.8,0000*4F
$GPGSA,A,3,03,20,06,30,16,23,19,13,,,,,2.0,1.2,1.6*3C
$GPRMC,000117.000,A,3353.7547,N,09832.0245,W,0.15,23.79,010412,,,D*47
$GPGGA,000118.000,3353.7547,N,09832.0246,W,2,08,1.2,311.3,M,-23.7,M,1.8,0000*45
$GPGSA,A,3,03,20,06,30,16,23,19,13,,,,,2.0,1.2,1.6*3C
$GPRMC,000118.000,A,3353.7547,N,09832.0246,W,0.15,99.78,010412,,,D*4B
$GPGGA,000119.000,3353.7547,N,09832.0246,W,2,08,1.2,311.1,M,-23.7,M,0.8,0000*47
$GPGSA,A,3,03,20,06,30,16,23,19,13,,,,,2.0,1.2,1.6*3C
$GPGSV,3,1,12,23,85,155,38,13,60,321,21,03,48,106,40,16,44,040,39*7C
$GPGSV,3,2,12,06,40,085,36,07,33,297,24,19,28,149,37,10,21,299,*76
$GPGSV,3,3,12,20,18,202,17,30,17,046,32,32,08,180,35,08,04,277,*79
$GPRMC,000119.000,A,3353.7547,N,09832.0246,W,0.18,276.27,010412,,,D*7E
$GPGGA,000120.000,3353.7547,N,09832.0246,W,2,08,1.2,311.2,M,-23.7,M,1.8,0000*4F
$GPGSA,A,3,03,20,06,30,16,23,19,13,,,,,2.0,1.2,1.6*3C
$GPRMC,000120.000,A,3353.7547,N,09832.0246,W,0.29,74.02,010412,,,D*41
$GPGGA,000121.000,3353.7547,N,09832.0245,W,2,08,1.2,311.4,M,-23.7,M,0.8,0000*4A
$GPGSA,A,3,03,20,06,30,16,23,19,13,,,,,2.0,1.2,1.6*3C
$GPRMC,000121.000,A,3353.7547,N,09832.0245,W,0.22,55.64,010412,,,D*4B
$GPGGA,000122.000,3353.7547,N,09832.0244,W,2,08,1.2,311.6,M,-23.7,M,0.8,0000*4A
$GPGSA,A,3,03,20,06,30,16,23,19,13,,,,,2.0,1.2,1.6*3C
$GPRMC,000122.000,A,3353.7547,N,09832.0244,W,0.22,59.96,010412,,,D*48
$GPGGA,000123.000,3353.7547,N,09832.0244,W,2,08,1.2,311.9,M,-23.7,M,0.8,0000*44
$GPGSA,A,3,03,20,06,30,16,23,19,13,,,,,2.0,1.2,1.6*3C
$GPRMC,000123.000,A,3353.7547,N,09832.0244,W,0.31,64.63,010412,,,D*4F
$GPGGA,000124.000,3353.7547,N,09832.0243,W,2,08,1.2,312.1,M,-23.7,M,1.8,0000*4E
$GPGSA,A,3,03,20,06,30,16,23,19,13,,,,,2.0,1.2,1.6*3C
$GPGSV,3,1,12,23,85,155,38,13,60,321,22,03,48,106,40,16,44,040,39*7F
$GPGSV,3,2,12,06,40,085,36,07,33,297,23,19,28,149,37,10,21,299,*71
$GPGSV,3,3,12,20,18,202,16,30,17,046,32,32,08,180,35,08,04,277,*78
$GPRMC,000124.000,A,3353.7547,N,09832.0243,W,0.37,73.27,010412,,,D*4F
$GPGGA,000125.000,3353.7547,N,09832.0243,W,2,08,1.2,312.2,M,-23.7,M,2.8,0000*4F
$GPGSA,A,3,03,20,06,30,16,23,19,13,,,,,2.0,1.2,1.6*3C
$GPRMC,000125.000,A,3353.7547,N,09832.0243,W,0.05,311.02,010412,,,D*7F
$GPGGA,000126.000,3353.7547,N,09832.0245,W,2,08,1.2,312.1,M,-23.7,M,3.8,0000*48
$GPGSA,A,3,03,20,06,30,16,23,19,13,,,,,2.0,1.2,1.6*3C
$GPRMC,000126.000,A,3353.7547,N,09832.0245,W,0.05,197.09,010412,,,D*7D
$GPGGA,000127.000,3353.7547,N,09832.0245,W,2,08,1.2,312.0,M,-23.7,M,0.8,0000*4B
$GPGSA,A,3,03,20,06,30,16,23,19,13,,,,,2.0,1.2,1.6*3C
$GPRMC,000127.000,A,3353.7547,N,09832.0245,W,0.04,156.16,010412,,,D*7E
$GPGGA,000128.000,3353.7547,N,09832.0247,W,2,08,1.2,311.8,M,-23.7,M,0.8,0000*4D
$GPGSA,A,3,03,20,06,30,16,23,19,13,,,,,2.0,1.2,1.6*3C
$GPRMC,000128.000,A,3353.7547,N,09832.0247,W,0.19,276.34,010412,,,D*7E
$GPGGA,000129.000,3353.7547,N,09832.0247,W,2,08,1.2,311.7,M,-23.7,M,0.8,0000*43
$GPGSA,A,3,03,20,06,30,16,23,19,13,,,,,2.0,1.2,1.6*3C
$GPGSV,3,1,12,23,85,155,39,13,60,321,23,03,48,106,40,16,44,040,39*7F
$GPGSV,3,2,12,06,40,085,36,07,33,297,22,19,28,149,37,10,21,299,*70
$GPGSV,3,3,12,20,18,202,16,30,17,046,32,32,08,180,35,08,04,277,*78
$GPRMC,000129.000,A,3353.7547,N,09832.0247,W,0.18,94.70,010412,,,D*40
$GPGGA,000130.000,3353.7546,N,09832.0247,W,2,08,1.2,311.7,M,-23.7,M,0.8,0000*4A
$GPGSA,A,3,03,20,06,30,16,23,19,13,,,,,2.0,1.2,1.6*3C
$GPRMC,000130.000,A,3353.7546,N,09832.0247,W,0.18,97.38,010412,,,D*46
$GPGGA,000131.000,3353.7546,N,09832.0247,W,2,08,1.2,311.6,M,-23.7,M,0.8,0000*4A
$GPGSA,A,3,03,20,06,30,16,23,19,13,,,,,2.0,1.2,1.6*3C
$GPRMC,000131.000,A,3353.7546,N,09832.0247,W,0.22,100.46,010412,,,D*78
$GPGGA,000132.000,3353.7546,N,09832.0247,W,2,08,1.2,311.4,M,-23.7,M,1.8,0000*4A
$GPGSA,A,3,03,20,06,30,16,23,19,13,,,,,2.0,1.2,1.6*3C
$GPRMC,000132.000,A,3353.7546,N,09832.0247,W,0.11,140.09,010412,,,D*74
$GPGGA,000133.000,3353.7546,N,09832.0247,W,2,08,1.2,311.3,M,-23.7,M,0.8,0000*4D
$GPGSA,A,3,03,20,06,30,16,23,19,13,,,,,2.0,1.2,1.6*3C
$GPRMC,000133.000,A,3353.7546,N,09832.0247,W,0.07,182.99,010412,,,D*75
$GPGGA,000134.000,3353.7546,N,09832.0246,W,2,08,1.2,311.3,M,-23.7,M,0.8,0000*4B
$GPGSA,A,3,03,20,06,30,16,23,19,13,,,,,2.0,1.2,1.6*3C
$GPGSV,3,1,12,23,85,155,39,13,60,321,22,03,48,106,40,16,44,040,39*7E
$GPGSV,3,2,12,06,40,085,37,07,33,297,21,19,28,149,37,10,21,299,*72
$GPGSV,3,3,12,20,18,202,16,30,17,046,32,32,08,180,34,08,04,277,*79
$GPRMC,000134.000,A,3353.7546,N,09832.0246,W,0.23,100.41,010412,,,D*7A
$GPGGA,000135.000,3353.7546,N,09832.0246,W,2,08,1.2,311.1,M,-23.7,M,0.8,0000*48
$GPGSA,A,3,03,20,06,30,16,23,19,13,,,,,2.0,1.2,1.6*3C
$GPRMC,000135.000,A,3353.7546,N,09832.0246,W,0.08,100.00,010412,,,D*77
$GPGGA,000136.000,3353.7546,N,09832.0245,W,2,08,1.2,311.2,M,-23.7,M,1.8,0000*4A
$GPGSA,A,3,03,20,06,30,16,23,19,13,,,,,2.0,1.2,1.6*3C
$GPRMC,000136.000,A,3353.7546,N,09832.0245,W,0.25,74.65,010412,,,D*49
$GPGGA,000137.000,3353.7546,N,09832.0245,W,2,08,1.2,311.0,M,-23.7,M,2.8,0000*4A
$GPGSA,A,3,03,20,06,30,16,23,19,13,,,,,2.0,1.2,1.6*3C
$GPRMC,000137.000,A,3353.7546,N,09832.0245,W,0.20,276.40,010412,,,D*7A
$GPGGA,000138.000,3353.7546,N,09832.0245,W,2,08,1.2,310.7,M,-23.7,M,3.8,0000*42
$GPGSA,A,3,03,20,06,30,16,23,19,13,,,,,2.0,1.2,1.6*3C
$GPRMC,000138.000,A,3353.7546,N,09832.0245,W,0.08,227.75,010412,,,D*7D
$GPGGA,000139.000,3353.7546,N,09832.0246,W,2,08,1.2,310.5,M,-23.7,M,0.8,0000*41
$GPGSA,A,3,03,20,06,30,16,23,19,13,,,,,2.0,1.2,1.6*3C
$GPGSV,3,1,12,23,85,155,39,13,60,321,21,03,48,106,40,16,44,040,39*7D
$GPGSV,3,2,12,06,40,085,37,07,33,297,21,19,28,149,37,10,21,299,*72
$GPGSV,3,3,12,20,18,202,18,30,17,046,31,32,08,180,34,08,04,277,*74
$GPRMC,000139.000,A,3353.7546,N,09832.0246,W,0.39,284.81,010412,,,D*7F
$GPGGA,000140.000,3353.7546,N,09832.0248,W,2,08,1.2,310.2,M,-23.7,M,0.8,0000*46
$GPGSA,A,3,03,20,06,30,16,23,19,13,,,,,2.0,1.2,1.6*3C
$GPRMC,000140.000,A,3353.7546,N,09832.0248,W,0.28,265.48,010412,,,D*75
$GPGGA,000141.000,3353.7546,N,09832.0248,W,2,08,1.2,310.2,M,-23.7,M,0.8,0000*47
$GPGSA,A,3,03,20,06,30,16,23,19,13,,,,,2.0,1.2,1.6*3C
$GPRMC,000141.000,A,3353.7546,N,09832.0248,W,0.15,75.43,010412,,,D*42
$GPGGA,000142.000,3353.7546,N,09832.0248,W,2,08,1.2,310.2,M,-23.7,M,1.8,0000*45
$GPGSA,A,3,03,20,06,30,16,23,19,13,,,,,2.0,1.2,1.6*3C
$GPRMC,000142.000,A,3353.7546,N,09832.0248,W,0.15,14.83,010412,,,D*4A
$GPGGA,000143.000,3353.7547,N,09832.0248,W,2,08,1.2,310.2,M,-23.7,M,2.8,0000*46
$GPGSA,A,3,03,20,06,30,16,23,19,13,,,,,2.0,1.2,1.6*3C
$GPRMC,000143.000,A,3353.7547,N,09832.0248,W,0.10,36.82,010412,,,D*4E
$GPGGA,000144.000,3353.7547,N,09832.0248,W,2,08,1.2,310.2,M,-23.7,M,3.8,0000*40
$GPGSA,A,3,03,20,06,30,16,23,19,13,,,,,2.0,1.2,1.6*3C
$GPGSV,3,1,12,23,85,155,39,13,60,321,21,03,48,106,40,16,44,040,40*73
$GPGSV,3,2,12,06,40,085,36,07,33,297,21,19,28,149,37,10,21,299,*73
$GPGSV,3,3,12,20,18,202,20,30,17,046,31,32,08,180,34,08,04,277,*7F
$GPRMC,000144.000,A,3353.7547,N,09832.0248,W,0.12,300.26,010412,,,D*73
$GPGGA,000145.000,3353.7547,N,09832.0248,W,2,08,1.2,310.1,M,-23.7,M,0.8,0000*41
$GPGSA,A,3,03,20,06,30,16,23,19,13,,,,,2.0,1.2,1.6*3C
$GPRMC,000145.000,A,3353.7547,N,09832.0248,W,0.15,103.36,010412,,,D*75
$GPGGA,000146.000,3353.7547,N,09832.0247,W,2,08,1.2,310.2,M,-23.7,M,0.8,0000*4E
$GPGSA,A,3,03,20,06,30,16,23,19,13,,,,,2.0,1.2,1.6*3C
$GPRMC,000146.000,A,3353.7547,N,09832.0247,W,0.25,83.46,010412,,,D*44
$GPGGA,000147.000,3353.7547,N,09832.0247,W,2,08,1.2,310.1,M,-23.7,M,0.8,0000*4C
$GPGSA,A,3,03,20,06,30,16,23,19,13,,,,,2.0,1.2,1.6*3C
$GPRMC,000147.000,A,3353.7547,N,09832.0247,W,0.12,99.52,010412,,,D*4F
$GPGGA,000148.000,3353.7547,N,09832.0247,W,2,08,1.2,310.2,M,-23.7,M,0.8,0000*40
$GPGSA,A,3,03,20,06,30,16,23,19,13,,,,,2.0,1.2,1.6*3C
$GPRMC,000148.000,A,3353.7547,N,09832.0247,W,0.18,27.20,010412,,,D*4A
$GPGGA,000149.000,3353.7547,N,09832.0246,W,2,08,1.2,310.2,M,-23.7,M,1.8,0000*41
$GPGSA,A,3,03,20,06,30,16,23,19,13,,,,,2.0,1.2,1.6*3C
$GPGSV,3,1,12,23,85,155,39,13,60,321,21,03,48,106,40,16,44,040,40*73
$GPGSV,3,2,12,06,40,085,36,07,33,297,21,19,28,149,37,10,21,299,*73
$GPGSV,3,3,12,20,18,202,22,30,17,046,31,32,08,180,34,08,04,277,*7D
$GPRMC,000149.000,A,3353.7547,N,09832.0246,W,0.15,96.18,010412,,,D*46
$GPGGA,000150.000,3353.7547,N,09832.0246,W,2,08,1.2,310.3,M,-23.7,M,2.8,0000*4B
$GPGSA,A,3,03,20,06,30,16,23,19,13,,,,,2.0,1.2,1.6*3C
$GPRMC,000150.000,A,3353.7547,N,09832.0246,W,0.23,56.44,010412,,,D*4E
$GPGGA,000151.000,3353.7547,N,09832.0246,W,2,08,1.2,310.3,M,-23.7,M,0.8,0000*48
$GPGSA,A,3,03,20,06,30,16,23,19,13,,,,,2.0,1.2,1.6*3C
$GPRMC,000151.000,A,3353.7547,N,09832.0246,W,0.23,70.63,010412,,,D*4E
$GPGGA,000152.000,3353.7548,N,09832.0246,W,2,08,1.2,310.1,M,-23.7,M,0.8,0000*46
$GPGSA,A,3,03,20,06,30,16,23,19,13,,,,,2.0,1.2,1.6*3C
$GPRMC,000152.000,A,3353.7548,N,09832.0246,W,0.24,296.15,010412,,,D*7E
$GPGGA,000153.000,3353.7548,N,09832.0247,W,2,08,1.2,310.0,M,-23.7,M,0.8,0000*47
$GPGSA,A,3,03,20,06,30,16,23,19,13,,,,,2.0,1.2,1.6*3C
$GPRMC,000153.000,A,3353.7548,N,09832.0247,W,0.12,304.14,010412,,,D*70
$GPGGA,000154.000,3353.7548,N,09832.0248,W,2,08,1.2,309.9,M,-23.7,M,1.8,0000*4F
$GPGSA,A,3,03,20,06,30,16,23,19,13,,,,,2.0,1.2,1.6*3C
$GPGSV,3,1,12,23,85,155,39,13,60,321,21,03,48,106,40,16,44,040,40*73
$GPGSV,3,2,12,06,40,085,36,07,33,297,21,19,28,149,37,10,21,299,*73
$GPGSV,3,3,12,20,18,202,23,30,17,046,31,32,08,180,34,08,04,277,*7C
$GPRMC,000154.000,A,3353.7548,N,09832.0248,W,0.19,328.97,010412,,,D*76
$GPGGA,000155.000,3353.7548,N,09832.0248,W,2,08,1.2,309.8,M,-23.7,M,0.8,0000*4E
$GPGSA,A,3,03,20,06,30,16,23,19,13,,,,,2.0,1.2,1.6*3C
$GPRMC,000155.000,A,3353.7548,N,09832.0248,W,0.10,20.87,010412,,,D*44
$GPGGA,000156.000,3353.7548,N,09832.0247,W,2,08,1.2,309.9,M,-23.7,M,1.8,0000*42
$GPGSA,A,3,03,20,06,30,16,23,19,13,,,,,2.0,1.2,1.6*3C
$GPRMC,000156.000,A,3353.7548,N,09832.0247,W,0.28,60.14,010412,,,D*4D
$GPGGA,000157.000,3353.7549,N,09832.0247,W,2,08,1.2,309.7,M,-23.7,M,0.8,0000*4D
$GPGSA,A,3,03,20,06,30,16,23,19,13,,,,,2.0,1.2,1.6*3C
$GPRMC,000157.000,A,3353.7549,N,09832.0247,W,0.02,46.46,010412,,,D*46
$GPGGA,000158.000,3353.7548,N,09832.0247,W,2,08,1.2,309.7,M,-23.7,M,0.8,0000*43
$GPGSA,A,3,03,20,06,30,16,23,19,13,,,,,2.0,1.2,1.6*3C
$GPRMC,000158.000,A,3353.7548,N,09832.0247,W,0.11,31.90,010412,,,D*41
$GPGGA,000159.000,3353.7548,N,09832.0248,W,2,08,1.2,309.5,M,-23.7,M,0.8,0000*4F
$GPGSA,A,3,03,20,06,30,16,23,19,13,,,,,2.0,1.2,1.6*3C
$GPGSV,3,1,12,23,85,155,39,13,60,321,21,03,48,106,40,16,44,040,39*7D
$GPGSV,3,2,12,06,40,085,36,07,33,297,21,19,28,149,36,10,21,299,*72
$GPGSV,3,3,12,20,18,202,24,30,17,046,30,32,08,180,34,08,04,277,*7A
$GPRMC,000159.000,A,3353.7548,N,09832.0248,W,0.16,281.31,010412,,,D*7A
$GPGGA,000200.000,3353.7548,N,09832.0248,W,2,08,1.2,309.5,M,-23.7,M,1.8,0000*41
$GPGSA,A,3,03,20,06,30,16,23,19,13,,,,,2.0,1.2,1.6*3C
$GPRMC,000200.000,A,3353.7548,N,09832.0248,W,0.14,62.52,010412,,,D*4D
$GPGGA,000201.000,3353.7548,N,09832.0247,W,2,08,1.2,309.4,M,-23.7,M,0.8,0000*4F
$GPGSA,A,3,03,20,06,30,16,23,19,13,,,,,2.0,1.2,1.6*3C
$GPRMC,000201.000,A,3353.7548,N,09832.0247,W,0.25,90.39,010412,,,D*41
$GPGGA,000202.000,3353.7548,N,09832.0248,W,2,08,1.2,309.2,M,-23.7,M,0.8,0000*45
$GPGSA,A,3,03,20,06,30,16,23,19,13,,,,,2.0,1.2,1.6*3C
$GPRMC,000202.000,A,3353.7548,N,09832.0248,W,0.12,284.18,010412,,,D*7D
$GPGGA,000203.000,3353.7548,N,09832.0248,W,2,08,1.2,309.2,M,-23.7,M,0.8,0000*44
$GPGSA,A,3,03,20,06,30,16,23,19,13,,,,,2.0,1.2,1.6*3C
$GPRMC,000203.000,A,3353.7548,N,09832.0248,W,0.14,330.54,010412,,,D*7C
$GPGGA,000204.000,3353.7548,N,09832.0249,W,2,08,1.2,308.9,M,-23.7,M,0.8,0000*48
$GPGSA,A,3,03,20,06,30,16,23,19,13,,,,,2.0,1.2,1.6*3C
$GPGSV,3,1,12,23,85,155,38,13,60,321,22,03,48,106,39,16,44,040,39*71
$GPGSV,3,2,12,06,40,085,36,07,33,297,21,19,28,149,36,10,21,299,*72
$GPGSV,3,3,12,20,18,202,24,30,17,046,30,32,08,180,34,08,04,277,*7A
$GPRMC,000204.000,A,3353.7548,N,09832.0249,W,0.30,284.97,010412,,,D*7D
$GPGGA,000205.000,3353.7549,N,09832.0250,W,2,08,1.2,308.9,M,-23.7,M,0.8,0000*40
$GPGSA,A,3,03,20,06,30,16,23,19,13,,,,,2.0,1.2,1.6*3C
$GPRMC,000205.000,A,3353.7549,N,09832.0250,W,0.17,335.94,010412,,,D*78
$GPGGA,000206.000,3353.7549,N,09832.0250,W,2,08,1.2,308.8,M,-23.7,M,1.8,0000*43
$GPGSA,A,3,03,20,06,30,16,23,19,13,,,,,2.0,1.2,1.6*3C
$GPRMC,000206.000,A,3353.7549,N,09832.0250,W,0.04,333.17,010412,,,D*74
$GPGGA,000207.000,3353.7549,N,09832.0251,W,2,08,1.2,308.6,M,-23.7,M,2.8,0000*4E
$GPGSA,A,3,03,20,06,30,16,23,19,13,,,,,2.0,1.2,1.6*3C
$GPRMC,000207.000,A,3353.7549,N,09832.0251,W,0.14,277.35,010412,,,D*74
$GPGGA,000208.000,3353.7549,N,09832.0252,W,2,08,1.2,308.4,M,-23.7,M,0.8,0000*42
$GPGSA,A,3,03,20,06,30,16,23,19,13,,,,,2.0,1.2,1.6*3C
$GPRMC,000208.000,A,3353.7549,N,09832.0252,W,0.30,280.66,010412,,,D*70
$GPGGA,000209.000,3353.7548,N,09832.0253,W,2,08,1.2,308.2,M,-23.7,M,0.8,0000*45
$GPGSA,A,3,03,20,06,30,16,23,19,13,,,,,2.0,1.2,1.6*3C
$GPGSV,3,1,12,23,85,155,38,13,60,321,24,03,48,106,39,16,44,040,39*77
$GPGSV,3,2,12,06,40,085,36,07,33,297,20,19,28,149,36,10,21,299,*73
$GPGSV,3,3,12,20,18,202,23,30,17,046,30,32,08,180,34,08,04,277,*7D
$GPRMC,000209.000,A,3353.7548,N,09832.0253,W,0.09,205.01,010412,,,D*77
$GPGGA,000210.000,3353.7548,N,09832.0253,W,2,08,1.2,308.0,M,-23.7,M,0.8,0000*4F
$GPGSA,A,3,03,20,06,30,16,23,19,13,,,,,2.0,1.2,1.6*3C
$GPRMC,000210.000,A,3353.7548,N,09832.0253,W,0.10,229.49,010412,,,D*75
$GPGGA,000211.000,3353.7548,N,09832.0254,W,2,08,1.2,307.7,M,-23.7,M,0.8,0000*41
$GPGSA,A,3,03,20,06,30,16,23,19,13,,,,,2.0,1.2,1.6*3C
$GPRMC,000211.000,A,3353.7548,N,09832.0254,W,0.24,259.72,010412,,,D*7B
$GPGGA,000212.000,3353.7547,N,09832.0255,W,2,08,1.2,307.5,M,-23.7,M,1.8,0000*4F
$GPGSA,A,3,03,20,06,30,16,23,19,13,,,,,2.0,1.2,1.6*3C
$GPRMC,000212.000,A,3353.7547,N,09832.0255,W,0.28,258.62,010412,,,D*7A
$GPGGA,000213.000,3353.7547,N,09832.0255,W,2,08,1.2,307.4,M,-23.7,M,2.8,0000*4C
$GPGSA,A,3,03,20,06,30,16,23,19,13,,,,,2.0,1.2,1.6*3C
$GPRMC,000213.000,A,3353.7547,N,09832.0255,W,0.07,357.05,010412,,,D*79
$GPGGA,000214.000,3353.7547,N,09832.0255,W,2,08,1.2,307.3,M,-23.7,M,3.8,0000*4D
$GPGSA,A,3,03,20,06,30,16,23,19,13,,,,,2.0,1.2,1.6*3C
$GPGSV,3,1,12,23,85,155,38,13,60,321,25,03,48,106,39,16,44,040,39*76
$GPGSV,3,2,12,06,40,085,36,07,33,297,18,19,28,149,36,10,21,299,*78
$GPGSV,3,3,12,20,18,202,22,30,17,046,30,32,08,180,34,08,04,277,*7C
$GPRMC,000214.000,A,3353.7547,N,09832.0255,W,0.19,58.95,010412,,,D*44
$GPGGA,000215.000,3353.7547,N,09832.0255,W,2,08,1.2,307.3,M,-23.7,M,0.8,0000*4F
$GPGSA,A,3,03,20,06,30,16,23,19,13,,,,,2.0,1.2,1.6*3C
$GPRMC,000215.000,A,3353.7547,N,09832.0255,W,0.12,336.98,010412,,,D*78
$GPGGA,000216.000,3353.7548,N,09832.0256,W,2,08,1.2,307.1,M,-23.7,M,0.8,0000*42
$GPGSA,A,3,03,20,06,30,16,23,19,13,,,,,2.0,1.2,1.6*3C
$GPRMC,000216.000,A,3353.7548,N,09832.0256,W,0.23,281.71,010412,,,D*7F
$GPGGA,000217.000,3353.7548,N,09832.0257,W,2,08,1.2,307.0,M,-23.7,M,0.8,0000*43
$GPGSA,A,3,03,20,06,30,16,23,19,13,,,,,2.0,1.2,1.6*3C
$GPRMC,000217.000,A,3353.7548,N,09832.0257,W,0.11,302.08,010412,,,D*7A
$GPGGA,000218.000,3353.7548,N,09832.0257,W,2,08,1.2,307.1,M,-23.7,M,1.8,0000*4C
$GPGSA,A,3,03,20,06,30,16,23,19,13,,,,,2.0,1.2,1.6*3C
$GPRMC,000218.000,A,3353.7548,N,09832.0257,W,0.21,41.49,010412,,,D*47
$GPGGA,000219.000,3353.7548,N,09832.0256,W,2,08,1.2,307.3,M,-23.7,M,2.8,0000*4D
$GPGSA,A,3,03,20,06,30,16,23,19,13,,,,,2.0,1.2,1.6*3C
$GPGSV,3,1,12,23,85,155,38,13,60,321,25,03,48,106,38,16,44,040,38*76
$GPGSV,3,2,12,06,40,085,36,07,33,297,,19,28,149,36,10,21,299,*71
$GPGSV,3,3,12,20,18,202,21,30,17,046,30,32,08,180,34,08,04,277,*7F
$GPRMC,000219.000,A,3353.7548,N,09832.0256,W,0.31,53.60,010412,,,D*4E
$GPGGA,000220.000,3353.7549,N,09832.0255,W,2,08,1.2,307.4,M,-23.7,M,3.8,0000*43
$GPGSA,A,3,03,20,06,30,16,23,19,13,,,,,2.0,1.2,1.6*3C
$GPRMC,000220.000,A,3353.7549,N,09832.0255,W,0.38,58.46,010412,,,D*40
$GPGGA,000221.000,3353.7549,N,09832.0254,W,2,08,1.2,307.5,M,-23.7,M,0.8,0000*41
$GPGSA,A,3,03,20,06,30,16,23,19,13,,,,,2.0,1.2,1.6*3C
$GPRMC,000221.000,A,3353.7549,N,09832.0254,W,0.28,79.57,010412,,,D*42
$GPGGA,000222.000,3353.7549,N,09832.0254,W,2,08,1.2,307.6,M,-23.7,M,0.8,0000*41
$GPGSA,A,3,03,20,06,30,16,23,19,13,,,,,2.0,1.2,1.6*3C
$GPRMC,000222.000,A,3353.7549,N,09832.0254,W,0.14,95.51,010412,,,D*4A
$GPGGA,000223.000,3353.7548,N,09832.0254,W,2,08,1.2,307.6,M,-23.7,M,0.8,0000*41
$GPGSA,A,3,03,20,06,30,16,23,19,13,,,,,2.0,1.2,1.6*3C
$GPRMC,000223.000,A,3353.7548,N,09832.0254,W,0.02,190.62,010412,,,D*79
$GPGGA,000224.000,3353.7548,N,09832.0255,W,2,08,1.2,307.4,M,-23.7,M,1.8,0000*44
$GPGSA,A,3,03,20,06,30,16,23,19,13,,,,,2.0,1.2,1.6*3C
$GPGSV,3,1,12,23,85,155,38,13,60,321,26,03,48,106,38,16,44,040,38*75
$GPGSV,3,2,12,06,40,085,36,07,33,297,,19,28,149,36,10,21,299,*71
$GPGSV,3,3,12,20,18,202,16,30,17,046,30,32,08,180,34,08,04,277,*7B
$GPRMC,000224.000,A,3353.7548,N,09832.0255,W,0.16,252.44,010412,,,D*73
$GPGGA,000225.000,3353.7548,N,09832.0255,W,2,08,1.2,307.4,M,-23.7,M,2.8,0000*46
$GPGSA,A,3,03,20,06,30,16,23,19,13,,,,,2.0,1.2,1.6*3C
$GPRMC,000225.000,A,3353.7548,N,09832.0255,W,0.03,31.69,010412,,,D*4E
$GPGGA,000226.000,3353.7548,N,09832.0256,W,2,08,1.2,307.4,M,-23.7,M,0.8,0000*44
$GPGSA,A,3,03,20,06,30,16,23,19,13,,,,,2.0,1.2,1.6*3C
$GPRMC,000226.000,A,3353.7548,N,09832.0256,W,0.08,45.84,010412,,,D*45
$GPGGA,000227.000,3353.7548,N,09832.0256,W,2,08,1.2,307.4,M,-23.7,M,0.8,0000*45
$GPGSA,A,3,03,20,06,30,16,23,19,13,,,,,2.0,1.2,1.6*3C
$GPRMC,000227.000,A,3353.7548,N,09832.0256,W,0.07,341.54,010412,,,D*71
$GPGGA,000228.000,3353.7548,N,09832.0257,W,2,08,1.2,307.3,M,-23.7,M,0.8,0000*4C
$GPGSA,A,3,03,20,06,30,16,23,19,13,,,,,2.0,1.2,1.6*3C
$GPRMC,000228.000,A,3353.7548,N,09832.0257,W,0.16,288.07,010412,,,D*7D
$GPGGA,000229.000,3353.7548,N,09832.0258,W,2,08,1.2,307.2,M,-23.7,M,0.8,0000*43
$GPGSA,A,3,03,20,06,30,16,23,19,13,,,,,2.0,1.2,1.6*3C
$GPGSV,3,1,12,23,85,155,37,13,60,321,26,03,48,106,38,16,44,040,38*7A
$GPGSV,3,2,12,06,40,085,36,07,33,297,,19,28,149,36,10,21,299,*71
$GPGSV,3,3,12,20,18,202,18,30,17,046,29,32,08,180,34,08,04,277,*7D
$GPRMC,000229.000,A,3353.7548,N,09832.0258,W,0.10,328.68,010412,,,D*77
$GPGGA,000230.000,3353.7549,N,09832.0258,W,2,08,1.2,307.1,M,-23.7,M,1.8,0000*48
$GPGSA,A,3,03,20,06,30,16,23,19,13,,,,,2.0,1.2,1.6*3C
$GPRMC,000230.000,A,3353.7549,N,09832.0258,W,0.10,335.05,010412,,,D*79
$GPGGA,000231.000,3353.7549,N,09832.0258,W,2,08,1.2,307.1,M,-23.7,M,2.8,0000*4A
$GPGSA,A,3,03,20,06,30,16,23,19,13,,,,,2.0,1.2,1.6*3C
$GPRMC,000231.000,A,3353.7549,N,09832.0258,W,0.20,27.32,010412,,,D*4F
$GPGGA,000232.000,3353.7549,N,09832.0258,W,2,08,1.2,307.3,M,-23.7,M,3.8,0000*4A
$GPGSA,A,3,03,20,06,30,16,23,19,13,,,,,2.0,1.2,1.6*3C
$GPRMC,000232.000,A,3353.7549,N,09832.0258,W,0.34,51.49,010412,,,D*44
$GPGGA,000233.000,3353.7549,N,09832.0258,W,2,08,1.2,307.3,M,-23.7,M,0.8,0000*48
$GPGSA,A,3,03,20,06,30,16,23,19,13,,,,,2.0,1.2,1.6*3C
$GPRMC,000233.000,A,3353.7549,N,09832.0258,W,0.09,53.25,010412,,,D*43
$GPGGA,000234.000,3353.7549,N,09832.0257,W,2,08,1.2,307.5,M,-23.7,M,0.8,0000*46
$GPGSA,A,3,03,20,06,30,16,23,19,13,,,,,2.0,1.2,1.6*3C
$GPGSV,3,1,12,23,85,155,37,13,60,321,27,03,48,106,38,16,44,040,38*7B
$GPGSV,3,2,12,06,40,085,36,07,33,297,,19,28,149,36,10,21,299,*71
$GPGSV,3,3,12,20,18,202,19,30,17,046,29,32,08,180,33,08,04,277,*7B
$GPRMC,000234.000,A,3353.7549,N,09832.0257,W,0.20,64.12,010412,,,D*40
$GPGGA,000235.000,3353.7549,N,09832.0257,W,2,08,1.2,307.5,M,-23.7,M,0.8,0000*47
$GPGSA,A,3,03,20,06,30,16,23,19,13,,,,,2.0,1.2,1.6*3C
$GPRMC,000235.000,A,3353.7549,N,09832.0257,W,0.05,102.14,010412,,,D*71
$GPGGA,000236.000,3353.7549,N,09832.0258,W,2,08,1.2,307.5,M,-23.7,M,0.8,0000*4B
$GPGSA,A,3,03,20,06,30,16,23,19,13,,,,,2.0,1.2,1.6*3C
$GPRMC,000236.000,A,3353.7549,N,09832.0258,W,0.11,221.13,010412,,,D*7D
$GPGGA,000237.000,3353.7549,N,09832.0258,W,2,08,1.2,307.6,M,-23.7,M,0.8,0000*49
$GPGSA,A,3,03,20,06,30,16,23,19,13,,,,,2.0,1.2,1.6*3C
$GPRMC,000237.000,A,3353.7549,N,09832.0258,W,0.05,117.51,010412,,,D*79
$GPGGA,000238.000,3353.7549,N,09832.0258,W,2,08,1.2,307.8,M,-23.7,M,0.8,0000*48
$GPGSA,A,3,03,20,06,30,16,23,19,13,,,,,2.0,1.2,1.6*3C
$GPRMC,000238.000,A,3353.7549,N,09832.0258,W,0.25,70.85,010412,,,D*4D
$GPGGA,000239.000,3353.7549,N,09832.0258,W,2,08,1.2,307.9,M,-23.7,M,0.8,0000*48
$GPGSA,A,3,03,20,06,30,16,23,19,13,,,,,2.0,1.2,1.6*3C
$GPGSV,3,1,12,23,83,156,36,13,61,321,27,03,48,105,38,16,43,040,37*75
$GPGSV,3,2,12,06,40,084,36,07,34,298,,19,29,148,37,10,21,298,*78
$GPGSV,3,3,12,20,17,201,21,30,16,047,28,32,07,180,33,08,05,278,*7C
$GPRMC,000239.000,A,3353.7549,N,09832.0258,W,0.02,242.29,010412,,,D*7C
$GPGGA,000240.000,3353.7549,N,09832.0258,W,2,08,1.2,307.9,M,-23.7,M,0.8,0000*46
$GPGSA,A,3,03,20,06,30,16,23,19,13,,,,,2.0,1.2,1.6*3C
$GPRMC,000240.000,A,3353.7549,N,09832.0258,W,0.17,41.56,010412,,,D*4F
$GPGGA,000241.000,3353.7549,N,09832.0258,W,2,08,1.2,308.0,M,-23.7,M,0.8,0000*41
$GPGSA,A,3,03,20,06,30,16,23,19,13,,,,,2.0,1.2,1.6*3C
$GPRMC,000241.000,A,3353.7549,N,09832.0258,W,0.13,16.79,010412,,,D*45
$GPGGA,000242.000,3353.7550,N,09832.0259,W,2,08,1.2,307.9,M,-23.7,M,1.8,0000*4C
$GPGSA,A,3,03,20,06,30,16,23,19,13,,,,,2.0,1.2,1.6*3C
$GPRMC,000242.000,A,3353.7550,N,09832.0259,W,0.11,287.04,010412,,,D*7D
$GPGGA,000243.000,3353.7550,N,09832.0260,W,2,08,1.2,307.8,M,-23.7,M,2.8,0000*45
$GPGSA,A,3,03,20,06,30,16,23,19,13,,,,,2.0,1.2,1.6*3C
$GPRMC,000243.000,A,3353.7550,N,09832.0260,W,0.17,291.58,010412,,,D*7E
$GPGGA,000244.000,3353.7550,N,09832.0260,W,2,08,1.2,307.9,M,-23.7,M,3.8,0000*42
$GPGSA,A,3,03,20,06,30,16,23,19,13,,,,,2.0,1.2,1.6*3C
$GPGSV,3,1,12,23,83,156,36,13,61,321,27,03,48,105,37,16,43,040,37*7A
$GPGSV,3,2,12,06,40,084,36,07,34,298,,19,29,148,37,10,21,298,*78
$GPGSV,3,3,12,20,17,201,21,30,16,047,28,32,07,180,33,08,05,278,*7C
$GPRMC,000244.000,A,3353.7550,N,09832.0260,W,0.25,37.12,010412,,,D*48
$GPGGA,000245.000,3353.7551,N,09832.0260,W,2,08,1.2,308.0,M,-23.7,M,0.8,0000*47
$GPGSA,A,3,03,20,06,30,16,23,19,13,,,,,2.0,1.2,1.6*3C
$GPRMC,000245.000,A,3353.7551,N,09832.0260,W,0.29,56.93,010412,,,D*4A
$GPGGA,000246.000,3353.7551,N,09832.0260,W,2,08,1.2,308.0,M,-23.7,M,0.8,0000*44
$GPGSA,A,3,03,20,06,30,16,23,19,13,,,,,2.0,1.2,1.6*3C
$GPRMC,000246.000,A,3353.7551,N,09832.0260,W,0.07,227.96,010412,,,D*74
$GPGGA,000247.000,3353.7551,N,09832.0261,W,2,08,1.2,308.0,M,-23.7,M,0.8,0000*44
$GPGSA,A,3,03,20,06,30,16,23,19,13,,,,,2.0,1.2,1.6*3C
$GPRMC,000247.000,A,3353.7551,N,09832.0261,W,0.02,263.21,010412,,,D*7D
$GPGGA,000248.000,3353.7550,N,09832.0261,W,2,08,1.2,308.1,M,-23.7,M,1.8,0000*4A
$GPGSA,A,3,03,20,06,30,16,23,19,13,,,,,2.0,1.2,1.6*3C
$GPRMC,000248.000,A,3353.7550,N,09832.0261,W,0.17,72.63,010412,,,D*43
$GPGGA,000249.000,3353.7550,N,09832.0260,W,2,08,1.2,308.3,M,-23.7,M,0.8,0000*49
$GPGSA,A,3,03,20,06,30,16,23,19,13,,,,,2.0,1.2,1.6*3C
$GPGSV,3,1,12,23,83,156,35,13,61,321,27,03,48,105,37,16,43,040,37*79
$GPGSV,3,2,12,06,40,084,36,07,34,298,,19,29,148,36,10,21,298,*79
$GPGSV,3,3,12,20,17,201,20,30,16,047,27,32,07,180,34,08,05,278,*75
$GPRMC,000249.000,A,3353.7550,N,09832.0260,W,0.30,70.09,010412,,,D*48
$GPGGA,000250.000,3353.7550,N,09832.0260,W,2,08,1.2,308.4,M,-23.7,M,1.8,0000*47
$GPGSA,A,3,03,20,06,30,16,23,19,13,,,,,2.0,1.2,1.6*3C
$GPRMC,000250.000,A,3353.7550,N,09832.0260,W,0.28,76.35,010412,,,D*40
$GPGGA,000251.000,3353.7551,N,09832.0259,W,2,08,1.2,308.7,M,-23.7,M,0.8,0000*4F
$GPGSA,A,3,03,20,06,30,16,23,19,13,,,,,2.0,1.2,1.6*3C
$GPRMC,000251.000,A,3353.7551,N,09832.0259,W,0.42,61.95,010412,,,D*4A
$GPGGA,000252.000,3353.7551,N,09832.0258,W,2,08,1.2,308.8,M,-23.7,M,0.8,0000*42
$GPGSA,A,3,03,20,06,30,16,23,19,13,,,,,2.0,1.2,1.6*3C
$GPRMC,000252.000,A,3353.7551,N,09832.0258,W,0.40,63.71,010412,,,D*42
$GPGGA,000253.000,3353.7552,N,09832.0258,W,2,08,1.2,308.9,M,-23.7,M,0.8,0000*41
$GPGSA,A,3,03,20,06,30,16,23,19,13,,,,,2.0,1.2,1.6*3C
$GPRMC,000253.000,A,3353.7552,N,09832.0258,W,0.28,57.41,010412,,,D*4A
$GPGGA,000254.000,3353.7552,N,09832.0258,W,2,08,1.2,308.9,M,-23.7,M,0.8,0000*46
$GPGSA,A,3,03,20,06,30,16,23,19,13,,,,,2.0,1.2,1.6*3C
$GPGSV,3,1,12,23,83,156,35,13,61,321,27,03,48,105,37,16,43,040,36*78
$GPGSV,3,2,12,06,40,084,36,07,34,298,,19,29,148,36,10,21,298,*79
$GPGSV,3,3,12,20,17,201,15,30,16,047,27,32,07,180,34,08,05,278,*73
$GPRMC,000254.000,A,3353.7552,N,09832.0258,W,0.34,71.04,010412,,,D*45
$GPGGA,000255.000,3353.7552,N,09832.0258,W,2,08,1.2,309.0,M,-23.7,M,1.8,0000*4E
$GPGSA,A,3,03,20,06,30,16,23,19,13,,,,,2.0,1.2,1.6*3C
$GPRMC,000255.000,A,3353.7552,N,09832.0258,W,0.30,31.50,010412,,,D*45
$GPGGA,000256.000,3353.7553,N,09832.0258,W,2,08,1.2,309.1,M,-23.7,M,2.8,0000*4E
$GPGSA,A,3,03,20,06,30,16,23,19,13,,,,,2.0,1.2,1.6*3C
$GPRMC,000256.000,A,3353.7553,N,09832.0258,W,0.30,51.04,010412,,,D*40
$GPGGA,000257.000,3353.7555,N,09832.0266,W,2,08,1.2,308.7,M,-23.7,M,0.8,0000*41
$GPGSA,A,3,03,20,06,30,16,23,19,13,,,,,2.0,1.2,1.6*3C
$GPRMC,000257.000,A,3353.7555,N,09832.0266,W,0.22,59.89,010412,,,D*44
$GPGGA,000258.000,3353.7556,N,09832.0270,W,2,08,1.2,308.4,M,-23.7,M,0.8,0000*49
$GPGSA,A,3,03,20,06,30,16,23,19,13,,,,,2.0,1.2,1.6*3C
$GPRMC,000258.000,A,3353.7556,N,09832.0270,W,0.28,60.03,010412,,,D*4D
$GPGGA,000259.000,3353.7556,N,09832.0273,W,2,08,1.2,308.3,M,-23.7,M,0.8,0000*4C
$GPGSA,A,3,03,20,06,30,16,23,19,13,,,,,2.0,1.2,1.6*3C
$GPGSV,3,1,12,23,83,156,34,13,61,321,27,03,48,105,37,16,43,040,36*79
$GPGSV,3,2,12,06,40,084,37,07,34,298,,19,29,148,36,10,21,298,*78
$GPGSV,3,3,12,20,17,201,14,30,16,047,26,32,07,180,33,08,05,278,*74
$GPRMC,000259.000,A,3353.7556,N,09832.0273,W,0.30,78.14,010412,,,D*49
$GPGGA,000300.000,3353.7557,N,09832.0274,W,2,08,1.2,308.3,M,-23.7,M,1.8,0000*46
$GPGSA,A,3,03,20,06,30,16,23,19,13,,,,,2.0,1.2,1.6*3C
$GPRMC,000300.000,A,3353.7557,N,09832.0274,W,0.34,78.30,010412,,,D*40
$GPGGA,000301.000,3353.7557,N,09832.0275,W,2,08,1.2,308.1,M,-23.7,M,2.8,0000*47
$GPGSA,A,3,03,20,06,30,16,23,19,13,,,,,2.0,1.2,1.6*3C
$GPRMC,000301.000,A,3353.7557,N,09832.0275,W,0.25,71.12,010412,,,D*49
$GPGGA,000302.000,3353.7557,N,09832.0277,W,2,08,1.2,307.9,M,-23.7,M,3.8,0000*40
$GPGSA,A,3,03,20,06,30,16,23,19,13,,,,,2.0,1.2,1.6*3C
$GPRMC,000302.000,A,3353.7557,N,09832.0277,W,0.04,168.18,010412,,,D*78
$GPGGA,000303.000,3353.7557,N,09832.0279,W,2,08,1.2,307.8,M,-23.7,M,0.8,0000*4D
$GPGSA,A,3,03,20,06,30,16,23,19,13,,,,,2.0,1.2,1.6*3C
$GPRMC,000303.000,A,3353.7557,N,09832.0279,W,0.17,260.12,010412,,,D*74
$GPGGA,000304.000,3353.7557,N,09832.0282,W,2,08,1.2,307.6,M,-23.7,M,0.8,0000*40
$GPGSA,A,3,03,20,06,30,16,23,19,13,,,,,2.0,1.2,1.6*3C
$GPGSV,3,1,12,23,83,156,34,13,61,321,27,03,48,105,37,16,43,040,36*79
$GPGSV,3,2,12,06,40,084,37,07,34,298,,19,29,148,36,10,21,298,*78
$GPGSV,3,3,12,20,17,201,14,30,16,047,26,32,07,180,33,08,05,278,*74
$GPRMC,000304.000,A,3353.7557,N,09832.0282,W,0.25,266.17,010412,,,D*75
$GPGGA,000305.000,3353.7557,N,09832.0284,W,2,08,1.2,307.4,M,-23.7,M,0.8,0000*45
$GPGSA,A,3,03,20,06,30,16,23,19,13,,,,,2.0,1.2,1.6*3C
$GPRMC,000305.000,A,3353.7557,N,09832.0284,W,0.31,274.21,010412,,,D*71
$GPGGA,000306.000,3353.7557,N,09832.0287,W,2,08,1.2,307.1,M,-23.7,M,1.8,0000*41
$GPGSA,A,3,03,20,06,30,16,23,19,13,,,,,2.0,1.2,1.6*3C
$GPRMC,000306.000,A,3353.7557,N,09832.0287,W,0.31,274.06,010412,,,D*74
$GPGGA,000307.000,3353.7558,N,09832.0290,W,2,08,1.2,306.9,M,-23.7,M,2.8,0000*43
$GPGSA,A,3,03,20,06,30,16,23,19,13,,,,,2.0,1.2,1.6*3C
$GPRMC,000307.000,A,3353.7558,N,09832.0290,W,0.33,271.73,010412,,,D*79
$GPGGA,000308.000,3353.7558,N,09832.0292,W,2,08,1.2,306.6,M,-23.7,M,3.8,0000*40
$GPGSA,A,3,03,20,06,30,16,23,19,13,,,,,2.0,1.2,1.6*3C
$GPRMC,000308.000,A,3353.7558,N,09832.0292,W,0.37,275.81,010412,,,D*79
$GPGGA,000309.000,3353.7558,N,09832.0294,W,2,08,1.2,306.3,M,-23.7,M,0.8,0000*41
$GPGSA,A,3,03,20,06,30,16,23,19,13,,,,,2.0,1.2,1.6*3C
$GPGSV,3,1,12,23,83,156,33,13,61,321,27,03,48,105,37,16,43,040,36*7E
$GPGSV,3,2,12,06,40,084,37,07,34,298,,19,29,148,35,10,21,298,*7B
$GPGSV,3,3,12,20,17,201,15,30,16,047,26,32,07,180,33,08,05,278,*75
$GPRMC,000309.000,A,3353.7558,N,09832.0294,W,0.14,270.46,010412,,,D*71
$GPGGA,000310.000,3353.7558,N,09832.0295,W,2,08,1.2,306.3,M,-23.7,M,0.8,0000*48
$GPGSA,A,3,03,20,06,30,16,23,19,13,,,,,2.0,1.2,1.6*3C
$GPRMC,000310.000,A,3353.7558,N,09832.0295,W,0.14,45.58,010412,,,D*43
$GPGGA,000311.000,3353.7558,N,09832.0295,W,2,08,1.2,306.3,M,-23.7,M,0.8,0000*49
$GPGSA,A,3,03,20,06,30,16,23,19,13,,,,,2.0,1.2,1.6*3C
$GPRMC,000311.000,A,3353.7558,N,09832.0295,W,0.29,70.35,010412,,,D*41
$GPGGA,000312.000,3353.7558,N,09832.0295,W,2,08,1.2,306.3,M,-23.7,M,1.8,0000*4B
$GPGSA,A,3,03,20,06,30,16,23,19,13,,,,,2.0,1.2,1.6*3C
$GPRMC,000312.000,A,3353.7558,N,09832.0295,W,0.32,75.87,010412,,,D*44
$GPGGA,000313.000,3353.7558,N,09832.0294,W,2,08,1.2,306.3,M,-23.7,M,2.8,0000*48
$GPGSA,A,3,03,20,06,30,16,23,19,13,,,,,2.0,1.2,1.6*3C
$GPRMC,000313.000,A,3353.7558,N,09832.0294,W,0.41,68.26,010412,,,D*47
$GPGGA,000314.000,3353.7559,N,09832.0296,W,2,08,1.2,306.3,M,-23.7,M,0.8,0000*4E
$GPGSA,A,3,03,20,06,30,16,23,19,13,,,,,2.0,1.2,1.6*3C
$GPGSV,3,1,12,23,83,156,33,13,61,321,27,03,48,105,37,16,43,040,35*7D
$GPGSV,3,2,12,06,40,084,37,07,34,298,,19,29,148,35,10,21,298,*7B
$GPGSV,3,3,12,20,17,201,15,30,16,047,26,32,07,180,33,08,05,278,*75
$GPRMC,000314.000,A,3353.7559,N,09832.0296,W,0.38,67.74,010412,,,D*45
$GPGGA,000315.000,3353.7560,N,09832.0297,W,2,08,1.2,306.3,M,-23.7,M,0.8,0000*44
$GPGSA,A,3,03,20,06,30,16,23,19,13,,,,,2.0,1.2,1.6*3C
$GPRMC,000315.000,A,3353.7560,N,09832.0297,W,0.47,56.16,010412,,,D*41
$GPGGA,000316.000,3353.7561,N,09832.0298,W,2,08,1.2,306.4,M,-23.7,M,0.8,0000*4E
$GPGSA,A,3,03,20,06,30,16,23,19,13,,,,,2.0,1.2,1.6*3C
$GPRMC,000316.000,A,3353.7561,N,09832.0298,W,0.45,57.43,010412,,,D*4F
$GPGGA,000317.000,3353.7561,N,09832.0300,W,2,08,1.2,306.4,M,-23.7,M,0.8,0000*4F
$GPGSA,A,3,03,20,06,30,16,23,19,13,,,,,2.0,1.2,1.6*3C
$GPRMC,000317.000,A,3353.7561,N,09832.0300,W,0.42,49.81,010412,,,D*48
$GPGGA,000318.000,3353.7562,N,09832.0301,W,2,08,1.2,306.5,M,-23.7,M,1.8,0000*42
$GPGSA,A,3,03,20,06,30,16,23,19,13,,,,,2.0,1.2,1.6*3C
$GPRMC,000318.000,A,3353.7562,N,09832.0301,W,0.40,47.02,010412,,,D*42
$GPGGA,000319.000,3353.7563,N,09832.0302,W,2,08,1.2,306.5,M,-23.7,M,2.8,0000*42
$GPGSA,A,3,03,20,06,30,16,23,19,13,,,,,2.0,1.2,1.6*3C
$GPGSV,3,1,12,23,83,156,32,13,61,321,26,03,48,105,37,16,43,040,34*7C
$GPGSV,3,2,12,06,40,084,37,07,34,298,,19,29,148,35,10,21,298,*7B
$GPGSV,3,3,12,20,17,201,14,30,16,047,26,32,07,180,33,08,05,278,*74
$GPRMC,000319.000,A,3353.7563,N,09832.0302,W,0.37,53.50,010412,,,D*43
$GPGGA,000320.000,3353.7563,N,09832.0302,W,2,08,1.2,306.5,M,-23.7,M,3.8,0000*49
$GPGSA,A,3,03,20,06,30,16,23,19,13,,,,,2.0,1.2,1.6*3C
$GPRMC,000320.000,A,3353.7563,N,09832.0302,W,0.38,53.63,010412,,,D*46
$GPGGA,000321.000,3353.7564,N,09832.0303,W,2,08,1.2,306.5,M,-23.7,M,0.8,0000*4D
$GPGSA,A,3,03,20,06,30,16,23,19,13,,,,,2.0,1.2,1.6*3C
$GPRMC,000321.000,A,3353.7564,N,09832.0303,W,0.35,65.13,010412,,,D*4E
$GPGGA,000322.000,3353.7564,N,09832.0303,W,2,08,1.2,306.5,M,-23.7,M,0.8,0000*4E
$GPGSA,A,3,03,20,06,30,16,23,19,13,,,,,2.0,1.2,1.6*3C
$GPRMC,000322.000,A,3353.7564,N,09832.0303,W,0.32,73.45,010412,,,D*4E
$GPGGA,000323.000,3353.7564,N,09832.0302,W,2,08,1.2,306.5,M,-23.7,M,0.8,0000*4E
$GPGSA,A,3,03,20,06,30,16,23,19,13,,,,,2.0,1.2,1.6*3C
$GPRMC,000323.000,A,3353.7564,N,09832.0302,W,0.41,76.89,010412,,,D*4F
$GPGGA,000324.000,3353.7563,N,09832.0302,W,2,08,1.2,306.6,M,-23.7,M,0.8,0000*4D
$GPGSA,A,3,03,20,06,30,16,23,19,13,,,,,2.0,1.2,1.6*3C
$GPGSV,3,1,12,23,83,156,32,13,61,321,26,03,48,105,37,16,43,040,34*7C
$GPGSV,3,2,12,06,40,084,37,07,34,298,,19,29,148,35,10,21,298,*7B
$GPGSV,3,3,12,20,17,201,13,30,16,047,26,32,07,180,33,08,05,278,*73
$GPRMC,000324.000,A,3353.7563,N,09832.0302,W,0.42,78.70,010412,,,D*44
$GPGGA,000325.000,3353.7563,N,09832.0301,W,2,08,1.2,306.6,M,-23.7,M,0.8,0000*4F
$GPGSA,A,3,03,20,06,30,16,23,19,13,,,,,2.0,1.2,1.6*3C
$GPRMC,000325.000,A,3353.7563,N,09832.0301,W,0.48,80.87,010412,,,D*43
$GPGGA,000326.000,3353.7563,N,09832.0300,W,2,08,1.2,306.7,M,-23.7,M,1.8,0000*4D
$GPGSA,A,3,03,20,06,30,16,23,19,13,,,,,2.0,1.2,1.6*3C
$GPRMC,000326.000,A,3353.7563,N,09832.0300,W,0.51,77.62,010412,,,D*4A
$GPGGA,000327.000,3353.7563,N,09832.0298,W,2,08,1.2,307.0,M,-23.7,M,0.8,0000*4B
$GPGSA,A,3,03,20,06,30,16,23,19,13,,,,,2.0,1.2,1.6*3C
$GPRMC,000327.000,A,3353.7563,N,09832.0298,W,0.57,69.78,010412,,,D*49
$GPGGA,000328.000,3353.7563,N,09832.0297,W,2,07,1.7,307.0,M,-23.7,M,0.8,0000*41
$GPGSA,A,3,03,06,30,16,23,19,13,,,,,,3.0,1.7,2.4*3B
$GPRMC,000328.000,A,3353.7563,N,09832.0297,W,0.34,69.18,010412,,,D*4A
$GPGGA,000329.000,3353.7564,N,09832.0298,W,2,07,1.7,306.9,M,-23.7,M,0.8,0000*40
$GPGSA,A,3,03,06,30,16,23,19,13,,,,,,3.0,1.7,2.4*3B
$GPGSV,3,1,12,23,83,156,33,13,61,321,27,03,48,105,37,16,43,040,33*7B
$GPGSV,3,2,12,06,40,084,37,07,34,298,,19,29,148,35,10,21,298,*7B
$GPGSV,3,3,12,20,17,201,,30,16,047,26,32,07,180,33,08,05,278,*71
$GPRMC,000329.000,A,3353.7564,N,09832.0298,W,0.17,56.93,010412,,,D*4D
$GPGGA,000330.000,3353.7564,N,09832.0298,W,2,07,1.7,306.8,M,-23.7,M,0.8,0000*49
$GPGSA,A,3,03,06,30,16,23,19,13,,,,,,3.0,1.7,2.4*3B
$GPRMC,000330.000,A,3353.7564,N,09832.0298,W,0.16,46.10,010412,,,D*4E
$GPGGA,000331.000,3353.7564,N,09832.0299,W,2,07,1.7,306.7,M,-23.7,M,1.8,0000*47
$GPGSA,A,3,03,06,30,16,23,19,13,,,,,,3.0,1.7,2.4*3B
$GPRMC,000331.000,A,3353.7564,N,09832.0299,W,0.18,42.25,010412,,,D*42
$GPGGA,000332.000,3353.7564,N,09832.0299,W,2,07,1.7,306.6,M,-23.7,M,2.8,0000*46
$GPGSA,A,3,03,06,30,16,23,19,13,,,,,,3.0,1.7,2.4*3B
$GPRMC,000332.000,A,3353.7564,N,09832.0299,W,0.15,35.70,010412,,,D*4C
$GPGGA,000333.000,3353.7564,N,09832.0299,W,2,07,1.7,306.4,M,-23.7,M,0.8,0000*47
$GPGSA,A,3,03,06,30,16,23,19,13,,,,,,3.0,1.7,2.4*3B
$GPRMC,000333.000,A,3353.7564,N,09832.0299,W,0.12,75.31,010412,,,D*4B
$GPGGA,000334.000,3353.7564,N,09832.0299,W,2,07,1.7,306.2,M,-23.7,M,0.8,0000*46
$GPGSA,A,3,03,06,30,16,23,19,13,,,,,,3.0,1.7,2.4*3B
$GPGSV,3,1,12,23,83,156,33,13,61,321,27,03,48,105,36,16,43,040,32*7B
$GPGSV,3,2,12,06,40,084,37,07,34,298,,19,29,148,35,10,21,298,*7B
$GPGSV,3,3,12,20,17,201,,30,16,047,27,32,07,180,33,08,05,278,*70
$GPRMC,000334.000,A,3353.7564,N,09832.0299,W,0.08,69.55,010412,,,D*48
$GPGGA,000335.000,3353.7564,N,09832.0298,W,2,07,1.7,306.1,M,-23.7,M,0.8,0000*45
$GPGSA,A,3,03,06,30,16,23,19,13,,,,,,3.0,1.7,2.4*3B
$GPRMC,000335.000,A,3353.7564,N,09832.0298,W,0.15,98.88,010412,,,D*4A
$GPGGA,000336.000,3353.7563,N,09832.0296,W,2,08,1.2,306.2,M,-23.7,M,1.8,0000*47
$GPGSA,A,3,03,06,30,16,23,20,19,13,,,,,2.0,1.2,1.6*3C
$GPRMC,000336.000,A,3353.7563,N,09832.0296,W,0.39,74.97,010412,,,D*42
$GPGGA,000337.000,3353.7563,N,09832.0294,W,2,08,1.2,306.3,M,-23.7,M,0.8,0000*44
$GPGSA,A,3,03,06,30,16,23,20,19,13,,,,,2.0,1.2,1.6*3C
$GPRMC,000337.000,A,3353.7563,N,09832.0294,W,0.44,78.35,010412,,,D*4F
$GPGGA,000338.000,3353.7563,N,09832.0293,W,2,08,1.2,306.3,M,-23.7,M,1.8,0000*4D
$GPGSA,A,3,03,06,30,16,23,20,19,13,,,,,2.0,1.2,1.6*3C
$GPRMC,000338.000,A,3353.7563,N,09832.0293,W,0.24,92.76,010412,,,D*42
$GPGGA,000339.000,3353.7562,N,09832.0292,W,2,08,1.2,306.3,M,-23.7,M,0.8,0000*4D
$GPGSA,A,3,03,06,30,16,23,20,19,13,,,,,2.0,1.2,1.6*3C
$GPGSV,3,1,12,23,83,156,33,13,61,321,28,03,48,105,36,16,43,040,32*74
$GPGSV,3,2,12,06,40,084,37,07,34,298,21,19,29,148,35,10,21,298,*78
$GPGSV,3,3,12,20,17,201,23,30,16,047,27,32,07,180,33,08,05,278,*71
$GPRMC,000339.000,A,3353.7562,N,09832.0292,W,0.03,233.01,010412,,,D*7F
$GPGGA,000340.000,3353.7562,N,09832.0291,W,2,08,1.2,306.4,M,-23.7,M,0.8,0000*47
$GPGSA,A,3,03,06,30,16,23,20,19,13,,,,,2.0,1.2,1.6*3C
$GPRMC,000340.000,A,3353.7562,N,09832.0291,W,0.32,58.89,010412,,,D*4F
$GPGGA,000341.000,3353.7562,N,09832.0290,W,2,08,1.2,306.5,M,-23.7,M,0.8,0000*46
$GPGSA,A,3,03,06,30,16,23,20,19,13,,,,,2.0,1.2,1.6*3C
$GPRMC,000341.000,A,3353.7562,N,09832.0290,W,0.24,56.28,010412,,,D*4D
$GPGGA,000342.000,3353.7563,N,09832.0289,W,2,08,1.2,306.4,M,-23.7,M,1.8,0000*4C
$GPGSA,A,3,03,06,30,16,23,20,19,13,,,,,2.0,1.2,1.6*3C
$GPRMC,000342.000,A,3353.7563,N,09832.0289,W,0.05,320.87,010412,,,D*73
$GPGGA,000343.000,3353.7563,N,09832.0289,W,2,08,1.2,306.4,M,-23.7,M,2.8,0000*4E
$GPGSA,A,3,03,06,30,16,23,20,19,13,,,,,2.0,1.2,1.6*3C
$GPRMC,000343.000,A,3353.7563,N,09832.0289,W,0.15,31.63,010412,,,D*4A
$GPGGA,000344.000,3353.7563,N,09832.0288,W,2,08,1.2,306.4,M,-23.7,M,3.8,0000*49
$GPGSA,A,3,03,06,30,16,23,20,19,13,,,,,2.0,1.2,1.6*3C
$GPGSV,3,1,12,23,83,156,33,13,61,321,28,03,48,105,36,16,43,040,33*75
$GPGSV,3,2,12,06,40,084,38,07,34,298,21,19,29,148,36,10,21,298,*74
$GPGSV,3,3,12,20,17,201,23,30,16,047,28,32,07,180,33,08,05,278,*7E
$GPRMC,000344.000,A,3353.7563,N,09832.0288,W,0.21,47.94,010412,,,D*42
$GPGGA,000345.000,3353.7563,N,09832.0288,W,2,08,1.2,306.3,M,-23.7,M,0.8,0000*4C
$GPGSA,A,3,03,06,30,16,23,20,19,13,,,,,2.0,1.2,1.6*3C
$GPRMC,000345.000,A,3353.7563,N,09832.0288,W,0.01,197.85,010412,,,D*7D
$GPGGA,000346.000,3353.7562,N,09832.0288,W,2,08,1.2,306.1,M,-23.7,M,0.8,0000*4C
$GPGSA,A,3,03,06,30,16,23,20,19,13,,,,,2.0,1.2,1.6*3C
$GPRMC,000346.000,A,3353.7562,N,09832.0288,W,0.06,209.09,010412,,,D*78
$GPGGA,000347.000,3353.7562,N,09832.0288,W,2,08,1.2,305.9,M,-23.7,M,0.8,0000*46
$GPGSA,A,3,03,06,30,16,23,20,19,13,,,,,2.0,1.2,1.6*3C
$GPRMC,000347.000,A,3353.7562,N,09832.0288,W,0.14,200.83,010412,,,D*71
$GPGGA,000348.000,3353.7561,N,09832.0287,W,2,08,1.2,306.0,M,-23.7,M,0.8,0000*4F
$GPGSA,A,3,03,06,30,16,23,20,19,13,,,,,2.0,1.2,1.6*3C
$GPRMC,000348.000,A,3353.7561,N,09832.0287,W,0.25,69.97,010412,,,D*48
$GPGGA,000349.000,3353.7561,N,09832.0286,W,2,08,1.2,305.9,M,-23.7,M,1.8,0000*44
$GPGSA,A,3,03,06,30,16,23,20,19,13,,,,,2.0,1.2,1.6*3C
$GPGSV,3,1,12,23,83,156,33,13,61,321,28,03,48,105,35,16,43,040,33*76
$GPGSV,3,2,12,06,40,084,38,07,34,298,21,19,29,148,36,10,21,298,*74
$GPGSV,3,3,12,20,17,201,24,30,16,047,28,32,07,180,33,08,05,278,*79
$GPRMC,000349.000,A,3353.7561,N,09832.0286,W,0.10,148.53,010412,,,D*74
$GPGGA,000350.000,3353.7561,N,09832.0285,W,2,08,1.2,305.9,M,-23.7,M,2.8,0000*4C
$GPGSA,A,3,03,06,30,16,23,20,19,13,,,,,2.0,1.2,1.6*3C
$GPRMC,000350.000,A,3353.7561,N,09832.0285,W,0.20,80.50,010412,,,D*4A
$GPGGA,000351.000,3353.7561,N,09832.0284,W,2,08,1.2,306.0,M,-23.7,M,0.8,0000*44
$GPGSA,A,3,03,06,30,16,23,20,19,13,,,,,2.0,1.2,1.6*3C
$GPRMC,000351.000,A,3353.7561,N,09832.0284,W,0.12,64.52,010412,,,D*43
$GPGGA,000352.000,3353.7561,N,09832.0283,W,2,08,1.2,306.0,M,-23.7,M,0.8,0000*40
$GPGSA,A,3,03,06,30,16,23,20,19,13,,,,,2.0,1.2,1.6*3C
$GPRMC,000352.000,A,3353.7561,N,09832.0283,W,0.18,46.63,010412,,,D*4F
$GPGGA,000353.000,3353.7561,N,09832.0282,W,2,08,1.2,306.1,M,-23.7,M,0.8,0000*41
$GPGSA,A,3,03,06,30,16,23,20,19,13,,,,,2.0,1.2,1.6*3C
$GPRMC,000353.000,A,3353.7561,N,09832.0282,W,0.07,15.84,010412,,,D*4E
$GPGGA,000354.000,3353.7561,N,09832.0282,W,2,08,1.2,306.1,M,-23.7,M,1.8,0000*47
$GPGSA,A,3,03,06,30,16,23,20,19,13,,,,,2.0,1.2,1.6*3C
$GPGSV,3,1,12,23,83,156,33,13,61,321,29,03,48,105,35,16,43,040,33*77
$GPGSV,3,2,12,06,40,084,38,07,34,298,22,19,29,148,36,10,21,298,*77
$GPGSV,3,3,12,20,17,201,25,30,16,047,28,32,07,180,33,08,05,278,*78
$GPRMC,000354.000,A,3353.7561,N,09832.0282,W,0.10,353.99,010412,,,D*72
$GPGGA,000355.000,3353.7561,N,09832.0281,W,2,08,1.2,306.1,M,-23.7,M,2.8,0000*46
$GPGSA,A,3,03,06,30,16,23,20,19,13,,,,,2.0,1.2,1.6*3C
$GPRMC,000355.000,A,3353.7561,N,09832.0281,W,0.09,12.41,010412,,,D*4B
$GPGGA,000356.000,3353.7561,N,09832.0281,W,2,08,1.2,306.1,M,-23.7,M,0.8,0000*47
$GPGSA,A,3,03,06,30,16,23,20,19,13,,,,,2.0,1.2,1.6*3C
$GPRMC,000356.000,A,3353.7561,N,09832.0281,W,0.08,350.62,010412,,,D*7D
$GPGGA,000357.000,3353.7560,N,09832.0281,W,2,08,1.2,306.1,M,-23.7,M,0.8,0000*47
$GPGSA,A,3,03,06,30,16,23,20,19,13,,,,,2.0,1.2,1.6*3C
$GPRMC,000357.000,A,3353.7560,N,09832.0281,W,0.02,103.68,010412,,,D*79
$GPGGA,000358.000,3353.7560,N,09832.0280,W,2,08,1.2,306.0,M,-23.7,M,0.8,0000*48
$GPGSA,A,3,03,06,30,16,23,20,19,13,,,,,2.0,1.2,1.6*3C
$GPRMC,000358.000,A,3353.7560,N,09832.0280,W,0.04,242.19,010412,,,D*71
$GPGGA,000359.000,3353.7560,N,09832.0280,W,2,08,1.2,306.0,M,-23.7,M,0.8,0000*49
$GPGSA,A,3,03,06,30,16,23,20,19,13,,,,,2.0,1.2,1.6*3C
$GPGSV,3,1,12,23,83,156,32,13,61,321,29,03,48,105,35,16,43,040,33*76
$GPGSV,3,2,12,06,40,084,38,07,34,298,22,19,29,148,36,10,21,298,*77
$GPGSV,3,3,12,20,17,201,25,30,16,047,27,32,07,180,33,08,05,278,*77
$GPRMC,000359.000,A,3353.7560,N,09832.0280,W,0.09,116.02,010412,,,D*75
$GPGGA,000400.000,3353.7559,N,09832.0279,W,2,08,1.2,306.0,M,-23.7,M,1.8,0000*4F
$GPGSA,A,3,03,06,30,16,23,20,19,13,,,,,2.0,1.2,1.6*3C
$GPRMC,000400.000,A,3353.7559,N,09832.0279,W,0.13,115.64,010412,,,D*7A
$GPGGA,000401.000,3353.7559,N,09832.0278,W,2,08,1.2,305.9,M,-23.7,M,0.8,0000*44
$GPGSA,A,3,03,06,30,16,23,20,19,13,,,,,2.0,1.2,1.6*3C
$GPRMC,000401.000,A,3353.7559,N,09832.0278,W,0.09,167.49,010412,,,D*7B
$GPGGA,000402.000,3353.7558,N,09832.0277,W,2,08,1.2,306.0,M,-23.7,M,1.8,0000*42
$GPGSA,A,3,03,06,30,16,23,20,19,13,,,,,2.0,1.2,1.6*3C
$GPRMC,000402.000,A,3353.7558,N,09832.0277,W,0.20,81.44,010412,,,D*49
$GPGGA,000403.000,3353.7558,N,09832.0276,W,2,08,1.2,306.2,M,-23.7,M,0.8,0000*41
$GPGSA,A,3,03,06,30,16,23,20,19,13,,,,,2.0,1.2,1.6*3C
$GPRMC,000403.000,A,3353.7558,N,09832.0276,W,0.27,61.31,010412,,,D*42
$GPGGA,000404.000,3353.7559,N,09832.0275,W,2,08,1.2,306.2,M,-23.7,M,0.8,0000*44
$GPGSA,A,3,03,06,30,16,23,20,19,13,,,,,2.0,1.2,1.6*3C
$GPGSV,3,1,12,23,83,156,32,13,61,321,29,03,48,105,35,16,43,040,33*76
$GPGSV,3,2,12,06,40,084,38,07,34,298,22,19,29,148,35,10,21,298,*74
$GPGSV,3,3,12,20,17,201,24,30,16,047,27,32,07,180,33,08,05,278,*76
$GPRMC,000404.000,A,3353.7559,N,09832.0275,W,0.08,57.34,010412,,,D*4A
$GPGGA,000405.000,3353.7559,N,09832.0275,W,2,08,1.2,306.2,M,-23.7,M,0.8,0000*45
$GPGSA,A,3,03,06,30,16,23,20,19,13,,,,,2.0,1.2,1.6*3C
$GPRMC,000405.000,A,3353.7559,N,09832.0275,W,0.14,264.13,010412,,,D*71
$GPGGA,000406.000,3353.7559,N,09832.0276,W,2,08,1.2,306.1,M,-23.7,M,1.8,0000*47
$GPGSA,A,3,03,06,30,16,23,20,19,13,,,,,2.0,1.2,1.6*3C
$GPRMC,000406.000,A,3353.7559,N,09832.0276,W,0.19,267.29,010412,,,D*76
$GPGGA,000407.000,3353.7558,N,09832.0276,W,2,08,1.2,306.1,M,-23.7,M,2.8,0000*44
$GPGSA,A,3,03,06,30,16,23,20,19,13,,,,,2.0,1.2,1.6*3C
$GPRMC,000407.000,A,3353.7558,N,09832.0276,W,0.31,247.32,010412,,,D*74
$GPGGA,000408.000,3353.7559,N,09832.0276,W,2,08,1.2,306.2,M,-23.7,M,3.8,0000*48
$GPGSA,A,3,03,06,30,16,23,20,19,13,,,,,2.0,1.2,1.6*3C
$GPRMC,000408.000,A,3353.7559,N,09832.0276,W,0.13,348.39,010412,,,D*7F
$GPGGA,000409.000,3353.7559,N,09832.0276,W,2,07,1.7,306.1,M,-23.7,M,0.8,0000*43
$GPGSA,A,3,03,06,30,16,23,19,13,,,,,,3.0,1.7,2.4*3B
$GPGSV,3,1,12,23,83,156,31,13,61,321,28,03,48,105,35,16,43,040,33*74
$GPGSV,3,2,12,06,40,084,38,07,34,298,23,19,29,148,35,10,21,298,*75
$GPGSV,3,3,12,20,17,201,17,30,16,047,26,32,07,180,33,08,05,278,*77
$GPRMC,000409.000,A,3353.7559,N,09832.0276,W,0.02,24.75,010412,,,D*4F
$GPGGA,000410.000,3353.7558,N,09832.0276,W,2,07,1.7,306.2,M,-23.7,M,0.8,0000*49
$GPGSA,A,3,03,06,30,16,23,19,13,,,,,,3.0,1.7,2.4*3B
$GPRMC,000410.000,A,3353.7558,N,09832.0276,W,0.13,209.40,010412,,,D*7D
$GPGGA,000411.000,3353.7558,N,09832.0276,W,2,07,1.7,306.2,M,-23.7,M,0.8,0000*48
$GPGSA,A,3,03,06,30,16,23,19,13,,,,,,3.0,1.7,2.4*3B
$GPRMC,000411.000,A,3353.7558,N,09832.0276,W,0.18,63.75,010412,,,D*4F
$GPGGA,000412.000,3353.7558,N,09832.0275,W,2,07,1.7,306.2,M,-23.7,M,0.8,0000*48
$GPGSA,A,3,03,06,30,16,23,19,13,,,,,,3.0,1.7,2.4*3B
$GPRMC,000412.000,A,3353.7558,N,09832.0275,W,0.19,78.57,010412,,,D*44
$GPGGA,000413.000,3353.7559,N,09832.0274,W,2,07,1.7,306.1,M,-23.7,M,1.8,0000*4B
$GPGSA,A,3,03,06,30,16,23,19,13,,,,,,3.0,1.7,2.4*3B
$GPRMC,000413.000,A,3353.7559,N,09832.0274,W,0.27,62.03,010412,,,D*42
$GPGGA,000414.000,3353.7558,N,09832.0273,W,2,07,1.7,306.3,M,-23.7,M,0.8,0000*49
$GPGSA,A,3,03,06,30,16,23,19,13,,,,,,3.0,1.7,2.4*3B
$GPGSV,3,1,12,23,82,157,30,13,62,321,28,03,48,103,35,16,42,040,33*71
$GPGSV,3,2,12,06,40,083,38,07,34,299,23,19,30,147,35,10,21,297,*7B
$GPGSV,3,3,12,20,16,201,,30,16,047,25,32,06,180,33,08,05,278,*72
$GPRMC,000414.000,A,3353.7558,N,09832.0273,W,0.14,135.74,010412,,,D*70
