$GPGGA,225217.000,3352.0684,N,09831.8482,W,2,10,0.8,297.7,M,-23.7,M,0.8,0000*4B
$GPGSA,A,3,03,07,20,32,13,31,06,23,16,30,,,1.6,0.8,1.4*3C
$GPGSV,3,1,12,16,72,066,33,23,63,329,26,30,44,044,38,20,42,222,36*79
$GPGSV,3,2,12,32,35,189,33,13,31,316,39,03,29,139,33,06,29,121,36*7B
$GPGSV,3,3,12,07,16,271,33,31,11,068,32,10,07,321,10,19,04,165,*7A
$GPRMC,225217.000,A,3352.0684,N,09831.8482,W,0.09,98.38,010412,,,D*45
$GPGGA,225218.000,3352.0685,N,09831.8482,W,2,10,0.8,297.7,M,-23.7,M,1.8,0000*44
$GPGSA,A,3,03,07,20,32,13,31,06,23,16,30,,,1.6,0.8,1.4*3C
$GPRMC,225218.000,A,3352.0685,N,09831.8482,W,0.07,105.30,010412,,,D*78
$GPGGA,225219.000,3352.0685,N,09831.8482,W,2,10,0.8,297.7,M,-23.7,M,0.8,0000*44
$GPGSA,A,3,03,07,20,32,13,31,06,23,16,30,,,1.6,0.8,1.4*3C
$GPRMC,225219.000,A,3352.0685,N,09831.8482,W,0.05,138.92,010412,,,D*7D
$GPGGA,225220.000,3352.0685,N,09831.8482,W,2,10,0.8,297.7,M,-23.7,M,1.8,0000*4F
$GPGSA,A,3,03,07,20,32,13,31,06,23,16,30,,,1.6,0.8,1.4*3C
$GPRMC,225220.000,A,3352.0685,N,09831.8482,W,0.07,142.84,010412,,,D*7F
$GPGGA,225221.000,3352.0684,N,09831.8482,W,2,10,0.8,297.8,M,-23.7,M,0.8,0000*41
$GPGSA,A,3,03,07,20,32,13,31,06,23,16,30,,,1.6,0.8,1.4*3C
$GPRMC,225221.000,A,3352.0684,N,09831.8482,W,0.08,144.48,010412,,,D*76
$GPGGA,225222.000,3352.0684,N,09831.8482,W,2,10,0.8,297.8,M,-23.7,M,0.8,0000*42
$GPGSA,A,3,03,07,20,32,13,31,06,23,16,30,,,1.6,0.8,1.4*3C
$GPGSV,3,1,12,16,72,066,33,23,63,329,26,30,44,044,38,20,42,222,36*79
$GPGSV,3,2,12,32,35,189,32,13,31,316,39,03,29,139,33,06,29,121,36*7A
$GPGSV,3,3,12,07,16,271,33,31,11,068,31,10,07,321,,19,04,165,*78
$GPRMC,225222.000,A,3352.0684,N,09831.8482,W,0.07,185.26,010412,,,D*7F
$GPGGA,225223.000,3352.0684,N,09831.8482,W,2,10,0.8,297.8,M,-23.7,M,0.8,0000*43
$GPGSA,A,3,03,07,20,32,13,31,06,23,16,30,,,1.6,0.8,1.4*3C
$GPRMC,225223.000,A,3352.0684,N,09831.8482,W,0.06,153.35,010412,,,D*76
$GPGGA,225224.000,3352.0684,N,09831.8482,W,2,10,0.8,297.7,M,-23.7,M,1.8,0000*4A
$GPGSA,A,3,03,07,20,32,13,31,06,23,16,30,,,1.6,0.8,1.4*3C
$GPRMC,225224.000,A,3352.0684,N,09831.8482,W,0.06,173.95,010412,,,D*79
$GPGGA,225225.000,3352.0684,N,09831.8482,W,2,10,0.8,297.7,M,-23.7,M,0.8,0000*4A
$GPGSA,A,3,03,07,20,32,13,31,06,23,16,30,,,1.6,0.8,1.4*3C
$GPRMC,225225.000,A,3352.0684,N,09831.8482,W,0.08,164.60,010412,,,D*7A
$GPGGA,225226.000,3352.0684,N,09831.8482,W,2,10,0.8,297.7,M,-23.7,M,1.8,0000*48
$GPGSA,A,3,03,07,20,32,13,31,06,23,16,30,,,1.6,0.8,1.4*3C
$GPRMC,225226.000,A,3352.0684,N,09831.8482,W,0.04,156.43,010412,,,D*75
$GPGGA,225227.000,3352.0684,N,09831.8482,W,2,10,0.8,297.7,M,-23.7,M,0.8,0000*48
$GPGSA,A,3,03,07,20,32,13,31,06,23,16,30,,,1.6,0.8,1.4*3C
$GPGSV,3,1,12,16,72,066,33,23,63,329,26,30,44,044,38,20,42,222,36*79
$GPGSV,3,2,12,32,35,189,32,13,31,316,39,03,29,139,34,06,29,121,36*7D
$GPGSV,3,3,12,07,16,271,33,31,11,068,31,10,07,321,,19,04,165,*78
$GPRMC,225227.000,A,3352.0684,N,09831.8482,W,0.04,157.57,010412,,,D*70
$GPGGA,225228.000,3352.0684,N,09831.8482,W,2,10,0.8,297.6,M,-23.7,M,0.8,0000*46
$GPGSA,A,3,03,07,20,32,13,31,06,23,16,30,,,1.6,0.8,1.4*3C
$GPRMC,225228.000,A,3352.0684,N,09831.8482,W,0.06,95.81,010412,,,D*49
$GPGGA,225229.000,3352.0684,N,09831.8482,W,2,10,0.8,297.6,M,-23.7,M,0.8,0000*47
$GPGSA,A,3,03,07,20,32,13,31,06,23,16,30,,,1.6,0.8,1.4*3C
$GPRMC,225229.000,A,3352.0684,N,09831.8482,W,0.06,116.47,010412,,,D*78
$GPGGA,225230.000,3352.0684,N,09831.8482,W,2,10,0.8,297.6,M,-23.7,M,0.8,0000*4F
$GPGSA,A,3,03,07,20,32,13,31,06,23,16,30,,,1.6,0.8,1.4*3C
$GPRMC,225230.000,A,3352.0684,N,09831.8482,W,0.08,114.98,010412,,,D*7E
$GPGGA,225231.000,3352.0684,N,09831.8482,W,2,10,0.8,297.6,M,-23.7,M,1.8,0000*4F
$GPGSA,A,3,03,07,20,32,13,31,06,23,16,30,,,1.6,0.8,1.4*3C
$GPRMC,225231.000,A,3352.0684,N,09831.8482,W,0.06,109.23,010412,,,D*7D
$GPGGA,225232.000,3352.0684,N,09831.8482,W,2,10,0.8,297.6,M,-23.7,M,2.8,0000*4F
$GPGSA,A,3,03,07,20,32,13,31,06,23,16,30,,,1.6,0.8,1.4*3C
$GPGSV,3,1,12,16,72,066,33,23,63,329,26,30,44,044,38,20,42,222,36*79
$GPGSV,3,2,12,32,35,189,32,13,31,316,39,03,29,139,34,06,29,121,36*7D
$GPGSV,3,3,12,07,16,271,33,31,11,068,31,10,07,321,,19,04,165,*78
$GPRMC,225232.000,A,3352.0684,N,09831.8482,W,0.07,121.15,010412,,,D*70
$GPGGA,225233.000,3352.0684,N,09831.8481,W,2,10,0.8,297.6,M,-23.7,M,0.8,0000*4F
$GPGSA,A,3,03,07,20,32,13,31,06,23,16,30,,,1.6,0.8,1.4*3C
$GPRMC,225233.000,A,3352.0684,N,09831.8481,W,0.07,123.59,010412,,,D*78
$GPGGA,225234.000,3352.0684,N,09831.8481,W,2,10,0.8,297.6,M,-23.7,M,0.8,0000*48
$GPGSA,A,3,03,07,20,32,13,31,06,23,16,30,,,1.6,0.8,1.4*3C
$GPRMC,225234.000,A,3352.0684,N,09831.8481,W,0.08,168.30,010412,,,D*70
$GPGGA,225235.000,3352.0684,N,09831.8482,W,2,10,0.8,297.6,M,-23.7,M,0.8,0000*4A
$GPGSA,A,3,03,07,20,32,13,31,06,23,16,30,,,1.6,0.8,1.4*3C
$GPRMC,225235.000,A,3352.0684,N,09831.8482,W,0.05,150.89,010412,,,D*76
$GPGGA,225236.000,3352.0684,N,09831.8482,W,2,10,0.8,297.6,M,-23.7,M,1.8,0000*48
$GPGSA,A,3,03,07,20,32,13,31,06,23,16,30,,,1.6,0.8,1.4*3C
$GPRMC,225236.000,A,3352.0684,N,09831.8482,W,0.04,202.40,010412,,,D*75
$GPGGA,225237.000,3352.0684,N,09831.8482,W,2,10,0.8,297.6,M,-23.7,M,2.8,0000*4A
$GPGSA,A,3,03,07,20,32,13,31,06,23,16,30,,,1.6,0.8,1.4*3C
$GPGSV,3,1,12,16,72,066,33,23,63,329,27,30,44,044,38,20,42,222,36*78
$GPGSV,3,2,12,32,35,189,32,13,31,316,39,03,29,139,34,06,29,121,36*7D
$GPGSV,3,3,12,07,16,271,33,31,11,068,30,10,07,321,,19,04,165,*79
$GPRMC,225237.000,A,3352.0684,N,09831.8482,W,0.05,159.74,010412,,,D*7F
$GPGGA,225238.000,3352.0684,N,09831.8482,W,2,10,0.8,297.6,M,-23.7,M,3.8,0000*44
$GPGSA,A,3,03,07,20,32,13,31,06,23,16,30,,,1.6,0.8,1.4*3C
$GPRMC,225238.000,A,3352.0684,N,09831.8482,W,0.04,174.23,010412,,,D*7C
$GPGGA,225239.000,3352.0684,N,09831.8482,W,2,10,0.8,297.6,M,-23.7,M,0.8,0000*46
$GPGSA,A,3,03,07,20,32,13,31,06,23,16,30,,,1.6,0.8,1.4*3C
$GPRMC,225239.000,A,3352.0684,N,09831.8482,W,0.04,157.09,010412,,,D*74
$GPGGA,225240.000,3352.0684,N,09831.8482,W,2,10,0.8,297.5,M,-23.7,M,0.8,0000*4B
$GPGSA,A,3,03,07,20,32,13,31,06,23,16,30,,,1.6,0.8,1.4*3C
$GPRMC,225240.000,A,3352.0684,N,09831.8482,W,0.06,73.38,010412,,,D*4D
$GPGGA,225241.000,3352.0684,N,09831.8482,W,2,10,0.8,297.5,M,-23.7,M,0.8,0000*4A
$GPGSA,A,3,03,07,20,32,13,31,06,23,16,30,,,1.6,0.8,1.4*3C
$GPRMC,225241.000,A,3352.0684,N,09831.8482,W,0.07,114.12,010412,,,D*75
$GPGGA,225242.000,3352.0684,N,09831.8482,W,2,10,0.8,297.4,M,-23.7,M,1.8,0000*49
$GPGSA,A,3,03,07,20,32,13,31,06,23,16,30,,,1.6,0.8,1.4*3C
$GPGSV,3,1,12,16,72,066,33,23,63,329,27,30,44,044,38,20,42,222,36*78
$GPGSV,3,2,12,32,35,189,32,13,31,316,39,03,29,139,35,06,29,121,36*7C
$GPGSV,3,3,12,07,16,271,33,31,11,068,30,10,07,321,,19,04,165,*79
$GPRMC,225242.000,A,3352.0684,N,09831.8482,W,0.07,117.67,010412,,,D*77
$GPGGA,225243.000,3352.0684,N,09831.8482,W,2,10,0.8,297.4,M,-23.7,M,2.8,0000*4B
$GPGSA,A,3,03,07,20,32,13,31,06,23,16,30,,,1.6,0.8,1.4*3C
$GPRMC,225243.000,A,3352.0684,N,09831.8482,W,0.09,112.02,010412,,,D*7E
$GPGGA,225244.000,3352.0684,N,09831.8481,W,2,10,0.8,297.3,M,-23.7,M,3.8,0000*49
$GPGSA,A,3,03,07,20,32,13,31,06,23,16,30,,,1.6,0.8,1.4*3C
$GPRMC,225244.000,A,3352.0684,N,09831.8481,W,0.08,114.68,010412,,,D*71
$GPGGA,225245.000,3352.0684,N,09831.8481,W,2,10,0.8,297.4,M,-23.7,M,0.8,0000*4C
$GPGSA,A,3,03,07,20,32,13,31,06,23,16,30,,,1.6,0.8,1.4*3C
$GPRMC,225245.000,A,3352.0684,N,09831.8481,W,0.08,149.06,010412,,,D*70
$GPGGA,225246.000,3352.0684,N,09831.8481,W,2,10,0.8,297.3,M,-23.7,M,0.8,0000*48
$GPGSA,A,3,03,07,20,32,13,31,06,23,16,30,,,1.6,0.8,1.4*3C
$GPRMC,225246.000,A,3352.0684,N,09831.8481,W,0.11,167.47,010412,,,D*72
$GPGGA,225247.000,3352.0684,N,09831.8481,W,2,10,0.8,297.3,M,-23.7,M,0.8,0000*49
$GPGSA,A,3,03,07,20,32,13,31,06,23,16,30,,,1.6,0.8,1.4*3C
$GPGSV,3,1,12,16,72,066,33,23,63,329,27,30,44,044,38,20,42,222,36*78
$GPGSV,3,2,12,32,35,189,32,13,31,316,39,03,29,139,35,06,29,121,36*7C
$GPGSV,3,3,12,07,16,271,33,31,11,068,29,10,07,321,,19,04,165,*71
$GPRMC,225247.000,A,3352.0684,N,09831.8481,W,0.05,188.01,010412,,,D*75
$GPGGA,225248.000,3352.0684,N,09831.8482,W,2,10,0.8,297.3,M,-23.7,M,1.8,0000*44
$GPGSA,A,3,03,07,20,32,13,31,06,23,16,30,,,1.6,0.8,1.4*3C
$GPRMC,225248.000,A,3352.0684,N,09831.8482,W,0.07,181.91,010412,,,D*7B
$GPGGA,225249.000,3352.0683,N,09831.8482,W,2,10,0.8,297.3,M,-23.7,M,2.8,0000*41
$GPGSA,A,3,03,07,20,32,13,31,06,23,16,30,,,1.6,0.8,1.4*3C
$GPRMC,225249.000,A,3352.0683,N,09831.8482,W,0.06,185.90,010412,,,D*79
$GPGGA,225250.000,3352.0683,N,09831.8482,W,2,10,0.8,297.3,M,-23.7,M,0.8,0000*4B
$GPGSA,A,3,03,07,20,32,13,31,06,23,16,30,,,1.6,0.8,1.4*3C
$GPRMC,225250.000,A,3352.0683,N,09831.8482,W,0.06,156.37,010412,,,D*72
$GPGGA,225251.000,3352.0683,N,09831.8482,W,2,10,0.8,297.3,M,-23.7,M,0.8,0000*4A
$GPGSA,A,3,03,07,20,32,13,31,06,23,16,30,,,1.6,0.8,1.4*3C
$GPRMC,225251.000,A,3352.0683,N,09831.8482,W,0.04,166.55,010412,,,D*76
$GPGGA,225252.000,3352.0683,N,09831.8482,W,2,10,0.8,297.3,M,-23.7,M,0.8,0000*49
$GPGSA,A,3,03,07,20,32,13,31,06,23,16,30,,,1.6,0.8,1.4*3C
$GPGSV,3,1,12,16,72,066,33,23,63,329,27,30,44,044,38,20,42,222,36*78
$GPGSV,3,2,12,32,35,189,31,13,31,316,39,03,29,139,34,06,29,121,35*7D
$GPGSV,3,3,12,07,16,271,33,31,11,068,29,10,07,321,,19,04,165,*71
$GPRMC,225252.000,A,3352.0683,N,09831.8482,W,0.07,65.68,010412,,,D*4A
$GPGGA,225253.000,3352.0684,N,09831.8482,W,2,10,0.8,297.2,M,-23.7,M,0.8,0000*4E
$GPGSA,A,3,03,07,20,32,13,31,06,23,16,30,,,1.6,0.8,1.4*3C
$GPRMC,225253.000,A,3352.0684,N,09831.8482,W,0.08,97.05,010412,,,D*45
$GPGGA,225254.000,3352.0684,N,09831.8482,W,2,10,0.8,297.2,M,-23.7,M,1.8,0000*48
$GPGSA,A,3,03,07,20,32,13,31,06,23,16,30,,,1.6,0.8,1.4*3C
$GPRMC,225254.000,A,3352.0684,N,09831.8482,W,0.09,100.76,010412,,,D*78
$GPGGA,225255.000,3352.0684,N,09831.8481,W,2,10,0.8,297.1,M,-23.7,M,2.8,0000*4A
$GPGSA,A,3,03,07,20,32,13,31,06,23,16,30,,,1.6,0.8,1.4*3C
$GPRMC,225255.000,A,3352.0684,N,09831.8481,W,0.09,92.50,010412,,,D*44
$GPGGA,225256.000,3352.0684,N,09831.8481,W,2,10,0.8,297.1,M,-23.7,M,3.8,0000*48
$GPGSA,A,3,03,07,20,32,13,31,06,23,16,30,,,1.6,0.8,1.4*3C
$GPRMC,225256.000,A,3352.0684,N,09831.8481,W,0.08,101.29,010412,,,D*73
$GPGGA,225257.000,3352.0684,N,09831.8481,W,2,10,0.8,297.1,M,-23.7,M,0.8,0000*4A
$GPGSA,A,3,03,07,20,32,13,31,06,23,16,30,,,1.6,0.8,1.4*3C
$GPGSV,3,1,12,16,72,066,32,23,63,329,27,30,44,044,38,20,42,222,36*79
$GPGSV,3,2,12,32,35,189,31,13,31,316,39,03,29,139,34,06,29,121,35*7D
$GPGSV,3,3,12,07,16,271,33,31,11,068,28,10,07,321,,19,04,165,*70
$GPRMC,225257.000,A,3352.0684,N,09831.8481,W,0.08,107.42,010412,,,D*79
$GPGGA,225258.000,3352.0683,N,09831.8481,W,2,10,0.8,297.1,M,-23.7,M,0.8,0000*42
$GPGSA,A,3,03,07,20,32,13,31,06,23,16,30,,,1.6,0.8,1.4*3C
$GPRMC,225258.000,A,3352.0683,N,09831.8481,W,0.10,159.59,010412,,,D*79
$GPGGA,225259.000,3352.0683,N,09831.8481,W,2,10,0.8,297.1,M,-23.7,M,0.8,0000*43
$GPGSA,A,3,03,07,20,32,13,31,06,23,16,30,,,1.6,0.8,1.4*3C
$GPRMC,225259.000,A,3352.0683,N,09831.8481,W,0.05,177.83,010412,,,D*77
$GPGGA,225300.000,3352.0683,N,09831.8481,W,2,10,0.8,297.1,M,-23.7,M,0.8,0000*4E
$GPGSA,A,3,03,07,20,32,13,31,06,23,16,30,,,1.6,0.8,1.4*3C
$GPRMC,225300.000,A,3352.0683,N,09831.8481,W,0.06,172.78,010412,,,D*78
$GPGGA,225301.000,3352.0683,N,09831.8481,W,2,10,0.8,297.1,M,-23.7,M,0.8,0000*4F
$GPGSA,A,3,03,07,20,32,13,31,06,23,16,30,,,1.6,0.8,1.4*3C
$GPRMC,225301.000,A,3352.0683,N,09831.8481,W,0.05,190.07,010412,,,D*7E
$GPGGA,225302.000,3352.0683,N,09831.8481,W,2,10,0.8,297.1,M,-23.7,M,0.8,0000*4C
$GPGSA,A,3,03,07,20,32,13,31,06,23,16,30,,,1.6,0.8,1.4*3C
$GPGSV,3,1,12,16,72,066,32,23,63,329,27,30,44,044,39,20,42,222,36*78
$GPGSV,3,2,12,32,35,189,31,13,31,316,39,03,29,139,35,06,29,121,36*7F
$GPGSV,3,3,12,07,16,271,33,31,11,068,28,10,07,321,,19,04,165,*70
$GPRMC,225302.000,A,3352.0683,N,09831.8481,W,0.05,182.04,010412,,,D*7D
$GPGGA,225303.000,3352.0683,N,09831.8481,W,2,10,0.8,297.0,M,-23.7,M,0.8,0000*4C
$GPGSA,A,3,03,07,20,32,13,31,06,23,16,30,,,1.6,0.8,1.4*3C
$GPRMC,225303.000,A,3352.0683,N,09831.8481,W,0.04,151.45,010412,,,D*76
$GPGGA,225304.000,3352.0683,N,09831.8481,W,2,10,0.8,297.1,M,-23.7,M,0.8,0000*4A
$GPGSA,A,3,03,07,20,32,13,31,06,23,16,30,,,1.6,0.8,1.4*3C
$GPRMC,225304.000,A,3352.0683,N,09831.8481,W,0.05,70.82,010412,,,D*49
$GPGGA,225305.000,3352.0683,N,09831.8481,W,2,10,0.8,297.1,M,-23.7,M,0.8,0000*4B
$GPGSA,A,3,03,07,20,32,13,31,06,23,16,30,,,1.6,0.8,1.4*3C
$GPRMC,225305.000,A,3352.0683,N,09831.8481,W,0.08,106.72,010412,,,D*7A
$GPGGA,225306.000,3352.0683,N,09831.8481,W,2,10,0.8,297.1,M,-23.7,M,0.8,0000*48
$GPGSA,A,3,03,07,20,32,13,31,06,23,16,30,,,1.6,0.8,1.4*3C
$GPRMC,225306.000,A,3352.0683,N,09831.8481,W,0.09,113.74,010412,,,D*7A
$GPGGA,225307.000,3352.0683,N,09831.8481,W,2,10,0.8,297.1,M,-23.7,M,1.8,0000*48
$GPGSA,A,3,03,07,20,32,13,31,06,23,16,30,,,1.6,0.8,1.4*3C
$GPGSV,3,1,12,16,72,066,32,23,63,329,27,30,44,044,39,20,42,222,36*78
$GPGSV,3,2,12,32,35,189,31,13,31,316,39,03,29,139,35,06,29,121,36*7F
$GPGSV,3,3,12,07,16,271,33,31,11,068,28,10,07,321,,19,04,165,*70
$GPRMC,225307.000,A,3352.0683,N,09831.8481,W,0.08,103.79,010412,,,D*76
$GPGGA,225308.000,3352.0683,N,09831.8481,W,2,10,0.8,297.1,M,-23.7,M,2.8,0000*44
$GPGSA,A,3,03,07,20,32,13,31,06,23,16,30,,,1.6,0.8,1.4*3C
$GPRMC,225308.000,A,3352.0683,N,09831.8481,W,0.08,102.85,010412,,,D*7B
$GPGGA,225309.000,3352.0683,N,09831.8480,W,2,10,0.8,297.2,M,-23.7,M,0.8,0000*45
$GPGSA,A,3,03,07,20,32,13,31,06,23,16,30,,,1.6,0.8,1.4*3C
$GPRMC,225309.000,A,3352.0683,N,09831.8480,W,0.08,120.47,010412,,,D*75
$GPGGA,225310.000,3352.0683,N,09831.8480,W,2,10,0.8,297.2,M,-23.7,M,0.8,0000*4D
$GPGSA,A,3,03,07,20,32,13,31,06,23,16,30,,,1.6,0.8,1.4*3C
$GPRMC,225310.000,A,3352.0683,N,09831.8480,W,0.09,158.56,010412,,,D*73
$GPGGA,225311.000,3352.0683,N,09831.8480,W,2,10,0.8,297.2,M,-23.7,M,0.8,0000*4C
$GPGSA,A,3,03,07,20,32,13,31,06,23,16,30,,,1.6,0.8,1.4*3C
$GPRMC,225311.000,A,3352.0683,N,09831.8480,W,0.03,166.51,010412,,,D*72
$GPGGA,225312.000,3352.0683,N,09831.8481,W,2,10,0.8,297.2,M,-23.7,M,1.8,0000*4F
$GPGSA,A,3,03,07,20,32,13,31,06,23,16,30,,,1.6,0.8,1.4*3C
$GPGSV,3,1,12,16,72,066,32,23,63,329,26,30,44,044,39,20,42,222,37*78
$GPGSV,3,2,12,32,35,189,31,13,31,316,39,03,29,139,34,06,29,121,36*7E
$GPGSV,3,3,12,07,16,271,32,31,11,068,28,10,07,321,,19,04,165,*71
$GPRMC,225312.000,A,3352.0683,N,09831.8481,W,0.04,167.23,010412,,,D*73
$GPGGA,225313.000,3352.0683,N,09831.8481,W,2,10,0.8,297.2,M,-23.7,M,0.8,0000*4F
$GPGSA,A,3,03,07,20,32,13,31,06,23,16,30,,,1.6,0.8,1.4*3C
$GPRMC,225313.000,A,3352.0683,N,09831.8481,W,0.04,170.27,010412,,,D*70
$GPGGA,225314.000,3352.0683,N,09831.8481,W,2,10,0.8,297.2,M,-23.7,M,0.8,0000*48
$GPGSA,A,3,03,07,20,32,13,31,06,23,16,30,,,1.6,0.8,1.4*3C
$GPRMC,225314.000,A,3352.0683,N,09831.8481,W,0.01,178.83,010412,,,D*74
$GPGGA,225315.000,3352.0683,N,09831.8481,W,2,10,0.8,297.2,M,-23.7,M,0.8,0000*49
$GPGSA,A,3,03,07,20,32,13,31,06,23,16,30,,,1.6,0.8,1.4*3C
$GPRMC,225315.000,A,3352.0683,N,09831.8481,W,0.01,350.35,010412,,,D*70
$GPGGA,225316.000,3352.0683,N,09831.8481,W,2,10,0.8,297.2,M,-23.7,M,0.8,0000*4A
$GPGSA,A,3,03,07,20,32,13,31,06,23,16,30,,,1.6,0.8,1.4*3C
$GPRMC,225316.000,A,3352.0683,N,09831.8481,W,0.05,61.43,010412,,,D*47
$GPGGA,225317.000,3352.0683,N,09831.8481,W,2,10,0.8,297.3,M,-23.7,M,0.8,0000*4A
$GPGSA,A,3,03,07,20,32,13,31,06,23,16,30,,,1.6,0.8,1.4*3C
$GPGSV,3,1,12,16,72,066,32,23,63,329,20,30,44,044,39,20,42,222,37*7E
$GPGSV,3,2,12,32,35,189,32,13,31,316,39,03,29,139,34,06,29,121,36*7D
$GPGSV,3,3,12,07,16,271,32,31,11,068,29,10,07,321,19,19,04,165,*78
$GPRMC,225317.000,A,3352.0683,N,09831.8481,W,0.07,107.33,010412,,,D*72
$GPGGA,225318.000,3352.0684,N,09831.8481,W,2,10,0.8,297.2,M,-23.7,M,1.8,0000*42
$GPGSA,A,3,03,07,20,32,13,31,06,23,16,30,,,1.6,0.8,1.4*3C
$GPRMC,225318.000,A,3352.0684,N,09831.8481,W,0.10,112.08,010412,,,D*70
$GPGGA,225319.000,3352.0684,N,09831.8480,W,2,10,0.8,297.1,M,-23.7,M,2.8,0000*42
$GPGSA,A,3,03,07,20,32,13,31,06,23,16,30,,,1.6,0.8,1.4*3C
$GPRMC,225319.000,A,3352.0684,N,09831.8480,W,0.11,116.90,010412,,,D*74
$GPGGA,225320.000,3352.0684,N,09831.8480,W,2,10,0.8,297.0,M,-23.7,M,3.8,0000*48
$GPGSA,A,3,03,07,20,32,13,31,06,23,16,30,,,1.6,0.8,1.4*3C
$GPRMC,225320.000,A,3352.0684,N,09831.8480,W,0.10,106.82,010412,,,D*7D
$GPGGA,225321.000,3352.0684,N,09831.8480,W,2,10,0.8,297.0,M,-23.7,M,0.8,0000*4A
$GPGSA,A,3,03,07,20,32,13,31,06,23,16,30,,,1.6,0.8,1.4*3C
$GPRMC,225321.000,A,3352.0684,N,09831.8480,W,0.06,112.08,010412,,,D*7C
$GPGGA,225322.000,3352.0683,N,09831.8480,W,2,10,0.8,297.1,M,-23.7,M,0.8,0000*4F
$GPGSA,A,3,03,07,20,32,13,31,06,23,16,30,,,1.6,0.8,1.4*3C
$GPGSV,3,1,12,16,72,066,33,23,63,329,22,30,44,044,39,20,42,222,37*7D
$GPGSV,3,2,12,32,35,189,32,13,31,316,39,03,29,139,34,06,29,121,36*7D
$GPGSV,3,3,12,07,16,271,33,31,11,068,30,10,07,321,18,19,04,165,*70
$GPRMC,225322.000,A,3352.0683,N,09831.8480,W,0.07,154.06,010412,,,D*75
$GPGGA,225323.000,3352.0683,N,09831.8480,W,2,10,0.8,297.1,M,-23.7,M,0.8,0000*4E
$GPGSA,A,3,03,07,20,32,13,31,06,23,16,30,,,1.6,0.8,1.4*3C
$GPRMC,225323.000,A,3352.0683,N,09831.8480,W,0.05,160.91,010412,,,D*7F
$GPGGA,225324.000,3352.0683,N,09831.8480,W,2,10,0.8,297.0,M,-23.7,M,1.8,0000*49
$GPGSA,A,3,03,07,20,32,13,31,06,23,16,30,,,1.6,0.8,1.4*3C
$GPRMC,225324.000,A,3352.0683,N,09831.8480,W,0.06,152.61,010412,,,D*75
$GPGGA,225325.000,3352.0683,N,09831.8480,W,2,10,0.8,297.0,M,-23.7,M,2.8,0000*4B
$GPGSA,A,3,03,07,20,32,13,31,06,23,16,30,,,1.6,0.8,1.4*3C
$GPRMC,225325.000,A,3352.0683,N,09831.8480,W,0.03,163.39,010412,,,D*7E
$GPGGA,225326.000,3352.0683,N,09831.8480,W,2,10,0.8,297.0,M,-23.7,M,3.8,0000*49
$GPGSA,A,3,03,07,20,32,13,31,06,23,16,30,,,1.6,0.8,1.4*3C
$GPRMC,225326.000,A,3352.0683,N,09831.8480,W,0.03,163.96,010412,,,D*78
$GPGGA,225327.000,3352.0683,N,09831.8480,W,2,10,0.8,297.0,M,-23.7,M,0.8,0000*4B
$GPGSA,A,3,03,07,20,32,13,31,06,23,16,30,,,1.6,0.8,1.4*3C
$GPGSV,3,1,12,16,72,066,33,23,63,329,22,30,44,044,39,20,42,222,36*7C
$GPGSV,3,2,12,32,35,189,32,13,31,316,39,03,29,139,34,06,29,121,36*7D
$GPGSV,3,3,12,07,16,271,33,31,11,068,30,10,07,321,18,19,04,165,*70
$GPRMC,225327.000,A,3352.0683,N,09831.8480,W,0.01,118.69,010412,,,D*77
$GPGGA,225328.000,3352.0683,N,09831.8480,W,2,10,0.8,297.0,M,-23.7,M,0.8,0000*44
$GPGSA,A,3,03,07,20,32,13,31,06,23,16,30,,,1.6,0.8,1.4*3C
$GPRMC,225328.000,A,3352.0683,N,09831.8480,W,0.04,50.99,010412,,,D*4F
$GPGGA,225329.000,3352.0684,N,09831.8480,W,2,10,0.8,297.0,M,-23.7,M,0.8,0000*42
$GPGSA,A,3,03,07,20,32,13,31,06,23,16,30,,,1.6,0.8,1.4*3C
$GPRMC,225329.000,A,3352.0684,N,09831.8480,W,0.07,95.47,010412,,,D*40
$GPGGA,225330.000,3352.0684,N,09831.8480,W,2,10,0.8,297.0,M,-23.7,M,1.8,0000*4B
$GPGSA,A,3,03,07,20,32,13,31,06,23,16,30,,,1.6,0.8,1.4*3C
$GPRMC,225330.000,A,3352.0684,N,09831.8480,W,0.09,101.15,010412,,,D*7D
$GPGGA,225331.000,3352.0684,N,09831.8480,W,2,10,0.8,297.0,M,-23.7,M,2.8,0000*49
$GPGSA,A,3,03,07,20,32,13,31,06,23,16,30,,,1.6,0.8,1.4*3C
$GPRMC,225331.000,A,3352.0684,N,09831.8480,W,0.09,98.54,010412,,,D*48
$GPGGA,225332.000,3352.0684,N,09831.8480,W,2,10,0.8,297.0,M,-23.7,M,3.8,0000*4B
$GPGSA,A,3,03,07,20,32,13,31,06,23,16,30,,,1.6,0.8,1.4*3C
$GPGSV,3,1,12,16,72,066,33,23,63,329,23,30,44,044,39,20,42,222,36*7D
$GPGSV,3,2,12,32,35,189,32,13,31,316,39,03,29,139,34,06,29,121,36*7D
$GPGSV,3,3,12,07,16,271,33,31,11,068,30,10,07,321,18,19,04,165,*70
$GPRMC,225332.000,A,3352.0684,N,09831.8480,W,0.06,87.01,010412,,,D*4A
$GPGGA,225333.000,3352.0684,N,09831.8479,W,2,10,0.8,297.0,M,-23.7,M,0.8,0000*4F
$GPGSA,A,3,03,07,20,32,13,31,06,23,16,30,,,1.6,0.8,1.4*3C
$GPRMC,225333.000,A,3352.0684,N,09831.8479,W,0.08,126.79,010412,,,D*76
$GPGGA,225334.000,3352.0684,N,09831.8479,W,2,10,0.8,296.9,M,-23.7,M,0.8,0000*40
$GPGSA,A,3,03,07,20,32,13,31,06,23,16,30,,,1.6,0.8,1.4*3C
$GPRMC,225334.000,A,3352.0684,N,09831.8479,W,0.10,148.08,010412,,,D*76
$GPGGA,225335.000,3352.0684,N,09831.8480,W,2,10,0.8,296.9,M,-23.7,M,0.8,0000*47
$GPGSA,A,3,03,07,20,32,13,31,06,23,16,30,,,1.6,0.8,1.4*3C
$GPRMC,225335.000,A,3352.0684,N,09831.8480,W,0.06,162.42,010412,,,D*70
$GPGGA,225336.000,3352.0683,N,09831.8480,W,2,10,0.8,296.8,M,-23.7,M,1.8,0000*43
$GPGSA,A,3,03,07,20,32,13,31,06,23,16,30,,,1.6,0.8,1.4*3C
$GPRMC,225336.000,A,3352.0683,N,09831.8480,W,0.04,155.40,010412,,,D*70
$GPGGA,225337.000,3352.0683,N,09831.8480,W,2,10,0.8,296.7,M,-23.7,M,2.8,0000*4E
$GPGSA,A,3,03,07,20,32,13,31,06,23,16,30,,,1.6,0.8,1.4*3C
$GPGSV,3,1,12,16,72,066,33,23,63,329,24,30,44,044,39,20,42,222,37*7B
$GPGSV,3,2,12,32,35,189,32,13,31,316,39,03,29,139,34,06,29,121,36*7D
$GPGSV,3,3,12,07,16,271,33,31,11,068,30,10,07,321,18,19,04,165,*70
$GPRMC,225337.000,A,3352.0683,N,09831.8480,W,0.05,150.49,010412,,,D*7C
$GPGGA,225338.000,3352.0683,N,09831.8480,W,2,10,0.8,296.7,M,-23.7,M,0.8,0000*43
$GPGSA,A,3,03,07,20,32,13,31,06,23,16,30,,,1.6,0.8,1.4*3C
$GPRMC,225338.000,A,3352.0683,N,09831.8480,W,0.06,154.68,010412,,,D*77
$GPGGA,225339.000,3352.0683,N,09831.8480,W,2,10,0.8,296.6,M,-23.7,M,0.8,0000*43
$GPGSA,A,3,03,07,20,32,13,31,06,23,16,30,,,1.6,0.8,1.4*3C
$GPRMC,225339.000,A,3352.0683,N,09831.8480,W,0.04,109.89,010412,,,D*73
$GPGGA,225340.000,3352.0684,N,09831.8480,W,2,10,0.8,296.5,M,-23.7,M,0.8,0000*49
$GPGSA,A,3,03,07,20,32,13,31,06,23,16,30,,,1.6,0.8,1.4*3C
$GPRMC,225340.000,A,3352.0684,N,09831.8480,W,0.05,57.25,010412,,,D*47
$GPGGA,225341.000,3352.0684,N,09831.8480,W,2,10,0.8,296.5,M,-23.7,M,0.8,0000*48
$GPGSA,A,3,03,07,20,32,13,31,06,23,16,30,,,1.6,0.8,1.4*3C
$GPRMC,225341.000,A,3352.0684,N,09831.8480,W,0.09,100.12,010412,,,D*7D
$GPGGA,225342.000,3352.0684,N,09831.8480,W,2,10,0.8,296.4,M,-23.7,M,1.8,0000*4B
$GPGSA,A,3,03,07,20,32,13,31,06,23,16,30,,,1.6,0.8,1.4*3C
$GPGSV,3,1,12,16,72,066,32,23,63,329,25,30,44,044,39,20,42,222,37*7B
$GPGSV,3,2,12,32,35,189,31,13,31,316,39,03,29,139,34,06,29,121,36*7E
$GPGSV,3,3,12,07,16,271,33,31,11,068,30,10,07,321,17,19,04,165,*7F
$GPRMC,225342.000,A,3352.0684,N,09831.8480,W,0.07,95.36,010412,,,D*4B
$GPGGA,225343.000,3352.0684,N,09831.8480,W,2,10,0.8,296.4,M,-23.7,M,2.8,0000*49
$GPGSA,A,3,03,07,20,32,13,31,06,23,16,30,,,1.6,0.8,1.4*3C
$GPRMC,225343.000,A,3352.0684,N,09831.8480,W,0.08,105.62,010412,,,D*7C
$GPGGA,225344.000,3352.0684,N,09831.8479,W,2,10,0.8,296.3,M,-23.7,M,3.8,0000*4E
$GPGSA,A,3,03,07,20,32,13,31,06,23,16,30,,,1.6,0.8,1.4*3C
$GPRMC,225344.000,A,3352.0684,N,09831.8479,W,0.09,105.32,010412,,,D*79
$GPGGA,225345.000,3352.0684,N,09831.8479,W,2,10,0.8,296.3,M,-23.7,M,0.8,0000*4C
$GPGSA,A,3,03,07,20,32,13,31,06,23,16,30,,,1.6,0.8,1.4*3C
$GPRMC,225345.000,A,3352.0684,N,09831.8479,W,0.08,113.93,010412,,,D*75
$GPGGA,225346.000,3352.0684,N,09831.8479,W,2,10,0.8,296.2,M,-23.7,M,0.8,0000*4E
$GPGSA,A,3,03,07,20,32,13,31,06,23,16,30,,,1.6,0.8,1.4*3C
$GPRMC,225346.000,A,3352.0684,N,09831.8479,W,0.09,158.88,010412,,,D*72
$GPGGA,225347.000,3352.0684,N,09831.8479,W,2,10,0.8,296.2,M,-23.7,M,0.8,0000*4F
$GPGSA,A,3,03,07,20,32,13,31,06,23,16,30,,,1.6,0.8,1.4*3C
$GPGSV,3,1,12,16,72,066,32,23,63,329,26,30,44,044,39,20,42,222,37*78
$GPGSV,3,2,12,32,35,189,32,13,31,316,39,03,29,139,34,06,29,121,36*7D
$GPGSV,3,3,12,07,16,271,33,31,11,068,30,10,07,321,17,19,04,165,*7F
$GPRMC,225347.000,A,3352.0684,N,09831.8479,W,0.05,165.84,010412,,,D*7D
$GPGGA,225348.000,3352.0684,N,09831.8480,W,2,10,0.8,296.2,M,-23.7,M,0.8,0000*46
$GPGSA,A,3,03,07,20,32,13,31,06,23,16,30,,,1.6,0.8,1.4*3C
$GPRMC,225348.000,A,3352.0684,N,09831.8480,W,0.03,159.17,010412,,,D*77
$GPGGA,225349.000,3352.0684,N,09831.8480,W,2,10,0.8,296.2,M,-23.7,M,0.8,0000*47
$GPGSA,A,3,03,07,20,32,13,31,06,23,16,30,,,1.6,0.8,1.4*3C
$GPRMC,225349.000,A,3352.0684,N,09831.8480,W,0.06,168.55,010412,,,D*77
$GPGGA,225350.000,3352.0684,N,09831.8480,W,2,10,0.8,296.1,M,-23.7,M,0.8,0000*4C
$GPGSA,A,3,03,07,20,32,13,31,06,23,16,30,,,1.6,0.8,1.4*3C
$GPRMC,225350.000,A,3352.0684,N,09831.8480,W,0.04,159.14,010412,,,D*7A
$GPGGA,225351.000,3352.0684,N,09831.8480,W,2,10,0.8,296.0,M,-23.7,M,0.8,0000*4C
$GPGSA,A,3,03,07,20,32,13,31,06,23,16,30,,,1.6,0.8,1.4*3C
$GPRMC,225351.000,A,3352.0684,N,09831.8480,W,0.03,146.40,010412,,,D*73
$GPGGA,225352.000,3352.0684,N,09831.8480,W,2,10,0.8,296.0,M,-23.7,M,0.8,0000*4F
$GPGSA,A,3,03,07,20,32,13,31,06,23,16,30,,,1.6,0.8,1.4*3C
$GPGSV,3,1,12,16,72,066,33,23,63,329,27,30,44,044,39,20,42,222,36*79
$GPGSV,3,2,12,32,35,189,31,13,31,316,38,03,29,139,34,06,29,121,36*7F
$GPGSV,3,3,12,07,16,271,33,31,11,068,30,10,07,321,17,19,04,165,*7F
$GPRMC,225352.000,A,3352.0684,N,09831.8480,W,0.04,71.82,010412,,,D*4C
$GPGGA,225353.000,3352.0684,N,09831.8480,W,2,10,0.8,295.9,M,-23.7,M,0.8,0000*44
$GPGSA,A,3,03,07,20,32,13,31,06,23,16,30,,,1.6,0.8,1.4*3C
$GPRMC,225353.000,A,3352.0684,N,09831.8480,W,0.07,77.33,010412,,,D*42
$GPGGA,225354.000,3352.0684,N,09831.8480,W,2,10,0.8,295.9,M,-23.7,M,1.8,0000*42
$GPGSA,A,3,03,07,20,32,13,31,06,23,16,30,,,1.6,0.8,1.4*3C
$GPRMC,225354.000,A,3352.0684,N,09831.8480,W,0.06,86.06,010412,,,D*4C
$GPGGA,225355.000,3352.0684,N,09831.8480,W,2,10,0.8,295.9,M,-23.7,M,2.8,0000*40
$GPGSA,A,3,03,07,20,32,13,31,06,23,16,30,,,1.6,0.8,1.4*3C
$GPRMC,225355.000,A,3352.0684,N,09831.8480,W,0.07,96.44,010412,,,D*4B
$GPGGA,225356.000,3352.0684,N,09831.8480,W,2,10,0.8,295.8,M,-23.7,M,3.8,0000*43
$GPGSA,A,3,03,07,20,32,13,31,06,23,16,30,,,1.6,0.8,1.4*3C
$GPRMC,225356.000,A,3352.0684,N,09831.8480,W,0.07,80.09,010412,,,D*46
$GPGGA,225357.000,3352.0684,N,09831.8479,W,2,10,0.8,295.8,M,-23.7,M,0.8,0000*47
$GPGSA,A,3,03,07,20,32,13,31,06,23,16,30,,,1.6,0.8,1.4*3C
$GPGSV,3,1,12,16,72,066,32,23,63,329,27,30,44,044,39,20,42,222,36*78
$GPGSV,3,2,12,32,35,189,30,13,31,316,38,03,29,139,34,06,29,121,35*7D
$GPGSV,3,3,12,07,16,271,33,31,11,068,30,10,07,321,18,19,04,165,*70
$GPRMC,225357.000,A,3352.0684,N,09831.8479,W,0.06,122.17,010412,,,D*76
$GPGGA,225358.000,3352.0684,N,09831.8479,W,2,10,0.8,295.7,M,-23.7,M,0.8,0000*47
$GPGSA,A,3,03,07,20,32,13,31,06,23,16,30,,,1.6,0.8,1.4*3C
$GPRMC,225358.000,A,3352.0684,N,09831.8479,W,0.07,154.65,010412,,,D*7C
$GPGGA,225359.000,3352.0684,N,09831.8480,W,2,10,0.8,295.7,M,-23.7,M,0.8,0000*40
$GPGSA,A,3,03,07,20,32,13,31,06,23,16,30,,,1.6,0.8,1.4*3C
$GPRMC,225359.000,A,3352.0684,N,09831.8480,W,0.08,154.71,010412,,,D*71
$GPGGA,225400.000,3352.0684,N,09831.8480,W,2,10,0.8,295.6,M,-23.7,M,1.8,0000*4B
$GPGSA,A,3,03,07,20,32,13,31,06,23,16,30,,,1.6,0.8,1.4*3C
$GPRMC,225400.000,A,3352.0684,N,09831.8480,W,0.07,152.31,010412,,,D*77
$GPGGA,225401.000,3352.0684,N,09831.8480,W,2,10,0.8,295.6,M,-23.7,M,2.8,0000*49
$GPGSA,A,3,03,07,20,32,13,31,06,23,16,30,,,1.6,0.8,1.4*3C
$GPRMC,225401.000,A,3352.0684,N,09831.8480,W,0.09,151.27,010412,,,D*7C
$GPGGA,225402.000,3352.0684,N,09831.8480,W,2,10,0.8,295.6,M,-23.7,M,3.8,0000*4B
$GPGSA,A,3,03,07,20,32,13,31,06,23,16,30,,,1.6,0.8,1.4*3C
$GPGSV,3,1,12,16,72,066,32,23,63,329,27,30,44,044,39,20,42,222,36*78
$GPGSV,3,2,12,32,35,189,30,13,31,316,38,03,29,139,34,06,29,121,35*7D
$GPGSV,3,3,12,07,16,271,32,31,11,068,30,10,07,321,18,19,04,165,*71
$GPRMC,225402.000,A,3352.0684,N,09831.8480,W,0.08,150.13,010412,,,D*78
$GPGGA,225403.000,3352.0684,N,09831.8480,W,2,10,0.8,295.5,M,-23.7,M,0.8,0000*4A
$GPGSA,A,3,03,07,20,32,13,31,06,23,16,30,,,1.6,0.8,1.4*3C
$GPRMC,225403.000,A,3352.0684,N,09831.8480,W,0.06,125.44,010412,,,D*77
$GPGGA,225404.000,3352.0684,N,09831.8480,W,2,10,0.8,295.5,M,-23.7,M,0.8,0000*4D
$GPGSA,A,3,03,07,20,32,13,31,06,23,16,30,,,1.6,0.8,1.4*3C
$GPRMC,225404.000,A,3352.0684,N,09831.8480,W,0.06,105.71,010412,,,D*74
$GPGGA,225405.000,3352.0684,N,09831.8480,W,2,10,0.8,295.5,M,-23.7,M,0.8,0000*4C
$GPGSA,A,3,03,07,20,32,13,31,06,23,16,30,,,1.6,0.8,1.4*3C
$GPRMC,225405.000,A,3352.0684,N,09831.8480,W,0.07,96.34,010412,,,D*4E
$GPGGA,225406.000,3352.0684,N,09831.8479,W,2,10,0.8,295.5,M,-23.7,M,1.8,0000*48
$GPGSA,A,3,03,07,20,32,13,31,06,23,16,30,,,1.6,0.8,1.4*3C
$GPRMC,225406.000,A,3352.0684,N,09831.8479,W,0.07,81.43,010412,,,D*4D
$GPGGA,225407.000,3352.0684,N,09831.8479,W,2,10,0.8,295.4,M,-23.7,M,2.8,0000*4B
$GPGSA,A,3,03,07,20,32,13,31,06,23,16,30,,,1.6,0.8,1.4*3C
$GPGSV,3,1,12,16,72,066,32,23,63,329,27,30,44,044,39,20,42,222,36*78
$GPGSV,3,2,12,32,35,189,34,13,31,316,38,03,29,139,31,06,29,121,36*7F
$GPGSV,3,3,12,07,16,271,32,31,11,068,29,10,07,321,17,19,04,165,*76
$GPRMC,225407.000,A,3352.0684,N,09831.8479,W,0.08,109.91,010412,,,D*7D
$GPGGA,225408.000,3352.0684,N,09831.8479,W,2,10,0.8,295.4,M,-23.7,M,0.8,0000*46
$GPGSA,A,3,03,07,20,32,13,31,06,23,16,30,,,1.6,0.8,1.4*3C
$GPRMC,225408.000,A,3352.0684,N,09831.8479,W,0.06,90.23,010412,,,D*44
$GPGGA,225409.000,3352.0684,N,09831.8479,W,2,10,0.8,295.4,M,-23.7,M,0.8,0000*47
$GPGSA,A,3,03,07,20,32,13,31,06,23,16,30,,,1.6,0.8,1.4*3C
$GPRMC,225409.000,A,3352.0684,N,09831.8479,W,0.06,115.37,010412,,,D*7C
$GPGGA,225410.000,3352.0684,N,09831.8479,W,2,10,0.8,295.4,M,-23.7,M,0.8,0000*4F
$GPGSA,A,3,03,07,20,32,13,31,06,23,16,30,,,1.6,0.8,1.4*3C
$GPRMC,225410.000,A,3352.0684,N,09831.8479,W,0.05,157.78,010412,,,D*7A
$GPGGA,225411.000,3352.0684,N,09831.8479,W,2,10,0.8,295.3,M,-23.7,M,0.8,0000*49
$GPGSA,A,3,03,07,20,32,13,31,06,23,16,30,,,1.6,0.8,1.4*3C
$GPRMC,225411.000,A,3352.0684,N,09831.8479,W,0.08,152.48,010412,,,D*70
$GPGGA,225412.000,3352.0684,N,09831.8479,W,2,10,0.8,295.3,M,-23.7,M,1.8,0000*4B
$GPGSA,A,3,03,07,20,32,13,31,06,23,16,30,,,1.6,0.8,1.4*3C
$GPGSV,3,1,12,16,72,066,31,23,63,329,27,30,44,044,39,20,42,222,36*7B
$GPGSV,3,2,12,32,35,189,34,13,31,316,38,03,29,139,29,06,29,121,36*76
$GPGSV,3,3,12,07,16,271,32,31,11,068,28,10,07,321,16,19,04,165,*76
$GPRMC,225412.000,A,3352.0684,N,09831.8479,W,0.06,140.88,010412,,,D*72
$GPGGA,225413.000,3352.0683,N,09831.8479,W,2,10,0.8,295.4,M,-23.7,M,2.8,0000*49
$GPGSA,A,3,03,07,20,32,13,31,06,23,16,30,,,1.6,0.8,1.4*3C
$GPRMC,225413.000,A,3352.0683,N,09831.8479,W,0.08,147.10,010412,,,D*7C
$GPGGA,225414.000,3352.0683,N,09831.8480,W,2,10,0.8,295.4,M,-23.7,M,3.8,0000*49
$GPGSA,A,3,03,07,20,32,13,31,06,23,16,30,,,1.6,0.8,1.4*3C
$GPRMC,225414.000,A,3352.0683,N,09831.8480,W,0.08,136.44,010412,,,D*7A
$GPGGA,225415.000,3352.0683,N,09831.8480,W,2,10,0.8,295.4,M,-23.7,M,0.8,0000*4B
$GPGSA,A,3,03,07,20,32,13,31,06,23,16,30,,,1.6,0.8,1.4*3C
$GPRMC,225415.000,A,3352.0683,N,09831.8480,W,0.07,122.12,010412,,,D*72
$GPGGA,225416.000,3352.0683,N,09831.8479,W,2,10,0.8,295.5,M,-23.7,M,0.8,0000*4F
$GPGSA,A,3,03,07,20,32,13,31,06,23,16,30,,,1.6,0.8,1.4*3C
$GPRMC,225416.000,A,3352.0683,N,09831.8479,W,0.08,107.42,010412,,,D*7A
$GPGGA,225417.000,3352.0683,N,09831.8479,W,2,10,0.8,295.5,M,-23.7,M,0.8,0000*4E
$GPGSA,A,3,03,07,20,32,13,31,06,23,16,30,,,1.6,0.8,1.4*3C
$GPGSV,3,1,12,16,72,066,31,23,63,329,27,30,44,044,39,20,42,222,36*7B
$GPGSV,3,2,12,32,35,189,34,13,31,316,38,03,29,139,29,06,29,121,36*76
$GPGSV,3,3,12,07,16,271,31,31,11,068,28,10,07,321,16,19,04,165,*75
$GPRMC,225417.000,A,3352.0683,N,09831.8479,W,0.03,85.81,010412,,,D*44
$GPGGA,225418.000,3352.0684,N,09831.8480,W,2,10,0.8,295.5,M,-23.7,M,0.8,0000*40
$GPGSA,A,3,03,07,20,32,13,31,06,23,16,30,,,1.6,0.8,1.4*3C
$GPRMC,225418.000,A,3352.0684,N,09831.8480,W,0.04,76.28,010412,,,D*42
$GPGGA,225419.000,3352.0684,N,09831.8480,W,2,10,0.8,295.4,M,-23.7,M,1.8,0000*41
$GPGSA,A,3,03,07,20,32,13,31,06,23,16,30,,,1.6,0.8,1.4*3C
$GPRMC,225419.000,A,3352.0684,N,09831.8480,W,0.03,101.37,010412,,,D*7B
$GPGGA,225420.000,3352.0684,N,09831.8480,W,2,10,0.8,295.4,M,-23.7,M,0.8,0000*4A
$GPGSA,A,3,03,07,20,32,13,31,06,23,16,30,,,1.6,0.8,1.4*3C
$GPRMC,225420.000,A,3352.0684,N,09831.8480,W,0.04,70.06,010412,,,D*43
$GPGGA,225421.000,3352.0684,N,09831.8480,W,2,10,0.8,295.4,M,-23.7,M,0.8,0000*4B
$GPGSA,A,3,03,07,20,32,13,31,06,23,16,30,,,1.6,0.8,1.4*3C
$GPRMC,225421.000,A,3352.0684,N,09831.8480,W,0.02,119.31,010412,,,D*7E
$GPGGA,225422.000,3352.0684,N,09831.8480,W,2,10,0.8,295.3,M,-23.7,M,0.8,0000*4F
$GPGSA,A,3,03,07,20,32,13,31,06,23,16,30,,,1.6,0.8,1.4*3C
$GPGSV,3,1,12,16,71,062,31,23,64,330,26,30,43,044,38,20,41,221,36*74
$GPGSV,3,2,12,32,33,189,34,13,32,317,38,03,30,138,30,06,29,119,36*78
$GPGSV,3,3,12,07,17,272,31,31,10,069,28,10,08,320,15,19,05,165,*7B
$GPRMC,225422.000,A,3352.0684,N,09831.8480,W,0.05,168.45,010412,,,D*7F
$GPGGA,225423.000,3352.0684,N,09831.8480,W,2,10,0.8,295.2,M,-23.7,M,0.8,0000*4F
$GPGSA,A,3,03,07,20,32,13,31,06,23,16,30,,,1.6,0.8,1.4*3C
$GPRMC,225423.000,A,3352.0684,N,09831.8480,W,0.11,139.81,010412,,,D*77
$GPGGA,225424.000,3352.0684,N,09831.8480,W,2,10,0.8,295.1,M,-23.7,M,1.8,0000*4A
$GPGSA,A,3,03,07,20,32,13,31,06,23,16,30,,,1.6,0.8,1.4*3C
$GPRMC,225424.000,A,3352.0684,N,09831.8480,W,0.10,135.17,010412,,,D*72
$GPGGA,225425.000,3352.0683,N,09831.8480,W,2,10,0.8,295.1,M,-23.7,M,2.8,0000*4F
$GPGSA,A,3,03,07,20,32,13,31,06,23,16,30,,,1.6,0.8,1.4*3C
$GPRMC,225425.000,A,3352.0683,N,09831.8480,W,0.10,140.71,010412,,,D*76
$GPGGA,225426.000,3352.0683,N,09831.8480,W,2,10,0.8,295.1,M,-23.7,M,3.8,0000*4D
$GPGSA,A,3,03,07,20,32,13,31,06,23,16,30,,,1.6,0.8,1.4*3C
$GPRMC,225426.000,A,3352.0683,N,09831.8480,W,0.10,137.64,010412,,,D*71
$GPGGA,225427.000,3352.0683,N,09831.8480,W,2,10,0.8,295.0,M,-23.7,M,0.8,0000*4E
$GPGSA,A,3,03,07,20,32,13,31,06,23,16,30,,,1.6,0.8,1.4*3C
$GPGSV,3,1,12,16,71,062,30,23,64,330,26,30,43,044,38,20,41,221,36*75
$GPGSV,3,2,12,32,33,189,33,13,32,317,38,03,30,138,31,06,29,119,36*7E
$GPGSV,3,3,12,07,17,272,31,31,10,069,29,10,08,320,14,19,05,165,*7B
$GPRMC,225427.000,A,3352.0683,N,09831.8480,W,0.08,113.75,010412,,,D*7F
$GPGGA,225428.000,3352.0683,N,09831.8480,W,2,10,0.8,295.0,M,-23.7,M,0.8,0000*41
$GPGSA,A,3,03,07,20,32,13,31,06,23,16,30,,,1.6,0.8,1.4*3C
$GPRMC,225428.000,A,3352.0683,N,09831.8480,W,0.10,110.74,010412,,,D*7B
$GPGGA,225429.000,3352.0683,N,09831.8480,W,2,10,0.8,295.0,M,-23.7,M,0.8,0000*40
$GPGSA,A,3,03,07,20,32,13,31,06,23,16,30,,,1.6,0.8,1.4*3C
$GPRMC,225429.000,A,3352.0683,N,09831.8480,W,0.03,84.49,010412,,,D*4A
$GPGGA,225430.000,3352.0683,N,09831.8480,W,2,10,0.8,295.0,M,-23.7,M,1.8,0000*49
$GPGSA,A,3,03,07,20,32,13,31,06,23,16,30,,,1.6,0.8,1.4*3C
$GPRMC,225430.000,A,3352.0683,N,09831.8480,W,0.03,80.31,010412,,,D*49
$GPGGA,225431.000,3352.0684,N,09831.8480,W,2,10,0.8,295.0,M,-23.7,M,2.8,0000*4C
$GPGSA,A,3,03,07,20,32,13,31,06,23,16,30,,,1.6,0.8,1.4*3C
$GPRMC,225431.000,A,3352.0684,N,09831.8480,W,0.03,76.17,010412,,,D*42
$GPGGA,225432.000,3352.0684,N,09831.8480,W,2,10,0.8,295.0,M,-23.7,M,3.8,0000*4E
$GPGSA,A,3,03,07,20,32,13,31,06,23,16,30,,,1.6,0.8,1.4*3C
$GPGSV,3,1,12,16,71,062,30,23,64,330,26,30,43,044,38,20,41,221,37*74
$GPGSV,3,2,12,32,33,189,33,13,32,317,38,03,30,138,32,06,29,119,36*7D
$GPGSV,3,3,12,07,17,272,31,31,10,069,29,10,08,320,,19,05,165,*7E
$GPRMC,225432.000,A,3352.0684,N,09831.8480,W,0.03,71.31,010412,,,D*42
$GPGGA,225433.000,3352.0684,N,09831.8480,W,2,10,0.8,295.1,M,-23.7,M,0.8,0000*4D
$GPGSA,A,3,03,07,20,32,13,31,06,23,16,30,,,1.6,0.8,1.4*3C
$GPRMC,225433.000,A,3352.0684,N,09831.8480,W,0.01,140.20,010412,,,D*72
$GPGGA,225434.000,3352.0684,N,09831.8480,W,2,10,0.8,295.1,M,-23.7,M,0.8,0000*4A
$GPGSA,A,3,03,07,20,32,13,31,06,23,16,30,,,1.6,0.8,1.4*3C
$GPRMC,225434.000,A,3352.0684,N,09831.8480,W,0.03,183.78,010412,,,D*75
$GPGGA,225435.000,3352.0684,N,09831.8480,W,2,10,0.8,295.1,M,-23.7,M,0.8,0000*4B
$GPGSA,A,3,03,07,20,32,13,31,06,23,16,30,,,1.6,0.8,1.4*3C
$GPRMC,225435.000,A,3352.0684,N,09831.8480,W,0.07,142.62,010412,,,D*76
$GPGGA,225436.000,3352.0684,N,09831.8480,W,2,10,0.8,295.1,M,-23.7,M,0.8,0000*48
$GPGSA,A,3,03,07,20,32,13,31,06,23,16,30,,,1.6,0.8,1.4*3C
$GPRMC,225436.000,A,3352.0684,N,09831.8480,W,0.06,138.47,010412,,,D*7E
$GPGGA,225437.000,3352.0684,N,09831.8480,W,2,10,0.8,295.1,M,-23.7,M,1.8,0000*48
$GPGSA,A,3,03,07,20,32,13,31,06,23,16,30,,,1.6,0.8,1.4*3C
$GPGSV,3,1,12,16,71,062,30,23,64,330,26,30,43,044,38,20,41,221,37*74
$GPGSV,3,2,12,32,33,189,33,13,32,317,38,03,30,138,32,06,29,119,36*7D
$GPGSV,3,3,12,07,17,272,31,31,10,069,29,10,08,320,,19,05,165,*7E
$GPRMC,225437.000,A,3352.0684,N,09831.8480,W,0.07,132.59,010412,,,D*7B
$GPGGA,225438.000,3352.0683,N,09831.8480,W,2,10,0.8,295.1,M,-23.7,M,0.8,0000*41
$GPGSA,A,3,03,07,20,32,13,31,06,23,16,30,,,1.6,0.8,1.4*3C
$GPRMC,225438.000,A,3352.0683,N,09831.8480,W,0.08,144.05,010412,,,D*74
$GPGGA,225439.000,3352.0683,N,09831.8480,W,2,10,0.8,295.1,M,-23.7,M,0.8,0000*40
$GPGSA,A,3,03,07,20,32,13,31,06,23,16,30,,,1.6,0.8,1.4*3C
$GPRMC,225439.000,A,3352.0683,N,09831.8480,W,0.08,113.04,010412,,,D*76
$GPGGA,225440.000,3352.0683,N,09831.8480,W,2,10,0.8,295.1,M,-23.7,M,0.8,0000*4E
$GPGSA,A,3,03,07,20,32,13,31,06,23,16,30,,,1.6,0.8,1.4*3C
$GPRMC,225440.000,A,3352.0683,N,09831.8480,W,0.09,111.31,010412,,,D*7D
$GPGGA,225441.000,3352.0684,N,09831.8480,W,2,10,0.8,295.1,M,-23.7,M,0.8,0000*48
$GPGSA,A,3,03,07,20,32,13,31,06,23,16,30,,,1.6,0.8,1.4*3C
$GPRMC,225441.000,A,3352.0684,N,09831.8480,W,0.04,88.32,010412,,,D*44
$GPGGA,225442.000,3352.0684,N,09831.8480,W,2,10,0.8,295.1,M,-23.7,M,1.8,0000*4A
$GPGSA,A,3,03,07,20,32,13,31,06,23,16,30,,,1.6,0.8,1.4*3C
$GPGSV,3,1,12,16,71,062,30,23,64,330,26,30,43,044,39,20,41,221,37*75
$GPGSV,3,2,12,32,33,189,32,13,32,317,38,03,30,138,32,06,29,119,36*7C
$GPGSV,3,3,12,07,17,272,31,31,10,069,30,10,08,320,,19,05,165,*76
$GPRMC,225442.000,A,3352.0684,N,09831.8480,W,0.05,111.17,010412,,,D*70
$GPGGA,225443.000,3352.0684,N,09831.8480,W,2,10,0.8,295.1,M,-23.7,M,2.8,0000*48
$GPGSA,A,3,03,07,20,32,13,31,06,23,16,30,,,1.6,0.8,1.4*3C
$GPRMC,225443.000,A,3352.0684,N,09831.8480,W,0.04,94.63,010412,,,D*4F
$GPGGA,225444.000,3352.0684,N,09831.8480,W,2,10,0.8,295.2,M,-23.7,M,3.8,0000*4D
$GPGSA,A,3,03,07,20,32,13,31,06,23,16,30,,,1.6,0.8,1.4*3C
$GPRMC,225444.000,A,3352.0684,N,09831.8480,W,0.04,99.28,010412,,,D*4A
$GPGGA,225445.000,3352.0684,N,09831.8480,W,2,10,0.8,295.2,M,-23.7,M,0.8,0000*4F
$GPGSA,A,3,03,07,20,32,13,31,06,23,16,30,,,1.6,0.8,1.4*3C
$GPRMC,225445.000,A,3352.0684,N,09831.8480,W,0.04,142.83,010412,,,D*7D
$GPGGA,225446.000,3352.0684,N,09831.8481,W,2,10,0.8,295.2,M,-23.7,M,0.8,0000*4D
$GPGSA,A,3,03,07,20,32,13,31,06,23,16,30,,,1.6,0.8,1.4*3C
$GPRMC,225446.000,A,3352.0684,N,09831.8481,W,0.04,168.91,010412,,,D*74
$GPGGA,225447.000,3352.0684,N,09831.8481,W,2,10,0.8,295.2,M,-23.7,M,0.8,0000*4C
$GPGSA,A,3,03,07,20,32,13,31,06,23,16,30,,,1.6,0.8,1.4*3C
$GPGSV,3,1,12,16,71,062,31,23,64,330,26,30,43,044,39,20,41,221,36*75
$GPGSV,3,2,12,32,33,189,33,13,32,317,38,03,30,138,32,06,29,119,36*7D
$GPGSV,3,3,12,07,17,272,30,31,10,069,30,10,08,320,,19,05,165,*77
$GPRMC,225447.000,A,3352.0684,N,09831.8481,W,0.07,142.33,010412,,,D*76
$GPGGA,225448.000,3352.0684,N,09831.8481,W,2,10,0.8,295.2,M,-23.7,M,1.8,0000*42
$GPGSA,A,3,03,07,20,32,13,31,06,23,16,30,,,1.6,0.8,1.4*3C
$GPRMC,225448.000,A,3352.0684,N,09831.8481,W,0.08,139.33,010412,,,D*7A
$GPGGA,225449.000,3352.0684,N,09831.8481,W,2,10,0.8,295.2,M,-23.7,M,0.8,0000*42
$GPGSA,A,3,03,07,20,32,13,31,06,23,16,30,,,1.6,0.8,1.4*3C
$GPRMC,225449.000,A,3352.0684,N,09831.8481,W,0.07,131.30,010412,,,D*7F
$GPGGA,225450.000,3352.0683,N,09831.8481,W,2,10,0.8,295.2,M,-23.7,M,0.8,0000*4D
$GPGSA,A,3,03,07,20,32,13,31,06,23,16,30,,,1.6,0.8,1.4*3C
$GPRMC,225450.000,A,3352.0683,N,09831.8481,W,0.08,143.43,010412,,,D*7E
$GPGGA,225451.000,3352.0683,N,09831.8481,W,2,10,0.8,295.2,M,-23.7,M,0.8,0000*4C
$GPGSA,A,3,03,07,20,32,13,31,06,23,16,30,,,1.6,0.8,1.4*3C
$GPRMC,225451.000,A,3352.0683,N,09831.8481,W,0.07,120.93,010412,,,D*78
$GPGGA,225452.000,3352.0683,N,09831.8481,W,2,10,0.8,295.2,M,-23.7,M,0.8,0000*4F
$GPGSA,A,3,03,07,20,32,13,31,06,23,16,30,,,1.6,0.8,1.4*3C
$GPGSV,3,1,12,16,71,062,31,23,64,330,26,30,43,044,38,20,41,221,36*74
$GPGSV,3,2,12,32,33,189,33,13,32,317,38,03,30,138,32,06,29,119,36*7D
$GPGSV,3,3,12,07,17,272,30,31,10,069,30,10,08,320,,19,05,165,*77
$GPRMC,225452.000,A,3352.0683,N,09831.8481,W,0.09,106.51,010412,,,D*7F
$GPGGA,225453.000,3352.0683,N,09831.8481,W,2,10,0.8,295.3,M,-23.7,M,0.8,0000*4F
$GPGSA,A,3,03,07,20,32,13,31,06,23,16,30,,,1.6,0.8,1.4*3C
$GPRMC,225453.000,A,3352.0683,N,09831.8481,W,0.03,84.52,010412,,,D*4C
$GPGGA,225454.000,3352.0683,N,09831.8481,W,2,10,0.8,295.3,M,-23.7,M,1.8,0000*49
$GPGSA,A,3,03,07,20,32,13,31,06,23,16,30,,,1.6,0.8,1.4*3C
$GPRMC,225454.000,A,3352.0683,N,09831.8481,W,0.03,81.15,010412,,,D*4D
$GPGGA,225455.000,3352.0684,N,09831.8481,W,2,10,0.8,295.3,M,-23.7,M,2.8,0000*4C
$GPGSA,A,3,03,07,20,32,13,31,06,23,16,30,,,1.6,0.8,1.4*3C
$GPRMC,225455.000,A,3352.0684,N,09831.8481,W,0.04,90.80,010412,,,D*40
$GPGGA,225456.000,3352.0684,N,09831.8481,W,2,10,0.8,295.3,M,-23.7,M,3.8,0000*4E
$GPGSA,A,3,03,07,20,32,13,31,06,23,16,30,,,1.6,0.8,1.4*3C
$GPRMC,225456.000,A,3352.0684,N,09831.8481,W,0.02,94.87,010412,,,D*46
$GPGGA,225457.000,3352.0684,N,09831.8481,W,2,10,0.8,295.3,M,-23.7,M,0.8,0000*4C
$GPGSA,A,3,03,07,20,32,13,31,06,23,16,30,,,1.6,0.8,1.4*3C
$GPGSV,3,1,12,16,71,062,31,23,64,330,27,30,43,044,39,20,41,221,36*74
$GPGSV,3,2,12,32,33,189,33,13,32,317,38,03,30,138,32,06,29,119,36*7D
$GPGSV,3,3,12,07,17,272,30,31,10,069,30,10,08,320,,19,05,165,*77
$GPRMC,225457.000,A,3352.0684,N,09831.8481,W,0.03,90.36,010412,,,D*48
$GPGGA,225458.000,3352.0684,N,09831.8481,W,2,10,0.8,295.3,M,-23.7,M,0.8,0000*43
$GPGSA,A,3,03,07,20,32,13,31,06,23,16,30,,,1.6,0.8,1.4*3C
$GPRMC,225458.000,A,3352.0684,N,09831.8481,W,0.03,155.57,010412,,,D*78
$GPGGA,225459.000,3352.0684,N,09831.8482,W,2,10,0.8,295.3,M,-23.7,M,0.8,0000*41
$GPGSA,A,3,03,07,20,32,13,31,06,23,16,30,,,1.6,0.8,1.4*3C
$GPRMC,225459.000,A,3352.0684,N,09831.8482,W,0.04,127.29,010412,,,D*71
$GPGGA,225500.000,3352.0684,N,09831.8482,W,2,10,0.8,295.3,M,-23.7,M,0.8,0000*4C
$GPGSA,A,3,03,07,20,32,13,31,06,23,16,30,,,1.6,0.8,1.4*3C
$GPRMC,225500.000,A,3352.0684,N,09831.8482,W,0.05,123.86,010412,,,D*7C
$GPGGA,225501.000,3352.0683,N,09831.8482,W,2,10,0.8,295.3,M,-23.7,M,1.8,0000*4B
$GPGSA,A,3,03,07,20,32,13,31,06,23,16,30,,,1.6,0.8,1.4*3C
$GPRMC,225501.000,A,3352.0683,N,09831.8482,W,0.05,128.03,010412,,,D*7C
$GPGGA,225502.000,3352.0683,N,09831.8482,W,2,10,0.8,295.3,M,-23.7,M,2.8,0000*4B
$GPGSA,A,3,03,07,20,32,13,31,06,23,16,30,,,1.6,0.8,1.4*3C
$GPGSV,3,1,12,16,71,062,31,23,64,330,27,30,43,044,38,20,41,221,36*75
$GPGSV,3,2,12,32,33,189,33,13,32,317,38,03,30,138,33,06,29,119,35*7F
$GPGSV,3,3,12,07,17,272,29,31,10,069,30,10,08,320,,19,05,165,*7F
$GPRMC,225502.000,A,3352.0683,N,09831.8482,W,0.07,131.31,010412,,,D*74
$GPGGA,225503.000,3352.0683,N,09831.8482,W,2,10,0.8,295.3,M,-23.7,M,0.8,0000*48
$GPGSA,A,3,03,07,20,32,13,31,06,23,16,30,,,1.6,0.8,1.4*3C
$GPRMC,225503.000,A,3352.0683,N,09831.8482,W,0.08,130.47,010412,,,D*7A
$GPGGA,225504.000,3352.0683,N,09831.8482,W,2,10,0.8,295.4,M,-23.7,M,0.8,0000*48
$GPGSA,A,3,03,07,20,32,13,31,06,23,16,30,,,1.6,0.8,1.4*3C
$GPRMC,225504.000,A,3352.0683,N,09831.8482,W,0.09,115.62,010412,,,D*7C
$GPGGA,225505.000,3352.0683,N,09831.8482,W,2,10,0.8,295.5,M,-23.7,M,0.8,0000*48
$GPGSA,A,3,03,07,20,32,13,31,06,23,16,30,,,1.6,0.8,1.4*3C
$GPRMC,225505.000,A,3352.0683,N,09831.8482,W,0.05,122.71,010412,,,D*77
$GPGGA,225506.000,3352.0683,N,09831.8482,W,2,10,0.8,295.5,M,-23.7,M,1.8,0000*4A
$GPGSA,A,3,03,07,20,32,13,31,06,23,16,30,,,1.6,0.8,1.4*3C
$GPRMC,225506.000,A,3352.0683,N,09831.8482,W,0.05,129.69,010412,,,D*76
$GPGGA,225507.000,3352.0683,N,09831.8482,W,2,10,0.8,295.6,M,-23.7,M,2.8,0000*4B
$GPGSA,A,3,03,07,20,32,13,31,06,23,16,30,,,1.6,0.8,1.4*3C
$GPGSV,3,1,12,16,71,062,31,23,64,330,26,30,43,044,38,20,41,221,35*77
$GPGSV,3,2,12,32,33,189,33,13,32,317,38,03,30,138,33,06,29,119,35*7F
$GPGSV,3,3,12,07,17,272,29,31,10,069,30,10,08,320,,19,05,165,*7F
$GPRMC,225507.000,A,3352.0683,N,09831.8482,W,0.04,111.41,010412,,,D*77
$GPGGA,225508.000,3352.0683,N,09831.8482,W,2,10,0.8,295.6,M,-23.7,M,0.8,0000*46
$GPGSA,A,3,03,07,20,32,13,31,06,23,16,30,,,1.6,0.8,1.4*3C
$GPRMC,225508.000,A,3352.0683,N,09831.8482,W,0.05,123.77,010412,,,D*7D
$GPGGA,225509.000,3352.0683,N,09831.8482,W,2,10,0.8,295.6,M,-23.7,M,0.8,0000*47
$GPGSA,A,3,03,07,20,32,13,31,06,23,16,30,,,1.6,0.8,1.4*3C
$GPRMC,225509.000,A,3352.0683,N,09831.8482,W,0.02,117.32,010412,,,D*7D
$GPGGA,225510.000,3352.0682,N,09831.8482,W,2,10,0.8,295.6,M,-23.7,M,0.8,0000*4E
$GPGSA,A,3,03,07,20,32,13,31,06,23,16,30,,,1.6,0.8,1.4*3C
$GPRMC,225510.000,A,3352.0682,N,09831.8482,W,0.04,107.77,010412,,,D*72
$GPGGA,225511.000,3352.0682,N,09831.8482,W,2,10,0.8,295.6,M,-23.7,M,0.8,0000*4F
$GPGSA,A,3,03,07,20,32,13,31,06,23,16,30,,,1.6,0.8,1.4*3C
$GPRMC,225511.000,A,3352.0682,N,09831.8482,W,0.04,89.67,010412,,,D*45
$GPGGA,225512.000,3352.0682,N,09831.8482,W,2,10,0.8,295.7,M,-23.7,M,1.8,0000*4C
$GPGSA,A,3,03,07,20,32,13,31,06,23,16,30,,,1.6,0.8,1.4*3C
$GPGSV,3,1,12,16,71,062,31,23,64,330,27,30,43,044,38,20,41,221,35*76
$GPGSV,3,2,12,32,33,189,33,13,32,317,38,03,30,138,33,06,29,119,35*7F
$GPGSV,3,3,12,07,17,272,28,31,10,069,30,10,08,320,,19,05,165,*7E
$GPRMC,225512.000,A,3352.0682,N,09831.8482,W,0.04,94.52,010412,,,D*4C
$GPGGA,225513.000,3352.0682,N,09831.8482,W,2,10,0.8,295.7,M,-23.7,M,2.8,0000*4E
$GPGSA,A,3,03,07,20,32,13,31,06,23,16,30,,,1.6,0.8,1.4*3C
$GPRMC,225513.000,A,3352.0682,N,09831.8482,W,0.05,91.14,010412,,,D*4B
$GPGGA,225514.000,3352.0682,N,09831.8482,W,2,10,0.8,295.8,M,-23.7,M,3.8,0000*47
$GPGSA,A,3,03,07,20,32,13,31,06,23,16,30,,,1.6,0.8,1.4*3C
$GPRMC,225514.000,A,3352.0682,N,09831.8482,W,0.06,98.67,010412,,,D*42
$GPGGA,225515.000,3352.0682,N,09831.8482,W,2,10,0.8,295.8,M,-23.7,M,0.8,0000*45
$GPGSA,A,3,03,07,20,32,13,31,06,23,16,30,,,1.6,0.8,1.4*3C
$GPRMC,225515.000,A,3352.0682,N,09831.8482,W,0.07,98.70,010412,,,D*44
$GPGGA,225516.000,3352.0682,N,09831.8482,W,2,10,0.8,295.9,M,-23.7,M,0.8,0000*47
$GPGSA,A,3,03,07,20,32,13,31,06,23,16,30,,,1.6,0.8,1.4*3C
$GPRMC,225516.000,A,3352.0682,N,09831.8482,W,0.06,127.09,010412,,,D*7D
$GPGGA,225517.000,3352.0682,N,09831.8482,W,2,10,0.8,295.9,M,-23.7,M,0.8,0000*46
$GPGSA,A,3,03,07,20,32,13,31,06,23,16,30,,,1.6,0.8,1.4*3C
$GPGSV,3,1,12,16,71,062,30,23,64,330,27,30,43,044,38,20,41,221,36*74
$GPGSV,3,2,12,32,33,189,34,13,32,317,38,03,30,138,32,06,29,119,35*79
$GPGSV,3,3,12,07,17,272,28,31,10,069,30,10,08,320,,19,05,165,*7E
$GPRMC,225517.000,A,3352.0682,N,09831.8482,W,0.06,160.02,010412,,,D*74
$GPGGA,225518.000,3352.0682,N,09831.8482,W,2,10,0.8,295.9,M,-23.7,M,1.8,0000*48
$GPGSA,A,3,03,07,20,32,13,31,06,23,16,30,,,1.6,0.8,1.4*3C
$GPRMC,225518.000,A,3352.0682,N,09831.8482,W,0.05,132.46,010412,,,D*7F
$GPGGA,225519.000,3352.0682,N,09831.8482,W,2,10,0.8,295.9,M,-23.7,M,2.8,0000*4A
$GPGSA,A,3,03,07,20,32,13,31,06,23,16,30,,,1.6,0.8,1.4*3C
$GPRMC,225519.000,A,3352.0682,N,09831.8482,W,0.04,145.32,010412,,,D*7C
$GPGGA,225520.000,3352.0682,N,09831.8482,W,2,10,0.8,295.9,M,-23.7,M,3.8,0000*41
$GPGSA,A,3,03,07,20,32,13,31,06,23,16,30,,,1.6,0.8,1.4*3C
$GPRMC,225520.000,A,3352.0682,N,09831.8482,W,0.04,140.92,010412,,,D*79
$GPGGA,225521.000,3352.0682,N,09831.8482,W,2,10,0.8,295.8,M,-23.7,M,0.8,0000*42
$GPGSA,A,3,03,07,20,32,13,31,06,23,16,30,,,1.6,0.8,1.4*3C
$GPRMC,225521.000,A,3352.0682,N,09831.8482,W,0.05,163.73,010412,,,D*77
$GPGGA,225522.000,3352.0682,N,09831.8483,W,2,10,0.8,295.8,M,-23.7,M,0.8,0000*40
$GPGSA,A,3,03,07,20,32,13,31,06,23,16,30,,,1.6,0.8,1.4*3C
$GPGSV,3,1,12,16,71,062,29,23,64,330,28,30,43,044,38,20,41,221,36*73
$GPGSV,3,2,12,32,33,189,34,13,32,317,38,03,30,138,32,06,29,119,35*79
$GPGSV,3,3,12,07,17,272,28,31,10,069,30,10,08,320,,19,05,165,*7E
$GPRMC,225522.000,A,3352.0682,N,09831.8483,W,0.04,120.05,010412,,,D*72
$GPGGA,225523.000,3352.0682,N,09831.8483,W,2,10,0.8,295.8,M,-23.7,M,0.8,0000*41
$GPGSA,A,3,03,07,20,32,13,31,06,23,16,30,,,1.6,0.8,1.4*3C
$GPRMC,225523.000,A,3352.0682,N,09831.8483,W,0.05,113.39,010412,,,D*7D
$GPGGA,225524.000,3352.0682,N,09831.8483,W,2,10,0.8,295.8,M,-23.7,M,0.8,0000*46
$GPGSA,A,3,03,07,20,32,13,31,06,23,16,30,,,1.6,0.8,1.4*3C
$GPRMC,225524.000,A,3352.0682,N,09831.8483,W,0.05,112.79,010412,,,D*7F
$GPGGA,225525.000,3352.0682,N,09831.8483,W,2,10,0.8,295.9,M,-23.7,M,0.8,0000*46
$GPGSA,A,3,03,07,20,32,13,31,06,23,16,30,,,1.6,0.8,1.4*3C
$GPRMC,225525.000,A,3352.0682,N,09831.8483,W,0.04,130.67,010412,,,D*70
$GPGGA,225526.000,3352.0682,N,09831.8483,W,2,10,0.8,295.9,M,-23.7,M,1.8,0000*44
$GPGSA,A,3,03,07,20,32,13,31,06,23,16,30,,,1.6,0.8,1.4*3C
$GPRMC,225526.000,A,3352.0682,N,09831.8483,W,0.06,128.59,010412,,,D*75
$GPGGA,225527.000,3352.0682,N,09831.8483,W,2,10,0.8,295.9,M,-23.7,M,0.8,0000*44
$GPGSA,A,3,03,07,20,32,13,31,06,23,16,30,,,1.6,0.8,1.4*3C
$GPGSV,3,1,12,16,71,062,29,23,64,330,28,30,43,044,38,20,41,221,37*72
$GPGSV,3,2,12,32,33,189,34,13,32,317,38,03,30,138,31,06,29,119,35*7A
$GPGSV,3,3,12,07,17,272,28,31,10,069,29,10,08,320,,19,05,165,*76
$GPRMC,225527.000,A,3352.0682,N,09831.8483,W,0.06,116.17,010412,,,D*73
$GPGGA,225528.000,3352.0682,N,09831.8483,W,2,10,0.8,295.9,M,-23.7,M,0.8,0000*4B
$GPGSA,A,3,03,07,20,32,13,31,06,23,16,30,,,1.6,0.8,1.4*3C
$GPRMC,225528.000,A,3352.0682,N,09831.8483,W,0.07,129.16,010412,,,D*70
$GPGGA,225529.000,3352.0682,N,09831.8483,W,2,10,0.8,295.9,M,-23.7,M,0.8,0000*4A
$GPGSA,A,3,03,07,20,32,13,31,06,23,16,30,,,1.6,0.8,1.4*3C
$GPRMC,225529.000,A,3352.0682,N,09831.8483,W,0.02,166.11,010412,,,D*78
$GPGGA,225530.000,3352.0682,N,09831.8483,W,2,10,0.8,295.8,M,-23.7,M,1.8,0000*42
$GPGSA,A,3,03,07,20,32,13,31,06,23,16,30,,,1.6,0.8,1.4*3C
$GPRMC,225530.000,A,3352.0682,N,09831.8483,W,0.03,158.26,010412,,,D*78
$GPGGA,225531.000,3352.0682,N,09831.8483,W,2,10,0.8,295.8,M,-23.7,M,2.8,0000*40
$GPGSA,A,3,03,07,20,32,13,31,06,23,16,30,,,1.6,0.8,1.4*3C
$GPRMC,225531.000,A,3352.0682,N,09831.8483,W,0.05,147.95,010412,,,D*79
$GPGGA,225532.000,3352.0682,N,09831.8483,W,2,10,0.8,295.7,M,-23.7,M,3.8,0000*4D
$GPGSA,A,3,03,07,20,32,13,31,06,23,16,30,,,1.6,0.8,1.4*3C
$GPGSV,3,1,12,16,71,062,28,23,64,330,28,30,43,044,38,20,41,221,37*73
$GPGSV,3,2,12,32,33,189,34,13,32,317,37,03,30,138,31,06,29,119,35*75
$GPGSV,3,3,12,07,17,272,28,31,10,069,29,10,08,320,,19,05,165,*76
$GPRMC,225532.000,A,3352.0682,N,09831.8483,W,0.04,150.31,010412,,,D*73
$GPGGA,225533.000,3352.0682,N,09831.8483,W,2,10,0.8,295.7,M,-23.7,M,0.8,0000*4F
$GPGSA,A,3,03,07,20,32,13,31,06,23,16,30,,,1.6,0.8,1.4*3C
$GPRMC,225533.000,A,3352.0682,N,09831.8483,W,0.03,149.11,010412,,,D*7F
$GPGGA,225534.000,3352.0682,N,09831.8483,W,2,10,0.8,295.7,M,-23.7,M,0.8,0000*48
$GPGSA,A,3,03,07,20,32,13,31,06,23,16,30,,,1.6,0.8,1.4*3C
$GPRMC,225534.000,A,3352.0682,N,09831.8483,W,0.02,104.84,010412,,,D*7C
$GPGGA,225535.000,3352.0682,N,09831.8483,W,2,10,0.8,295.7,M,-23.7,M,0.8,0000*49
$GPGSA,A,3,03,07,20,32,13,31,06,23,16,30,,,1.6,0.8,1.4*3C
$GPRMC,225535.000,A,3352.0682,N,09831.8483,W,0.07,114.70,010412,,,D*72
$GPGGA,225536.000,3352.0682,N,09831.8483,W,2,10,0.8,295.6,M,-23.7,M,1.8,0000*4A
$GPGSA,A,3,03,07,20,32,13,31,06,23,16,30,,,1.6,0.8,1.4*3C
$GPRMC,225536.000,A,3352.0682,N,09831.8483,W,0.06,99.02,010412,,,D*41
$GPGGA,225537.000,3352.0682,N,09831.8482,W,2,10,0.8,295.6,M,-23.7,M,0.8,0000*4B
$GPGSA,A,3,03,07,20,32,13,31,06,23,16,30,,,1.6,0.8,1.4*3C
$GPGSV,3,1,12,16,71,062,27,23,64,330,28,30,43,044,38,20,41,221,38*73
$GPGSV,3,2,12,32,33,189,34,13,32,317,37,03,30,138,31,06,29,119,35*75
$GPGSV,3,3,12,07,17,272,28,31,10,069,29,10,08,320,,19,05,165,*76
$GPRMC,225537.000,A,3352.0682,N,09831.8482,W,0.02,134.96,010412,,,D*7E
$GPGGA,225538.000,3352.0682,N,09831.8482,W,2,10,0.8,295.8,M,-23.7,M,0.8,0000*4A
$GPGSA,A,3,03,07,20,32,13,31,06,23,16,30,,,1.6,0.8,1.4*3C
$GPRMC,225538.000,A,3352.0682,N,09831.8482,W,0.12,97.82,010412,,,D*4D
$GPGGA,225539.000,3352.0682,N,09831.8482,W,2,10,0.8,295.9,M,-23.7,M,0.8,0000*4A
$GPGSA,A,3,03,07,20,32,13,31,06,23,16,30,,,1.6,0.8,1.4*3C
$GPRMC,225539.000,A,3352.0682,N,09831.8482,W,0.10,104.33,010412,,,D*7F
$GPGGA,225540.000,3352.0682,N,09831.8482,W,2,10,0.8,296.0,M,-23.7,M,0.8,0000*4E
$GPGSA,A,3,03,07,20,32,13,31,06,23,16,30,,,1.6,0.8,1.4*3C
$GPRMC,225540.000,A,3352.0682,N,09831.8482,W,0.07,170.68,010412,,,D*7A
$GPGGA,225541.000,3352.0682,N,09831.8482,W,2,10,0.8,296.0,M,-23.7,M,0.8,0000*4F
$GPGSA,A,3,03,07,20,32,13,31,06,23,16,30,,,1.6,0.8,1.4*3C
$GPRMC,225541.000,A,3352.0682,N,09831.8482,W,0.11,242.54,010412,,,D*71
$GPGGA,225542.000,3352.0682,N,09831.8482,W,2,10,0.8,296.0,M,-23.7,M,1.8,0000*4D
$GPGSA,A,3,03,07,20,32,13,31,06,23,16,30,,,1.6,0.8,1.4*3C
$GPGSV,3,1,12,16,71,062,27,23,64,330,28,30,43,044,38,20,41,221,38*73
$GPGSV,3,2,12,32,33,189,34,13,32,317,37,03,30,138,32,06,29,119,34*77
$GPGSV,3,3,12,07,17,272,27,31,10,069,30,10,08,320,,19,05,165,*71
$GPRMC,225542.000,A,3352.0682,N,09831.8482,W,0.08,140.20,010412,,,D*78
$GPGGA,225543.000,3352.0682,N,09831.8482,W,2,10,0.8,296.0,M,-23.7,M,2.8,0000*4F
$GPGSA,A,3,03,07,20,32,13,31,06,23,16,30,,,1.6,0.8,1.4*3C
$GPRMC,225543.000,A,3352.0682,N,09831.8482,W,0.05,181.74,010412,,,D*78
$GPGGA,225544.000,3352.0682,N,09831.8482,W,2,10,0.8,296.0,M,-23.7,M,0.8,0000*4A
$GPGSA,A,3,03,07,20,32,13,31,06,23,16,30,,,1.6,0.8,1.4*3C
$GPRMC,225544.000,A,3352.0682,N,09831.8482,W,0.05,194.05,010412,,,D*7D
$GPGGA,225545.000,3352.0682,N,09831.8482,W,2,10,0.8,295.9,M,-23.7,M,0.8,0000*41
$GPGSA,A,3,03,07,20,32,13,31,06,23,16,30,,,1.6,0.8,1.4*3C
$GPRMC,225545.000,A,3352.0682,N,09831.8482,W,0.05,191.95,010412,,,D*70
$GPGGA,225546.000,3352.0682,N,09831.8482,W,2,10,0.8,295.9,M,-23.7,M,0.8,0000*42
$GPGSA,A,3,03,07,20,32,13,31,06,23,16,30,,,1.6,0.8,1.4*3C
$GPRMC,225546.000,A,3352.0682,N,09831.8482,W,0.10,79.89,010412,,,D*4D
$GPGGA,225547.000,3352.0682,N,09831.8482,W,2,10,0.8,296.0,M,-23.7,M,0.8,0000*49
$GPGSA,A,3,03,07,20,32,13,31,06,23,16,30,,,1.6,0.8,1.4*3C
$GPGSV,3,1,12,16,71,062,27,23,64,330,28,30,43,044,38,20,41,221,38*73
$GPGSV,3,2,12,32,33,189,34,13,32,317,37,03,30,138,32,06,29,119,34*77
$GPGSV,3,3,12,07,17,272,27,31,10,069,30,10,08,320,,19,05,165,*71
$GPRMC,225547.000,A,3352.0682,N,09831.8482,W,0.10,84.09,010412,,,D*46
$GPGGA,225548.000,3352.0683,N,09831.8482,W,2,10,0.8,296.0,M,-23.7,M,1.8,0000*46
$GPGSA,A,3,03,07,20,32,13,31,06,23,16,30,,,1.6,0.8,1.4*3C
$GPRMC,225548.000,A,3352.0683,N,09831.8482,W,0.08,84.59,010412,,,D*44
$GPGGA,225549.000,3352.0683,N,09831.8482,W,2,10,0.8,296.0,M,-23.7,M,2.8,0000*44
$GPGSA,A,3,03,07,20,32,13,31,06,23,16,30,,,1.6,0.8,1.4*3C
$GPRMC,225549.000,A,3352.0683,N,09831.8482,W,0.07,87.24,010412,,,D*43
$GPGGA,225550.000,3352.0683,N,09831.8481,W,2,10,0.8,296.1,M,-23.7,M,3.8,0000*4F
$GPGSA,A,3,03,07,20,32,13,31,06,23,16,30,,,1.6,0.8,1.4*3C
$GPRMC,225550.000,A,3352.0683,N,09831.8481,W,0.07,90.62,010412,,,D*4C
$GPGGA,225551.000,3352.0683,N,09831.8481,W,2,10,0.8,296.1,M,-23.7,M,0.8,0000*4D
$GPGSA,A,3,03,07,20,32,13,31,06,23,16,30,,,1.6,0.8,1.4*3C
$GPRMC,225551.000,A,3352.0683,N,09831.8481,W,0.04,85.25,010412,,,D*49
$GPGGA,225552.000,3352.0683,N,09831.8481,W,2,10,0.8,296.1,M,-23.7,M,0.8,0000*4E
$GPGSA,A,3,03,07,20,32,13,31,06,23,16,30,,,1.6,0.8,1.4*3C
$GPGSV,3,1,12,16,71,062,26,23,64,330,28,30,43,044,38,20,41,221,38*72
$GPGSV,3,2,12,32,33,189,34,13,32,317,37,03,30,138,32,06,29,119,34*77
$GPGSV,3,3,12,07,17,272,26,31,10,069,30,10,08,320,,19,05,165,*70
$GPRMC,225552.000,A,3352.0683,N,09831.8481,W,0.05,155.44,010412,,,D*70
$GPGGA,225553.000,3352.0683,N,09831.8481,W,2,10,0.8,296.0,M,-23.7,M,0.8,0000*4E
$GPGSA,A,3,03,07,20,32,13,31,06,23,16,30,,,1.6,0.8,1.4*3C
$GPRMC,225553.000,A,3352.0683,N,09831.8481,W,0.06,158.82,010412,,,D*75
$GPGGA,225554.000,3352.0683,N,09831.8481,W,2,10,0.8,296.0,M,-23.7,M,0.8,0000*49
$GPGSA,A,3,03,07,20,32,13,31,06,23,16,30,,,1.6,0.8,1.4*3C
$GPRMC,225554.000,A,3352.0683,N,09831.8481,W,0.06,152.80,010412,,,D*7A
$GPGGA,225555.000,3352.0683,N,09831.8481,W,2,10,0.8,296.0,M,-23.7,M,1.8,0000*49
$GPGSA,A,3,03,07,20,32,13,31,06,23,16,30,,,1.6,0.8,1.4*3C
$GPRMC,225555.000,A,3352.0683,N,09831.8481,W,0.06,128.46,010412,,,D*7C
$GPGGA,225556.000,3352.0683,N,09831.8482,W,2,10,0.8,295.9,M,-23.7,M,2.8,0000*40
$GPGSA,A,3,03,07,20,32,13,31,06,23,16,30,,,1.6,0.8,1.4*3C
$GPRMC,225556.000,A,3352.0683,N,09831.8482,W,0.07,227.35,010412,,,D*75
$GPGGA,225557.000,3352.0683,N,09831.8482,W,2,10,0.8,295.8,M,-23.7,M,0.8,0000*42
$GPGSA,A,3,03,07,20,32,13,31,06,23,16,30,,,1.6,0.8,1.4*3C
$GPGSV,3,1,12,16,71,062,27,23,64,330,29,30,43,044,38,20,41,221,37*7D
$GPGSV,3,2,12,32,33,189,33,13,32,317,37,03,30,138,31,06,29,119,34*73
$GPGSV,3,3,12,07,17,272,26,31,10,069,31,10,08,320,,19,05,165,*71
$GPRMC,225557.000,A,3352.0683,N,09831.8482,W,0.04,196.25,010412,,,D*7F
$GPGGA,225558.000,3352.0683,N,09831.8482,W,2,10,0.8,295.6,M,-23.7,M,0.8,0000*43
$GPGSA,A,3,03,07,20,32,13,31,06,23,16,30,,,1.6,0.8,1.4*3C
$GPRMC,225558.000,A,3352.0683,N,09831.8482,W,0.06,274.70,010412,,,D*7D
$GPGGA,225559.000,3352.0683,N,09831.8482,W,2,10,0.8,295.6,M,-23.7,M,0.8,0000*42
$GPGSA,A,3,03,07,20,32,13,31,06,23,16,30,,,1.6,0.8,1.4*3C
$GPRMC,225559.000,A,3352.0683,N,09831.8482,W,0.09,97.24,010412,,,D*4D
$GPGGA,225600.000,3352.0683,N,09831.8482,W,2,10,0.8,295.6,M,-23.7,M,1.8,0000*4C
$GPGSA,A,3,03,07,20,32,13,31,06,23,16,30,,,1.6,0.8,1.4*3C
$GPRMC,225600.000,A,3352.0683,N,09831.8482,W,0.05,104.87,010412,,,D*7C
$GPGGA,225601.000,3352.0683,N,09831.8482,W,2,10,0.8,295.6,M,-23.7,M,0.8,0000*4C
$GPGSA,A,3,03,07,20,32,13,31,06,23,16,30,,,1.6,0.8,1.4*3C
$GPRMC,225601.000,A,3352.0683,N,09831.8482,W,0.05,96.26,010412,,,D*4C
$GPGGA,225602.000,3352.0683,N,09831.8482,W,2,10,0.8,295.7,M,-23.7,M,0.8,0000*4E
$GPGSA,A,3,03,07,20,32,13,31,06,23,16,30,,,1.6,0.8,1.4*3C
$GPGSV,3,1,12,16,71,062,28,23,64,330,29,30,43,044,38,20,41,221,37*72
$GPGSV,3,2,12,32,33,189,33,13,32,317,37,03,30,138,30,06,29,119,34*72
$GPGSV,3,3,12,07,17,272,25,31,10,069,31,10,08,320,,19,05,165,*72
$GPRMC,225602.000,A,3352.0683,N,09831.8482,W,0.13,100.39,010412,,,D*78
$GPGGA,225603.000,3352.0683,N,09831.8482,W,2,10,0.8,295.7,M,-23.7,M,0.8,0000*4F
$GPGSA,A,3,03,07,20,32,13,31,06,23,16,30,,,1.6,0.8,1.4*3C
$GPRMC,225603.000,A,3352.0683,N,09831.8482,W,0.04,132.27,010412,,,D*71
$GPGGA,225604.000,3352.0682,N,09831.8482,W,2,10,0.8,295.7,M,-23.7,M,0.8,0000*49
$GPGSA,A,3,03,07,20,32,13,31,06,23,16,30,,,1.6,0.8,1.4*3C
$GPRMC,225604.000,A,3352.0682,N,09831.8482,W,0.09,135.88,010412,,,D*78
$GPGGA,225605.000,3352.0682,N,09831.8482,W,2,10,0.8,295.8,M,-23.7,M,0.8,0000*47
$GPGSA,A,3,03,07,20,32,13,31,06,23,16,30,,,1.6,0.8,1.4*3C
$GPRMC,225605.000,A,3352.0682,N,09831.8482,W,0.07,131.79,010412,,,D*7D
$GPGGA,225606.000,3352.0682,N,09831.8482,W,2,10,0.8,295.8,M,-23.7,M,1.8,0000*45
$GPGSA,A,3,03,07,20,32,13,31,06,23,16,30,,,1.6,0.8,1.4*3C
$GPRMC,225606.000,A,3352.0682,N,09831.8482,W,0.08,133.45,010412,,,D*7C
$GPGGA,225607.000,3352.0682,N,09831.8482,W,2,10,0.8,295.9,M,-23.7,M,2.8,0000*46
$GPGSA,A,3,03,07,20,32,13,31,06,23,16,30,,,1.6,0.8,1.4*3C
$GPGSV,3,1,12,16,71,062,28,23,64,330,29,30,43,044,38,20,41,221,37*72
$GPGSV,3,2,12,32,33,189,33,13,32,317,37,03,30,138,31,06,29,119,33*74
$GPGSV,3,3,12,07,17,272,24,31,10,069,31,10,08,320,,19,05,165,*73
$GPRMC,225607.000,A,3352.0682,N,09831.8482,W,0.06,139.42,010412,,,D*7E
$GPGGA,225608.000,3352.0682,N,09831.8482,W,2,10,0.8,295.8,M,-23.7,M,3.8,0000*49
$GPGSA,A,3,03,07,20,32,13,31,06,23,16,30,,,1.6,0.8,1.4*3C
$GPRMC,225608.000,A,3352.0682,N,09831.8482,W,0.05,216.62,010412,,,D*7E
$GPGGA,225609.000,3352.0682,N,09831.8482,W,2,10,0.8,295.8,M,-23.7,M,0.8,0000*4B
$GPGSA,A,3,03,07,20,32,13,31,06,23,16,30,,,1.6,0.8,1.4*3C
$GPRMC,225609.000,A,3352.0682,N,09831.8482,W,0.08,111.43,010412,,,D*75
$GPGGA,225610.000,3352.0682,N,09831.8482,W,2,10,0.8,295.8,M,-23.7,M,0.8,0000*43
$GPGSA,A,3,03,07,20,32,13,31,06,23,16,30,,,1.6,0.8,1.4*3C
$GPRMC,225610.000,A,3352.0682,N,09831.8482,W,0.02,84.19,010412,,,D*45
$GPGGA,225611.000,3352.0682,N,09831.8482,W,2,10,0.8,295.7,M,-23.7,M,0.8,0000*4D
$GPGSA,A,3,03,07,20,32,13,31,06,23,16,30,,,1.6,0.8,1.4*3C
$GPRMC,225611.000,A,3352.0682,N,09831.8482,W,0.03,85.54,010412,,,D*4D
$GPGGA,225612.000,3352.0682,N,09831.8482,W,2,10,0.8,295.8,M,-23.7,M,1.8,0000*40
$GPGSA,A,3,03,07,20,32,13,31,06,23,16,30,,,1.6,0.8,1.4*3C
$GPGSV,3,1,12,16,71,062,29,23,64,330,29,30,43,044,38,20,41,221,36*72
$GPGSV,3,2,12,32,33,189,33,13,32,317,36,03,30,138,32,06,29,119,33*76
$GPGSV,3,3,12,07,17,272,23,31,10,069,32,10,08,320,,19,05,165,*77
$GPRMC,225612.000,A,3352.0682,N,09831.8482,W,0.12,97.91,010412,,,D*44
$GPGGA,225613.000,3352.0682,N,09831.8482,W,2,10,0.8,295.9,M,-23.7,M,2.8,0000*43
