$GPGGA,192937.000,3352.4656,N,09831.1855,W,1,09,0.9,288.4,M,-23.7,M,18.8,0000*77
$GPGSA,A,3,25,11,31,14,01,22,32,30,20,,,,1.8,0.9,1.6*34
$GPRMC,192937.000,A,3352.4656,N,09831.1855,W,0.12,153.78,310312,,,A*7E
$GPGGA,192938.000,3352.4656,N,09831.1855,W,1,09,0.9,288.3,M,-23.7,M,18.8,0000*7F
$GPGSA,A,3,25,11,31,14,01,22,32,30,20,,,,1.8,0.9,1.6*34
$GPRMC,192938.000,A,3352.4656,N,09831.1855,W,0.08,91.00,310312,,,A*4A
$GPGGA,192939.000,3352.4656,N,09831.1855,W,1,09,0.9,288.2,M,-23.7,M,18.8,0000*7F
$GPGSA,A,3,25,11,31,14,01,22,32,30,20,,,,1.8,0.9,1.6*34
$GPGSV,3,1,11,31,86,206,30,14,46,047,40,22,41,128,36,32,37,316,31*78
$GPGSV,3,2,11,01,31,291,23,25,26,068,34,11,24,265,27,30,18,169,28*76
$GPGSV,3,3,11,20,10,313,35,12,04,035,,18,00,130,*47
$GPRMC,192939.000,A,3352.4656,N,09831.1855,W,0.02,188.00,310312,,,A*78
$GPGGA,192940.000,3352.4656,N,09831.1855,W,1,09,0.9,288.1,M,-23.7,M,18.8,0000*72
$GPGSA,A,3,25,11,31,14,01,22,32,30,20,,,,1.8,0.9,1.6*34
$GPRMC,192940.000,A,3352.4656,N,09831.1855,W,0.04,143.47,310312,,,A*74
$GPGGA,192941.000,3352.4656,N,09831.1855,W,1,09,0.9,288.0,M,-23.7,M,18.8,0000*72
$GPGSA,A,3,25,11,31,14,01,22,32,30,20,,,,1.8,0.9,1.6*34
$GPRMC,192941.000,A,3352.4656,N,09831.1855,W,0.13,104.47,310312,,,A*70
$GPGGA,192942.000,3352.4656,N,09831.1855,W,1,09,0.9,287.9,M,-23.7,M,18.8,0000*77
$GPGSA,A,3,25,11,31,14,01,22,32,30,20,,,,1.8,0.9,1.6*34
$GPRMC,192942.000,A,3352.4656,N,09831.1855,W,0.00,282.91,310312,,,A*77
$GPGGA,192943.000,3352.4656,N,09831.1855,W,1,09,0.9,287.8,M,-23.7,M,18.8,0000*77
$GPGSA,A,3,25,11,31,14,01,22,32,30,20,,,,1.8,0.9,1.6*34
$GPRMC,192943.000,A,3352.4656,N,09831.1855,W,0.11,88.77,310312,,,A*46
$GPGGA,192944.000,3352.4656,N,09831.1854,W,1,09,0.9,287.7,M,-23.7,M,18.8,0000*7E
$GPGSA,A,3,25,11,31,14,01,22,32,30,20,,,,1.8,0.9,1.6*34
$GPGSV,3,1,11,31,86,206,30,14,46,047,40,22,41,128,36,32,37,316,31*78
$GPGSV,3,2,11,01,31,291,23,25,26,068,34,11,24,265,27,30,18,169,28*76
$GPGSV,3,3,11,20,10,313,35,12,04,035,,18,00,130,*47
$GPRMC,192944.000,A,3352.4656,N,09831.1854,W,0.09,100.76,310312,,,A*79
$GPGGA,192945.000,3352.4656,N,09831.1854,W,1,09,0.9,287.6,M,-23.7,M,18.8,0000*7E
$GPGSA,A,3,25,11,31,14,01,22,32,30,20,,,,1.8,0.9,1.6*34
$GPRMC,192945.000,A,3352.4656,N,09831.1854,W,0.03,189.84,310312,,,A*7E
$GPGGA,192946.000,3352.4656,N,09831.1854,W,1,09,0.9,287.5,M,-23.7,M,18.8,0000*7E
$GPGSA,A,3,25,11,31,14,01,22,32,30,20,,,,1.8,0.9,1.6*34
$GPRMC,192946.000,A,3352.4656,N,09831.1854,W,0.11,95.38,310312,,,A*45
$GPGGA,192947.000,3352.4656,N,09831.1854,W,1,09,0.9,287.4,M,-23.7,M,18.8,0000*7E
$GPGSA,A,3,25,11,31,14,01,22,32,30,20,,,,1.8,0.9,1.6*34
$GPRMC,192947.000,A,3352.4656,N,09831.1854,W,0.03,186.80,310312,,,A*77
$GPGGA,192948.000,3352.4656,N,09831.1854,W,1,09,0.9,287.3,M,-23.7,M,18.8,0000*76
$GPGSA,A,3,25,11,31,14,01,22,32,30,20,,,,1.8,0.9,1.6*34
$GPRMC,192948.000,A,3352.4656,N,09831.1854,W,0.06,222.35,310312,,,A*7E
$GPGGA,192949.000,3352.4656,N,09831.1854,W,1,09,0.9,287.2,M,-23.7,M,18.8,0000*76
$GPGSA,A,3,25,11,31,14,01,22,32,30,20,,,,1.8,0.9,1.6*34
$GPGSV,3,1,12,31,86,206,30,14,46,047,40,22,41,128,36,32,37,316,31*7B
$GPGSV,3,2,12,01,31,291,22,25,26,068,34,11,24,265,27,30,18,169,28*74
$GPGSV,3,3,12,20,10,313,35,12,04,035,,18,00,130,,51,49,195,29*7B
$GPRMC,192949.000,A,3352.4656,N,09831.1854,W,0.09,95.62,310312,,,A*4C
$GPGGA,192950.000,3352.4656,N,09831.1854,W,1,09,0.9,287.1,M,-23.7,M,18.8,0000*7D
$GPGSA,A,3,25,11,31,14,01,22,32,30,20,,,,1.8,0.9,1.6*34
$GPRMC,192950.000,A,3352.4656,N,09831.1854,W,0.05,191.96,310312,,,A*76
$GPGGA,192951.000,3352.4656,N,09831.1854,W,1,09,0.9,287.1,M,-23.7,M,18.8,0000*7C
$GPGSA,A,3,25,11,31,14,01,22,32,30,20,,,,1.8,0.9,1.6*34
$GPRMC,192951.000,A,3352.4656,N,09831.1854,W,0.05,135.46,310312,,,A*74
$GPGGA,192952.000,3352.4656,N,09831.1854,W,1,09,0.9,287.0,M,-23.7,M,18.8,0000*7E
$GPGSA,A,3,25,11,31,14,01,22,32,30,20,,,,1.8,0.9,1.6*34
$GPRMC,192952.000,A,3352.4656,N,09831.1854,W,0.06,120.19,310312,,,A*7A
$GPGGA,192953.000,3352.4656,N,09831.1854,W,1,09,0.9,287.0,M,-23.7,M,18.8,0000*7F
$GPGSA,A,3,25,11,31,14,01,22,32,30,20,,,,1.8,0.9,1.6*34
$GPRMC,192953.000,A,3352.4656,N,09831.1854,W,0.11,90.88,310312,,,A*4F
$GPGGA,192954.000,3352.4656,N,09831.1853,W,1,09,0.9,286.9,M,-23.7,M,18.8,0000*77
$GPGSA,A,3,25,11,31,14,01,22,32,30,20,,,,1.8,0.9,1.6*34
$GPGSV,3,1,12,31,86,206,30,14,46,047,40,22,41,128,36,32,37,316,32*78
$GPGSV,3,2,12,01,31,291,21,25,26,068,34,11,24,265,27,30,18,169,28*77
$GPGSV,3,3,12,20,10,313,35,12,04,035,,18,00,130,,51,49,195,28*7A
$GPRMC,192954.000,A,3352.4656,N,09831.1853,W,0.08,100.80,310312,,,A*77
$GPGGA,192955.000,3352.4656,N,09831.1853,W,1,09,0.9,286.9,M,-23.7,M,18.8,0000*76
$GPGSA,A,3,25,11,31,14,01,22,32,30,20,,,,1.8,0.9,1.6*34
$GPRMC,192955.000,A,3352.4656,N,09831.1853,W,0.01,226.75,310312,,,A*72
$GPGGA,192956.000,3352.4656,N,09831.1854,W,1,09,0.9,286.8,M,-23.7,M,18.8,0000*73
$GPGSA,A,3,25,11,31,14,01,22,32,30,20,,,,1.8,0.9,1.6*34
$GPRMC,192956.000,A,3352.4656,N,09831.1854,W,0.02,248.03,310312,,,A*7C
$GPGGA,192957.000,3352.4656,N,09831.1853,W,1,09,0.9,286.8,M,-23.7,M,18.8,0000*75
$GPGSA,A,3,25,11,31,14,01,22,32,30,20,,,,1.8,0.9,1.6*34
$GPRMC,192957.000,A,3352.4656,N,09831.1853,W,0.09,107.99,310312,,,A*7A
$GPGGA,192958.000,3352.4656,N,09831.1853,W,1,09,0.9,286.8,M,-23.7,M,18.8,0000*7A
$GPGSA,A,3,25,11,31,14,01,22,32,30,20,,,,1.8,0.9,1.6*34
$GPRMC,192958.000,A,3352.4656,N,09831.1853,W,0.11,89.93,310312,,,A*41
$GPGGA,192959.000,3352.4657,N,09831.1853,W,1,09,0.9,286.7,M,-23.7,M,18.8,0000*75
$GPGSA,A,3,25,11,31,14,01,22,32,30,20,,,,1.8,0.9,1.6*34
$GPGSV,3,1,11,31,86,206,30,14,46,047,40,22,41,128,36,32,37,316,32*7B
$GPGSV,3,2,11,01,31,291,20,25,26,068,34,11,24,265,27,30,18,169,28*75
$GPGSV,3,3,11,20,10,313,35,12,04,035,,18,00,130,*47
$GPRMC,192959.000,A,3352.4657,N,09831.1853,W,0.14,94.95,310312,,,A*4E
$GPGGA,193000.000,3352.4657,N,09831.1853,W,1,09,0.9,286.7,M,-23.7,M,18.8,0000*71
$GPGSA,A,3,25,11,31,14,01,22,32,30,20,,,,1.8,0.9,1.6*34
$GPRMC,193000.000,A,3352.4657,N,09831.1853,W,0.05,100.70,310312,,,A*7D
$GPGGA,193001.000,3352.4657,N,09831.1853,W,1,09,0.9,286.7,M,-23.7,M,18.8,0000*70
$GPGSA,A,3,25,11,31,14,01,22,32,30,20,,,,1.8,0.9,1.6*34
$GPRMC,193001.000,A,3352.4657,N,09831.1853,W,0.03,106.78,310312,,,A*74
$GPGGA,193002.000,3352.4657,N,09831.1853,W,1,09,0.9,286.6,M,-23.7,M,18.8,0000*72
$GPGSA,A,3,25,11,31,14,01,22,32,30,20,,,,1.8,0.9,1.6*34
$GPRMC,193002.000,A,3352.4657,N,09831.1853,W,0.02,216.82,310312,,,A*71
$GPGGA,193003.000,3352.4657,N,09831.1853,W,1,09,0.9,286.6,M,-23.7,M,18.8,0000*73
$GPGSA,A,3,25,11,31,14,01,22,32,30,20,,,,1.8,0.9,1.6*34
$GPRMC,193003.000,A,3352.4657,N,09831.1853,W,0.03,96.56,310312,,,A*42
$GPGGA,193004.000,3352.4657,N,09831.1853,W,1,09,0.9,286.6,M,-23.7,M,18.8,0000*74
$GPGSA,A,3,25,11,31,14,01,22,32,30,20,,,,1.8,0.9,1.6*34
$GPGSV,3,1,12,31,86,206,31,14,46,047,40,22,41,128,36,32,37,316,32*79
$GPGSV,3,2,12,01,31,291,21,25,26,068,34,11,24,265,27,30,18,169,28*77
$GPGSV,3,3,12,20,10,313,35,12,04,035,,18,00,130,,48,36,230,29*77
$GPRMC,193004.000,A,3352.4657,N,09831.1853,W,0.03,264.73,310312,,,A*7D
$GPGGA,193005.000,3352.4657,N,09831.1853,W,1,09,0.9,286.5,M,-23.7,M,18.8,0000*76
$GPGSA,A,3,25,11,31,14,01,22,32,30,20,,,,1.8,0.9,1.6*34
$GPRMC,193005.000,A,3352.4657,N,09831.1853,W,0.02,260.46,310312,,,A*7F
$GPGGA,193006.000,3352.4657,N,09831.1853,W,1,09,0.9,286.5,M,-23.7,M,18.8,0000*75
$GPGSA,A,3,25,11,31,14,01,22,32,30,20,,,,1.8,0.9,1.6*34
$GPRMC,193006.000,A,3352.4657,N,09831.1853,W,0.09,87.18,310312,,,A*47
$GPGGA,193007.000,3352.4657,N,09831.1853,W,1,09,0.9,286.5,M,-23.7,M,18.8,0000*74
$GPGSA,A,3,25,11,31,14,01,22,32,30,20,,,,1.8,0.9,1.6*34
$GPRMC,193007.000,A,3352.4657,N,09831.1853,W,0.14,91.46,310312,,,A*46
$GPGGA,193008.000,3352.4658,N,09831.1852,W,1,09,0.9,286.4,M,-23.7,M,18.8,0000*74
$GPGSA,A,3,25,11,31,14,01,22,32,30,20,,,,1.8,0.9,1.6*34
$GPRMC,193008.000,A,3352.4658,N,09831.1852,W,0.17,93.63,310312,,,A*41
$GPGGA,193009.000,3352.4658,N,09831.1852,W,1,09,0.9,286.4,M,-23.7,M,18.8,0000*75
$GPGSA,A,3,25,11,31,14,01,22,32,30,20,,,,1.8,0.9,1.6*34
$GPGSV,3,1,12,31,86,206,31,14,46,047,40,22,41,128,36,32,37,316,31*7A
$GPGSV,3,2,12,01,31,291,22,25,26,068,34,11,24,265,26,30,18,169,28*75
$GPGSV,3,3,12,20,10,313,35,12,04,035,,18,00,130,,48,36,230,29*77
$GPRMC,193009.000,A,3352.4658,N,09831.1852,W,0.04,121.20,310312,,,A*7D
$GPGGA,193010.000,3352.4658,N,09831.1852,W,1,09,0.9,286.3,M,-23.7,M,18.8,0000*7A
$GPGSA,A,3,25,11,31,14,01,22,32,30,20,,,,1.8,0.9,1.6*34
$GPRMC,193010.000,A,3352.4658,N,09831.1852,W,0.10,83.25,310312,,,A*4C
$GPGGA,193011.000,3352.4658,N,09831.1852,W,1,09,0.9,286.3,M,-23.7,M,18.8,0000*7B
$GPGSA,A,3,25,11,31,14,01,22,32,30,20,,,,1.8,0.9,1.6*34
$GPRMC,193011.000,A,3352.4658,N,09831.1852,W,0.07,112.67,310312,,,A*74
$GPGGA,193012.000,3352.4658,N,09831.1852,W,1,09,0.9,286.2,M,-23.7,M,18.8,0000*79
$GPGSA,A,3,25,11,31,14,01,22,32,30,20,,,,1.8,0.9,1.6*34
$GPRMC,193012.000,A,3352.4658,N,09831.1852,W,0.10,101.82,310312,,,A*78
$GPGGA,193013.000,3352.4658,N,09831.1852,W,1,09,0.9,286.1,M,-23.7,M,18.8,0000*7B
$GPGSA,A,3,25,11,31,14,01,22,32,30,20,,,,1.8,0.9,1.6*34
$GPRMC,193013.000,A,3352.4658,N,09831.1852,W,0.01,137.08,310312,,,A*7E
$GPGGA,193014.000,3352.4658,N,09831.1852,W,1,09,0.9,286.1,M,-23.7,M,18.8,0000*7C
$GPGSA,A,3,25,11,31,14,01,22,32,30,20,,,,1.8,0.9,1.6*34
$GPGSV,3,1,12,31,86,206,30,14,46,047,40,22,41,128,36,32,37,316,31*7B
$GPGSV,3,2,12,01,31,291,23,25,26,068,35,11,24,265,26,30,18,169,28*75
$GPGSV,3,3,12,20,10,313,35,12,04,035,,18,00,130,,48,36,230,29*77
$GPRMC,193014.000,A,3352.4658,N,09831.1852,W,0.03,127.45,310312,,,A*73
$GPGGA,193015.000,3352.4658,N,09831.1852,W,1,09,0.9,286.0,M,-23.7,M,18.8,0000*7C
$GPGSA,A,3,25,11,31,14,01,22,32,30,20,,,,1.8,0.9,1.6*34
$GPRMC,193015.000,A,3352.4658,N,09831.1852,W,0.02,242.22,310312,,,A*72
$GPGGA,193016.000,3352.4658,N,09831.1852,W,1,09,0.9,286.0,M,-23.7,M,18.8,0000*7F
$GPGSA,A,3,25,11,31,14,01,22,32,30,20,,,,1.8,0.9,1.6*34
$GPRMC,193016.000,A,3352.4658,N,09831.1852,W,0.11,96.92,310312,,,A*43
$GPGGA,193017.000,3352.4659,N,09831.1852,W,1,09,0.9,285.9,M,-23.7,M,18.8,0000*75
$GPGSA,A,3,25,11,31,14,01,22,32,30,20,,,,1.8,0.9,1.6*34
$GPRMC,193017.000,A,3352.4659,N,09831.1852,W,0.02,139.21,310312,,,A*7D
$GPGGA,193018.000,3352.4659,N,09831.1852,W,1,09,0.9,285.9,M,-23.7,M,18.8,0000*7A
$GPGSA,A,3,25,11,31,14,01,22,32,30,20,,,,1.8,0.9,1.6*34
$GPRMC,193018.000,A,3352.4659,N,09831.1852,W,0.02,225.60,310312,,,A*79
$GPGGA,193019.000,3352.4659,N,09831.1852,W,1,09,0.9,285.8,M,-23.7,M,18.8,0000*7A
$GPGSA,A,3,25,11,31,14,01,22,32,30,20,,,,1.8,0.9,1.6*34
$GPGSV,3,1,12,31,86,206,31,14,46,047,40,22,41,128,36,32,37,316,31*7A
$GPGSV,3,2,12,01,31,291,24,25,26,068,35,11,24,265,25,30,18,169,28*71
$GPGSV,3,3,12,20,10,313,35,12,04,035,,18,00,130,,48,36,230,29*77
$GPRMC,193019.000,A,3352.4659,N,09831.1852,W,0.01,156.35,310312,,,A*7C
$GPGGA,193020.000,3352.4659,N,09831.1852,W,1,09,0.9,285.8,M,-23.7,M,18.8,0000*70
$GPGSA,A,3,25,11,31,14,01,22,32,30,20,,,,1.8,0.9,1.6*34
$GPRMC,193020.000,A,3352.4659,N,09831.1852,W,0.02,196.56,310312,,,A*7C
$GPGGA,193021.000,3352.4659,N,09831.1852,W,1,09,0.9,285.7,M,-23.7,M,18.8,0000*7E
$GPGSA,A,3,25,11,31,14,01,22,32,30,20,,,,1.8,0.9,1.6*34
$GPRMC,193021.000,A,3352.4659,N,09831.1852,W,0.03,133.59,310312,,,A*7C
$GPGGA,193022.000,3352.4659,N,09831.1852,W,1,09,0.9,285.7,M,-23.7,M,18.8,0000*7D
$GPGSA,A,3,25,11,31,14,01,22,32,30,20,,,,1.8,0.9,1.6*34
$GPRMC,193022.000,A,3352.4659,N,09831.1852,W,0.01,152.20,310312,,,A*74
$GPGGA,193023.000,3352.4659,N,09831.1852,W,1,09,0.9,285.7,M,-23.7,M,18.8,0000*7C
$GPGSA,A,3,25,11,31,14,01,22,32,30,20,,,,1.8,0.9,1.6*34
$GPRMC,193023.000,A,3352.4659,N,09831.1852,W,0.05,141.24,310312,,,A*77
$GPGGA,193024.000,3352.4659,N,09831.1852,W,1,09,0.9,285.6,M,-23.7,M,18.8,0000*7A
$GPGSA,A,3,25,11,31,14,01,22,32,30,20,,,,1.8,0.9,1.6*34
$GPGSV,3,1,12,31,86,206,31,14,46,047,40,22,41,128,36,32,37,316,30*7B
$GPGSV,3,2,12,01,31,291,24,25,26,068,35,11,24,265,25,30,18,169,27*7E
$GPGSV,3,3,12,20,10,313,35,12,04,035,,18,00,130,,48,36,230,29*77
$GPRMC,193024.000,A,3352.4659,N,09831.1852,W,0.05,106.89,310312,,,A*74
$GPGGA,193025.000,3352.4659,N,09831.1852,W,1,09,0.9,285.6,M,-23.7,M,18.8,0000*7B
$GPGSA,A,3,25,11,31,14,01,22,32,30,20,,,,1.8,0.9,1.6*34
$GPRMC,193025.000,A,3352.4659,N,09831.1852,W,0.04,171.51,310312,,,A*71
$GPGGA,193026.000,3352.4659,N,09831.1852,W,1,09,0.9,285.5,M,-23.7,M,18.8,0000*7B
$GPGSA,A,3,25,11,31,14,01,22,32,30,20,,,,1.8,0.9,1.6*34
$GPRMC,193026.000,A,3352.4659,N,09831.1852,W,0.08,114.20,310312,,,A*7B
$GPGGA,193027.000,3352.4660,N,09831.1852,W,1,09,0.9,285.5,M,-23.7,M,18.8,0000*70
$GPGSA,A,3,25,11,31,14,01,22,32,30,20,,,,1.8,0.9,1.6*34
$GPRMC,193027.000,A,3352.4660,N,09831.1852,W,0.07,104.55,310312,,,A*7C
$GPGGA,193028.000,3352.4660,N,09831.1852,W,1,09,0.9,285.4,M,-23.7,M,18.8,0000*7E
$GPGSA,A,3,25,11,31,14,01,22,32,30,20,,,,1.8,0.9,1.6*34
$GPRMC,193028.000,A,3352.4660,N,09831.1852,W,0.05,101.96,310312,,,A*7B
$GPGGA,193029.000,3352.4660,N,09831.1852,W,1,09,0.9,285.4,M,-23.7,M,18.8,0000*7F
$GPGSA,A,3,25,11,31,14,01,22,32,30,20,,,,1.8,0.9,1.6*34
$GPGSV,3,1,11,31,86,206,31,14,46,047,40,22,41,128,36,32,37,316,31*79
$GPGSV,3,2,11,01,31,291,25,25,26,068,34,11,24,265,26,30,18,169,28*71
$GPGSV,3,3,11,20,10,313,35,12,04,035,,18,00,130,*47
$GPRMC,193029.000,A,3352.4660,N,09831.1852,W,0.04,115.39,310312,,,A*7B
$GPGGA,193030.000,3352.4660,N,09831.1852,W,1,09,0.9,285.4,M,-23.7,M,18.8,0000*77
$GPGSA,A,3,25,11,31,14,01,22,32,30,20,,,,1.8,0.9,1.6*34
$GPRMC,193030.000,A,3352.4660,N,09831.1852,W,0.05,145.47,310312,,,A*7E
$GPGGA,193031.000,3352.4660,N,09831.1852,W,1,09,0.9,285.3,M,-23.7,M,18.8,0000*71
$GPGSA,A,3,25,11,31,14,01,22,32,30,20,,,,1.8,0.9,1.6*34
$GPRMC,193031.000,A,3352.4660,N,09831.1852,W,0.05,142.57,310312,,,A*79
$GPGGA,193032.000,3352.4660,N,09831.1852,W,1,09,0.9,285.3,M,-23.7,M,18.8,0000*72
$GPGSA,A,3,25,11,31,14,01,22,32,30,20,,,,1.8,0.9,1.6*34
$GPRMC,193032.000,A,3352.4660,N,09831.1852,W,0.01,239.94,310312,,,A*7E
$GPGGA,193033.000,3352.4660,N,09831.1852,W,1,09,0.9,285.2,M,-23.7,M,18.8,0000*72
$GPGSA,A,3,25,11,31,14,01,22,32,30,20,,,,1.8,0.9,1.6*34
$GPRMC,193033.000,A,3352.4660,N,09831.1852,W,0.03,196.37,310312,,,A*72
$GPGGA,193034.000,3352.4660,N,09831.1852,W,1,09,0.9,285.2,M,-23.7,M,18.8,0000*75
$GPGSA,A,3,25,11,31,14,01,22,32,30,20,,,,1.8,0.9,1.6*34
$GPGSV,3,1,10,31,87,212,31,14,45,048,40,22,40,129,36,32,38,316,31*7F
$GPGSV,3,2,10,01,31,289,25,25,26,066,34,11,24,263,26,30,19,168,28*71
$GPGSV,3,3,10,20,11,313,35,12,03,034,*7A
$GPRMC,193034.000,A,3352.4660,N,09831.1852,W,0.07,110.74,310312,,,A*78
$GPGGA,193035.000,3352.4660,N,09831.1852,W,1,09,0.9,285.1,M,-23.7,M,18.8,0000*77
$GPGSA,A,3,25,11,31,14,01,22,32,30,20,,,,1.8,0.9,1.6*34
$GPRMC,193035.000,A,3352.4660,N,09831.1852,W,0.04,163.62,310312,,,A*79
$GPGGA,193036.000,3352.4660,N,09831.1852,W,1,09,0.9,285.1,M,-23.7,M,18.8,0000*74
$GPGSA,A,3,25,11,31,14,01,22,32,30,20,,,,1.8,0.9,1.6*34
$GPRMC,193036.000,A,3352.4660,N,09831.1852,W,0.01,165.23,310312,,,A*7C
$GPGGA,193037.000,3352.4660,N,09831.1852,W,1,09,0.9,285.1,M,-23.7,M,18.8,0000*75
$GPGSA,A,3,25,11,31,14,01,22,32,30,20,,,,1.8,0.9,1.6*34
$GPRMC,193037.000,A,3352.4660,N,09831.1852,W,0.04,164.84,310312,,,A*74
$GPGGA,193038.000,3352.4660,N,09831.1852,W,1,09,0.9,285.0,M,-23.7,M,18.8,0000*7B
$GPGSA,A,3,25,11,31,14,01,22,32,30,20,,,,1.8,0.9,1.6*34
$GPRMC,193038.000,A,3352.4660,N,09831.1852,W,0.07,96.49,310312,,,A*45
$GPGGA,193039.000,3352.4661,N,09831.1852,W,1,09,0.9,285.0,M,-23.7,M,18.8,0000*7B
$GPGSA,A,3,25,11,31,14,01,22,32,30,20,,,,1.8,0.9,1.6*34
$GPGSV,3,1,10,31,87,212,31,14,45,048,40,22,40,129,36,32,38,316,31*7F
$GPGSV,3,2,10,01,31,289,24,25,26,066,34,11,24,263,27,30,19,168,28*71
$GPGSV,3,3,10,20,11,313,35,12,03,034,*7A
$GPRMC,193039.000,A,3352.4661,N,09831.1852,W,0.02,202.40,310312,,,A*76
$GPGGA,193040.000,3352.4661,N,09831.1852,W,1,09,0.9,285.0,M,-23.7,M,18.8,0000*75
$GPGSA,A,3,25,11,31,14,01,22,32,30,20,,,,1.8,0.9,1.6*34
$GPRMC,193040.000,A,3352.4661,N,09831.1852,W,0.04,145.34,310312,,,A*7D
$GPGGA,193041.000,3352.4661,N,09831.1852,W,1,09,0.9,284.9,M,-23.7,M,18.8,0000*7C
$GPGSA,A,3,25,11,31,14,01,22,32,30,20,,,,1.8,0.9,1.6*34
$GPRMC,193041.000,A,3352.4661,N,09831.1852,W,0.02,170.57,310312,,,A*79
$GPGGA,193042.000,3352.4661,N,09831.1851,W,1,09,0.9,284.9,M,-23.7,M,18.8,0000*7C
$GPGSA,A,3,25,11,31,14,01,22,32,30,20,,,,1.8,0.9,1.6*34
$GPRMC,193042.000,A,3352.4661,N,09831.1851,W,0.06,99.44,310312,,,A*49
$GPGGA,193043.000,3352.4661,N,09831.1851,W,1,09,0.9,284.9,M,-23.7,M,18.8,0000*7D
$GPGSA,A,3,25,11,31,14,01,22,32,30,20,,,,1.8,0.9,1.6*34
$GPRMC,193043.000,A,3352.4661,N,09831.1851,W,0.09,91.94,310312,,,A*42
$GPGGA,193044.000,3352.4661,N,09831.1851,W,1,09,0.9,284.9,M,-23.7,M,18.8,0000*7A
$GPGSA,A,3,25,11,31,14,01,22,32,30,20,,,,1.8,0.9,1.6*34
$GPGSV,3,1,10,31,87,212,29,14,45,048,40,22,40,129,36,32,38,316,31*76
$GPGSV,3,2,10,01,31,289,24,25,26,066,34,11,24,263,28,30,19,168,28*7E
$GPGSV,3,3,10,20,11,313,35,12,03,034,*7A
$GPRMC,193044.000,A,3352.4661,N,09831.1851,W,0.04,127.90,310312,,,A*70
$GPGGA,193045.000,3352.4661,N,09831.1851,W,1,09,0.9,284.8,M,-23.7,M,18.8,0000*7A
$GPGSA,A,3,25,11,31,14,01,22,32,30,20,,,,1.8,0.9,1.6*34
$GPRMC,193045.000,A,3352.4661,N,09831.1851,W,0.08,91.52,310312,,,A*4F
$GPGGA,193046.000,3352.4661,N,09831.1851,W,1,09,0.9,284.8,M,-23.7,M,18.8,0000*79
$GPGSA,A,3,25,11,31,14,01,22,32,30,20,,,,1.8,0.9,1.6*34
$GPRMC,193046.000,A,3352.4661,N,09831.1851,W,0.04,73.37,310312,,,A*4F
$GPGGA,193047.000,3352.4661,N,09831.1851,W,1,09,0.9,284.8,M,-23.7,M,18.8,0000*78
$GPGSA,A,3,25,11,31,14,01,22,32,30,20,,,,1.8,0.9,1.6*34
$GPRMC,193047.000,A,3352.4661,N,09831.1851,W,0.04,165.37,310312,,,A*78
$GPGGA,193048.000,3352.4662,N,09831.1851,W,1,09,0.9,284.8,M,-23.7,M,18.8,0000*74
$GPGSA,A,3,25,11,31,14,01,22,32,30,20,,,,1.8,0.9,1.6*34
$GPRMC,193048.000,A,3352.4662,N,09831.1851,W,0.02,57.81,310312,,,A*4F
$GPGGA,193049.000,3352.4662,N,09831.1851,W,1,09,0.9,284.8,M,-23.7,M,18.8,0000*75
$GPGSA,A,3,25,11,31,14,01,22,32,30,20,,,,1.8,0.9,1.6*34
$GPGSV,3,1,10,31,87,212,28,14,45,048,40,22,40,129,36,32,38,316,32*74
$GPGSV,3,2,10,01,31,289,24,25,26,066,34,11,24,263,28,30,19,168,29*7F
$GPGSV,3,3,10,20,11,313,35,12,03,034,*7A
$GPRMC,193049.000,A,3352.4662,N,09831.1851,W,0.03,86.79,310312,,,A*44
$GPGGA,193050.000,3352.4662,N,09831.1851,W,1,09,0.9,284.8,M,-23.7,M,18.8,0000*7D
$GPGSA,A,3,25,11,31,14,01,22,32,30,20,,,,1.8,0.9,1.6*34
$GPRMC,193050.000,A,3352.4662,N,09831.1851,W,0.05,109.16,310312,,,A*75
$GPGGA,193051.000,3352.4662,N,09831.1851,W,1,09,0.9,284.8,M,-23.7,M,18.8,0000*7C
$GPGSA,A,3,25,11,31,14,01,22,32,30,20,,,,1.8,0.9,1.6*34
$GPRMC,193051.000,A,3352.4662,N,09831.1851,W,0.02,82.80,310312,,,A*4E
$GPGGA,193052.000,3352.4662,N,09831.1851,W,1,09,0.9,284.8,M,-23.7,M,18.8,0000*7F
$GPGSA,A,3,25,11,31,14,01,22,32,30,20,,,,1.8,0.9,1.6*34
$GPRMC,193052.000,A,3352.4662,N,09831.1851,W,0.03,115.24,310312,,,A*7D
$GPGGA,193053.000,3352.4662,N,09831.1851,W,1,09,0.9,284.8,M,-23.7,M,18.8,0000*7E
$GPGSA,A,3,25,11,31,14,01,22,32,30,20,,,,1.8,0.9,1.6*34
$GPRMC,193053.000,A,3352.4662,N,09831.1851,W,0.03,161.92,310312,,,A*72
$GPGGA,193054.000,3352.4663,N,09831.1851,W,1,09,0.9,284.8,M,-23.7,M,18.8,0000*78
$GPGSA,A,3,25,11,31,14,01,22,32,30,20,,,,1.8,0.9,1.6*34
$GPGSV,3,1,10,31,87,212,28,14,45,048,40,22,40,129,36,32,38,316,32*74
$GPGSV,3,2,10,01,31,289,24,25,26,066,34,11,24,263,28,30,19,168,29*7F
$GPGSV,3,3,10,20,11,313,35,12,03,034,*7A
$GPRMC,193054.000,A,3352.4663,N,09831.1851,W,0.04,85.43,310312,,,A*44
$GPGGA,193055.000,3352.4663,N,09831.1850,W,1,09,0.9,284.8,M,-23.7,M,18.8,0000*78
$GPGSA,A,3,25,11,31,14,01,22,32,30,20,,,,1.8,0.9,1.6*34
$GPRMC,193055.000,A,3352.4663,N,09831.1850,W,0.03,64.52,310312,,,A*4C
$GPGGA,193056.000,3352.4663,N,09831.1850,W,1,09,0.9,284.8,M,-23.7,M,18.8,0000*7B
$GPGSA,A,3,25,11,31,14,01,22,32,30,20,,,,1.8,0.9,1.6*34
$GPRMC,193056.000,A,3352.4663,N,09831.1850,W,0.04,133.12,310312,,,A*7F
$GPGGA,193057.000,3352.4663,N,09831.1850,W,1,09,0.9,284.8,M,-23.7,M,18.8,0000*7A
$GPGSA,A,3,25,11,31,14,01,22,32,30,20,,,,1.8,0.9,1.6*34
$GPRMC,193057.000,A,3352.4663,N,09831.1850,W,0.04,130.13,310312,,,A*7C
$GPGGA,193058.000,3352.4663,N,09831.1850,W,1,09,0.9,284.9,M,-23.7,M,18.8,0000*74
$GPGSA,A,3,25,11,31,14,01,22,32,30,20,,,,1.8,0.9,1.6*34
$GPRMC,193058.000,A,3352.4663,N,09831.1850,W,0.02,115.94,310312,,,A*7D
$GPGGA,193059.000,3352.4663,N,09831.1850,W,1,09,0.9,284.9,M,-23.7,M,18.8,0000*75
$GPGSA,A,3,25,11,31,14,01,22,32,30,20,,,,1.8,0.9,1.6*34
$GPGSV,3,1,10,31,87,212,28,14,45,048,40,22,40,129,36,32,38,316,32*74
$GPGSV,3,2,10,01,31,289,25,25,26,066,34,11,24,263,28,30,19,168,29*7E
$GPGSV,3,3,10,20,11,313,36,12,03,034,*79
$GPRMC,193059.000,A,3352.4663,N,09831.1850,W,0.03,116.05,310312,,,A*76
$GPGGA,193100.000,3352.4664,N,09831.1850,W,1,09,0.9,284.9,M,-23.7,M,18.8,0000*7F
$GPGSA,A,3,25,11,31,14,01,22,32,30,20,,,,1.8,0.9,1.6*34
$GPRMC,193100.000,A,3352.4664,N,09831.1850,W,0.03,36.51,310312,,,A*4E
$GPGGA,193101.000,3352.4664,N,09831.1850,W,1,09,0.9,285.0,M,-23.7,M,18.8,0000*76
$GPGSA,A,3,25,11,31,14,01,22,32,30,20,,,,1.8,0.9,1.6*34
$GPRMC,193101.000,A,3352.4664,N,09831.1850,W,0.04,147.38,310312,,,A*70
$GPGGA,193102.000,3352.4664,N,09831.1850,W,1,09,0.9,285.0,M,-23.7,M,18.8,0000*75
$GPGSA,A,3,25,11,31,14,01,22,32,30,20,,,,1.8,0.9,1.6*34
$GPRMC,193102.000,A,3352.4664,N,09831.1850,W,0.03,108.35,310312,,,A*72
$GPGGA,193103.000,3352.4664,N,09831.1850,W,1,09,0.9,285.0,M,-23.7,M,18.8,0000*74
$GPGSA,A,3,25,11,31,14,01,22,32,30,20,,,,1.8,0.9,1.6*34
$GPRMC,193103.000,A,3352.4664,N,09831.1850,W,0.02,91.95,310312,,,A*49
$GPGGA,193104.000,3352.4664,N,09831.1850,W,1,09,0.9,285.1,M,-23.7,M,18.8,0000*72
$GPGSA,A,3,25,11,31,14,01,22,32,30,20,,,,1.8,0.9,1.6*34
$GPGSV,3,1,10,31,87,212,29,14,45,048,40,22,40,129,36,32,38,316,32*75
$GPGSV,3,2,10,01,31,289,25,25,26,066,34,11,24,263,28,30,19,168,29*7E
$GPGSV,3,3,10,20,11,313,36,12,03,034,*79
$GPRMC,193104.000,A,3352.4664,N,09831.1850,W,0.03,103.19,310312,,,A*71
$GPGGA,193105.000,3352.4664,N,09831.1850,W,1,09,0.9,285.1,M,-23.7,M,18.8,0000*73
$GPGSA,A,3,25,11,31,14,01,22,32,30,20,,,,1.8,0.9,1.6*34
$GPRMC,193105.000,A,3352.4664,N,09831.1850,W,0.03,111.57,310312,,,A*79
$GPGGA,193106.000,3352.4665,N,09831.1850,W,1,09,0.9,285.2,M,-23.7,M,18.8,0000*72
$GPGSA,A,3,25,11,31,14,01,22,32,30,20,,,,1.8,0.9,1.6*34
$GPRMC,193106.000,A,3352.4665,N,09831.1850,W,0.06,95.90,310312,,,A*48
$GPGGA,193107.000,3352.4665,N,09831.1850,W,1,09,0.9,285.2,M,-23.7,M,18.8,0000*73
$GPGSA,A,3,25,11,31,14,01,22,32,30,20,,,,1.8,0.9,1.6*34
$GPRMC,193107.000,A,3352.4665,N,09831.1850,W,0.01,225.27,310312,,,A*7B
$GPGGA,193108.000,3352.4665,N,09831.1850,W,1,09,0.9,285.3,M,-23.7,M,18.8,0000*7D
$GPGSA,A,3,25,11,31,14,01,22,32,30,20,,,,1.8,0.9,1.6*34
$GPRMC,193108.000,A,3352.4665,N,09831.1850,W,0.03,112.92,310312,,,A*7F
$GPGGA,193109.000,3352.4665,N,09831.1850,W,1,09,0.9,285.3,M,-23.7,M,18.8,0000*7C
$GPGSA,A,3,25,11,31,14,01,22,32,30,20,,,,1.8,0.9,1.6*34
$GPGSV,3,1,10,31,87,212,30,14,45,048,40,22,40,129,36,32,38,316,31*7E
$GPGSV,3,2,10,01,31,289,25,25,26,066,34,11,24,263,27,30,19,168,29*71
$GPGSV,3,3,10,20,11,313,36,12,03,034,*79
$GPRMC,193109.000,A,3352.4665,N,09831.1850,W,0.04,115.57,310312,,,A*77
$GPGGA,193110.000,3352.4665,N,09831.1850,W,1,09,0.9,285.3,M,-23.7,M,18.8,0000*74
$GPGSA,A,3,25,11,31,14,01,22,32,30,20,,,,1.8,0.9,1.6*34
$GPRMC,193110.000,A,3352.4665,N,09831.1850,W,0.02,70.68,310312,,,A*47
$GPGGA,193111.000,3352.4666,N,09831.1849,W,1,09,0.9,285.4,M,-23.7,M,18.8,0000*79
$GPGSA,A,3,25,11,31,14,01,22,32,30,20,,,,1.8,0.9,1.6*34
$GPRMC,193111.000,A,3352.4666,N,09831.1849,W,0.09,87.96,310312,,,A*4F
$GPGGA,193112.000,3352.4666,N,09831.1849,W,1,09,0.9,285.4,M,-23.7,M,18.8,0000*7A
$GPGSA,A,3,25,11,31,14,01,22,32,30,20,,,,1.8,0.9,1.6*34
$GPRMC,193112.000,A,3352.4666,N,09831.1849,W,0.10,104.22,310312,,,A*71
$GPGGA,193113.000,3352.4666,N,09831.1849,W,1,09,0.9,285.4,M,-23.7,M,18.8,0000*7B
$GPGSA,A,3,25,11,31,14,01,22,32,30,20,,,,1.8,0.9,1.6*34
$GPRMC,193113.000,A,3352.4666,N,09831.1849,W,0.03,154.44,310312,,,A*77
$GPGGA,193114.000,3352.4666,N,09831.1849,W,1,09,0.9,285.4,M,-23.7,M,18.8,0000*7C
$GPGSA,A,3,25,11,31,14,01,22,32,30,20,,,,1.8,0.9,1.6*34
$GPGSV,3,1,10,31,87,212,30,14,45,048,40,22,40,129,36,32,38,316,31*7E
$GPGSV,3,2,10,01,31,289,24,25,26,066,34,11,24,263,27,30,19,168,29*70
$GPGSV,3,3,10,20,11,313,36,12,03,034,*79
$GPRMC,193114.000,A,3352.4666,N,09831.1849,W,0.04,257.57,310312,,,A*75
$GPGGA,193115.000,3352.4666,N,09831.1849,W,1,09,0.9,285.4,M,-23.7,M,18.8,0000*7D
$GPGSA,A,3,25,11,31,14,01,22,32,30,20,,,,1.8,0.9,1.6*34
$GPRMC,193115.000,A,3352.4666,N,09831.1849,W,0.07,103.24,310312,,,A*71
$GPGGA,193116.000,3352.4666,N,09831.1848,W,1,09,0.9,285.4,M,-23.7,M,18.8,0000*7F
$GPGSA,A,3,25,11,31,14,01,22,32,30,20,,,,1.8,0.9,1.6*34
$GPRMC,193116.000,A,3352.4666,N,09831.1848,W,0.00,143.34,310312,,,A*71
$GPGGA,193117.000,3352.4666,N,09831.1848,W,1,09,0.9,285.4,M,-23.7,M,18.8,0000*7E
$GPGSA,A,3,25,11,31,14,01,22,32,30,20,,,,1.8,0.9,1.6*34
$GPRMC,193117.000,A,3352.4666,N,09831.1848,W,0.04,214.76,310312,,,A*73
$GPGGA,193118.000,3352.4666,N,09831.1848,W,1,09,0.9,285.4,M,-23.7,M,18.8,0000*71
$GPGSA,A,3,25,11,31,14,01,22,32,30,20,,,,1.8,0.9,1.6*34
$GPRMC,193118.000,A,3352.4666,N,09831.1848,W,0.02,223.71,310312,,,A*79
$GPGGA,193119.000,3352.4667,N,09831.1848,W,1,09,0.9,285.3,M,-23.7,M,18.8,0000*76
$GPGSA,A,3,25,11,31,14,01,22,32,30,20,,,,1.8,0.9,1.6*34
$GPGSV,3,1,10,31,87,212,30,14,45,048,40,22,40,129,36,32,38,316,31*7E
$GPGSV,3,2,10,01,31,289,23,25,26,066,34,11,24,263,27,30,19,168,29*77
$GPGSV,3,3,10,20,11,313,36,12,03,034,*79
$GPRMC,193119.000,A,3352.4667,N,09831.1848,W,0.10,94.74,310312,,,A*41
$GPGGA,193120.000,3352.4667,N,09831.1848,W,1,09,0.9,285.3,M,-23.7,M,18.8,0000*7C
$GPGSA,A,3,25,11,31,14,01,22,32,30,20,,,,1.8,0.9,1.6*34
$GPRMC,193120.000,A,3352.4667,N,09831.1848,W,0.09,99.57,310312,,,A*4F
$GPGGA,193121.000,3352.4667,N,09831.1847,W,1,09,0.9,285.3,M,-23.7,M,18.8,0000*72
$GPGSA,A,3,25,11,31,14,01,22,32,30,20,,,,1.8,0.9,1.6*34
$GPRMC,193121.000,A,3352.4667,N,09831.1847,W,0.10,86.02,310312,,,A*47
$GPGGA,193122.000,3352.4667,N,09831.1847,W,1,09,0.9,285.2,M,-23.7,M,18.8,0000*70
$GPGSA,A,3,25,11,31,14,01,22,32,30,20,,,,1.8,0.9,1.6*34
$GPRMC,193122.000,A,3352.4667,N,09831.1847,W,0.04,173.36,310312,,,A*7D
$GPGGA,193123.000,3352.4667,N,09831.1847,W,1,09,0.9,285.2,M,-23.7,M,18.8,0000*71
$GPGSA,A,3,25,11,31,14,01,22,32,30,20,,,,1.8,0.9,1.6*34
$GPRMC,193123.000,A,3352.4667,N,09831.1847,W,0.03,228.78,310312,,,A*7C
$GPGGA,193124.000,3352.4667,N,09831.1847,W,1,09,0.9,285.2,M,-23.7,M,18.8,0000*76
$GPGSA,A,3,25,11,31,14,01,22,32,30,20,,,,1.8,0.9,1.6*34
$GPGSV,3,1,10,31,87,212,30,14,45,048,40,22,40,129,36,32,38,316,31*7E
$GPGSV,3,2,10,01,31,289,22,25,26,066,34,11,24,263,27,30,19,168,30*7E
$GPGSV,3,3,10,20,11,313,36,12,03,034,*79
$GPRMC,193124.000,A,3352.4667,N,09831.1847,W,0.02,265.33,310312,,,A*7C
$GPGGA,193125.000,3352.4667,N,09831.1846,W,1,09,0.9,285.2,M,-23.7,M,18.8,0000*76
$GPGSA,A,3,25,11,31,14,01,22,32,30,20,,,,1.8,0.9,1.6*34
$GPRMC,193125.000,A,3352.4667,N,09831.1846,W,0.09,92.29,310312,,,A*46
$GPGGA,193126.000,3352.4667,N,09831.1846,W,1,09,0.9,285.1,M,-23.7,M,18.8,0000*76
$GPGSA,A,3,25,11,31,14,01,22,32,30,20,,,,1.8,0.9,1.6*34
$GPRMC,193126.000,A,3352.4667,N,09831.1846,W,0.07,101.10,310312,,,A*7A
$GPGGA,193127.000,3352.4667,N,09831.1846,W,1,09,0.9,285.1,M,-23.7,M,18.8,0000*77
$GPGSA,A,3,25,11,31,14,01,22,32,30,20,,,,1.8,0.9,1.6*34
$GPRMC,193127.000,A,3352.4667,N,09831.1846,W,0.04,184.13,310312,,,A*76
$GPGGA,193128.000,3352.4667,N,09831.1846,W,1,09,0.9,285.1,M,-23.7,M,18.8,0000*78
$GPGSA,A,3,25,11,31,14,01,22,32,30,20,,,,1.8,0.9,1.6*34
$GPRMC,193128.000,A,3352.4667,N,09831.1846,W,0.03,267.90,310312,,,A*7B
$GPGGA,193129.000,3352.4667,N,09831.1846,W,1,09,0.9,285.0,M,-23.7,M,18.8,0000*78
$GPGSA,A,3,25,11,31,14,01,22,32,30,20,,,,1.8,0.9,1.6*34
$GPGSV,3,1,11,31,87,212,30,14,45,048,40,22,40,129,36,32,38,316,31*7F
$GPGSV,3,2,11,01,31,289,22,25,26,066,34,11,24,263,28,30,19,168,30*70
$GPGSV,3,3,11,20,11,313,36,12,03,034,,51,49,195,32*4D
$GPRMC,193129.000,A,3352.4667,N,09831.1846,W,0.05,122.44,310312,,,A*77
$GPGGA,193130.000,3352.4668,N,09831.1845,W,1,09,0.9,285.0,M,-23.7,M,18.8,0000*7C
$GPGSA,A,3,25,11,31,14,01,22,32,30,20,,,,1.8,0.9,1.6*34
$GPRMC,193130.000,A,3352.4668,N,09831.1845,W,0.10,98.07,310312,,,A*40
$GPGGA,193131.000,3352.4668,N,09831.1845,W,1,09,0.9,285.0,M,-23.7,M,18.8,0000*7D
$GPGSA,A,3,25,11,31,14,01,22,32,30,20,,,,1.8,0.9,1.6*34
$GPRMC,193131.000,A,3352.4668,N,09831.1845,W,0.09,102.89,310312,,,A*7D
$GPGGA,193132.000,3352.4668,N,09831.1845,W,1,09,0.9,284.9,M,-23.7,M,18.8,0000*76
$GPGSA,A,3,25,11,31,14,01,22,32,30,20,,,,1.8,0.9,1.6*34
$GPRMC,193132.000,A,3352.4668,N,09831.1845,W,0.03,145.88,310312,,,A*76
$GPGGA,193133.000,3352.4668,N,09831.1845,W,1,09,0.9,284.9,M,-23.7,M,18.8,0000*77
$GPGSA,A,3,25,11,31,14,01,22,32,30,20,,,,1.8,0.9,1.6*34
$GPRMC,193133.000,A,3352.4668,N,09831.1845,W,0.03,182.63,310312,,,A*79
$GPGGA,193134.000,3352.4668,N,09831.1844,W,1,09,0.9,284.8,M,-23.7,M,18.8,0000*70
$GPGSA,A,3,25,11,31,14,01,22,32,30,20,,,,1.8,0.9,1.6*34
$GPGSV,3,1,11,31,87,212,30,14,45,048,40,22,40,129,36,32,38,316,31*7F
$GPGSV,3,2,11,01,31,289,22,25,26,066,34,11,24,263,28,30,19,168,30*70
$GPGSV,3,3,11,20,11,313,37,12,03,034,,51,49,195,29*46
$GPRMC,193134.000,A,3352.4668,N,09831.1844,W,0.08,118.40,310312,,,A*76
$GPGGA,193135.000,3352.4668,N,09831.1844,W,1,09,0.9,284.8,M,-23.7,M,18.8,0000*71
$GPGSA,A,3,25,11,31,14,01,22,32,30,20,,,,1.8,0.9,1.6*34
$GPRMC,193135.000,A,3352.4668,N,09831.1844,W,0.01,183.95,310312,,,A*74
$GPGGA,193136.000,3352.4668,N,09831.1844,W,1,09,0.9,284.7,M,-23.7,M,18.8,0000*7D
$GPGSA,A,3,25,11,31,14,01,22,32,30,20,,,,1.8,0.9,1.6*34
$GPRMC,193136.000,A,3352.4668,N,09831.1844,W,0.05,203.98,310312,,,A*75
$GPGGA,193137.000,3352.4668,N,09831.1844,W,1,09,0.9,284.7,M,-23.7,M,18.8,0000*7C
$GPGSA,A,3,25,11,31,14,01,22,32,30,20,,,,1.8,0.9,1.6*34
$GPRMC,193137.000,A,3352.4668,N,09831.1844,W,0.01,104.14,310312,,,A*70
$GPGGA,193138.000,3352.4668,N,09831.1844,W,1,09,0.9,284.7,M,-23.7,M,18.8,0000*73
$GPGSA,A,3,25,11,31,14,01,22,32,30,20,,,,1.8,0.9,1.6*34
$GPRMC,193138.000,A,3352.4668,N,09831.1844,W,0.08,103.51,310312,,,A*70
$GPGGA,193139.000,3352.4668,N,09831.1843,W,1,09,0.9,284.6,M,-23.7,M,18.8,0000*74
$GPGSA,A,3,25,11,31,14,01,22,32,30,20,,,,1.8,0.9,1.6*34
$GPGSV,3,1,11,31,87,212,30,14,45,048,40,22,40,129,36,32,38,316,32*7C
$GPGSV,3,2,11,01,31,289,22,25,26,066,35,11,24,263,29,30,19,168,30*70
$GPGSV,3,3,11,20,11,313,37,12,03,034,,51,49,195,29*46
$GPRMC,193139.000,A,3352.4668,N,09831.1843,W,0.07,109.46,310312,,,A*75
$GPGGA,193140.000,3352.4668,N,09831.1843,W,1,09,0.9,284.6,M,-23.7,M,18.8,0000*7A
$GPGSA,A,3,25,11,31,14,01,22,32,30,20,,,,1.8,0.9,1.6*34
$GPRMC,193140.000,A,3352.4668,N,09831.1843,W,0.10,111.65,310312,,,A*75
$GPGGA,193141.000,3352.4668,N,09831.1843,W,1,09,0.9,284.5,M,-23.7,M,18.8,0000*78
$GPGSA,A,3,25,11,31,14,01,22,32,30,20,,,,1.8,0.9,1.6*34
$GPRMC,193141.000,A,3352.4668,N,09831.1843,W,0.09,105.59,310312,,,A*76
$GPGGA,193142.000,3352.4668,N,09831.1842,W,1,09,0.9,284.5,M,-23.7,M,18.8,0000*7A
$GPGSA,A,3,25,11,31,14,01,22,32,30,20,,,,1.8,0.9,1.6*34
$GPRMC,193142.000,A,3352.4668,N,09831.1842,W,0.10,96.41,310312,,,A*4E
$GPGGA,193143.000,3352.4668,N,09831.1842,W,1,09,0.9,284.5,M,-23.7,M,18.8,0000*7B
$GPGSA,A,3,25,11,31,14,01,22,32,30,20,,,,1.8,0.9,1.6*34
$GPRMC,193143.000,A,3352.4668,N,09831.1842,W,0.07,93.84,310312,,,A*45
$GPGGA,193144.000,3352.4668,N,09831.1842,W,1,09,0.9,284.4,M,-23.7,M,18.8,0000*7D
$GPGSA,A,3,25,11,31,14,01,22,32,30,20,,,,1.8,0.9,1.6*34
$GPGSV,3,1,11,31,87,212,30,14,45,048,40,22,40,129,35,32,38,316,32*7F
$GPGSV,3,2,11,01,31,289,23,25,26,066,35,11,24,263,28,30,19,168,29*78
$GPGSV,3,3,11,20,11,313,37,12,03,034,,51,49,195,29*46
$GPRMC,193144.000,A,3352.4668,N,09831.1842,W,0.03,136.88,310312,,,A*74
$GPGGA,193145.000,3352.4668,N,09831.1841,W,1,09,0.9,284.4,M,-23.7,M,18.8,0000*7F
$GPGSA,A,3,25,11,31,14,01,22,32,30,20,,,,1.8,0.9,1.6*34
$GPRMC,193145.000,A,3352.4668,N,09831.1841,W,0.06,102.02,310312,,,A*76
$GPGGA,193146.000,3352.4668,N,09831.1841,W,1,09,0.9,284.4,M,-23.7,M,18.8,0000*7C
$GPGSA,A,3,25,11,31,14,01,22,32,30,20,,,,1.8,0.9,1.6*34
$GPRMC,193146.000,A,3352.4668,N,09831.1841,W,0.02,182.50,310312,,,A*7E
$GPGGA,193147.000,3352.4668,N,09831.1841,W,1,09,0.9,284.4,M,-23.7,M,18.8,0000*7D
$GPGSA,A,3,25,11,31,14,01,22,32,30,20,,,,1.8,0.9,1.6*34
$GPRMC,193147.000,A,3352.4668,N,09831.1841,W,0.04,212.55,310312,,,A*76
$GPGGA,193148.000,3352.4668,N,09831.1841,W,1,09,0.9,284.4,M,-23.7,M,18.8,0000*72
$GPGSA,A,3,25,11,31,14,01,22,32,30,20,,,,1.8,0.9,1.6*34
$GPRMC,193148.000,A,3352.4668,N,09831.1841,W,0.04,113.84,310312,,,A*77
$GPGGA,193149.000,3352.4668,N,09831.1841,W,1,09,0.9,284.4,M,-23.7,M,18.8,0000*73
$GPGSA,A,3,25,11,31,14,01,22,32,30,20,,,,1.8,0.9,1.6*34
$GPGSV,3,1,11,31,87,212,30,14,45,048,40,22,40,129,35,32,38,316,32*7F
$GPGSV,3,2,11,01,31,289,23,25,26,066,35,11,24,263,28,30,19,168,29*78
$GPGSV,3,3,11,20,11,313,37,12,03,034,,48,36,230,28*4B
$GPRMC,193149.000,A,3352.4668,N,09831.1841,W,0.04,212.79,310312,,,A*76
$GPGGA,193150.000,3352.4668,N,09831.1841,W,1,09,0.9,284.4,M,-23.7,M,18.8,0000*7B
$GPGSA,A,3,25,11,31,14,01,22,32,30,20,,,,1.8,0.9,1.6*34
$GPRMC,193150.000,A,3352.4668,N,09831.1841,W,0.03,206.35,310312,,,A*74
$GPGGA,193151.000,3352.4668,N,09831.1841,W,1,09,0.9,284.4,M,-23.7,M,18.8,0000*7A
$GPGSA,A,3,25,11,31,14,01,22,32,30,20,,,,1.8,0.9,1.6*34
$GPRMC,193151.000,A,3352.4668,N,09831.1841,W,0.08,100.98,310312,,,A*7C
$GPGGA,193152.000,3352.4668,N,09831.1841,W,1,09,0.9,284.4,M,-23.7,M,18.8,0000*79
$GPGSA,A,3,25,11,31,14,01,22,32,30,20,,,,1.8,0.9,1.6*34
$GPRMC,193152.000,A,3352.4668,N,09831.1841,W,0.01,140.06,310312,,,A*75
$GPGGA,193153.000,3352.4668,N,09831.1841,W,1,09,0.9,284.5,M,-23.7,M,18.8,0000*79
$GPGSA,A,3,25,11,31,14,01,22,32,30,20,,,,1.8,0.9,1.6*34
$GPRMC,193153.000,A,3352.4668,N,09831.1841,W,0.04,230.70,310312,,,A*74
$GPGGA,193154.000,3352.4668,N,09831.1841,W,1,09,0.9,284.5,M,-23.7,M,18.8,0000*7E
$GPGSA,A,3,25,11,31,14,01,22,32,30,20,,,,1.8,0.9,1.6*34
$GPGSV,3,1,11,31,87,212,29,14,45,048,41,22,40,129,35,32,38,316,32*76
$GPGSV,3,2,11,01,31,289,23,25,26,066,35,11,24,263,28,30,19,168,29*78
$GPGSV,3,3,11,20,11,313,36,12,03,034,,48,36,230,28*4A
$GPRMC,193154.000,A,3352.4668,N,09831.1841,W,0.01,8.95,310312,,,A*74
$GPGGA,193155.000,3352.4668,N,09831.1841,W,1,09,0.9,284.5,M,-23.7,M,18.8,0000*7F
$GPGSA,A,3,25,11,31,14,01,22,32,30,20,,,,1.8,0.9,1.6*34
$GPRMC,193155.000,A,3352.4668,N,09831.1841,W,0.09,98.57,310312,,,A*4A
$GPGGA,193156.000,3352.4668,N,09831.1841,W,1,09,0.9,284.5,M,-23.7,M,18.8,0000*7C
$GPGSA,A,3,25,11,31,14,01,22,32,30,20,,,,1.8,0.9,1.6*34
$GPRMC,193156.000,A,3352.4668,N,09831.1841,W,0.02,109.12,310312,,,A*7A
$GPGGA,193157.000,3352.4668,N,09831.1841,W,1,09,0.9,284.5,M,-23.7,M,18.8,0000*7D
$GPGSA,A,3,25,11,31,14,01,22,32,30,20,,,,1.8,0.9,1.6*34
$GPRMC,193157.000,A,3352.4668,N,09831.1841,W,0.02,149.09,310312,,,A*75
$GPGGA,193158.000,3352.4668,N,09831.1841,W,1,09,0.9,284.5,M,-23.7,M,18.8,0000*72
$GPGSA,A,3,25,11,31,14,01,22,32,30,20,,,,1.8,0.9,1.6*34
$GPRMC,193158.000,A,3352.4668,N,09831.1841,W,0.03,122.34,310312,,,A*78
$GPGGA,193159.000,3352.4668,N,09831.1840,W,1,09,0.9,284.6,M,-23.7,M,18.8,0000*71
$GPGSA,A,3,25,11,31,14,01,22,32,30,20,,,,1.8,0.9,1.6*34
$GPGSV,3,1,10,31,87,212,30,14,45,048,41,22,40,129,35,32,38,316,32*7F
$GPGSV,3,2,10,01,31,289,22,25,26,066,36,11,24,263,28,30,19,168,29*7B
$GPGSV,3,3,10,20,11,313,36,12,03,034,*79
$GPRMC,193159.000,A,3352.4668,N,09831.1840,W,0.09,103.96,310312,,,A*79
$GPGGA,193200.000,3352.4668,N,09831.1840,W,1,09,0.9,284.6,M,-23.7,M,18.8,0000*7E
$GPGSA,A,3,25,11,31,14,01,22,32,30,20,,,,1.8,0.9,1.6*34
$GPRMC,193200.000,A,3352.4668,N,09831.1840,W,0.04,122.63,310312,,,A*72
$GPGGA,193201.000,3352.4668,N,09831.1840,W,1,09,0.9,284.6,M,-23.7,M,18.8,0000*7F
$GPGSA,A,3,25,11,31,14,01,22,32,30,20,,,,1.8,0.9,1.6*34
$GPRMC,193201.000,A,3352.4668,N,09831.1840,W,0.04,201.66,310312,,,A*74
$GPGGA,193202.000,3352.4668,N,09831.1840,W,1,09,0.9,284.6,M,-23.7,M,18.8,0000*7C
$GPGSA,A,3,25,11,31,14,01,22,32,30,20,,,,1.8,0.9,1.6*34
$GPRMC,193202.000,A,3352.4668,N,09831.1840,W,0.07,114.44,310312,,,A*73
$GPGGA,193203.000,3352.4668,N,09831.1840,W,1,09,0.9,284.6,M,-23.7,M,18.8,0000*7D
$GPGSA,A,3,25,11,31,14,01,22,32,30,20,,,,1.8,0.9,1.6*34
$GPRMC,193203.000,A,3352.4668,N,09831.1840,W,0.09,96.01,310312,,,A*46
$GPGGA,193204.000,3352.4668,N,09831.1840,W,1,09,0.9,284.6,M,-23.7,M,18.8,0000*7A
$GPGSA,A,3,25,11,31,14,01,22,32,30,20,,,,1.8,0.9,1.6*34
$GPGSV,3,1,10,31,87,212,31,14,45,048,41,22,40,129,35,32,38,316,32*7E
$GPGSV,3,2,10,01,31,289,22,25,26,066,36,11,24,263,29,30,19,168,28*7B
$GPGSV,3,3,10,20,11,313,36,12,03,034,*79
$GPRMC,193204.000,A,3352.4668,N,09831.1840,W,0.07,107.96,310312,,,A*78
$GPGGA,193205.000,3352.4668,N,09831.1840,W,1,09,0.9,284.6,M,-23.7,M,18.8,0000*7B
$GPGSA,A,3,25,11,31,14,01,22,32,30,20,,,,1.8,0.9,1.6*34
$GPRMC,193205.000,A,3352.4668,N,09831.1840,W,0.10,98.41,310312,,,A*42
$GPGGA,193206.000,3352.4668,N,09831.1839,W,1,09,0.9,284.6,M,-23.7,M,18.8,0000*76
$GPGSA,A,3,25,11,31,14,01,22,32,30,20,,,,1.8,0.9,1.6*34
$GPRMC,193206.000,A,3352.4668,N,09831.1839,W,0.08,103.00,310312,,,A*70
$GPGGA,193207.000,3352.4668,N,09831.1840,W,1,09,0.9,284.6,M,-23.7,M,18.8,0000*79
$GPGSA,A,3,25,11,31,14,01,22,32,30,20,,,,1.8,0.9,1.6*34
$GPRMC,193207.000,A,3352.4668,N,09831.1840,W,0.03,202.03,310312,,,A*75
$GPGGA,193208.000,3352.4668,N,09831.1839,W,1,09,0.9,284.6,M,-23.7,M,18.8,0000*78
$GPGSA,A,3,25,11,31,14,01,22,32,30,20,,,,1.8,0.9,1.6*34
$GPRMC,193208.000,A,3352.4668,N,09831.1839,W,0.08,102.85,310312,,,A*72
$GPGGA,193209.000,3352.4668,N,09831.1839,W,1,09,0.9,284.6,M,-23.7,M,18.8,0000*79
$GPGSA,A,3,25,11,31,14,01,22,32,30,20,,,,1.8,0.9,1.6*34
$GPGSV,3,1,10,31,87,212,31,14,45,048,41,22,40,129,36,32,38,316,33*7C
$GPGSV,3,2,10,01,31,289,21,25,26,066,36,11,24,263,29,30,19,168,29*79
$GPGSV,3,3,10,20,11,313,36,12,03,034,*79
$GPRMC,193209.000,A,3352.4668,N,09831.1839,W,0.11,91.75,310312,,,A*4F
$GPGGA,193210.000,3352.4668,N,09831.1839,W,1,09,0.9,284.6,M,-23.7,M,18.8,0000*71
$GPGSA,A,3,25,11,31,14,01,22,32,30,20,,,,1.8,0.9,1.6*34
$GPRMC,193210.000,A,3352.4668,N,09831.1839,W,0.06,108.60,310312,,,A*74
$GPGGA,193211.000,3352.4668,N,09831.1839,W,1,09,0.9,284.6,M,-23.7,M,18.8,0000*70
$GPGSA,A,3,25,11,31,14,01,22,32,30,20,,,,1.8,0.9,1.6*34
$GPRMC,193211.000,A,3352.4668,N,09831.1839,W,0.08,119.16,310312,,,A*7A
$GPGGA,193212.000,3352.4668,N,09831.1839,W,1,09,0.9,284.6,M,-23.7,M,18.8,0000*73
$GPGSA,A,3,25,11,31,14,01,22,32,30,20,,,,1.8,0.9,1.6*34
$GPRMC,193212.000,A,3352.4668,N,09831.1839,W,0.09,102.51,310312,,,A*71
$GPGGA,193213.000,3352.4668,N,09831.1839,W,1,09,0.9,284.6,M,-23.7,M,18.8,0000*72
$GPGSA,A,3,25,11,31,14,01,22,32,30,20,,,,1.8,0.9,1.6*34
$GPRMC,193213.000,A,3352.4668,N,09831.1839,W,0.10,98.03,310312,,,A*4D
$GPGGA,193214.000,3352.4668,N,09831.1839,W,1,09,0.9,284.6,M,-23.7,M,18.8,0000*75
$GPGSA,A,3,25,11,31,14,01,22,32,30,20,,,,1.8,0.9,1.6*34
$GPGSV,3,1,10,31,87,212,30,14,45,048,41,22,40,129,36,32,38,316,33*7D
$GPGSV,3,2,10,01,31,289,22,25,26,066,36,11,24,263,29,30,19,168,29*7A
$GPGSV,3,3,10,20,11,313,36,12,03,034,*79
$GPRMC,193214.000,A,3352.4668,N,09831.1839,W,0.02,156.79,310312,,,A*77
$GPGGA,193215.000,3352.4668,N,09831.1839,W,1,09,0.9,284.6,M,-23.7,M,18.8,0000*74
$GPGSA,A,3,25,11,31,14,01,22,32,30,20,,,,1.8,0.9,1.6*34
$GPRMC,193215.000,A,3352.4668,N,09831.1839,W,0.03,196.50,310312,,,A*70
$GPGGA,193216.000,3352.4668,N,09831.1839,W,1,09,0.9,284.7,M,-23.7,M,18.8,0000*76
$GPGSA,A,3,25,11,31,14,01,22,32,30,20,,,,1.8,0.9,1.6*34
$GPRMC,193216.000,A,3352.4668,N,09831.1839,W,0.07,104.07,310312,,,A*7E
$GPGGA,193217.000,3352.4668,N,09831.1839,W,1,09,0.9,284.7,M,-23.7,M,18.8,0000*77
$GPGSA,A,3,25,11,31,14,01,22,32,30,20,,,,1.8,0.9,1.6*34
$GPRMC,193217.000,A,3352.4668,N,09831.1839,W,0.00,128.61,310312,,,A*76
$GPGGA,193218.000,3352.4668,N,09831.1839,W,1,09,0.9,284.7,M,-23.7,M,18.8,0000*78
$GPGSA,A,3,25,11,31,14,01,22,32,30,20,,,,1.8,0.9,1.6*34
$GPRMC,193218.000,A,3352.4668,N,09831.1839,W,0.02,182.38,310312,,,A*77
$GPGGA,193219.000,3352.4668,N,09831.1839,W,1,09,0.9,284.7,M,-23.7,M,18.8,0000*79
$GPGSA,A,3,25,11,31,14,01,22,32,30,20,,,,1.8,0.9,1.6*34
$GPGSV,3,1,10,31,87,212,30,14,45,048,41,22,40,129,36,32,38,316,33*7D
$GPGSV,3,2,10,01,31,289,22,25,26,066,36,11,24,263,29,30,19,168,29*7A
$GPGSV,3,3,10,20,11,313,36,12,03,034,*79
$GPRMC,193219.000,A,3352.4668,N,09831.1839,W,0.02,158.13,310312,,,A*78
$GPGGA,193220.000,3352.4668,N,09831.1839,W,1,09,0.9,284.7,M,-23.7,M,18.8,0000*73
$GPGSA,A,3,25,11,31,14,01,22,32,30,20,,,,1.8,0.9,1.6*34
$GPRMC,193220.000,A,3352.4668,N,09831.1839,W,0.04,188.26,310312,,,A*7F
$GPGGA,193221.000,3352.4668,N,09831.1840,W,1,09,0.9,284.8,M,-23.7,M,18.8,0000*73
$GPGSA,A,3,25,11,31,14,01,22,32,30,20,,,,1.8,0.9,1.6*34
$GPRMC,193221.000,A,3352.4668,N,09831.1840,W,0.03,249.61,310312,,,A*7A
$GPGGA,193222.000,3352.4668,N,09831.1840,W,1,09,0.9,284.8,M,-23.7,M,18.8,0000*70
$GPGSA,A,3,25,11,31,14,01,22,32,30,20,,,,1.8,0.9,1.6*34
$GPRMC,193222.000,A,3352.4668,N,09831.1840,W,0.07,120.65,310312,,,A*75
$GPGGA,193223.000,3352.4668,N,09831.1840,W,1,09,0.9,284.8,M,-23.7,M,18.8,0000*71
$GPGSA,A,3,25,11,31,14,01,22,32,30,20,,,,1.8,0.9,1.6*34
$GPRMC,193223.000,A,3352.4668,N,09831.1840,W,0.04,113.56,310312,,,A*77
$GPGGA,193224.000,3352.4668,N,09831.1839,W,1,09,0.9,284.9,M,-23.7,M,18.8,0000*79
$GPGSA,A,3,25,11,31,14,01,22,32,30,20,,,,1.8,0.9,1.6*34
$GPGSV,3,1,10,31,87,212,30,14,45,048,41,22,40,129,36,32,38,316,33*7D
$GPGSV,3,2,10,01,31,289,23,25,26,066,36,11,24,263,29,30,19,168,28*7A
$GPGSV,3,3,10,20,11,313,36,12,03,034,*79
$GPRMC,193224.000,A,3352.4668,N,09831.1839,W,0.06,84.49,310312,,,A*4D
$GPGGA,193225.000,3352.4668,N,09831.1839,W,1,09,0.9,284.9,M,-23.7,M,18.8,0000*78
$GPGSA,A,3,25,11,31,14,01,22,32,30,20,,,,1.8,0.9,1.6*34
$GPRMC,193225.000,A,3352.4668,N,09831.1839,W,0.09,117.65,310312,,,A*76
$GPGGA,193226.000,3352.4668,N,09831.1839,W,1,09,0.9,284.9,M,-23.7,M,18.8,0000*7B
$GPGSA,A,3,25,11,31,14,01,22,32,30,20,,,,1.8,0.9,1.6*34
$GPRMC,193226.000,A,3352.4668,N,09831.1839,W,0.04,138.80,310312,,,A*7E
$GPGGA,193227.000,3352.4668,N,09831.1839,W,1,09,0.9,284.9,M,-23.7,M,18.8,0000*7A
$GPGSA,A,3,25,11,31,14,01,22,32,30,20,,,,1.8,0.9,1.6*34
$GPRMC,193227.000,A,3352.4668,N,09831.1839,W,0.06,134.45,310312,,,A*78
$GPGGA,193228.000,3352.4668,N,09831.1839,W,1,09,0.9,285.0,M,-23.7,M,18.8,0000*7D
$GPGSA,A,3,25,11,31,14,01,22,32,30,20,,,,1.8,0.9,1.6*34
$GPRMC,193228.000,A,3352.4668,N,09831.1839,W,0.02,113.33,310312,,,A*77
$GPGGA,193229.000,3352.4668,N,09831.1839,W,1,09,0.9,285.0,M,-23.7,M,18.8,0000*7C
$GPGSA,A,3,25,11,31,14,01,22,32,30,20,,,,1.8,0.9,1.6*34
$GPGSV,3,1,10,31,87,212,30,14,45,048,41,22,40,129,36,32,38,316,33*7D
$GPGSV,3,2,10,01,31,289,24,25,26,066,36,11,24,263,29,30,19,168,28*7D
$GPGSV,3,3,10,20,11,313,36,12,03,034,*79
$GPRMC,193229.000,A,3352.4668,N,09831.1839,W,0.05,124.93,310312,,,A*7F
$GPGGA,193230.000,3352.4668,N,09831.1839,W,1,09,0.9,285.0,M,-23.7,M,18.8,0000*74
$GPGSA,A,3,25,11,31,14,01,22,32,30,20,,,,1.8,0.9,1.6*34
$GPRMC,193230.000,A,3352.4668,N,09831.1839,W,0.05,138.15,310312,,,A*74
$GPGGA,193231.000,3352.4668,N,09831.1839,W,1,09,0.9,285.0,M,-23.7,M,18.8,0000*75
$GPGSA,A,3,25,11,31,14,01,22,32,30,20,,,,1.8,0.9,1.6*34
$GPRMC,193231.000,A,3352.4668,N,09831.1839,W,0.06,153.56,310312,,,A*7C
$GPGGA,193232.000,3352.4668,N,09831.1839,W,1,09,0.9,285.0,M,-23.7,M,18.8,0000*76
$GPGSA,A,3,25,11,31,14,01,22,32,30,20,,,,1.8,0.9,1.6*34
$GPRMC,193232.000,A,3352.4668,N,09831.1839,W,0.06,155.19,310312,,,A*72
$GPGGA,193233.000,3352.4668,N,09831.1839,W,1,09,0.9,285.0,M,-23.7,M,18.8,0000*77
$GPGSA,A,3,25,11,31,14,01,22,32,30,20,,,,1.8,0.9,1.6*34
$GPRMC,193233.000,A,3352.4668,N,09831.1839,W,0.05,145.72,310312,,,A*7C
$GPGGA,193234.000,3352.4668,N,09831.1839,W,1,09,0.9,285.0,M,-23.7,M,18.8,0000*70
$GPGSA,A,3,25,11,31,14,01,22,32,30,20,,,,1.8,0.9,1.6*34
$GPGSV,3,1,10,31,87,212,30,14,45,048,41,22,40,129,36,32,38,316,33*7D
$GPGSV,3,2,10,01,31,289,24,25,26,066,36,11,24,263,29,30,19,168,28*7D
$GPGSV,3,3,10,20,11,313,36,12,03,034,*79
$GPRMC,193234.000,A,3352.4668,N,09831.1839,W,0.05,148.67,310312,,,A*72
$GPGGA,193235.000,3352.4668,N,09831.1839,W,1,09,0.9,285.0,M,-23.7,M,18.8,0000*71
$GPGSA,A,3,25,11,31,14,01,22,32,30,20,,,,1.8,0.9,1.6*34
$GPRMC,193235.000,A,3352.4668,N,09831.1839,W,0.05,163.64,310312,,,A*79
$GPGGA,193236.000,3352.4667,N,09831.1839,W,1,09,0.9,285.0,M,-23.7,M,18.8,0000*7D
$GPGSA,A,3,25,11,31,14,01,22,32,30,20,,,,1.8,0.9,1.6*34
$GPRMC,193236.000,A,3352.4667,N,09831.1839,W,0.06,144.66,310312,,,A*71
$GPGGA,193237.000,3352.4667,N,09831.1839,W,1,09,0.9,285.0,M,-23.7,M,18.8,0000*7C
$GPGSA,A,3,25,11,31,14,01,22,32,30,20,,,,1.8,0.9,1.6*34
$GPRMC,193237.000,A,3352.4667,N,09831.1839,W,0.06,141.41,310312,,,A*70
$GPGGA,193238.000,3352.4667,N,09831.1839,W,1,09,0.9,285.0,M,-23.7,M,18.8,0000*73
$GPGSA,A,3,25,11,31,14,01,22,32,30,20,,,,1.8,0.9,1.6*34
$GPRMC,193238.000,A,3352.4667,N,09831.1839,W,0.05,181.78,310312,,,A*7A
$GPGGA,193239.000,3352.4667,N,09831.1839,W,1,09,0.9,285.0,M,-23.7,M,18.8,0000*72
$GPGSA,A,3,25,11,31,14,01,22,32,30,20,,,,1.8,0.9,1.6*34
$GPGSV,3,1,10,31,87,212,30,14,45,048,41,22,40,129,36,32,38,316,33*7D
$GPGSV,3,2,10,01,31,289,24,25,26,066,36,11,24,263,30,30,19,168,28*75
$GPGSV,3,3,10,20,11,313,36,12,03,034,*79
$GPRMC,193239.000,A,3352.4667,N,09831.1839,W,0.06,127.57,310312,,,A*79
$GPGGA,193240.000,3352.4667,N,09831.1839,W,1,09,0.9,285.0,M,-23.7,M,18.8,0000*7C
$GPGSA,A,3,25,11,31,14,01,22,32,30,20,,,,1.8,0.9,1.6*34
$GPRMC,193240.000,A,3352.4667,N,09831.1839,W,0.08,113.87,310312,,,A*73
$GPGGA,193241.000,3352.4667,N,09831.1839,W,1,09,0.9,285.0,M,-23.7,M,18.8,0000*7D
$GPGSA,A,3,25,11,31,14,01,22,32,30,20,,,,1.8,0.9,1.6*34
$GPRMC,193241.000,A,3352.4667,N,09831.1839,W,0.08,133.30,310312,,,A*7C
$GPGGA,193242.000,3352.4667,N,09831.1839,W,1,09,0.9,285.0,M,-23.7,M,18.8,0000*7E
$GPGSA,A,3,25,11,31,14,01,22,32,30,20,,,,1.8,0.9,1.6*34
$GPRMC,193242.000,A,3352.4667,N,09831.1839,W,0.04,162.01,310312,,,A*75
$GPGGA,193243.000,3352.4667,N,09831.1839,W,1,09,0.9,285.0,M,-23.7,M,18.8,0000*7F
$GPGSA,A,3,25,11,31,14,01,22,32,30,20,,,,1.8,0.9,1.6*34
$GPRMC,193243.000,A,3352.4667,N,09831.1839,W,0.06,144.84,310312,,,A*7F
$GPGGA,193244.000,3352.4667,N,09831.1839,W,1,09,0.9,285.0,M,-23.7,M,18.8,0000*78
$GPGSA,A,3,25,11,31,14,01,22,32,30,20,,,,1.8,0.9,1.6*34
$GPGSV,3,1,10,31,87,212,31,14,45,048,41,22,40,129,36,32,38,316,33*7C
$GPGSV,3,2,10,01,31,289,25,25,26,066,36,11,24,263,31,30,19,168,28*75
$GPGSV,3,3,10,20,11,313,36,12,03,034,*79
$GPRMC,193244.000,A,3352.4667,N,09831.1839,W,0.05,129.36,310312,,,A*79
$GPGGA,193245.000,3352.4667,N,09831.1839,W,1,09,0.9,285.0,M,-23.7,M,18.8,0000*79
$GPGSA,A,3,25,11,31,14,01,22,32,30,20,,,,1.8,0.9,1.6*34
$GPRMC,193245.000,A,3352.4667,N,09831.1839,W,0.05,157.95,310312,,,A*78
$GPGGA,193246.000,3352.4667,N,09831.1839,W,1,09,0.9,285.0,M,-23.7,M,18.8,0000*7A
$GPGSA,A,3,25,11,31,14,01,22,32,30,20,,,,1.8,0.9,1.6*34
$GPRMC,193246.000,A,3352.4667,N,09831.1839,W,0.05,132.94,310312,,,A*79
$GPGGA,193247.000,3352.4667,N,09831.1839,W,1,09,0.9,285.0,M,-23.7,M,18.8,0000*7B
$GPGSA,A,3,25,11,31,14,01,22,32,30,20,,,,1.8,0.9,1.6*34
$GPRMC,193247.000,A,3352.4667,N,09831.1839,W,0.05,148.08,310312,,,A*70
$GPGGA,193248.000,3352.4667,N,09831.1839,W,1,09,0.9,285.1,M,-23.7,M,18.8,0000*75
$GPGSA,A,3,25,11,31,14,01,22,32,30,20,,,,1.8,0.9,1.6*34
$GPRMC,193248.000,A,3352.4667,N,09831.1839,W,0.04,144.96,310312,,,A*75
$GPGGA,193249.000,3352.4667,N,09831.1839,W,1,09,0.9,285.1,M,-23.7,M,18.8,0000*74
$GPGSA,A,3,25,11,31,14,01,22,32,30,20,,,,1.8,0.9,1.6*34
$GPGSV,3,1,10,31,87,212,31,14,45,048,41,22,40,129,36,32,38,316,33*7C
$GPGSV,3,2,10,01,31,289,25,25,26,066,37,11,24,263,31,30,19,168,27*7B
$GPGSV,3,3,10,20,11,313,36,12,03,034,*79
$GPRMC,193249.000,A,3352.4667,N,09831.1839,W,0.06,153.05,310312,,,A*7A
$GPGGA,193250.000,3352.4667,N,09831.1839,W,1,09,0.9,285.1,M,-23.7,M,18.8,0000*7C
$GPGSA,A,3,25,11,31,14,01,22,32,30,20,,,,1.8,0.9,1.6*34
$GPRMC,193250.000,A,3352.4667,N,09831.1839,W,0.05,158.47,310312,,,A*7C
$GPGGA,193251.000,3352.4667,N,09831.1839,W,1,09,0.9,285.1,M,-23.7,M,18.8,0000*7D
$GPGSA,A,3,25,11,31,14,01,22,32,30,20,,,,1.8,0.9,1.6*34
$GPRMC,193251.000,A,3352.4667,N,09831.1839,W,0.06,149.56,310312,,,A*7E
$GPGGA,193252.000,3352.4667,N,09831.1839,W,1,09,0.9,285.1,M,-23.7,M,18.8,0000*7E
$GPGSA,A,3,25,11,31,14,01,22,32,30,20,,,,1.8,0.9,1.6*34
$GPRMC,193252.000,A,3352.4667,N,09831.1839,W,0.05,134.29,310312,,,A*7C
$GPGGA,193253.000,3352.4667,N,09831.1839,W,1,09,0.9,285.1,M,-23.7,M,18.8,0000*7F
$GPGSA,A,3,25,11,31,14,01,22,32,30,20,,,,1.8,0.9,1.6*34
$GPRMC,193253.000,A,3352.4667,N,09831.1839,W,0.04,150.59,310312,,,A*79
$GPGGA,193254.000,3352.4667,N,09831.1839,W,1,09,0.9,285.1,M,-23.7,M,18.8,0000*78
$GPGSA,A,3,25,11,31,14,01,22,32,30,20,,,,1.8,0.9,1.6*34
$GPGSV,3,1,10,31,87,212,31,14,45,048,41,22,40,129,36,32,38,316,32*7D
$GPGSV,3,2,10,01,31,289,25,25,26,066,37,11,24,263,32,30,19,168,27*78
$GPGSV,3,3,10,20,11,313,36,12,03,034,*79
$GPRMC,193254.000,A,3352.4667,N,09831.1839,W,0.05,144.96,310312,,,A*79
$GPGGA,193255.000,3352.4667,N,09831.1839,W,1,09,0.9,285.1,M,-23.7,M,18.8,0000*79
$GPGSA,A,3,25,11,31,14,01,22,32,30,20,,,,1.8,0.9,1.6*34
$GPRMC,193255.000,A,3352.4667,N,09831.1839,W,0.05,157.36,310312,,,A*70
$GPGGA,193256.000,3352.4667,N,09831.1839,W,1,09,0.9,285.1,M,-23.7,M,18.8,0000*7A
$GPGSA,A,3,25,11,31,14,01,22,32,30,20,,,,1.8,0.9,1.6*34
$GPRMC,193256.000,A,3352.4667,N,09831.1839,W,0.05,137.44,310312,,,A*70
$GPGGA,193257.000,3352.4667,N,09831.1839,W,1,09,0.9,285.1,M,-23.7,M,18.8,0000*7B
$GPGSA,A,3,25,11,31,14,01,22,32,30,20,,,,1.8,0.9,1.6*34
$GPRMC,193257.000,A,3352.4667,N,09831.1839,W,0.04,138.59,310312,,,A*73
$GPGGA,193258.000,3352.4667,N,09831.1839,W,1,09,0.9,285.1,M,-23.7,M,18.8,0000*74
$GPGSA,A,3,25,11,31,14,01,22,32,30,20,,,,1.8,0.9,1.6*34
$GPRMC,193258.000,A,3352.4667,N,09831.1839,W,0.06,150.49,310312,,,A*71
$GPGGA,193259.000,3352.4666,N,09831.1839,W,1,09,0.9,285.1,M,-23.7,M,18.8,0000*74
$GPGSA,A,3,25,11,31,14,01,22,32,30,20,,,,1.8,0.9,1.6*34
$GPGSV,3,1,11,31,87,212,31,14,45,048,41,22,40,129,35,32,38,316,32*7F
$GPGSV,3,2,11,01,31,289,25,25,26,066,37,11,24,263,32,30,19,168,27*79
$GPGSV,3,3,11,20,11,313,36,12,03,034,,51,49,195,31*4E
$GPRMC,193259.000,A,3352.4666,N,09831.1839,W,0.05,153.10,310312,,,A*7D
$GPGGA,193300.000,3352.4666,N,09831.1839,W,1,09,0.9,285.1,M,-23.7,M,18.8,0000*79
$GPGSA,A,3,25,11,31,14,01,22,32,30,20,,,,1.8,0.9,1.6*34
$GPRMC,193300.000,A,3352.4666,N,09831.1839,W,0.05,152.86,310312,,,A*7E
$GPGGA,193301.000,3352.4666,N,09831.1839,W,1,09,0.9,285.1,M,-23.7,M,18.8,0000*78
$GPGSA,A,3,25,11,31,14,01,22,32,30,20,,,,1.8,0.9,1.6*34
$GPRMC,193301.000,A,3352.4666,N,09831.1839,W,0.04,124.03,310312,,,A*72
$GPGGA,193302.000,3352.4666,N,09831.1839,W,1,09,0.9,285.1,M,-23.7,M,18.8,0000*7B
$GPGSA,A,3,25,11,31,14,01,22,32,30,20,,,,1.8,0.9,1.6*34
$GPRMC,193302.000,A,3352.4666,N,09831.1839,W,0.05,153.34,310312,,,A*74
$GPGGA,193303.000,3352.4666,N,09831.1840,W,1,09,0.9,285.1,M,-23.7,M,18.8,0000*74
$GPGSA,A,3,25,11,31,14,01,22,32,30,20,,,,1.8,0.9,1.6*34
$GPRMC,193303.000,A,3352.4666,N,09831.1840,W,0.06,148.35,310312,,,A*73
$GPGGA,193304.000,3352.4666,N,09831.1839,W,1,09,0.9,285.1,M,-23.7,M,18.8,0000*7D
$GPGSA,A,3,25,11,31,14,01,22,32,30,20,,,,1.8,0.9,1.6*34
$GPGSV,3,1,11,31,87,212,32,14,45,048,41,22,40,129,35,32,38,316,32*7C
$GPGSV,3,2,11,01,31,289,25,25,26,066,37,11,24,263,32,30,19,168,27*79
$GPGSV,3,3,11,20,11,313,36,12,03,034,,51,49,195,29*47
$GPRMC,193304.000,A,3352.4666,N,09831.1839,W,0.08,125.53,310312,,,A*7F
$GPGGA,193305.000,3352.4666,N,09831.1839,W,1,09,0.9,285.1,M,-23.7,M,18.8,0000*7C
$GPGSA,A,3,25,11,31,14,01,22,32,30,20,,,,1.8,0.9,1.6*34
$GPRMC,193305.000,A,3352.4666,N,09831.1839,W,0.08,116.81,310312,,,A*71
$GPGGA,193306.000,3352.4666,N,09831.1839,W,1,09,0.9,285.2,M,-23.7,M,18.8,0000*7C
$GPGSA,A,3,25,11,31,14,01,22,32,30,20,,,,1.8,0.9,1.6*34
$GPRMC,193306.000,A,3352.4666,N,09831.1839,W,0.09,110.93,310312,,,A*76
$GPGGA,193307.000,3352.4666,N,09831.1839,W,1,09,0.9,285.2,M,-23.7,M,18.8,0000*7D
$GPGSA,A,3,25,11,31,14,01,22,32,30,20,,,,1.8,0.9,1.6*34
$GPRMC,193307.000,A,3352.4666,N,09831.1839,W,0.05,148.57,310312,,,A*7E
$GPGGA,193308.000,3352.4666,N,09831.1839,W,1,09,0.9,285.2,M,-23.7,M,18.8,0000*72
$GPGSA,A,3,25,11,31,14,01,22,32,30,20,,,,1.8,0.9,1.6*34
$GPRMC,193308.000,A,3352.4666,N,09831.1839,W,0.06,137.70,310312,,,A*7F
$GPGGA,193309.000,3352.4666,N,09831.1839,W,1,09,0.9,285.2,M,-23.7,M,18.8,0000*73
$GPGSA,A,3,25,11,31,14,01,22,32,30,20,,,,1.8,0.9,1.6*34
$GPGSV,3,1,11,31,87,212,32,14,45,048,41,22,40,129,35,32,38,316,33*7D
$GPGSV,3,2,11,01,31,289,25,25,26,066,37,11,24,263,32,30,19,168,27*79
$GPGSV,3,3,11,20,11,313,36,12,03,034,,51,49,195,29*47
$GPRMC,193309.000,A,3352.4666,N,09831.1839,W,0.06,145.55,310312,,,A*7C
$GPGGA,193310.000,3352.4666,N,09831.1840,W,1,09,0.9,285.2,M,-23.7,M,18.8,0000*75
$GPGSA,A,3,25,11,31,14,01,22,32,30,20,,,,1.8,0.9,1.6*34
$GPRMC,193310.000,A,3352.4666,N,09831.1840,W,0.04,149.13,310312,,,A*76
$GPGGA,193311.000,3352.4666,N,09831.1840,W,1,09,0.9,285.2,M,-23.7,M,18.8,0000*74
$GPGSA,A,3,25,11,31,14,01,22,32,30,20,,,,1.8,0.9,1.6*34
$GPRMC,193311.000,A,3352.4666,N,09831.1840,W,0.06,147.02,310312,,,A*7B
$GPGGA,193312.000,3352.4666,N,09831.1840,W,1,09,0.9,285.3,M,-23.7,M,18.8,0000*76
$GPGSA,A,3,25,11,31,14,01,22,32,30,20,,,,1.8,0.9,1.6*34
$GPRMC,193312.000,A,3352.4666,N,09831.1840,W,0.08,164.09,310312,,,A*7C
$GPGGA,193313.000,3352.4666,N,09831.1840,W,1,09,0.9,285.3,M,-23.7,M,18.8,0000*77
$GPGSA,A,3,25,11,31,14,01,22,32,30,20,,,,1.8,0.9,1.6*34
$GPRMC,193313.000,A,3352.4666,N,09831.1840,W,0.06,150.10,310312,,,A*7C
$GPGGA,193314.000,3352.4666,N,09831.1840,W,1,09,0.9,285.3,M,-23.7,M,18.8,0000*70
$GPGSA,A,3,25,11,31,14,01,22,32,30,20,,,,1.8,0.9,1.6*34
$GPGSV,3,1,11,31,87,212,31,14,45,048,41,22,40,129,35,32,38,316,33*7E
$GPGSV,3,2,11,01,31,289,25,25,26,066,37,11,24,263,32,30,19,168,27*79
$GPGSV,3,3,11,20,11,313,36,12,03,034,,51,49,195,28*46
$GPRMC,193314.000,A,3352.4666,N,09831.1840,W,0.05,135.31,310312,,,A*78
$GPGGA,193315.000,3352.4666,N,09831.1840,W,1,09,0.9,285.3,M,-23.7,M,18.8,0000*71
$GPGSA,A,3,25,11,31,14,01,22,32,30,20,,,,1.8,0.9,1.6*34
$GPRMC,193315.000,A,3352.4666,N,09831.1840,W,0.05,150.07,310312,,,A*7F
$GPGGA,193316.000,3352.4666,N,09831.1840,W,1,09,0.9,285.3,M,-23.7,M,18.8,0000*72
$GPGSA,A,3,25,11,31,14,01,22,32,30,20,,,,1.8,0.9,1.6*34
$GPRMC,193316.000,A,3352.4666,N,09831.1840,W,0.04,139.35,310312,,,A*73
$GPGGA,193317.000,3352.4665,N,09831.1840,W,1,09,0.9,285.4,M,-23.7,M,18.8,0000*77
$GPGSA,A,3,25,11,31,14,01,22,32,30,20,,,,1.8,0.9,1.6*34
$GPRMC,193317.000,A,3352.4665,N,09831.1840,W,0.07,151.17,310312,,,A*7C
$GPGGA,193318.000,3352.4665,N,09831.1840,W,1,09,0.9,285.4,M,-23.7,M,18.8,0000*78
$GPGSA,A,3,25,11,31,14,01,22,32,30,20,,,,1.8,0.9,1.6*34
$GPRMC,193318.000,A,3352.4665,N,09831.1840,W,0.06,133.63,310312,,,A*75
$GPGGA,193319.000,3352.4665,N,09831.1840,W,1,09,0.9,285.4,M,-23.7,M,18.8,0000*79
$GPGSA,A,3,25,11,31,14,01,22,32,30,20,,,,1.8,0.9,1.6*34
$GPGSV,3,1,11,31,87,212,30,14,45,048,41,22,40,129,35,32,38,316,33*7F
$GPGSV,3,2,11,01,31,289,25,25,26,066,37,11,24,263,32,30,19,168,26*78
$GPGSV,3,3,11,20,11,313,36,12,03,034,,48,36,230,29*4B
$GPRMC,193319.000,A,3352.4665,N,09831.1840,W,0.08,131.98,310312,,,A*7C
$GPGGA,193320.000,3352.4665,N,09831.1840,W,1,09,0.9,285.4,M,-23.7,M,18.8,0000*73
$GPGSA,A,3,25,11,31,14,01,22,32,30,20,,,,1.8,0.9,1.6*34
$GPRMC,193320.000,A,3352.4665,N,09831.1840,W,0.05,116.68,310312,,,A*71
$GPGGA,193321.000,3352.4665,N,09831.1840,W,1,09,0.9,285.4,M,-23.7,M,18.8,0000*72
$GPGSA,A,3,25,11,31,14,01,22,32,30,20,,,,1.8,0.9,1.6*34
$GPRMC,193321.000,A,3352.4665,N,09831.1840,W,0.05,146.23,310312,,,A*7A
$GPGGA,193322.000,3352.4665,N,09831.1840,W,1,09,0.9,285.4,M,-23.7,M,18.8,0000*71
$GPGSA,A,3,25,11,31,14,01,22,32,30,20,,,,1.8,0.9,1.6*34
$GPRMC,193322.000,A,3352.4665,N,09831.1840,W,0.05,150.93,310312,,,A*75
$GPGGA,193323.000,3352.4665,N,09831.1840,W,1,09,0.9,285.4,M,-23.7,M,18.8,0000*70
$GPGSA,A,3,25,11,31,14,01,22,32,30,20,,,,1.8,0.9,1.6*34
$GPRMC,193323.000,A,3352.4665,N,09831.1840,W,0.05,154.40,310312,,,A*7E
$GPGGA,193324.000,3352.4665,N,09831.1841,W,1,09,0.9,285.4,M,-23.7,M,18.8,0000*76
$GPGSA,A,3,25,11,31,14,01,22,32,30,20,,,,1.8,0.9,1.6*34
$GPGSV,3,1,11,31,87,212,30,14,45,048,41,22,40,129,36,32,38,316,34*7B
$GPGSV,3,2,11,01,31,289,25,25,26,066,37,11,24,263,32,30,19,168,26*78
$GPGSV,3,3,11,20,11,313,35,12,03,034,,48,36,230,28*49
$GPRMC,193324.000,A,3352.4665,N,09831.1841,W,0.05,136.04,310312,,,A*7C
$GPGGA,193325.000,3352.4665,N,09831.1841,W,1,09,0.9,285.4,M,-23.7,M,18.8,0000*77
$GPGSA,A,3,25,11,31,14,01,22,32,30,20,,,,1.8,0.9,1.6*34
$GPRMC,193325.000,A,3352.4665,N,09831.1841,W,0.06,171.04,310312,,,A*7D
$GPGGA,193326.000,3352.4665,N,09831.1841,W,1,09,0.9,285.4,M,-23.7,M,18.8,0000*74
$GPGSA,A,3,25,11,31,14,01,22,32,30,20,,,,1.8,0.9,1.6*34
$GPRMC,193326.000,A,3352.4665,N,09831.1841,W,0.04,149.73,310312,,,A*77
$GPGGA,193327.000,3352.4665,N,09831.1841,W,1,09,0.9,285.4,M,-23.7,M,18.8,0000*75
$GPGSA,A,3,25,11,31,14,01,22,32,30,20,,,,1.8,0.9,1.6*34
$GPRMC,193327.000,A,3352.4665,N,09831.1841,W,0.06,152.16,310312,,,A*7D
$GPGGA,193328.000,3352.4665,N,09831.1841,W,1,09,0.9,285.4,M,-23.7,M,18.8,0000*7A
$GPGSA,A,3,25,11,31,14,01,22,32,30,20,,,,1.8,0.9,1.6*34
$GPRMC,193328.000,A,3352.4665,N,09831.1841,W,0.06,151.84,310312,,,A*7A
$GPGGA,193329.000,3352.4665,N,09831.1841,W,1,09,0.9,285.4,M,-23.7,M,18.8,0000*7B
$GPGSA,A,3,25,11,31,14,01,22,32,30,20,,,,1.8,0.9,1.6*34
$GPGSV,3,1,11,31,87,212,30,14,45,048,40,22,40,129,36,32,38,316,34*7A
$GPGSV,3,2,11,01,31,289,25,25,26,066,37,11,24,263,32,30,19,168,27*79
$GPGSV,3,3,11,20,11,313,35,12,03,034,,48,36,230,27*46
$GPRMC,193329.000,A,3352.4665,N,09831.1841,W,0.05,152.93,310312,,,A*7D
$GPGGA,193330.000,3352.4665,N,09831.1841,W,1,09,0.9,285.4,M,-23.7,M,18.8,0000*73
$GPGSA,A,3,25,11,31,14,01,22,32,30,20,,,,1.8,0.9,1.6*34
$GPRMC,193330.000,A,3352.4665,N,09831.1841,W,0.05,135.06,310312,,,A*78
$GPGGA,193331.000,3352.4665,N,09831.1841,W,1,09,0.9,285.3,M,-23.7,M,18.8,0000*75
$GPGSA,A,3,25,11,31,14,01,22,32,30,20,,,,1.8,0.9,1.6*34
$GPRMC,193331.000,A,3352.4665,N,09831.1841,W,0.06,144.44,310312,,,A*7A
$GPGGA,193332.000,3352.4665,N,09831.1841,W,1,09,0.9,285.3,M,-23.7,M,18.8,0000*76
$GPGSA,A,3,25,11,31,14,01,22,32,30,20,,,,1.8,0.9,1.6*34
$GPRMC,193332.000,A,3352.4665,N,09831.1841,W,0.05,165.23,310312,,,A*78
$GPGGA,193333.000,3352.4665,N,09831.1841,W,1,09,0.9,285.3,M,-23.7,M,18.8,0000*77
$GPGSA,A,3,25,11,31,14,01,22,32,30,20,,,,1.8,0.9,1.6*34
$GPRMC,193333.000,A,3352.4665,N,09831.1841,W,0.05,154.54,310312,,,A*7B
$GPGGA,193334.000,3352.4665,N,09831.1841,W,1,09,0.9,285.3,M,-23.7,M,18.8,0000*70
$GPGSA,A,3,25,11,31,14,01,22,32,30,20,,,,1.8,0.9,1.6*34
$GPGSV,3,1,11,31,88,234,31,14,44,050,40,32,39,316,34,22,39,130,36*7F
$GPGSV,3,2,11,01,31,288,25,25,26,065,37,11,23,262,32,30,21,168,27*76
$GPGSV,3,3,11,20,12,314,35,12,02,033,,48,36,230,30*42
$GPRMC,193334.000,A,3352.4665,N,09831.1841,W,0.08,124.08,310312,,,A*7F
$GPGGA,193335.000,3352.4665,N,09831.1841,W,1,09,0.9,285.3,M,-23.7,M,18.8,0000*71
$GPGSA,A,3,25,11,31,14,01,22,32,30,20,,,,1.8,0.9,1.6*34
$GPRMC,193335.000,A,3352.4665,N,09831.1841,W,0.05,146.48,310312,,,A*73
$GPGGA,193336.000,3352.4665,N,09831.1841,W,1,09,0.9,285.3,M,-23.7,M,18.8,0000*72
$GPGSA,A,3,25,11,31,14,01,22,32,30,20,,,,1.8,0.9,1.6*34
$GPRMC,193336.000,A,3352.4665,N,09831.1841,W,0.05,139.06,310312,,,A*72
$GPGGA,193337.000,3352.4665,N,09831.1841,W,1,09,0.9,285.3,M,-23.7,M,18.8,0000*73
$GPGSA,A,3,25,11,31,14,01,22,32,30,20,,,,1.8,0.9,1.6*34
$GPRMC,193337.000,A,3352.4665,N,09831.1841,W,0.05,138.09,310312,,,A*7D
