$GPGGA,184055.000,3353.7573,N,09832.0270,W,2,07,1.2,308.4,M,-23.7,M,8.8,0000*4B
$GPGSA,A,3,18,22,31,12,25,11,14,,,,,,2.0,1.2,1.6*3E
$GPRMC,184055.000,A,3353.7573,N,09832.0270,W,0.52,234.57,290312,,,D*7A
$GPGGA,184056.000,3353.7576,N,09832.0270,W,2,07,1.2,308.0,M,-23.7,M,9.8,0000*48
$GPGSA,A,3,18,22,31,12,25,11,14,,,,,,2.0,1.2,1.6*3E
$GPRMC,184056.000,A,3353.7576,N,09832.0270,W,0.07,310.37,290312,,,D*7D
$GPGGA,184057.000,3353.7579,N,09832.0268,W,2,07,1.2,307.9,M,-23.7,M,10.8,0000*71
$GPGSA,A,3,18,22,31,12,25,11,14,,,,,,2.0,1.2,1.6*3E
$GPRMC,184057.000,A,3353.7579,N,09832.0268,W,0.11,347.37,290312,,,D*7F
$GPGGA,184058.000,3353.7583,N,09832.0264,W,2,07,1.2,307.7,M,-23.7,M,11.8,0000*78
$GPGSA,A,3,18,22,31,12,25,11,14,,,,,,2.0,1.2,1.6*3E
$GPGSV,3,1,10,22,62,097,30,14,61,011,34,31,56,192,28,11,25,292,27*7C
$GPGSV,3,2,10,25,22,095,31,01,20,314,,18,20,116,28,32,16,307,*70
$GPGSV,3,3,10,12,11,056,21,19,04,253,*73
$GPRMC,184058.000,A,3353.7583,N,09832.0264,W,0.28,31.31,290312,,,D*47
$GPGGA,184059.000,3353.7585,N,09832.0262,W,2,07,1.2,307.7,M,-23.7,M,12.8,0000*7A
$GPGSA,A,3,18,22,31,12,25,11,14,,,,,,2.0,1.2,1.6*3E
$GPRMC,184059.000,A,3353.7585,N,09832.0262,W,0.10,15.51,290312,,,D*4D
$GPGGA,184100.000,3353.7585,N,09832.0261,W,2,07,1.2,307.9,M,-23.7,M,13.8,0000*7B
$GPGSA,A,3,18,22,31,12,25,11,14,,,,,,2.0,1.2,1.6*3E
$GPRMC,184100.000,A,3353.7585,N,09832.0261,W,0.20,204.89,290312,,,D*77
$GPGGA,184101.000,3353.7584,N,09832.0261,W,2,07,1.2,307.9,M,-23.7,M,14.8,0000*7C
$GPGSA,A,3,18,22,31,12,25,11,14,,,,,,2.0,1.2,1.6*3E
$GPRMC,184101.000,A,3353.7584,N,09832.0261,W,0.17,29.93,290312,,,D*45
$GPGGA,184102.000,3353.7585,N,09832.0259,W,2,07,1.2,307.8,M,-23.7,M,15.8,0000*75
$GPGSA,A,3,18,22,31,12,25,11,14,,,,,,2.0,1.2,1.6*3E
$GPRMC,184102.000,A,3353.7585,N,09832.0259,W,0.23,31.82,290312,,,D*42
$GPGGA,184103.000,3353.7584,N,09832.0259,W,2,07,1.2,308.0,M,-23.7,M,16.8,0000*71
$GPGSA,A,3,18,22,31,12,25,11,14,,,,,,2.0,1.2,1.6*3E
$GPGSV,3,1,10,22,62,097,30,14,61,011,34,31,56,192,23,11,25,292,27*77
$GPGSV,3,2,10,25,22,095,31,01,20,314,,18,20,116,28,32,16,307,*70
$GPGSV,3,3,10,12,11,056,25,19,04,253,*77
$GPRMC,184103.000,A,3353.7584,N,09832.0259,W,0.28,206.02,290312,,,D*77
$GPGGA,184104.000,3353.7584,N,09832.0259,W,2,07,1.2,308.1,M,-23.7,M,17.8,0000*76
$GPGSA,A,3,18,22,31,12,25,11,14,,,,,,2.0,1.2,1.6*3E
$GPRMC,184104.000,A,3353.7584,N,09832.0259,W,0.09,204.59,290312,,,D*7F
$GPGGA,184105.000,3353.7582,N,09832.0261,W,1,07,1.2,308.2,M,-23.7,M,18.8,0000*75
$GPGSA,A,3,18,22,31,12,25,11,14,,,,,,2.0,1.2,1.6*3E
$GPRMC,184105.000,A,3353.7582,N,09832.0261,W,0.62,205.05,290312,,,A*73
$GPGGA,184106.000,3353.7582,N,09832.0260,W,1,07,1.2,308.1,M,-23.7,M,18.8,0000*74
$GPGSA,A,3,18,22,31,12,25,11,14,,,,,,2.0,1.2,1.6*3E
$GPRMC,184106.000,A,3353.7582,N,09832.0260,W,0.22,26.35,290312,,,A*45
$GPGGA,184107.000,3353.7583,N,09832.0260,W,1,07,1.2,308.1,M,-23.7,M,18.8,0000*74
$GPGSA,A,3,18,22,31,12,25,11,14,,,,,,2.0,1.2,1.6*3E
$GPRMC,184107.000,A,3353.7583,N,09832.0260,W,0.37,20.32,290312,,,A*40
$GPGGA,184108.000,3353.7584,N,09832.0260,W,1,07,1.2,307.9,M,-23.7,M,18.8,0000*7B
$GPGSA,A,3,18,22,31,12,25,11,14,,,,,,2.0,1.2,1.6*3E
$GPGSV,3,1,10,22,62,097,29,14,61,011,34,31,56,192,22,11,25,292,27*7E
$GPGSV,3,2,10,25,22,095,31,01,20,314,,18,20,116,28,32,16,307,*70
$GPGSV,3,3,10,12,11,056,25,19,04,253,*77
$GPRMC,184108.000,A,3353.7584,N,09832.0260,W,0.30,11.70,290312,,,A*4B
$GPGGA,184109.000,3353.7584,N,09832.0260,W,1,07,1.2,307.7,M,-23.7,M,18.8,0000*74
$GPGSA,A,3,18,22,31,12,25,11,14,,,,,,2.0,1.2,1.6*3E
$GPRMC,184109.000,A,3353.7584,N,09832.0260,W,0.03,261.87,290312,,,A*77
$GPGGA,184110.000,3353.7583,N,09832.0261,W,1,07,1.2,307.6,M,-23.7,M,18.8,0000*7B
$GPGSA,A,3,18,22,31,12,25,11,14,,,,,,2.0,1.2,1.6*3E
$GPRMC,184110.000,A,3353.7583,N,09832.0261,W,0.30,214.70,290312,,,A*73
$GPGGA,184111.000,3353.7582,N,09832.0262,W,1,06,1.3,307.4,M,-23.7,M,18.8,0000*7A
$GPGSA,A,3,18,31,12,25,11,14,,,,,,,2.3,1.3,1.9*33
$GPRMC,184111.000,A,3353.7582,N,09832.0262,W,0.18,218.33,290312,,,A*71
$GPGGA,184112.000,3353.7581,N,09832.0263,W,1,06,1.5,307.4,M,-23.7,M,18.8,0000*7D
$GPGSA,A,3,18,22,12,25,11,14,,,,,,,2.2,1.5,1.6*39
$GPRMC,184112.000,A,3353.7581,N,09832.0263,W,0.26,207.79,290312,,,A*7D
$GPGGA,184113.000,3353.7580,N,09832.0263,W,1,07,1.2,307.4,M,-23.7,M,26.8,0000*76
$GPGSA,A,3,18,22,31,12,25,11,14,,,,,,2.0,1.2,1.6*3E
$GPGSV,3,1,10,22,62,097,29,14,61,011,35,31,56,192,37,11,25,292,26*7A
$GPGSV,3,2,10,25,22,095,31,01,20,314,,18,20,116,32,32,16,307,*7B
$GPGSV,3,3,10,12,11,056,23,19,04,253,15*75
$GPRMC,184113.000,A,3353.7580,N,09832.0263,W,0.09,166.58,290312,,,A*77
$GPGGA,184114.000,3353.7579,N,09832.0263,W,1,07,1.2,307.6,M,-23.7,M,26.8,0000*75
$GPGSA,A,3,18,22,31,12,25,11,14,,,,,,2.0,1.2,1.6*3E
$GPRMC,184114.000,A,3353.7579,N,09832.0263,W,0.19,161.31,290312,,,A*7F
$GPGGA,184115.000,3353.7578,N,09832.0263,W,1,07,1.2,307.9,M,-23.7,M,26.8,0000*7A
$GPGSA,A,3,18,22,31,12,25,11,14,,,,,,2.0,1.2,1.6*3E
$GPRMC,184115.000,A,3353.7578,N,09832.0263,W,0.05,164.08,290312,,,A*7D
$GPGGA,184116.000,3353.7577,N,09832.0263,W,1,07,1.2,308.1,M,-23.7,M,26.8,0000*71
$GPGSA,A,3,18,22,31,12,25,11,14,,,,,,2.0,1.2,1.6*3E
$GPRMC,184116.000,A,3353.7577,N,09832.0263,W,0.17,6.37,290312,,,A*7B
$GPGGA,184117.000,3353.7576,N,09832.0264,W,1,07,1.2,308.2,M,-23.7,M,26.8,0000*75
$GPGSA,A,3,18,22,31,12,25,11,14,,,,,,2.0,1.2,1.6*3E
$GPRMC,184117.000,A,3353.7576,N,09832.0264,W,0.37,269.18,290312,,,A*78
$GPGGA,184118.000,3353.7576,N,09832.0265,W,1,07,1.2,308.3,M,-23.7,M,26.8,0000*7A
$GPGSA,A,3,18,22,31,12,25,11,14,,,,,,2.0,1.2,1.6*3E
$GPGSV,3,1,10,22,62,097,29,14,61,011,32,31,56,192,26,11,25,292,26*7D
$GPGSV,3,2,10,25,22,095,27,01,20,314,,18,20,116,30,32,16,307,*7E
$GPGSV,3,3,10,12,11,056,36,19,04,253,13*77
$GPRMC,184118.000,A,3353.7576,N,09832.0265,W,0.19,327.47,290312,,,A*7B
$GPGGA,184119.000,3353.7575,N,09832.0265,W,1,05,3.1,308.5,M,-23.7,M,26.8,0000*7D
$GPGSA,A,3,18,31,12,25,14,,,,,,,,5.6,3.1,4.6*3B
$GPRMC,184119.000,A,3353.7575,N,09832.0265,W,0.17,75.75,290312,,,A*42
$GPGGA,184120.000,3353.7575,N,09832.0265,W,1,07,1.2,308.5,M,-23.7,M,26.8,0000*74
$GPGSA,A,3,18,22,31,12,25,11,14,,,,,,2.0,1.2,1.6*3E
$GPRMC,184120.000,A,3353.7575,N,09832.0265,W,0.28,21.43,290312,,,A*40
$GPGGA,184121.000,3353.7575,N,09832.0265,W,1,07,1.2,308.6,M,-23.7,M,26.8,0000*76
$GPGSA,A,3,18,22,31,12,25,11,14,,,,,,2.0,1.2,1.6*3E
$GPRMC,184121.000,A,3353.7575,N,09832.0265,W,0.17,326.16,290312,,,A*79
$GPGGA,184122.000,3353.7574,N,09832.0266,W,1,07,1.2,308.7,M,-23.7,M,26.8,0000*76
$GPGSA,A,3,18,22,31,12,25,11,14,,,,,,2.0,1.2,1.6*3E
$GPRMC,184122.000,A,3353.7574,N,09832.0266,W,0.13,336.00,290312,,,A*7A
$GPGGA,184123.000,3353.7574,N,09832.0266,W,1,07,1.2,308.9,M,-23.7,M,26.8,0000*79
$GPGSA,A,3,18,22,31,12,25,11,14,,,,,,2.0,1.2,1.6*3E
$GPGSV,3,1,10,22,62,097,27,14,61,011,29,31,56,192,36,11,25,292,18*75
$GPGSV,3,2,10,25,22,095,36,01,20,314,,18,20,116,30,32,16,307,*7E
$GPGSV,3,3,10,12,11,056,30,19,04,253,15*77
$GPRMC,184123.000,A,3353.7574,N,09832.0266,W,0.17,311.98,290312,,,A*7B
$GPGGA,184124.000,3353.7575,N,09832.0267,W,1,07,1.2,309.2,M,-23.7,M,26.8,0000*74
$GPGSA,A,3,18,22,31,12,25,11,14,,,,,,2.0,1.2,1.6*3E
$GPRMC,184124.000,A,3353.7575,N,09832.0267,W,0.23,323.99,290312,,,A*7B
$GPGGA,184125.000,3353.7574,N,09832.0266,W,1,08,1.2,309.6,M,-23.7,M,38.8,0000*71
$GPGSA,A,3,18,22,31,12,25,11,01,14,,,,,1.9,1.2,1.5*36
$GPRMC,184125.000,A,3353.7574,N,09832.0266,W,0.35,86.73,290312,,,A*45
$GPGGA,184126.000,3353.7573,N,09832.0265,W,1,08,1.2,310.1,M,-23.7,M,38.8,0000*79
$GPGSA,A,3,18,22,31,12,25,11,01,14,,,,,1.9,1.2,1.5*36
$GPRMC,184126.000,A,3353.7573,N,09832.0265,W,0.36,130.90,290312,,,A*70
$GPGGA,184127.000,3353.7572,N,09832.0265,W,1,08,1.2,310.6,M,-23.7,M,38.8,0000*7E
$GPGSA,A,3,18,22,31,12,25,11,01,14,,,,,1.9,1.2,1.5*36
$GPRMC,184127.000,A,3353.7572,N,09832.0265,W,0.47,146.25,290312,,,A*79
$GPGGA,184128.000,3353.7570,N,09832.0264,W,1,08,1.2,311.2,M,-23.7,M,38.8,0000*77
$GPGSA,A,3,18,22,31,12,25,11,01,14,,,,,1.9,1.2,1.5*36
$GPGSV,3,1,10,22,62,097,35,14,61,011,34,31,56,192,31,11,25,292,21*77
$GPGSV,3,2,10,25,22,095,36,01,20,314,17,18,20,116,23,32,16,307,*7A
$GPGSV,3,3,10,12,11,056,32,19,04,253,15*75
$GPRMC,184128.000,A,3353.7570,N,09832.0264,W,0.51,122.53,290312,,,A*71
$GPGGA,184129.000,3353.7568,N,09832.0263,W,1,08,1.2,311.7,M,-23.7,M,38.8,0000*7D
$GPGSA,A,3,18,22,31,12,25,11,01,14,,,,,1.9,1.2,1.5*36
$GPRMC,184129.000,A,3353.7568,N,09832.0263,W,0.51,118.70,290312,,,A*76
$GPGGA,184130.000,3353.7566,N,09832.0262,W,1,08,1.2,312.2,M,-23.7,M,43.8,0000*70
$GPGSA,A,3,18,22,31,12,25,11,01,14,,,,,1.9,1.2,1.5*36
$GPRMC,184130.000,A,3353.7566,N,09832.0262,W,0.48,113.91,290312,,,A*7D
$GPGGA,184131.000,3353.7565,N,09832.0264,W,1,08,1.2,312.6,M,-23.7,M,43.8,0000*70
$GPGSA,A,3,18,22,31,12,25,11,01,14,,,,,1.9,1.2,1.5*36
$GPRMC,184131.000,A,3353.7565,N,09832.0264,W,0.13,324.34,290312,,,A*7E
$GPGGA,184132.000,3353.7564,N,09832.0265,W,1,08,1.2,312.9,M,-23.7,M,43.8,0000*7C
$GPGSA,A,3,18,22,31,12,25,11,01,14,,,,,1.9,1.2,1.5*36
$GPRMC,184132.000,A,3353.7564,N,09832.0265,W,0.14,315.20,290312,,,A*7D
$GPGGA,184133.000,3353.7563,N,09832.0267,W,1,08,1.2,313.3,M,-23.7,M,43.8,0000*73
$GPGSA,A,3,18,22,31,12,25,11,01,14,,,,,1.9,1.2,1.5*36
$GPGSV,3,1,10,22,62,097,35,14,61,011,34,31,56,192,29,11,25,292,21*7E
$GPGSV,3,2,10,25,22,095,35,01,20,314,15,18,20,116,23,32,16,307,11*7B
$GPGSV,3,3,10,12,11,056,33,19,04,253,16*77
$GPRMC,184133.000,A,3353.7563,N,09832.0267,W,0.25,316.52,290312,,,A*7D
$GPGGA,184134.000,3353.7561,N,09832.0268,W,1,08,1.2,313.6,M,-23.7,M,43.8,0000*7C
$GPGSA,A,3,18,22,31,12,25,11,01,14,,,,,1.9,1.2,1.5*36
$GPRMC,184134.000,A,3353.7561,N,09832.0268,W,0.02,181.41,290312,,,A*7C
$GPGGA,184135.000,3353.7559,N,09832.0269,W,1,08,1.2,313.8,M,-23.7,M,43.8,0000*79
$GPGSA,A,3,18,22,31,12,25,11,01,14,,,,,1.9,1.2,1.5*36
$GPRMC,184135.000,A,3353.7559,N,09832.0269,W,0.42,132.71,290312,,,A*78
$GPGGA,184136.000,3353.7556,N,09832.0270,W,1,08,1.2,313.9,M,-23.7,M,43.8,0000*7C
$GPGSA,A,3,18,22,31,12,25,11,01,14,,,,,1.9,1.2,1.5*36
$GPRMC,184136.000,A,3353.7556,N,09832.0270,W,0.26,131.71,290312,,,A*7D
$GPGGA,184137.000,3353.7554,N,09832.0270,W,1,07,1.2,314.0,M,-23.7,M,43.8,0000*7E
$GPGSA,A,3,18,22,31,12,25,11,14,,,,,,2.0,1.2,1.6*3E
$GPRMC,184137.000,A,3353.7554,N,09832.0270,W,0.42,131.72,290312,,,A*7F
$GPGGA,184138.000,3353.7551,N,09832.0271,W,1,07,1.2,314.2,M,-23.7,M,43.8,0000*77
$GPGSA,A,3,18,22,31,12,25,11,14,,,,,,2.0,1.2,1.6*3E
$GPGSV,3,1,10,22,62,097,34,14,61,011,34,31,56,192,29,11,25,292,20*7E
$GPGSV,3,2,10,25,22,095,34,01,20,314,,18,20,116,22,32,16,307,11*7F
$GPGSV,3,3,10,12,11,056,33,19,04,253,16*77
$GPRMC,184138.000,A,3353.7551,N,09832.0271,W,0.33,111.93,290312,,,A*7F
$GPGGA,184139.000,3353.7549,N,09832.0272,W,1,07,1.2,314.3,M,-23.7,M,43.8,0000*7D
$GPGSA,A,3,18,22,31,12,25,11,14,,,,,,2.0,1.2,1.6*3E
$GPRMC,184139.000,A,3353.7549,N,09832.0272,W,0.17,70.71,290312,,,A*48
$GPGGA,184140.000,3353.7547,N,09832.0272,W,1,07,1.2,314.6,M,-23.7,M,43.8,0000*78
$GPGSA,A,3,18,22,31,12,25,11,14,,,,,,2.0,1.2,1.6*3E
$GPRMC,184140.000,A,3353.7547,N,09832.0272,W,0.64,119.55,290312,,,A*74
$GPGGA,184141.000,3353.7544,N,09832.0272,W,1,07,1.2,314.7,M,-23.7,M,43.8,0000*7B
$GPGSA,A,3,18,22,31,12,25,11,14,,,,,,2.0,1.2,1.6*3E
$GPRMC,184141.000,A,3353.7544,N,09832.0272,W,0.47,121.91,290312,,,A*74
$GPGGA,184142.000,3353.7542,N,09832.0273,W,1,07,1.2,314.8,M,-23.7,M,43.8,0000*70
$GPGSA,A,3,18,22,31,12,25,11,14,,,,,,2.0,1.2,1.6*3E
$GPRMC,184142.000,A,3353.7542,N,09832.0273,W,0.20,149.51,290312,,,A*73
$GPGGA,184143.000,3353.7540,N,09832.0276,W,1,07,1.2,314.9,M,-23.7,M,43.8,0000*77
$GPGSA,A,3,18,22,31,12,25,11,14,,,,,,2.0,1.2,1.6*3E
$GPGSV,3,1,10,22,62,097,34,14,61,011,35,31,56,192,29,11,25,292,20*7F
$GPGSV,3,2,10,25,22,095,34,01,20,314,,18,20,116,22,32,16,307,12*7C
$GPGSV,3,3,10,12,11,056,34,19,04,253,15*73
$GPRMC,184143.000,A,3353.7540,N,09832.0276,W,0.22,293.19,290312,,,A*7F
$GPGGA,184144.000,3353.7539,N,09832.0279,W,1,07,1.2,314.9,M,-23.7,M,43.8,0000*71
$GPGSA,A,3,18,22,31,12,25,11,14,,,,,,2.0,1.2,1.6*3E
$GPRMC,184144.000,A,3353.7539,N,09832.0279,W,0.59,304.77,290312,,,A*72
$GPGGA,184145.000,3353.7538,N,09832.0281,W,1,08,1.2,315.0,M,-23.7,M,43.8,0000*71
$GPGSA,A,3,18,22,31,12,25,11,32,14,,,,,1.8,1.2,1.4*36
$GPRMC,184145.000,A,3353.7538,N,09832.0281,W,0.20,352.57,290312,,,A*7A
$GPGGA,184146.000,3353.7537,N,09832.0282,W,1,08,1.2,315.1,M,-23.7,M,43.8,0000*7F
$GPGSA,A,3,18,22,31,12,25,11,32,14,,,,,1.8,1.2,1.4*36
$GPRMC,184146.000,A,3353.7537,N,09832.0282,W,0.14,43.86,290312,,,A*4D
$GPGGA,184147.000,3353.7536,N,09832.0283,W,1,08,1.2,315.2,M,-23.7,M,43.8,0000*7D
$GPGSA,A,3,18,22,31,12,25,11,32,14,,,,,1.8,1.2,1.4*36
$GPRMC,184147.000,A,3353.7536,N,09832.0283,W,0.02,11.88,290312,,,A*42
$GPGGA,184148.000,3353.7535,N,09832.0284,W,1,08,1.2,315.3,M,-23.7,M,43.8,0000*77
$GPGSA,A,3,18,22,31,12,25,11,32,14,,,,,1.8,1.2,1.4*36
$GPGSV,3,1,10,22,62,097,33,14,61,011,35,31,56,192,28,11,25,292,21*78
$GPGSV,3,2,10,25,22,095,34,01,20,314,,18,20,116,21,32,16,307,12*7F
$GPGSV,3,3,10,12,11,056,34,19,04,253,*77
$GPRMC,184148.000,A,3353.7535,N,09832.0284,W,0.33,18.30,290312,,,A*41
$GPGGA,184149.000,3353.7535,N,09832.0286,W,1,08,1.2,315.3,M,-23.7,M,43.8,0000*74
$GPGSA,A,3,18,22,31,12,25,11,32,14,,,,,1.8,1.2,1.4*36
$GPRMC,184149.000,A,3353.7535,N,09832.0286,W,0.49,327.67,290312,,,A*72
$GPGGA,184150.000,3353.7535,N,09832.0289,W,1,08,1.2,315.4,M,-23.7,M,43.8,0000*74
$GPGSA,A,3,18,22,31,12,25,11,32,14,,,,,1.8,1.2,1.4*36
$GPRMC,184150.000,A,3353.7535,N,09832.0289,W,0.62,315.63,290312,,,A*79
$GPGGA,184151.000,3353.7535,N,09832.0292,W,1,08,1.2,315.4,M,-23.7,M,43.8,0000*7F
$GPGSA,A,3,18,22,31,12,25,11,32,14,,,,,1.8,1.2,1.4*36
$GPRMC,184151.000,A,3353.7535,N,09832.0292,W,0.66,293.63,290312,,,A*79
$GPGGA,184152.000,3353.7534,N,09832.0294,W,1,07,1.2,315.4,M,-23.7,M,43.8,0000*74
$GPGSA,A,3,18,22,31,12,25,11,14,,,,,,2.0,1.2,1.6*3E
$GPRMC,184152.000,A,3353.7534,N,09832.0294,W,0.11,260.67,290312,,,A*75
$GPGGA,184153.000,3353.7533,N,09832.0295,W,1,08,1.2,315.4,M,-23.7,M,43.8,0000*7C
$GPGSA,A,3,18,22,31,12,25,11,32,14,,,,,1.8,1.2,1.4*36
$GPGSV,3,1,10,22,62,097,33,14,61,011,35,31,56,192,28,11,25,292,21*78
$GPGSV,3,2,10,25,22,095,34,01,20,314,,18,20,116,21,32,16,307,12*7F
$GPGSV,3,3,10,12,11,056,33,19,04,253,14*75
$GPRMC,184153.000,A,3353.7533,N,09832.0295,W,0.11,15.25,290312,,,A*44
$GPGGA,184154.000,3353.7533,N,09832.0295,W,1,08,1.2,315.5,M,-23.7,M,43.8,0000*7A
$GPGSA,A,3,18,22,31,12,25,11,32,14,,,,,1.8,1.2,1.4*36
$GPRMC,184154.000,A,3353.7533,N,09832.0295,W,0.40,91.03,290312,,,A*4F
$GPGGA,184155.000,3353.7532,N,09832.0294,W,1,08,1.2,315.6,M,-23.7,M,43.8,0000*78
$GPGSA,A,3,18,22,31,12,25,11,32,14,,,,,1.8,1.2,1.4*36
$GPRMC,184155.000,A,3353.7532,N,09832.0294,W,0.47,86.54,290312,,,A*4D
$GPGGA,184156.000,3353.7532,N,09832.0294,W,1,07,1.2,315.7,M,-23.7,M,43.8,0000*75
$GPGSA,A,3,18,22,31,12,25,11,14,,,,,,2.0,1.2,1.6*3E
$GPRMC,184156.000,A,3353.7532,N,09832.0294,W,0.24,11.87,290312,,,A*4B
$GPGGA,184157.000,3353.7532,N,09832.0297,W,1,07,1.2,315.9,M,-23.7,M,43.8,0000*79
$GPGSA,A,3,18,22,31,12,25,11,14,,,,,,2.0,1.2,1.6*3E
$GPRMC,184157.000,A,3353.7532,N,09832.0297,W,0.73,303.48,290312,,,A*78
$GPGGA,184158.000,3353.7532,N,09832.0296,W,1,07,1.2,316.1,M,-23.7,M,43.8,0000*7C
$GPGSA,A,3,18,22,31,12,25,11,14,,,,,,2.0,1.2,1.6*3E
$GPGSV,3,1,11,22,62,097,37,14,61,011,28,31,56,192,41,11,25,292,21*7E
$GPGSV,3,2,11,25,22,095,37,01,20,314,,18,20,116,24,32,16,307,12*78
$GPGSV,3,3,11,12,11,056,27,19,04,253,14,51,49,195,40*41
$GPRMC,184158.000,A,3353.7532,N,09832.0296,W,0.19,48.08,290312,,,A*42
$GPGGA,184159.000,3353.7529,N,09832.0293,W,1,07,1.2,316.5,M,-23.7,M,43.8,0000*76
$GPGSA,A,3,18,22,31,12,25,11,14,,,,,,2.0,1.2,1.6*3E
$GPRMC,184159.000,A,3353.7529,N,09832.0293,W,1.25,128.10,290312,,,A*7C
$GPGGA,184200.000,3353.7526,N,09832.0289,W,1,07,1.2,317.0,M,-23.7,M,43.8,0000*79
$GPGSA,A,3,18,22,31,12,25,11,14,,,,,,2.0,1.2,1.6*3E
$GPRMC,184200.000,A,3353.7526,N,09832.0289,W,1.18,146.07,290312,,,A*77
$GPGGA,184201.000,3353.7523,N,09832.0287,W,1,07,1.2,317.5,M,-23.7,M,43.8,0000*76
$GPGSA,A,3,18,22,31,12,25,11,14,,,,,,2.0,1.2,1.6*3E
$GPRMC,184201.000,A,3353.7523,N,09832.0287,W,0.74,157.96,290312,,,A*7E
$GPGGA,184202.000,3353.7523,N,09832.0285,W,1,07,1.2,317.8,M,-23.7,M,43.8,0000*7A
$GPGSA,A,3,18,22,31,12,25,11,14,,,,,,2.0,1.2,1.6*3E
$GPRMC,184202.000,A,3353.7523,N,09832.0285,W,0.43,44.68,290312,,,A*49
$GPGGA,184203.000,3353.7529,N,09832.0285,W,1,07,1.2,318.2,M,-23.7,M,43.8,0000*74
$GPGSA,A,3,18,22,31,12,25,11,14,,,,,,2.0,1.2,1.6*3E
$GPGSV,3,1,11,22,62,097,32,14,61,011,31,31,56,192,35,11,25,292,27*76
$GPGSV,3,2,11,25,22,095,30,01,20,314,,18,20,116,27,32,16,307,12*7C
$GPGSV,3,3,11,12,11,056,28,19,04,253,15,51,49,195,26*4F
$GPRMC,184203.000,A,3353.7529,N,09832.0285,W,2.56,353.87,290312,,,A*70
$GPGGA,184204.000,3353.7540,N,09832.0286,W,1,07,1.2,318.7,M,-23.7,M,43.8,0000*7A
$GPGSA,A,3,18,22,31,12,25,11,14,,,,,,2.0,1.2,1.6*3E
$GPRMC,184204.000,A,3353.7540,N,09832.0286,W,4.30,353.65,290312,,,A*71
$GPGGA,184205.000,3353.7554,N,09832.0285,W,1,05,2.8,319.1,M,-23.7,M,43.8,0000*71
$GPGSA,A,3,18,22,31,25,14,,,,,,,,4.9,2.8,4.0*38
$GPRMC,184205.000,A,3353.7554,N,09832.0285,W,5.25,0.97,290312,,,A*7B
$GPGGA,184206.000,3353.7567,N,09832.0280,W,1,06,2.2,319.4,M,-23.7,M,43.8,0000*7B
$GPGSA,A,3,18,22,31,12,25,14,,,,,,,3.5,2.2,2.7*3B
$GPRMC,184206.000,A,3353.7567,N,09832.0280,W,5.09,14.59,290312,,,A*44
$GPGGA,184207.000,3353.7577,N,09832.0270,W,1,06,2.2,319.6,M,-23.7,M,43.8,0000*76
$GPGSA,A,3,18,22,31,12,25,14,,,,,,,3.5,2.2,2.7*3B
$GPRMC,184207.000,A,3353.7577,N,09832.0270,W,4.61,35.52,290312,,,A*4C
$GPGGA,184208.000,3353.7581,N,09832.0259,W,1,06,2.2,319.8,M,-23.7,M,43.8,0000*75
$GPGSA,A,3,18,22,31,12,25,14,,,,,,,3.5,2.2,2.7*3B
$GPGSV,3,1,11,22,62,097,34,14,61,011,39,31,56,192,34,11,25,292,*7C
$GPGSV,3,2,11,25,22,095,32,01,20,314,,18,20,116,34,32,16,307,11*7F
$GPGSV,3,3,11,12,11,056,30,19,04,253,19,51,49,195,37*4A
$GPRMC,184208.000,A,3353.7581,N,09832.0259,W,3.51,58.43,290312,,,A*4E
$GPGGA,184209.000,3353.7581,N,09832.0237,W,2,06,2.2,320.9,M,-23.7,M,,0000*65
$GPGSA,A,3,18,22,31,12,25,14,,,,,,,3.5,2.2,2.7*3B
$GPRMC,184209.000,A,3353.7581,N,09832.0237,W,3.61,88.56,290312,,,D*48
$GPGGA,184210.000,3353.7580,N,09832.0222,W,2,06,2.2,321.2,M,-23.7,M,,0000*62
$GPGSA,A,3,18,22,31,12,25,14,,,,,,,3.5,2.2,2.7*3B
$GPRMC,184210.000,A,3353.7580,N,09832.0222,W,4.43,113.38,290312,,,D*79
$GPGGA,184211.000,3353.7574,N,09832.0205,W,2,06,2.2,321.6,M,-23.7,M,1.8,0000*4E
$GPGSA,A,3,18,22,31,12,25,14,,,,,,,3.5,2.2,2.7*3B
$GPRMC,184211.000,A,3353.7574,N,09832.0205,W,5.45,126.91,290312,,,D*74
$GPGGA,184212.000,3353.7560,N,09832.0188,W,2,07,1.2,322.0,M,-23.7,M,2.8,0000*4A
$GPGSA,A,3,18,22,31,12,25,14,11,,,,,,2.0,1.2,1.6*3E
$GPRMC,184212.000,A,3353.7560,N,09832.0188,W,6.65,139.34,290312,,,D*74
$GPGGA,184213.000,3353.7540,N,09832.0186,W,2,07,1.2,320.8,M,-23.7,M,3.8,0000*4C
$GPGSA,A,3,18,22,31,12,25,14,11,,,,,,2.0,1.2,1.6*3E
$GPGSV,3,1,11,22,62,097,40,14,61,011,31,31,56,192,36,11,25,292,32*74
$GPGSV,3,2,11,25,22,095,28,01,20,314,,18,20,116,35,32,16,307,*75
$GPGSV,3,3,11,12,11,056,27,19,04,253,19,51,49,195,33*48
$GPRMC,184213.000,A,3353.7540,N,09832.0186,W,8.00,168.88,290312,,,D*77
$GPGGA,184214.000,3353.7512,N,09832.0188,W,2,07,1.2,319.6,M,-23.7,M,4.8,0000*41
$GPGSA,A,3,18,22,31,12,25,14,11,,,,,,2.0,1.2,1.6*3E
$GPRMC,184214.000,A,3353.7512,N,09832.0188,W,10.61,179.62,290312,,,D*43
$GPGGA,184215.000,3353.7480,N,09832.0190,W,2,07,1.2,318.3,M,-23.7,M,5.8,0000*46
$GPGSA,A,3,18,22,31,12,25,14,11,,,,,,2.0,1.2,1.6*3E
$GPRMC,184215.000,A,3353.7480,N,09832.0190,W,11.84,181.09,290312,,,D*41
$GPGGA,184216.000,3353.7446,N,09832.0190,W,2,07,1.2,317.9,M,-23.7,M,6.8,0000*49
$GPGSA,A,3,18,22,31,12,25,14,11,,,,,,2.0,1.2,1.6*3E
$GPRMC,184216.000,A,3353.7446,N,09832.0190,W,11.89,182.45,290312,,,D*4E
$GPGGA,184217.000,3353.7412,N,09832.0190,W,2,06,1.5,317.5,M,-23.7,M,0.8,0000*45
$GPGSA,A,3,18,22,31,25,14,11,,,,,,,2.3,1.5,1.7*38
$GPRMC,184217.000,A,3353.7412,N,09832.0190,W,12.33,183.26,290312,,,D*48
$GPGGA,184218.000,3353.7379,N,09832.0191,W,2,07,1.3,316.8,M,-23.7,M,1.8,0000*4B
$GPGSA,A,3,18,22,31,01,25,14,11,,,,,,2.1,1.3,1.6*3C
$GPGSV,3,1,11,22,62,097,38,14,61,011,29,31,56,192,28,11,25,292,33*7C
$GPGSV,3,2,11,25,22,095,33,01,20,314,25,18,20,116,26,32,16,307,*7A
$GPGSV,3,3,11,12,11,056,,19,04,253,12,51,49,195,37*42
$GPRMC,184218.000,A,3353.7379,N,09832.0191,W,11.44,183.24,290312,,,D*4D
$GPGGA,184219.000,3353.7347,N,09832.0192,W,2,07,1.3,315.9,M,-23.7,M,2.8,0000*45
$GPGSA,A,3,18,22,31,01,25,14,11,,,,,,2.1,1.3,1.6*3C
$GPRMC,184219.000,A,3353.7347,N,09832.0192,W,10.26,182.10,290312,,,D*41
$GPGGA,184220.000,3353.7322,N,09832.0193,W,2,08,1.3,315.2,M,-23.7,M,3.8,0000*48
$GPGSA,A,3,22,31,01,25,12,32,14,11,,,,,2.1,1.3,1.6*37
$GPRMC,184220.000,A,3353.7322,N,09832.0193,W,7.95,182.03,290312,,,D*75
$GPGGA,184221.000,3353.7306,N,09832.0193,W,2,09,1.1,314.9,M,-23.7,M,0.8,0000*45
$GPGSA,A,3,18,22,31,01,25,12,32,14,11,,,,1.8,1.1,1.4*34
$GPRMC,184221.000,A,3353.7306,N,09832.0193,W,5.13,181.80,290312,,,D*76
$GPGGA,184222.000,3353.7299,N,09832.0193,W,2,09,1.1,314.8,M,-23.7,M,0.8,0000*40
$GPGSA,A,3,18,22,31,01,25,12,32,14,11,,,,1.8,1.1,1.4*34
$GPRMC,184222.000,A,3353.7299,N,09832.0193,W,2.23,183.68,290312,,,D*72
$GPGGA,184223.000,3353.7297,N,09832.0192,W,2,09,1.1,314.7,M,-23.7,M,0.8,0000*41
$GPGSA,A,3,18,22,31,01,25,12,32,14,11,,,,1.8,1.1,1.4*34
$GPGSV,3,1,11,22,62,097,39,14,61,011,31,31,56,192,34,11,25,292,34*7E
$GPGSV,3,2,11,25,22,095,39,01,20,314,26,18,20,116,35,32,16,307,23*70
$GPGSV,3,3,11,12,11,056,23,19,04,253,13,51,49,195,35*40
$GPRMC,184223.000,A,3353.7297,N,09832.0192,W,0.52,173.28,290312,,,D*73
$GPGGA,184224.000,3353.7296,N,09832.0192,W,2,09,1.1,314.4,M,-23.7,M,1.8,0000*45
$GPGSA,A,3,18,22,31,01,25,12,32,14,11,,,,1.8,1.1,1.4*34
$GPRMC,184224.000,A,3353.7296,N,09832.0192,W,1.01,185.83,290312,,,D*7A
$GPGGA,184225.000,3353.7292,N,09832.0191,W,2,09,1.1,314.2,M,-23.7,M,2.8,0000*46
$GPGSA,A,3,18,22,31,01,25,12,32,14,11,,,,1.8,1.1,1.4*34
$GPRMC,184225.000,A,3353.7292,N,09832.0191,W,3.07,176.70,290312,,,D*78
$GPGGA,184226.000,3353.7284,N,09832.0190,W,2,09,1.1,314.1,M,-23.7,M,0.8,0000*42
$GPGSA,A,3,18,22,31,01,25,12,32,14,11,,,,1.8,1.1,1.4*34
$GPRMC,184226.000,A,3353.7284,N,09832.0190,W,3.48,174.83,290312,,,D*78
$GPGGA,184227.000,3353.7277,N,09832.0188,W,2,08,1.2,313.8,M,-23.7,M,0.8,0000*4A
$GPGSA,A,3,18,22,31,01,25,12,14,11,,,,,1.9,1.2,1.5*36
$GPRMC,184227.000,A,3353.7277,N,09832.0188,W,2.41,172.47,290312,,,D*7A
$GPGGA,184228.000,3353.7269,N,09832.0186,W,2,09,1.1,313.6,M,-23.7,M,1.8,0000*49
$GPGSA,A,3,18,22,31,01,25,12,32,14,11,,,,1.8,1.1,1.4*34
$GPGSV,3,1,11,22,62,097,40,14,61,011,31,31,56,192,35,11,25,292,35*70
$GPGSV,3,2,11,25,22,095,38,01,20,314,37,18,20,116,32,32,16,307,14*72
$GPGSV,3,3,11,12,11,056,33,19,04,253,17,51,49,195,31*41
$GPRMC,184228.000,A,3353.7269,N,09832.0186,W,3.56,172.08,290312,,,D*78
$GPGGA,184229.000,3353.7256,N,09832.0181,W,2,09,1.1,313.5,M,-23.7,M,2.8,0000*43
$GPGSA,A,3,18,22,31,01,25,12,32,14,11,,,,1.8,1.1,1.4*34
$GPRMC,184229.000,A,3353.7256,N,09832.0181,W,5.99,156.12,290312,,,D*7A
$GPGGA,184230.000,3353.7239,N,09832.0167,W,2,09,1.1,313.4,M,-23.7,M,3.8,0000*4A
$GPGSA,A,3,18,22,31,01,25,12,32,14,11,,,,1.8,1.1,1.4*34
$GPRMC,184230.000,A,3353.7239,N,09832.0167,W,8.30,140.61,290312,,,D*7E
$GPGGA,184231.000,3353.7225,N,09832.0142,W,2,09,1.1,313.0,M,-23.7,M,4.8,0000*42
$GPGSA,A,3,18,22,31,01,25,12,32,14,11,,,,1.8,1.1,1.4*34
$GPRMC,184231.000,A,3353.7225,N,09832.0142,W,9.79,114.59,290312,,,D*73
$GPGGA,184232.000,3353.7220,N,09832.0106,W,2,09,1.1,312.6,M,-23.7,M,5.8,0000*42
$GPGSA,A,3,18,22,31,01,25,12,32,14,11,,,,1.8,1.1,1.4*34
$GPRMC,184232.000,A,3353.7220,N,09832.0106,W,11.54,91.99,290312,,,D*73
$GPGGA,184233.000,3353.7225,N,09832.0063,W,2,09,1.1,312.5,M,-23.7,M,6.8,0000*44
$GPGSA,A,3,18,22,31,01,25,12,32,14,11,,,,1.8,1.1,1.4*34
$GPGSV,3,1,11,22,62,097,32,14,61,011,38,31,56,192,32,11,25,292,28*77
$GPGSV,3,2,11,25,22,095,27,01,20,314,32,18,20,116,25,32,16,307,35*7C
$GPGSV,3,3,11,12,11,056,32,19,04,253,31,51,49,195,36*43
$GPRMC,184233.000,A,3353.7225,N,09832.0063,W,13.42,79.89,290312,,,D*77
$GPGGA,184234.000,3353.7233,N,09832.0015,W,2,09,1.1,312.5,M,-23.7,M,0.8,0000*43
$GPGSA,A,3,18,22,31,01,25,12,32,14,11,,,,1.8,1.1,1.4*34
$GPRMC,184234.000,A,3353.7233,N,09832.0015,W,14.81,77.54,290312,,,D*70
$GPGGA,184235.000,3353.7241,N,09831.9963,W,2,09,1.1,312.1,M,-23.7,M,0.8,0000*41
$GPGSA,A,3,18,22,31,01,25,12,32,14,11,,,,1.8,1.1,1.4*34
$GPRMC,184235.000,A,3353.7241,N,09831.9963,W,16.29,78.70,290312,,,D*7F
$GPGGA,184236.000,3353.7250,N,09831.9905,W,2,09,1.1,311.7,M,-23.7,M,0.8,0000*47
$GPGSA,A,3,18,22,31,01,25,12,32,14,11,,,,1.8,1.1,1.4*34
$GPRMC,184236.000,A,3353.7250,N,09831.9905,W,17.92,77.90,290312,,,D*7C
$GPGGA,184237.000,3353.7260,N,09831.9842,W,2,09,1.1,312.0,M,-23.7,M,1.8,0000*42
$GPGSA,A,3,18,22,31,01,25,12,32,14,11,,,,1.8,1.1,1.4*34
$GPRMC,184237.000,A,3353.7260,N,09831.9842,W,19.00,80.07,290312,,,D*7F
$GPGGA,184238.000,3353.7268,N,09831.9777,W,2,09,1.1,311.9,M,-23.7,M,0.8,0000*47
$GPGSA,A,3,18,22,31,01,25,12,32,14,11,,,,1.8,1.1,1.4*34
$GPGSV,3,1,11,22,62,097,32,14,61,011,39,31,56,192,33,11,25,292,28*77
$GPGSV,3,2,11,25,22,095,29,01,20,314,35,18,20,116,20,32,16,307,33*76
$GPGSV,3,3,11,12,11,056,24,19,04,253,17,51,49,195,38*4E
$GPRMC,184238.000,A,3353.7268,N,09831.9777,W,19.65,83.79,290312,,,D*78
$GPGGA,184239.000,3353.7272,N,09831.9709,W,2,09,1.1,311.6,M,-23.7,M,0.8,0000*4B
$GPGSA,A,3,18,22,31,01,25,12,32,14,11,,,,1.8,1.1,1.4*34
$GPRMC,184239.000,A,3353.7272,N,09831.9709,W,20.60,87.58,290312,,,D*73
$GPGGA,184240.000,3353.7272,N,09831.9637,W,2,08,1.2,311.2,M,-23.7,M,0.8,0000*4F
$GPGSA,A,3,18,22,31,01,25,12,14,11,,,,,1.9,1.2,1.5*36
$GPRMC,184240.000,A,3353.7272,N,09831.9637,W,21.75,92.30,290312,,,D*7E
$GPGGA,184241.000,3353.7267,N,09831.9563,W,2,08,1.2,310.5,M,-23.7,M,0.8,0000*4E
$GPGSA,A,3,18,22,31,01,25,12,14,11,,,,,1.9,1.2,1.5*36
$GPRMC,184241.000,A,3353.7267,N,09831.9563,W,22.10,95.74,290312,,,D*7E
$GPGGA,184242.000,3353.7259,N,09831.9487,W,2,09,1.1,310.2,M,-23.7,M,1.8,0000*4F
$GPGSA,A,3,18,22,31,01,25,12,32,14,11,,,,1.8,1.1,1.4*34
$GPRMC,184242.000,A,3353.7259,N,09831.9487,W,23.17,98.40,290312,,,D*77
$GPGGA,184243.000,3353.7247,N,09831.9408,W,2,09,1.1,310.4,M,-23.7,M,2.8,0000*43
$GPGSA,A,3,18,22,31,01,25,12,32,14,11,,,,1.8,1.1,1.4*34
$GPGSV,3,1,11,22,61,099,41,14,60,014,35,31,57,193,33,11,26,290,28*77
$GPGSV,3,2,11,25,22,094,22,01,20,313,27,18,19,117,29,32,17,308,25*73
$GPGSV,3,3,11,12,11,054,30,19,04,252,17,51,49,195,29*48
$GPRMC,184243.000,A,3353.7247,N,09831.9408,W,23.45,102.08,290312,,,D*47
$GPGGA,184244.000,3353.7231,N,09831.9330,W,2,09,1.1,310.6,M,-23.7,M,3.8,0000*4A
$GPGSA,A,3,18,22,31,01,25,12,32,14,11,,,,1.8,1.1,1.4*34
$GPRMC,184244.000,A,3353.7231,N,09831.9330,W,23.89,106.39,290312,,,D*4B
$GPGGA,184245.000,3353.7207,N,09831.9249,W,2,09,1.1,310.2,M,-23.7,M,0.8,0000*46
$GPGSA,A,3,18,22,31,01,25,12,32,14,11,,,,1.8,1.1,1.4*34
$GPRMC,184245.000,A,3353.7207,N,09831.9249,W,24.97,110.69,290312,,,D*4A
$GPGGA,184246.000,3353.7179,N,09831.9169,W,2,09,1.1,310.0,M,-23.7,M,0.8,0000*4C
$GPGSA,A,3,18,22,31,01,25,12,32,14,11,,,,1.8,1.1,1.4*34
$GPRMC,184246.000,A,3353.7179,N,09831.9169,W,25.94,113.01,290312,,,D*4D
$GPGGA,184247.000,3353.7148,N,09831.9087,W,2,09,1.1,309.7,M,-23.7,M,0.8,0000*41
$GPGSA,A,3,18,22,31,01,25,12,32,14,11,,,,1.8,1.1,1.4*34
$GPRMC,184247.000,A,3353.7148,N,09831.9087,W,26.76,115.94,290312,,,D*4A
$GPGGA,184248.000,3353.7115,N,09831.9004,W,2,09,1.1,309.5,M,-23.7,M,1.8,0000*4E
$GPGSA,A,3,18,22,31,01,25,12,32,14,11,,,,1.8,1.1,1.4*34
$GPGSV,3,1,11,22,61,099,32,14,60,014,23,31,57,193,37,11,26,290,32*7B
$GPGSV,3,2,11,25,22,094,37,01,20,313,22,18,19,117,36,32,17,308,26*7F
$GPGSV,3,3,11,12,11,054,24,19,04,252,18,51,49,195,31*4B
$GPRMC,184248.000,A,3353.7115,N,09831.9004,W,26.97,117.12,290312,,,D*45
$GPGGA,184249.000,3353.7080,N,09831.8922,W,2,09,1.1,309.3,M,-23.7,M,2.8,0000*4B
$GPGSA,A,3,18,22,31,01,25,12,32,14,11,,,,1.8,1.1,1.4*34
$GPRMC,184249.000,A,3353.7080,N,09831.8922,W,27.27,116.78,290312,,,D*42
$GPGGA,184250.000,3353.7046,N,09831.8839,W,2,08,1.4,309.1,M,-23.7,M,3.8,0000*45
$GPGSA,A,3,18,22,31,01,25,12,32,11,,,,,2.5,1.4,2.1*3C
$GPRMC,184250.000,A,3353.7046,N,09831.8839,W,27.59,116.49,290312,,,D*40
$GPGGA,184251.000,3353.7011,N,09831.8754,W,2,08,1.4,309.0,M,-23.7,M,4.8,0000*44
$GPGSA,A,3,18,22,31,01,25,12,32,11,,,,,2.5,1.4,2.1*3C
$GPRMC,184251.000,A,3353.7011,N,09831.8754,W,27.93,116.37,290312,,,D*48
$GPGGA,184252.000,3353.6975,N,09831.8668,W,2,09,1.1,308.7,M,-23.7,M,5.8,0000*40
$GPGSA,A,3,18,22,31,01,25,12,32,14,11,,,,1.8,1.1,1.4*34
$GPRMC,184252.000,A,3353.6975,N,09831.8668,W,28.58,117.49,290312,,,D*4F
$GPGGA,184253.000,3353.6936,N,09831.8582,W,2,09,1.1,308.3,M,-23.7,M,6.8,0000*46
$GPGSA,A,3,18,22,31,01,25,12,32,14,11,,,,1.8,1.1,1.4*34
$GPGSV,3,1,11,22,61,099,33,14,60,014,32,31,57,193,36,11,26,290,32*7B
$GPGSV,3,2,11,25,22,094,38,01,20,313,26,18,19,117,34,32,17,308,28*78
$GPGSV,3,3,11,12,11,054,28,19,04,252,17,51,49,195,27*4F
$GPRMC,184253.000,A,3353.6936,N,09831.8582,W,29.22,117.69,290312,,,D*40
$GPGGA,184254.000,3353.6897,N,09831.8494,W,2,09,1.1,307.9,M,-23.7,M,7.8,0000*49
$GPGSA,A,3,18,22,31,01,25,12,32,14,11,,,,1.8,1.1,1.4*34
$GPRMC,184254.000,A,3353.6897,N,09831.8494,W,29.61,117.15,290312,,,D*47
$GPGGA,184255.000,3353.6857,N,09831.8404,W,2,09,1.1,307.6,M,-23.7,M,8.8,0000*4D
$GPGSA,A,3,18,22,31,01,25,12,32,14,11,,,,1.8,1.1,1.4*34
$GPRMC,184255.000,A,3353.6857,N,09831.8404,W,30.12,117.17,290312,,,D*4D
$GPGGA,184256.000,3353.6817,N,09831.8313,W,2,09,1.1,307.1,M,-23.7,M,9.8,0000*4D
$GPGSA,A,3,18,22,31,01,25,12,32,14,11,,,,1.8,1.1,1.4*34
$GPRMC,184256.000,A,3353.6817,N,09831.8313,W,30.43,117.35,290312,,,D*4F
$GPGGA,184257.000,3353.6778,N,09831.8222,W,2,09,1.1,307.2,M,-23.7,M,0.8,0000*43
$GPGSA,A,3,18,22,31,01,25,12,32,14,11,,,,1.8,1.1,1.4*34
$GPRMC,184257.000,A,3353.6778,N,09831.8222,W,30.52,117.08,290312,,,D*45
$GPGGA,184258.000,3353.6741,N,09831.8129,W,2,09,1.1,307.0,M,-23.7,M,1.8,0000*4D
$GPGSA,A,3,18,22,31,01,25,12,32,14,11,,,,1.8,1.1,1.4*34
$GPGSV,3,1,11,22,61,099,35,14,60,014,34,31,57,193,31,11,26,290,32*7C
$GPGSV,3,2,11,25,22,094,38,01,20,313,26,18,19,117,30,32,17,308,29*7D
$GPGSV,3,3,11,12,11,054,26,19,04,252,16,51,49,195,29*4E
$GPRMC,184258.000,A,3353.6741,N,09831.8129,W,30.99,116.22,290312,,,D*46
$GPGGA,184259.000,3353.6700,N,09831.8036,W,2,09,1.1,306.8,M,-23.7,M,2.8,0000*4C
$GPGSA,A,3,18,22,31,01,25,12,32,14,11,,,,1.8,1.1,1.4*34
$GPRMC,184259.000,A,3353.6700,N,09831.8036,W,31.44,117.39,290312,,,D*47
$GPGGA,184300.000,3353.6658,N,09831.7942,W,2,09,1.1,306.6,M,-23.7,M,3.8,0000*47
$GPGSA,A,3,18,22,31,01,25,12,32,14,11,,,,1.8,1.1,1.4*34
$GPRMC,184300.000,A,3353.6658,N,09831.7942,W,31.60,116.79,290312,,,D*40
$GPGGA,184301.000,3353.6618,N,09831.7848,W,2,09,1.1,306.5,M,-23.7,M,4.8,0000*4D
$GPGSA,A,3,18,22,31,01,25,12,32,14,11,,,,1.8,1.1,1.4*34
$GPRMC,184301.000,A,3353.6618,N,09831.7848,W,31.51,117.24,290312,,,D*45
$GPGGA,184302.000,3353.6577,N,09831.7755,W,2,09,1.1,306.5,M,-23.7,M,5.8,0000*46
$GPGSA,A,3,18,22,31,01,25,12,32,14,11,,,,1.8,1.1,1.4*34
$GPRMC,184302.000,A,3353.6577,N,09831.7755,W,30.62,117.68,290312,,,D*46
$GPGGA,184303.000,3353.6538,N,09831.7668,W,2,09,1.1,306.6,M,-23.7,M,6.8,0000*43
$GPGSA,A,3,18,22,31,01,25,12,32,14,11,,,,1.8,1.1,1.4*34
$GPGSV,3,1,11,22,61,099,35,14,60,014,34,31,57,193,36,11,26,290,32*7B
$GPGSV,3,2,11,25,22,094,38,01,20,313,26,18,19,117,30,32,17,308,30*75
$GPGSV,3,3,11,12,11,054,29,19,04,252,14,51,49,195,29*43
$GPRMC,184303.000,A,3353.6538,N,09831.7668,W,28.52,119.11,290312,,,D*49
$GPGGA,184304.000,3353.6502,N,09831.7587,W,2,09,1.1,306.6,M,-23.7,M,7.8,0000*4E
$GPGSA,A,3,18,22,31,01,25,12,32,14,11,,,,1.8,1.1,1.4*34
$GPRMC,184304.000,A,3353.6502,N,09831.7587,W,26.79,117.92,290312,,,D*47
$GPGGA,184305.000,3353.6468,N,09831.7510,W,2,09,1.1,306.6,M,-23.7,M,0.8,0000*4B
$GPGSA,A,3,18,22,31,01,25,12,32,14,11,,,,1.8,1.1,1.4*34
$GPRMC,184305.000,A,3353.6468,N,09831.7510,W,25.42,117.84,290312,,,D*49
$GPGGA,184306.000,3353.6436,N,09831.7436,W,2,09,1.1,306.7,M,-23.7,M,0.8,0000*47
$GPGSA,A,3,18,22,31,01,25,12,32,14,11,,,,1.8,1.1,1.4*34
$GPRMC,184306.000,A,3353.6436,N,09831.7436,W,25.03,118.08,290312,,,D*4A
$GPGGA,184307.000,3353.6403,N,09831.7361,W,2,09,1.1,306.7,M,-23.7,M,1.8,0000*44
$GPGSA,A,3,18,22,31,01,25,12,32,14,11,,,,1.8,1.1,1.4*34
$GPRMC,184307.000,A,3353.6403,N,09831.7361,W,25.45,117.71,290312,,,D*4B
$GPGGA,184308.000,3353.6370,N,09831.7285,W,2,09,1.1,306.7,M,-23.7,M,2.8,0000*40
$GPGSA,A,3,18,22,31,01,25,12,32,14,11,,,,1.8,1.1,1.4*34
$GPGSV,3,1,11,22,61,099,35,14,60,014,34,31,57,193,37,11,26,290,32*7A
$GPGSV,3,2,11,25,22,094,38,01,20,313,26,18,19,117,30,32,17,308,30*75
$GPGSV,3,3,11,12,11,054,29,19,04,252,26,51,49,195,28*43
$GPRMC,184308.000,A,3353.6370,N,09831.7285,W,25.89,117.41,290312,,,D*4F
$GPGGA,184309.000,3353.6336,N,09831.7208,W,2,09,1.1,306.6,M,-23.7,M,3.8,0000*46
$GPGSA,A,3,18,22,31,01,25,12,32,14,11,,,,1.8,1.1,1.4*34
$GPRMC,184309.000,A,3353.6336,N,09831.7208,W,26.09,117.58,290312,,,D*4A
$GPGGA,184310.000,3353.6303,N,09831.7132,W,2,09,1.1,306.5,M,-23.7,M,4.8,0000*46
$GPGSA,A,3,18,22,31,01,25,12,32,14,11,,,,1.8,1.1,1.4*34
$GPRMC,184310.000,A,3353.6303,N,09831.7132,W,25.71,117.51,290312,,,D*4B
$GPGGA,184311.000,3353.6270,N,09831.7058,W,2,09,1.1,306.4,M,-23.7,M,5.8,0000*4F
$GPGSA,A,3,18,22,31,01,25,12,32,14,11,,,,1.8,1.1,1.4*34
$GPRMC,184311.000,A,3353.6270,N,09831.7058,W,24.30,118.06,290312,,,D*4B
$GPGGA,184312.000,3353.6241,N,09831.6991,W,2,09,1.1,306.3,M,-23.7,M,6.8,0000*47
$GPGSA,A,3,18,22,31,01,25,12,32,14,11,,,,1.8,1.1,1.4*34
$GPRMC,184312.000,A,3353.6241,N,09831.6991,W,21.42,117.81,290312,,,D*47
$GPGGA,184313.000,3353.6215,N,09831.6933,W,2,09,1.1,306.1,M,-23.7,M,7.8,0000*4C
$GPGSA,A,3,18,22,31,01,25,12,32,14,11,,,,1.8,1.1,1.4*34
$GPGSV,3,1,11,22,61,099,36,14,60,014,34,31,57,193,37,11,26,290,33*78
$GPGSV,3,2,11,25,22,094,39,01,20,313,27,18,19,117,30,32,17,308,30*75
$GPGSV,3,3,11,12,11,054,31,19,04,252,16,51,49,195,36*46
$GPRMC,184313.000,A,3353.6215,N,09831.6933,W,18.40,117.89,290312,,,D*4F
$GPGGA,184314.000,3353.6192,N,09831.6881,W,2,09,1.1,306.1,M,-23.7,M,8.8,0000*40
$GPGSA,A,3,18,22,31,01,25,12,32,14,11,,,,1.8,1.1,1.4*34
$GPRMC,184314.000,A,3353.6192,N,09831.6881,W,17.61,118.21,290312,,,D*4D
$GPGGA,184315.000,3353.6169,N,09831.6829,W,2,09,1.1,306.0,M,-23.7,M,0.8,0000*4E
$GPGSA,A,3,18,22,31,01,25,12,32,14,11,,,,1.8,1.1,1.4*34
$GPRMC,184315.000,A,3353.6169,N,09831.6829,W,18.01,117.49,290312,,,D*42
$GPGGA,184316.000,3353.6145,N,09831.6774,W,2,09,1.1,305.9,M,-23.7,M,0.8,0000*4E
$GPGSA,A,3,18,22,31,01,25,12,32,14,11,,,,1.8,1.1,1.4*34
$GPRMC,184316.000,A,3353.6145,N,09831.6774,W,19.02,117.40,290312,,,D*43
$GPGGA,184317.000,3353.6120,N,09831.6717,W,2,09,1.1,305.8,M,-23.7,M,0.8,0000*48
$GPGSA,A,3,18,22,31,01,25,12,32,14,11,,,,1.8,1.1,1.4*34
$GPRMC,184317.000,A,3353.6120,N,09831.6717,W,20.01,116.97,290312,,,D*46
$GPGGA,184318.000,3353.6094,N,09831.6656,W,2,09,1.1,305.7,M,-23.7,M,1.8,0000*43
$GPGSA,A,3,18,22,31,01,25,12,32,14,11,,,,1.8,1.1,1.4*34
$GPGSV,3,1,11,22,61,099,36,14,60,014,34,31,57,193,37,11,26,290,33*78
$GPGSV,3,2,11,25,22,094,38,01,20,313,20,18,19,117,30,32,17,308,30*73
$GPGSV,3,3,11,12,11,054,24,19,04,252,19,51,49,195,32*49
$GPRMC,184318.000,A,3353.6094,N,09831.6656,W,20.88,116.39,290312,,,D*46
$GPGGA,184319.000,3353.6067,N,09831.6592,W,2,09,1.1,305.6,M,-23.7,M,2.8,0000*47
$GPGSA,A,3,18,22,31,01,25,12,32,14,11,,,,1.8,1.1,1.4*34
$GPRMC,184319.000,A,3353.6067,N,09831.6592,W,21.96,116.94,290312,,,D*49
$GPGGA,184320.000,3353.6039,N,09831.6526,W,2,09,1.1,305.6,M,-23.7,M,3.8,0000*48
$GPGSA,A,3,18,22,31,01,25,12,32,14,11,,,,1.8,1.1,1.4*34
$GPRMC,184320.000,A,3353.6039,N,09831.6526,W,22.78,117.58,290312,,,D*45
$GPGGA,184321.000,3353.6009,N,09831.6458,W,2,09,1.1,305.6,M,-23.7,M,4.8,0000*45
$GPGSA,A,3,18,22,31,01,25,12,32,14,11,,,,1.8,1.1,1.4*34
$GPRMC,184321.000,A,3353.6009,N,09831.6458,W,23.14,117.72,290312,,,D*4C
$GPGGA,184322.000,3353.5979,N,09831.6389,W,2,09,1.1,305.6,M,-23.7,M,5.8,0000*41
$GPGSA,A,3,18,22,31,01,25,12,32,14,11,,,,1.8,1.1,1.4*34
$GPRMC,184322.000,A,3353.5979,N,09831.6389,W,23.30,117.75,290312,,,D*48
$GPGGA,184323.000,3353.5949,N,09831.6321,W,2,09,1.1,305.5,M,-23.7,M,6.8,0000*41
$GPGSA,A,3,18,22,31,01,25,12,32,14,11,,,,1.8,1.1,1.4*34
$GPGSV,3,1,11,22,61,099,33,14,60,014,35,31,57,193,37,11,26,290,32*7D
$GPGSV,3,2,11,25,22,094,38,01,20,313,25,18,19,117,31,32,17,308,30*77
$GPGSV,3,3,11,12,11,054,31,19,04,252,18,51,49,195,27*48
$GPRMC,184323.000,A,3353.5949,N,09831.6321,W,22.75,118.18,290312,,,D*4C
$GPGGA,184324.000,3353.5920,N,09831.6255,W,2,09,1.1,305.4,M,-23.7,M,7.8,0000*4B
$GPGSA,A,3,18,22,31,01,25,12,32,14,11,,,,1.8,1.1,1.4*34
$GPRMC,184324.000,A,3353.5920,N,09831.6255,W,22.22,117.37,290312,,,D*46
$GPGGA,184325.000,3353.5892,N,09831.6190,W,2,09,1.1,305.4,M,-23.7,M,0.8,0000*4F
$GPGSA,A,3,18,22,31,01,25,12,32,14,11,,,,1.8,1.1,1.4*34
$GPRMC,184325.000,A,3353.5892,N,09831.6190,W,21.61,116.61,290312,,,D*43
$GPGGA,184326.000,3353.5865,N,09831.6126,W,2,09,1.1,305.4,M,-23.7,M,1.8,0000*48
$GPGSA,A,3,18,22,31,01,25,12,32,14,11,,,,1.8,1.1,1.4*34
$GPRMC,184326.000,A,3353.5865,N,09831.6126,W,21.27,116.93,290312,,,D*4A
$GPGGA,184327.000,3353.5838,N,09831.6063,W,2,09,1.1,305.4,M,-23.7,M,2.8,0000*42
$GPGSA,A,3,18,22,31,01,25,12,32,14,11,,,,1.8,1.1,1.4*34
$GPRMC,184327.000,A,3353.5838,N,09831.6063,W,21.31,116.90,290312,,,D*47
$GPGGA,184328.000,3353.5811,N,09831.6000,W,2,09,1.1,305.5,M,-23.7,M,3.8,0000*43
$GPGSA,A,3,18,22,31,01,25,12,32,14,11,,,,1.8,1.1,1.4*34
$GPGSV,3,1,11,22,61,099,27,14,60,014,27,31,57,193,37,11,26,290,32*7B
$GPGSV,3,2,11,25,22,094,37,01,20,313,21,18,19,117,32,32,17,308,31*7E
$GPGSV,3,3,11,12,11,054,30,19,04,252,18,51,49,195,23*4D
$GPRMC,184328.000,A,3353.5811,N,09831.6000,W,21.50,117.31,290312,,,D*4B
$GPGGA,184329.000,3353.5783,N,09831.5936,W,2,09,1.1,305.5,M,-23.7,M,4.8,0000*4E
$GPGSA,A,3,18,22,31,01,25,12,32,14,11,,,,1.8,1.1,1.4*34
$GPRMC,184329.000,A,3353.5783,N,09831.5936,W,21.68,117.25,290312,,,D*4F
$GPGGA,184330.000,3353.5755,N,09831.5871,W,2,09,1.1,305.4,M,-23.7,M,5.8,0000*4F
$GPGSA,A,3,18,22,31,01,25,12,32,14,11,,,,1.8,1.1,1.4*34
$GPRMC,184330.000,A,3353.5755,N,09831.5871,W,21.67,117.53,290312,,,D*40
$GPGGA,184331.000,3353.5728,N,09831.5808,W,2,09,1.1,305.4,M,-23.7,M,6.8,0000*49
$GPGSA,A,3,18,22,31,01,25,12,32,14,11,,,,1.8,1.1,1.4*34
$GPRMC,184331.000,A,3353.5728,N,09831.5808,W,21.23,116.92,290312,,,D*49
$GPGGA,184332.000,3353.5702,N,09831.5748,W,2,08,1.1,305.1,M,-23.7,M,7.8,0000*4C
$GPGSA,A,3,18,31,01,25,12,32,14,11,,,,,2.0,1.1,1.7*3C
$GPRMC,184332.000,A,3353.5702,N,09831.5748,W,19.41,117.04,290312,,,D*48
$GPGGA,184333.000,3353.5680,N,09831.5696,W,2,09,1.1,304.9,M,-23.7,M,8.8,0000*43
$GPGSA,A,3,18,22,31,01,25,12,32,14,11,,,,1.8,1.1,1.4*34
$GPGSV,3,1,11,22,61,099,35,14,60,014,30,31,57,193,34,11,26,290,32*7D
$GPGSV,3,2,11,25,22,094,37,01,20,313,22,18,19,117,31,32,17,308,31*7E
$GPGSV,3,3,11,12,11,054,25,19,04,252,21,51,49,195,32*43
$GPRMC,184333.000,A,3353.5680,N,09831.5696,W,15.80,116.71,290312,,,D*42
$GPGGA,184334.000,3353.5663,N,09831.5657,W,2,09,1.1,304.8,M,-23.7,M,0.8,0000*4D
$GPGSA,A,3,18,22,31,01,25,12,32,14,11,,,,1.8,1.1,1.4*34
$GPRMC,184334.000,A,3353.5663,N,09831.5657,W,11.64,117.18,290312,,,D*45
$GPGGA,184335.000,3353.5652,N,09831.5630,W,2,09,1.1,304.8,M,-23.7,M,0.8,0000*4F
$GPGSA,A,3,18,22,31,01,25,12,32,14,11,,,,1.8,1.1,1.4*34
$GPRMC,184335.000,A,3353.5652,N,09831.5630,W,7.24,118.30,290312,,,D*71
$GPGGA,184336.000,3353.5646,N,09831.5617,W,2,09,1.1,304.8,M,-23.7,M,1.8,0000*4D
$GPGSA,A,3,18,22,31,01,25,12,32,14,11,,,,1.8,1.1,1.4*34
$GPRMC,184336.000,A,3353.5646,N,09831.5617,W,3.03,118.45,290312,,,D*71
$GPGGA,184337.000,3353.5645,N,09831.5614,W,2,09,1.1,304.8,M,-23.7,M,2.8,0000*4F
$GPGSA,A,3,18,22,31,01,25,12,32,14,11,,,,1.8,1.1,1.4*34
$GPRMC,184337.000,A,3353.5645,N,09831.5614,W,0.27,126.30,290312,,,D*7A
$GPGGA,184338.000,3353.5645,N,09831.5615,W,2,09,1.1,304.7,M,-23.7,M,3.8,0000*4F
$GPGSA,A,3,18,22,31,01,25,12,32,14,11,,,,1.8,1.1,1.4*34
$GPGSV,3,1,11,22,61,099,34,14,60,014,33,31,57,193,36,11,26,290,32*7D
$GPGSV,3,2,11,25,22,094,37,01,20,313,29,18,19,117,24,32,17,308,31*71
$GPGSV,3,3,11,12,11,054,27,19,04,252,15,51,49,195,30*44
$GPRMC,184338.000,A,3353.5645,N,09831.5615,W,0.09,162.87,290312,,,D*74
$GPGGA,184339.000,3353.5646,N,09831.5617,W,2,09,1.1,304.7,M,-23.7,M,4.8,0000*48
$GPGSA,A,3,18,22,31,01,25,12,32,14,11,,,,1.8,1.1,1.4*34
$GPRMC,184339.000,A,3353.5646,N,09831.5617,W,0.02,291.14,290312,,,D*7A
$GPGGA,184340.000,3353.5647,N,09831.5617,W,2,09,1.1,305.0,M,-23.7,M,0.8,0000*45
$GPGSA,A,3,18,22,31,01,25,12,32,14,11,,,,1.8,1.1,1.4*34
$GPRMC,184340.000,A,3353.5647,N,09831.5617,W,0.03,182.27,290312,,,D*75
$GPGGA,184341.000,3353.5647,N,09831.5619,W,2,09,1.1,305.1,M,-23.7,M,0.8,0000*4B
$GPGSA,A,3,18,22,31,01,25,12,32,14,11,,,,1.8,1.1,1.4*34
$GPRMC,184341.000,A,3353.5647,N,09831.5619,W,0.08,165.99,290312,,,D*7D
$GPGGA,184342.000,3353.5648,N,09831.5619,W,2,09,1.1,305.4,M,-23.7,M,1.8,0000*43
$GPGSA,A,3,18,22,31,01,25,12,32,14,11,,,,1.8,1.1,1.4*34
$GPRMC,184342.000,A,3353.5648,N,09831.5619,W,0.02,114.35,290312,,,D*7B
$GPGGA,184343.000,3353.5649,N,09831.5620,W,2,09,1.1,305.6,M,-23.7,M,2.8,0000*48
$GPGSA,A,3,18,22,31,01,25,12,32,14,11,,,,1.8,1.1,1.4*34
$GPGSV,3,1,11,22,61,099,34,14,60,014,33,31,57,193,36,11,26,290,33*7C
$GPGSV,3,2,11,25,22,094,37,01,20,313,28,18,19,117,25,32,17,308,31*71
$GPGSV,3,3,11,12,11,054,26,19,04,252,15,51,49,195,31*44
$GPRMC,184343.000,A,3353.5649,N,09831.5620,W,0.12,40.51,290312,,,D*42
$GPGGA,184344.000,3353.5649,N,09831.5621,W,2,09,1.1,305.9,M,-23.7,M,3.8,0000*40
$GPGSA,A,3,18,22,31,01,25,12,32,14,11,,,,1.8,1.1,1.4*34
$GPRMC,184344.000,A,3353.5649,N,09831.5621,W,0.11,189.90,290312,,,D*7E
$GPGGA,184345.000,3353.5650,N,09831.5621,W,2,09,1.1,306.1,M,-23.7,M,0.8,0000*41
$GPGSA,A,3,18,22,31,01,25,12,32,14,11,,,,1.8,1.1,1.4*34
$GPRMC,184345.000,A,3353.5650,N,09831.5621,W,0.05,174.52,290312,,,D*7E
$GPGGA,184346.000,3353.5650,N,09831.5622,W,2,09,1.1,306.4,M,-23.7,M,0.8,0000*44
$GPGSA,A,3,18,22,31,01,25,12,32,14,11,,,,1.8,1.1,1.4*34
$GPRMC,184346.000,A,3353.5650,N,09831.5622,W,0.06,40.29,290312,,,D*47
$GPGGA,184347.000,3353.5651,N,09831.5622,W,2,09,1.1,306.5,M,-23.7,M,0.8,0000*45
$GPGSA,A,3,18,22,31,01,25,12,32,14,11,,,,1.8,1.1,1.4*34
$GPRMC,184347.000,A,3353.5651,N,09831.5622,W,0.06,32.84,290312,,,D*45
$GPGGA,184348.000,3353.5652,N,09831.5623,W,2,09,1.1,306.7,M,-23.7,M,0.8,0000*4A
$GPGSA,A,3,18,22,31,01,25,12,32,14,11,,,,1.8,1.1,1.4*34
$GPGSV,3,1,11,22,61,099,34,14,60,014,33,31,57,193,37,11,26,290,33*7D
$GPGSV,3,2,11,25,22,094,38,01,20,313,28,18,19,117,26,32,17,308,32*7E
$GPGSV,3,3,11,12,11,054,27,19,04,252,17,51,49,195,32*44
$GPRMC,184348.000,A,3353.5652,N,09831.5623,W,0.09,11.23,290312,,,D*4B
$GPGGA,184349.000,3353.5652,N,09831.5624,W,2,09,1.1,306.8,M,-23.7,M,1.8,0000*42
$GPGSA,A,3,18,22,31,01,25,12,32,14,11,,,,1.8,1.1,1.4*34
$GPRMC,184349.000,A,3353.5652,N,09831.5624,W,0.09,28.09,290312,,,D*4F
$GPGGA,184350.000,3353.5653,N,09831.5624,W,2,09,1.1,306.9,M,-23.7,M,2.8,0000*49
$GPGSA,A,3,18,22,31,01,25,12,32,14,11,,,,1.8,1.1,1.4*34
$GPRMC,184350.000,A,3353.5653,N,09831.5624,W,0.06,10.57,290312,,,D*49
$GPGGA,184351.000,3353.5653,N,09831.5624,W,2,09,1.1,307.0,M,-23.7,M,0.8,0000*42
$GPGSA,A,3,18,22,31,01,25,12,32,14,11,,,,1.8,1.1,1.4*34
$GPRMC,184351.000,A,3353.5653,N,09831.5624,W,0.38,99.27,290312,,,D*43
$GPGGA,184352.000,3353.5652,N,09831.5622,W,2,09,1.1,307.1,M,-23.7,M,0.8,0000*47
$GPGSA,A,3,18,22,31,01,25,12,32,14,11,,,,1.8,1.1,1.4*34
$GPRMC,184352.000,A,3353.5652,N,09831.5622,W,1.25,117.75,290312,,,D*7A
$GPGGA,184353.000,3353.5651,N,09831.5619,W,2,09,1.1,307.1,M,-23.7,M,1.8,0000*4C
$GPGSA,A,3,18,22,31,01,25,12,32,14,11,,,,1.8,1.1,1.4*34
$GPGSV,3,1,11,22,61,099,34,14,60,014,34,31,57,193,37,11,26,290,33*7A
$GPGSV,3,2,11,25,22,094,38,01,20,313,27,18,19,117,30,32,17,308,32*76
$GPGSV,3,3,11,12,11,054,27,19,04,252,18,51,49,195,28*40
$GPRMC,184353.000,A,3353.5651,N,09831.5619,W,1.61,119.40,290312,,,D*78
$GPGGA,184354.000,3353.5649,N,09831.5615,W,2,09,1.1,307.2,M,-23.7,M,2.8,0000*4E
$GPGSA,A,3,18,22,31,01,25,12,32,14,11,,,,1.8,1.1,1.4*34
$GPRMC,184354.000,A,3353.5649,N,09831.5615,W,1.23,125.35,290312,,,D*71
$GPGGA,184355.000,3353.5647,N,09831.5612,W,2,09,1.1,307.3,M,-23.7,M,3.8,0000*46
$GPGSA,A,3,18,22,31,01,25,12,32,14,11,,,,1.8,1.1,1.4*34
$GPRMC,184355.000,A,3353.5647,N,09831.5612,W,1.43,126.05,290312,,,D*7F
$GPGGA,184356.000,3353.5641,N,09831.5608,W,2,09,1.1,307.5,M,-23.7,M,4.8,0000*49
$GPGSA,A,3,18,22,31,01,25,12,32,14,11,,,,1.8,1.1,1.4*34
$GPRMC,184356.000,A,3353.5641,N,09831.5608,W,2.78,135.84,290312,,,D*71
$GPGGA,184357.000,3353.5631,N,09831.5600,W,2,09,1.1,307.5,M,-23.7,M,5.8,0000*46
$GPGSA,A,3,18,22,31,01,25,12,32,14,11,,,,1.8,1.1,1.4*34
$GPRMC,184357.000,A,3353.5631,N,09831.5600,W,5.98,147.54,290312,,,D*7E
$GPGGA,184358.000,3353.5613,N,09831.5595,W,2,09,1.1,307.5,M,-23.7,M,6.8,0000*45
$GPGSA,A,3,18,22,31,01,25,12,32,14,11,,,,1.8,1.1,1.4*34
$GPGSV,3,1,11,22,61,099,38,14,60,014,28,31,57,193,34,11,26,290,33*78
$GPGSV,3,2,11,25,22,094,34,01,20,313,30,18,19,117,32,32,17,308,31*7D
$GPGSV,3,3,11,12,11,054,28,19,04,252,17,51,49,195,31*48
$GPRMC,184358.000,A,3353.5613,N,09831.5595,W,7.47,173.82,290312,,,D*72
$GPGGA,184359.000,3353.5584,N,09831.5602,W,2,09,1.1,306.8,M,-23.7,M,7.8,0000*49
$GPGSA,A,3,18,22,31,01,25,12,32,14,11,,,,1.8,1.1,1.4*34
$GPRMC,184359.000,A,3353.5584,N,09831.5602,W,10.87,199.01,290312,,,D*46
$GPGGA,184400.000,3353.5549,N,09831.5621,W,2,09,1.1,306.8,M,-23.7,M,0.8,0000*45
$GPGSA,A,3,18,22,31,01,25,12,32,14,11,,,,1.8,1.1,1.4*34
$GPRMC,184400.000,A,3353.5549,N,09831.5621,W,14.31,205.40,290312,,,D*47
$GPGGA,184401.000,3353.5508,N,09831.5646,W,2,08,1.4,306.2,M,-23.7,M,1.8,0000*4F
$GPGSA,A,3,18,22,01,25,12,32,14,11,,,,,2.0,1.4,1.5*39
$GPRMC,184401.000,A,3353.5508,N,09831.5646,W,16.47,207.33,290312,,,D*47
$GPGGA,184402.000,3353.5461,N,09831.5676,W,2,09,1.1,306.1,M,-23.7,M,2.8,0000*45
$GPGSA,A,3,18,22,31,01,25,12,32,14,11,,,,1.8,1.1,1.4*34
$GPRMC,184402.000,A,3353.5461,N,09831.5676,W,18.97,207.70,290312,,,D*4D
$GPGGA,184403.000,3353.5408,N,09831.5710,W,2,09,1.1,306.1,M,-23.7,M,0.8,0000*48
$GPGSA,A,3,18,22,31,01,25,12,32,14,11,,,,1.8,1.1,1.4*34
$GPGSV,3,1,11,22,61,099,37,14,60,014,31,31,57,193,38,11,26,290,33*73
$GPGSV,3,2,11,25,22,094,35,01,20,313,33,18,19,117,32,32,17,308,26*79
$GPGSV,3,3,11,12,11,054,24,19,04,252,16,51,49,195,35*41
$GPRMC,184403.000,A,3353.5408,N,09831.5710,W,21.18,207.55,290312,,,D*48
$GPGGA,184404.000,3353.5350,N,09831.5747,W,2,09,1.1,306.0,M,-23.7,M,0.8,0000*46
$GPGSA,A,3,18,22,31,01,25,12,32,14,11,,,,1.8,1.1,1.4*34
$GPRMC,184404.000,A,3353.5350,N,09831.5747,W,23.49,207.67,290312,,,D*40
$GPGGA,184405.000,3353.5289,N,09831.5787,W,2,09,1.1,305.9,M,-23.7,M,0.8,0000*44
$GPGSA,A,3,18,22,31,01,25,12,32,14,11,,,,1.8,1.1,1.4*34
$GPRMC,184405.000,A,3353.5289,N,09831.5787,W,25.35,207.54,290312,,,D*45
$GPGGA,184406.000,3353.5223,N,09831.5828,W,2,09,1.1,305.8,M,-23.7,M,1.8,0000*4D
$GPGSA,A,3,18,22,31,01,25,12,32,14,11,,,,1.8,1.1,1.4*34
$GPRMC,184406.000,A,3353.5223,N,09831.5828,W,26.91,207.37,290312,,,D*44
$GPGGA,184407.000,3353.5152,N,09831.5873,W,2,09,1.1,305.8,M,-23.7,M,2.8,0000*44
$GPGSA,A,3,18,22,31,01,25,12,32,14,11,,,,1.8,1.1,1.4*34
$GPRMC,184407.000,A,3353.5152,N,09831.5873,W,28.10,207.75,290312,,,D*4F
$GPGGA,184408.000,3353.5080,N,09831.5920,W,2,08,1.1,305.6,M,-23.7,M,3.8,0000*4C
$GPGSA,A,3,18,22,31,25,12,32,14,11,,,,,1.8,1.1,1.4*35
$GPGSV,3,1,11,22,61,099,36,14,60,014,30,31,57,193,38,11,26,290,31*71
$GPGSV,3,2,11,25,22,094,35,01,20,313,,18,19,117,31,32,17,308,27*7B
$GPGSV,3,3,11,12,11,054,23,19,04,252,07,51,49,195,36*45
$GPRMC,184408.000,A,3353.5080,N,09831.5920,W,29.09,208.00,290312,,,D*4D
$GPGGA,184409.000,3353.5004,N,09831.5968,W,2,08,1.1,305.6,M,-23.7,M,0.8,0000*4E
$GPGSA,A,3,18,22,31,25,12,32,14,11,,,,,1.8,1.1,1.4*35
$GPRMC,184409.000,A,3353.5004,N,09831.5968,W,30.42,207.34,290312,,,D*43
$GPGGA,184410.000,3353.4927,N,09831.6016,W,2,09,1.1,305.5,M,-23.7,M,0.8,0000*4E
$GPGSA,A,3,18,22,31,01,25,12,32,14,11,,,,1.8,1.1,1.4*34
$GPRMC,184410.000,A,3353.4927,N,09831.6016,W,31.59,207.06,290312,,,D*4B
$GPGGA,184411.000,3353.4847,N,09831.6067,W,2,09,1.1,305.3,M,-23.7,M,0.8,0000*48
$GPGSA,A,3,18,22,31,01,25,12,32,14,11,,,,1.8,1.1,1.4*34
$GPRMC,184411.000,A,3353.4847,N,09831.6067,W,32.48,207.17,290312,,,D*48
$GPGGA,184412.000,3353.4765,N,09831.6118,W,2,09,1.1,305.3,M,-23.7,M,0.8,0000*4D
$GPGSA,A,3,18,22,31,01,25,12,32,14,11,,,,1.8,1.1,1.4*34
$GPRMC,184412.000,A,3353.4765,N,09831.6118,W,33.17,206.59,290312,,,D*4D
$GPGGA,184413.000,3353.4682,N,09831.6166,W,2,09,1.1,305.1,M,-23.7,M,1.8,0000*4E
$GPGSA,A,3,18,22,31,01,25,12,32,14,11,,,,1.8,1.1,1.4*34
$GPGSV,3,1,11,22,61,099,35,14,60,014,30,31,57,193,38,11,26,290,34*77
$GPGSV,3,2,11,25,22,094,33,01,20,313,31,18,19,117,30,32,17,308,28*71
$GPGSV,3,3,11,12,11,054,24,19,04,252,,51,49,195,32*41
$GPRMC,184413.000,A,3353.4682,N,09831.6166,W,33.47,205.71,290312,,,D*41
$GPGGA,184414.000,3353.4594,N,09831.6215,W,2,09,1.1,304.5,M,-23.7,M,2.8,0000*4C
$GPGSA,A,3,18,22,31,01,25,12,32,14,11,,,,1.8,1.1,1.4*34
$GPRMC,184414.000,A,3353.4594,N,09831.6215,W,33.62,204.85,290312,,,D*48
$GPGGA,184415.000,3353.4506,N,09831.6263,W,2,09,1.1,304.4,M,-23.7,M,3.8,0000*47
$GPGSA,A,3,18,22,31,01,25,12,32,14,11,,,,1.8,1.1,1.4*34
$GPRMC,184415.000,A,3353.4506,N,09831.6263,W,33.75,204.15,290312,,,D*4C
$GPGGA,184416.000,3353.4418,N,09831.6309,W,2,09,1.1,304.6,M,-23.7,M,0.8,0000*46
$GPGSA,A,3,18,22,31,01,25,12,32,14,11,,,,1.8,1.1,1.4*34
$GPRMC,184416.000,A,3353.4418,N,09831.6309,W,34.06,202.09,290312,,,D*44
$GPGGA,184417.000,3353.4327,N,09831.6352,W,2,09,1.1,304.7,M,-23.7,M,0.8,0000*43
$GPGSA,A,3,18,22,31,01,25,12,32,14,11,,,,1.8,1.1,1.4*34
$GPRMC,184417.000,A,3353.4327,N,09831.6352,W,34.28,200.48,290312,,,D*4B
$GPGGA,184418.000,3353.4234,N,09831.6391,W,2,09,1.1,304.7,M,-23.7,M,1.8,0000*41
$GPGSA,A,3,18,22,31,01,25,12,32,14,11,,,,1.8,1.1,1.4*34
$GPGSV,3,1,12,22,60,101,34,14,60,015,31,31,58,193,34,11,26,290,33*70
$GPGSV,3,2,12,25,22,093,32,01,21,313,31,18,18,117,28,32,18,308,32*79
$GPGSV,3,3,12,12,11,054,35,19,03,251,18,30,00,178,,51,49,195,37*77
$GPRMC,184418.000,A,3353.4234,N,09831.6391,W,34.77,198.43,290312,,,D*4B
$GPGGA,184419.000,3353.4139,N,09831.6426,W,2,08,1.1,304.5,M,-23.7,M,2.8,0000*45
$GPGSA,A,3,18,22,31,01,25,12,14,11,,,,,1.9,1.1,1.5*35
$GPRMC,184419.000,A,3353.4139,N,09831.6426,W,34.76,196.01,290312,,,D*46
$GPGGA,184420.000,3353.4045,N,09831.6456,W,2,09,1.1,304.4,M,-23.7,M,0.8,0000*40
$GPGSA,A,3,18,22,31,01,25,12,32,14,11,,,,1.8,1.1,1.4*34
$GPRMC,184420.000,A,3353.4045,N,09831.6456,W,34.59,194.08,290312,,,D*47
$GPGGA,184421.000,3353.3950,N,09831.6483,W,2,09,1.1,304.3,M,-23.7,M,0.8,0000*44
$GPGSA,A,3,18,22,31,01,25,12,32,14,11,,,,1.8,1.1,1.4*34
$GPRMC,184421.000,A,3353.3950,N,09831.6483,W,34.65,192.45,290312,,,D*44
$GPGGA,184422.000,3353.3855,N,09831.6506,W,2,09,1.1,304.1,M,-23.7,M,0.8,0000*4D
$GPGSA,A,3,18,22,31,01,25,12,32,14,11,,,,1.8,1.1,1.4*34
$GPRMC,184422.000,A,3353.3855,N,09831.6506,W,34.27,191.13,290312,,,D*49
$GPGGA,184423.000,3353.3761,N,09831.6526,W,2,09,1.1,303.8,M,-23.7,M,0.8,0000*48
$GPGSA,A,3,18,22,31,01,25,12,32,14,11,,,,1.8,1.1,1.4*34
$GPGSV,3,1,12,22,60,101,35,14,60,015,33,31,58,193,29,11,26,290,27*7A
$GPGSV,3,2,12,25,22,093,33,01,21,313,28,18,18,117,28,32,18,308,32*70
$GPGSV,3,3,12,12,11,054,22,19,03,251,18,30,00,178,,51,49,195,39*7F
$GPRMC,184423.000,A,3353.3761,N,09831.6526,W,33.81,190.16,290312,,,D*4D
$GPGGA,184424.000,3353.3667,N,09831.6545,W,2,09,1.1,303.4,M,-23.7,M,1.8,0000*40
$GPGSA,A,3,18,22,31,01,25,12,32,14,11,,,,1.8,1.1,1.4*34
$GPRMC,184424.000,A,3353.3667,N,09831.6545,W,33.54,189.12,290312,,,D*4C
$GPGGA,184425.000,3353.3575,N,09831.6562,W,2,09,1.1,303.1,M,-23.7,M,0.8,0000*40
$GPGSA,A,3,18,22,31,01,25,12,32,14,11,,,,1.8,1.1,1.4*34
$GPRMC,184425.000,A,3353.3575,N,09831.6562,W,33.32,187.93,290312,,,D*4F
$GPGGA,184426.000,3353.3483,N,09831.6577,W,2,09,1.1,302.7,M,-23.7,M,1.8,0000*49
$GPGSA,A,3,18,22,31,01,25,12,32,14,11,,,,1.8,1.1,1.4*34
$GPRMC,184426.000,A,3353.3483,N,09831.6577,W,32.71,187.63,290312,,,D*49
$GPGGA,184427.000,3353.3393,N,09831.6592,W,2,09,1.1,302.5,M,-23.7,M,0.8,0000*46
$GPGSA,A,3,18,22,31,01,25,12,32,14,11,,,,1.8,1.1,1.4*34
$GPRMC,184427.000,A,3353.3393,N,09831.6592,W,32.18,187.58,290312,,,D*42
$GPGGA,184428.000,3353.3304,N,09831.6606,W,2,09,1.1,302.5,M,-23.7,M,0.8,0000*49
$GPGSA,A,3,18,22,31,01,25,12,32,14,11,,,,1.8,1.1,1.4*34
$GPGSV,3,1,12,22,60,101,37,14,60,015,33,31,58,193,30,11,26,290,37*71
$GPGSV,3,2,12,25,22,093,35,01,21,313,32,18,18,117,35,32,18,308,30*73
$GPGSV,3,3,12,12,11,054,32,19,03,251,18,30,00,178,,51,49,195,38*7F
$GPRMC,184428.000,A,3353.3304,N,09831.6606,W,31.97,187.45,290312,,,D*45
$GPGGA,184429.000,3353.3216,N,09831.6619,W,2,09,1.1,302.5,M,-23.7,M,0.8,0000*44
$GPGSA,A,3,18,22,31,01,25,12,32,14,11,,,,1.8,1.1,1.4*34
$GPRMC,184429.000,A,3353.3216,N,09831.6619,W,31.29,187.31,290312,,,D*4E
$GPGGA,184430.000,3353.3131,N,09831.6633,W,2,09,1.1,302.6,M,-23.7,M,1.8,0000*40
$GPGSA,A,3,18,22,31,01,25,12,32,14,11,,,,1.8,1.1,1.4*34
$GPRMC,184430.000,A,3353.3131,N,09831.6633,W,30.53,187.59,290312,,,D*4A
$GPGGA,184431.000,3353.3048,N,09831.6646,W,2,09,1.1,302.8,M,-23.7,M,2.8,0000*41
$GPGSA,A,3,18,22,31,01,25,12,32,14,11,,,,1.8,1.1,1.4*34
$GPRMC,184431.000,A,3353.3048,N,09831.6646,W,29.91,187.73,290312,,,D*48
$GPGGA,184432.000,3353.2966,N,09831.6660,W,2,09,1.1,303.0,M,-23.7,M,0.8,0000*49
$GPGSA,A,3,18,22,31,01,25,12,32,14,11,,,,1.8,1.1,1.4*34
$GPRMC,184432.000,A,3353.2966,N,09831.6660,W,29.22,187.68,290312,,,D*49
$GPGGA,184433.000,3353.2885,N,09831.6673,W,2,09,1.1,303.2,M,-23.7,M,0.8,0000*44
$GPGSA,A,3,18,22,31,01,25,12,32,14,11,,,,1.8,1.1,1.4*34
$GPGSV,3,1,12,22,60,101,38,14,60,015,34,31,58,193,31,11,26,290,37*78
$GPGSV,3,2,12,25,22,093,36,01,21,313,33,18,18,117,35,32,18,308,30*71
$GPGSV,3,3,12,12,11,054,35,19,03,251,20,30,00,178,,51,49,195,37*7C
$GPRMC,184433.000,A,3353.2885,N,09831.6673,W,28.86,187.56,290312,,,D*44
$GPGGA,184434.000,3353.2805,N,09831.6686,W,2,09,1.1,303.4,M,-23.7,M,0.8,0000*47
$GPGSA,A,3,18,22,31,01,25,12,32,14,11,,,,1.8,1.1,1.4*34
$GPRMC,184434.000,A,3353.2805,N,09831.6686,W,28.51,187.56,290312,,,D*4B
$GPGGA,184435.000,3353.2727,N,09831.6699,W,2,09,1.1,303.5,M,-23.7,M,0.8,0000*46
$GPGSA,A,3,18,22,31,01,25,12,32,14,11,,,,1.8,1.1,1.4*34
$GPRMC,184435.000,A,3353.2727,N,09831.6699,W,27.99,187.58,290312,,,D*4E
$GPGGA,184436.000,3353.2650,N,09831.6712,W,2,09,1.1,303.6,M,-23.7,M,1.8,0000*44
$GPGSA,A,3,18,22,31,01,25,12,32,14,11,,,,1.8,1.1,1.4*34
$GPRMC,184436.000,A,3353.2650,N,09831.6712,W,27.52,187.58,290312,,,D*49
$GPGGA,184437.000,3353.2575,N,09831.6724,W,2,09,1.1,303.7,M,-23.7,M,2.8,0000*46
$GPGSA,A,3,18,22,31,01,25,12,32,14,11,,,,1.8,1.1,1.4*34
$GPRMC,184437.000,A,3353.2575,N,09831.6724,W,26.88,187.51,290312,,,D*46
$GPGGA,184438.000,3353.2501,N,09831.6736,W,2,09,1.1,303.6,M,-23.7,M,3.8,0000*49
$GPGSA,A,3,18,22,31,01,25,12,32,14,11,,,,1.8,1.1,1.4*34
$GPGSV,3,1,12,22,60,101,38,14,60,015,34,31,58,193,31,11,26,290,37*78
$GPGSV,3,2,12,25,22,093,36,01,21,313,33,18,18,117,33,32,18,308,31*76
$GPGSV,3,3,12,12,11,054,29,19,03,251,24,30,00,178,,51,49,195,38*7A
$GPRMC,184438.000,A,3353.2501,N,09831.6736,W,26.40,187.51,290312,,,D*4D
$GPGGA,184439.000,3353.2429,N,09831.6748,W,2,09,1.1,303.6,M,-23.7,M,0.8,0000*49
$GPGSA,A,3,18,22,31,01,25,12,32,14,11,,,,1.8,1.1,1.4*34
$GPRMC,184439.000,A,3353.2429,N,09831.6748,W,26.06,187.73,290312,,,D*4C
$GPGGA,184440.000,3353.2358,N,09831.6759,W,2,09,1.1,303.4,M,-23.7,M,0.8,0000*44
$GPGSA,A,3,18,22,31,01,25,12,32,14,11,,,,1.8,1.1,1.4*34
$GPRMC,184440.000,A,3353.2358,N,09831.6759,W,25.33,187.80,290312,,,D*4A
$GPGGA,184441.000,3353.2291,N,09831.6770,W,2,09,1.1,303.4,M,-23.7,M,0.8,0000*4A
$GPGSA,A,3,18,22,31,01,25,12,32,14,11,,,,1.8,1.1,1.4*34
$GPRMC,184441.000,A,3353.2291,N,09831.6770,W,23.62,187.92,290312,,,D*45
$GPGGA,184442.000,3353.2231,N,09831.6780,W,2,09,1.1,303.3,M,-23.7,M,1.8,0000*4A
$GPGSA,A,3,18,22,31,01,25,12,32,14,11,,,,1.8,1.1,1.4*34
$GPRMC,184442.000,A,3353.2231,N,09831.6780,W,21.08,187.99,290312,,,D*46
$GPGGA,184443.000,3353.2178,N,09831.6789,W,2,09,1.1,303.3,M,-23.7,M,2.8,0000*4F
$GPGSA,A,3,18,22,31,01,25,12,32,14,11,,,,1.8,1.1,1.4*34
$GPGSV,3,1,12,22,60,101,37,14,60,015,28,31,58,193,21,11,26,290,37*7B
$GPGSV,3,2,12,25,22,093,36,01,21,313,32,18,18,117,34,32,18,308,26*76
$GPGSV,3,3,12,12,11,054,31,19,03,251,21,30,00,178,,51,49,195,38*76
$GPRMC,184443.000,A,3353.2178,N,09831.6789,W,18.56,188.22,290312,,,D*4E
$GPGGA,184444.000,3353.2130,N,09831.6798,W,2,09,1.1,303.1,M,-23.7,M,3.8,0000*47
$GPGSA,A,3,18,22,31,01,25,12,32,14,11,,,,1.8,1.1,1.4*34
$GPRMC,184444.000,A,3353.2130,N,09831.6798,W,17.37,188.78,290312,,,D*42
$GPGGA,184445.000,3353.2084,N,09831.6806,W,2,09,1.1,303.1,M,-23.7,M,0.8,0000*43
$GPGSA,A,3,18,22,31,01,25,12,32,14,11,,,,1.8,1.1,1.4*34
$GPRMC,184445.000,A,3353.2084,N,09831.6806,W,16.30,188.54,290312,,,D*4D
$GPGGA,184446.000,3353.2045,N,09831.6813,W,2,09,1.1,303.3,M,-23.7,M,0.8,0000*4B
$GPGSA,A,3,18,22,31,01,25,12,32,14,11,,,,1.8,1.1,1.4*34
$GPRMC,184446.000,A,3353.2045,N,09831.6813,W,14.01,188.99,290312,,,D*46
$GPGGA,184447.000,3353.2015,N,09831.6819,W,2,09,1.1,303.9,M,-23.7,M,1.8,0000*4E
$GPGSA,A,3,18,22,31,01,25,12,32,14,11,,,,1.8,1.1,1.4*34
$GPRMC,184447.000,A,3353.2015,N,09831.6819,W,11.25,190.14,290312,,,D*47
$GPGGA,184448.000,3353.1992,N,09831.6825,W,2,09,1.1,303.7,M,-23.7,M,2.8,0000*46
$GPGSA,A,3,18,22,31,01,25,12,32,14,11,,,,1.8,1.1,1.4*34
$GPGSV,3,1,12,22,60,101,37,14,59,015,25,31,59,193,26,11,26,289,36*73
$GPGSV,3,2,12,25,23,093,36,01,21,313,25,18,18,118,34,32,18,308,18*73
$GPGSV,3,3,12,12,11,054,26,19,03,251,15,30,00,178,,51,49,195,37*78
$GPRMC,184448.000,A,3353.1992,N,09831.6825,W,8.24,190.96,290312,,,D*71
$GPGGA,184449.000,3353.1977,N,09831.6828,W,2,09,1.1,303.7,M,-23.7,M,0.8,0000*43
$GPGSA,A,3,18,22,31,01,25,12,32,14,11,,,,1.8,1.1,1.4*34
$GPRMC,184449.000,A,3353.1977,N,09831.6828,W,5.77,190.40,290312,,,D*76
$GPGGA,184450.000,3353.1962,N,09831.6831,W,2,09,1.1,303.8,M,-23.7,M,1.8,0000*49
$GPGSA,A,3,18,22,31,01,25,12,32,14,11,,,,1.8,1.1,1.4*34
$GPRMC,184450.000,A,3353.1962,N,09831.6831,W,5.75,188.22,290312,,,D*7D
$GPGGA,184451.000,3353.1942,N,09831.6834,W,2,09,1.1,303.6,M,-23.7,M,0.8,0000*40
$GPGSA,A,3,18,22,31,01,25,12,32,14,11,,,,1.8,1.1,1.4*34
$GPRMC,184451.000,A,3353.1942,N,09831.6834,W,7.44,187.30,290312,,,D*77
$GPGGA,184452.000,3353.1918,N,09831.6838,W,2,08,1.3,303.1,M,-23.7,M,0.8,0000*44
$GPGSA,A,3,18,22,31,01,25,32,14,11,,,,,2.0,1.3,1.5*3F
$GPRMC,184452.000,A,3353.1918,N,09831.6838,W,9.12,185.76,290312,,,D*7A
$GPGGA,184453.000,3353.1887,N,09831.6843,W,2,09,1.1,302.8,M,-23.7,M,0.8,0000*45
$GPGSA,A,3,18,22,31,01,25,12,32,14,11,,,,1.8,1.1,1.4*34
$GPGSV,3,1,12,22,60,101,36,14,59,015,34,31,59,193,19,11,26,289,31*79
$GPGSV,3,2,12,25,23,093,37,01,21,313,27,18,18,118,34,32,18,308,24*7F
$GPGSV,3,3,12,12,11,054,27,19,03,251,15,30,00,178,,51,49,195,33*7D
$GPRMC,184453.000,A,3353.1887,N,09831.6843,W,12.05,187.42,290312,,,D*49
$GPGGA,184454.000,3353.1849,N,09831.6850,W,2,09,1.1,302.4,M,-23.7,M,1.8,0000*4F
$GPGSA,A,3,18,22,31,01,25,12,32,14,11,,,,1.8,1.1,1.4*34
$GPRMC,184454.000,A,3353.1849,N,09831.6850,W,13.96,188.71,290312,,,D*4A
$GPGGA,184455.000,3353.1806,N,09831.6858,W,2,09,1.1,302.0,M,-23.7,M,2.8,0000*4A
$GPGSA,A,3,18,22,31,01,25,12,32,14,11,,,,1.8,1.1,1.4*34
$GPRMC,184455.000,A,3353.1806,N,09831.6858,W,15.68,188.36,290312,,,D*4C
$GPGGA,184456.000,3353.1757,N,09831.6868,W,2,09,1.1,301.6,M,-23.7,M,3.8,0000*45
$GPGSA,A,3,18,22,31,01,25,12,32,14,11,,,,1.8,1.1,1.4*34
$GPRMC,184456.000,A,3353.1757,N,09831.6868,W,17.59,188.43,290312,,,D*45
