$GPGGA,215515.000,3352.1445,N,09832.8712,W,1,05,3.2,318.2,M,-23.7,M,18.8,0000*7E
$GPGSA,A,3,20,23,32,31,30,,,,,,,,7.3,3.2,6.6*34
$GPRMC,215515.000,A,3352.1445,N,09832.8712,W,27.34,180.31,300312,,,A*4E
$GPGGA,215516.000,3352.1366,N,09832.8712,W,1,05,3.2,318.4,M,-23.7,M,18.8,0000*7D
$GPGSA,A,3,20,23,32,31,30,,,,,,,,7.3,3.2,6.6*34
$GPGSV,3,1,12,30,68,085,34,32,65,208,27,16,60,157,,20,56,268,30*7E
$GPGSV,3,2,12,23,36,313,27,31,31,048,24,06,09,144,25,13,09,301,20*73
$GPGSV,3,3,12,14,07,107,26,03,07,158,25,01,05,227,,29,01,049,*71
$GPRMC,215516.000,A,3352.1366,N,09832.8712,W,27.84,180.26,300312,,,A*46
$GPGGA,215517.000,3352.1287,N,09832.8712,W,0,00,,318.5,M,-23.7,M,,0000*47
$GPGSA,A,1,,,,,,,,,,,,,,,*1E
$GPRMC,215517.000,V,3352.1287,N,09832.8712,W,,,300312,,,N*65
$GPGGA,215518.000,3352.1208,N,09832.8713,W,0,00,,318.8,M,-23.7,M,,0000*43
$GPGSA,A,1,,,,,,,,,,,,,,,*1E
$GPRMC,215518.000,V,3352.1208,N,09832.8713,W,,,300312,,,N*6C
$GPGGA,215519.000,3352.1127,N,09832.8712,W,1,05,3.2,319.0,M,-23.7,M,18.8,0000*70
$GPGSA,A,3,20,23,32,31,30,,,,,,,,7.3,3.2,6.5*37
$GPRMC,215519.000,A,3352.1127,N,09832.8712,W,28.32,179.94,300312,,,A*43
$GPGGA,215520.000,3352.1044,N,09832.8713,W,1,05,3.2,319.1,M,-23.7,M,18.8,0000*7E
$GPGSA,A,3,20,23,32,31,30,,,,,,,,7.3,3.2,6.5*37
$GPRMC,215520.000,A,3352.1044,N,09832.8713,W,28.81,180.65,300312,,,A*4C
$GPGGA,215521.000,3352.0961,N,09832.8711,W,1,06,2.3,319.1,M,-23.7,M,18.8,0000*71
$GPGSA,A,3,20,23,32,31,30,16,,,,,,,5.8,2.3,5.4*3B
$GPGSV,3,1,12,30,68,085,35,32,65,208,25,16,60,157,19,20,56,268,30*75
$GPGSV,3,2,12,23,36,313,21,31,31,048,24,06,09,144,25,13,09,301,25*70
$GPGSV,3,3,12,14,07,107,23,03,07,158,18,01,05,227,,29,01,049,*7A
$GPRMC,215521.000,A,3352.0961,N,09832.8711,W,29.01,179.47,300312,,,A*4F
$GPGGA,215522.000,3352.0875,N,09832.8711,W,1,06,2.3,319.1,M,-23.7,M,18.8,0000*76
$GPGSA,A,3,20,23,32,31,30,16,,,,,,,5.8,2.3,5.4*3B
$GPRMC,215522.000,A,3352.0875,N,09832.8711,W,29.70,180.42,300312,,,A*4D
$GPGGA,215523.000,3352.0795,N,09832.8710,W,1,06,2.3,319.0,M,-23.7,M,18.8,0000*76
$GPGSA,A,3,20,23,32,31,30,16,,,,,,,5.8,2.3,5.4*3B
$GPRMC,215523.000,A,3352.0795,N,09832.8710,W,28.29,180.20,300312,,,A*45
$GPGGA,215524.000,3352.0715,N,09832.8708,W,1,06,2.3,318.7,M,-23.7,M,18.8,0000*76
$GPGSA,A,3,20,23,32,31,30,16,,,,,,,5.8,2.3,5.4*3B
$GPRMC,215524.000,A,3352.0715,N,09832.8708,W,28.00,179.46,300312,,,A*4E
$GPGGA,215525.000,3352.0640,N,09832.8707,W,1,06,2.3,318.4,M,-23.7,M,18.8,0000*7A
$GPGSA,A,3,20,23,32,31,30,16,,,,,,,5.8,2.3,5.4*3B
$GPRMC,215525.000,A,3352.0640,N,09832.8707,W,26.63,179.71,300312,,,A*4E
$GPGGA,215526.000,3352.0567,N,09832.8707,W,1,06,2.3,318.5,M,-23.7,M,18.8,0000*7E
$GPGSA,A,3,20,23,32,31,30,16,,,,,,,5.8,2.3,5.4*3B
$GPGSV,3,1,12,30,68,085,31,32,65,208,28,16,60,157,18,20,56,268,24*78
$GPGSV,3,2,12,23,36,313,24,31,31,048,26,06,09,144,21,13,09,301,27*71
$GPGSV,3,3,12,14,07,107,22,03,07,158,23,01,05,227,,29,01,049,*73
$GPRMC,215526.000,A,3352.0567,N,09832.8707,W,26.04,180.85,300312,,,A*47
$GPGGA,215527.000,3352.0496,N,09832.8715,W,1,06,2.3,318.7,M,-23.7,M,18.8,0000*71
$GPGSA,A,3,20,23,32,31,30,16,,,,,,,5.8,2.3,5.3*3C
$GPRMC,215527.000,A,3352.0496,N,09832.8715,W,25.66,185.33,300312,,,A*45
$GPGGA,215528.000,3352.0425,N,09832.8723,W,0,00,,318.8,M,-23.7,M,,0000*4B
$GPGSA,A,1,,,,,,,,,,,,,,,*1E
$GPRMC,215528.000,V,3352.0425,N,09832.8723,W,,,300312,,,N*64
$GPGGA,215529.000,3352.0362,N,09832.8745,W,1,06,2.3,318.9,M,-23.7,M,18.8,0000*78
$GPGSA,A,3,20,23,32,31,30,16,,,,,,,5.8,2.3,5.3*3C
$GPRMC,215529.000,A,3352.0362,N,09832.8745,W,23.75,195.16,300312,,,A*40
$GPGGA,215530.000,3352.0305,N,09832.8772,W,1,05,1.5,319.1,M,-23.7,M,18.8,0000*7A
$GPGSA,A,3,20,23,32,31,16,,,,,,,,1.8,1.5,1.0*39
$GPRMC,215530.000,A,3352.0305,N,09832.8772,W,21.99,200.62,300312,,,A*41
$GPGGA,215531.000,3352.0256,N,09832.8801,W,1,05,1.5,319.3,M,-23.7,M,18.8,0000*75
$GPGSA,A,3,20,23,32,31,16,,,,,,,,1.8,1.5,1.0*39
$GPGSV,3,1,12,30,68,085,,32,65,208,36,16,60,157,31,20,56,268,33*78
$GPGSV,3,2,12,23,36,313,29,31,31,048,30,06,09,144,17,13,09,301,19*73
$GPGSV,3,3,12,14,07,107,21,03,07,158,22,01,05,227,,29,01,049,*71
$GPRMC,215531.000,A,3352.0256,N,09832.8801,W,19.67,204.90,300312,,,A*4F
$GPGGA,215532.000,3352.0216,N,09832.8831,W,1,06,2.3,319.3,M,-23.7,M,18.8,0000*77
$GPGSA,A,3,20,23,32,31,30,16,,,,,,,5.8,2.3,5.3*3C
$GPRMC,215532.000,A,3352.0216,N,09832.8831,W,16.97,209.41,300312,,,A*4A
$GPGGA,215533.000,3352.0183,N,09832.8858,W,1,06,2.3,318.9,M,-23.7,M,18.8,0000*7D
$GPGSA,A,3,20,23,32,31,30,16,,,,,,,5.8,2.3,5.3*3C
$GPRMC,215533.000,A,3352.0183,N,09832.8858,W,14.04,212.68,300312,,,A*42
$GPGGA,215534.000,3352.0156,N,09832.8883,W,1,06,2.3,318.1,M,-23.7,M,41.8,0000*70
$GPGSA,A,3,20,23,32,31,30,16,,,,,,,5.8,2.3,5.3*3C
$GPRMC,215534.000,A,3352.0156,N,09832.8883,W,11.51,214.91,300312,,,A*4E
$GPGGA,215535.000,3352.0135,N,09832.8902,W,1,06,2.3,316.9,M,-23.7,M,41.8,0000*7A
$GPGSA,A,3,20,23,32,31,30,16,,,,,,,5.8,2.3,5.3*3C
$GPRMC,215535.000,A,3352.0135,N,09832.8902,W,8.70,215.51,300312,,,A*74
$GPGGA,215536.000,3352.0121,N,09832.8916,W,1,06,2.3,315.5,M,-23.7,M,41.8,0000*76
$GPGSA,A,3,20,23,32,31,30,16,,,,,,,5.8,2.3,5.3*3C
$GPGSV,3,1,12,30,68,085,27,32,65,208,36,16,60,157,37,20,56,268,34*7C
$GPGSV,3,2,12,23,36,313,24,31,31,048,27,06,09,144,26,13,09,301,18*7B
$GPGSV,3,3,12,14,07,107,16,03,07,158,23,01,05,227,27,29,01,049,*71
$GPRMC,215536.000,A,3352.0121,N,09832.8916,W,6.01,218.41,300312,,,A*73
$GPGGA,215537.000,3352.0113,N,09832.8923,W,1,06,2.3,314.2,M,-23.7,M,41.8,0000*76
$GPGSA,A,3,20,23,32,31,30,16,,,,,,,5.8,2.3,5.3*3C
$GPRMC,215537.000,A,3352.0113,N,09832.8923,W,2.93,211.91,300312,,,A*7E
$GPGGA,215538.000,3352.0108,N,09832.8926,W,1,06,2.3,312.9,M,-23.7,M,41.8,0000*7B
$GPGSA,A,3,20,23,32,31,30,16,,,,,,,5.8,2.3,5.3*3C
$GPRMC,215538.000,A,3352.0108,N,09832.8926,W,1.48,211.10,300312,,,A*72
$GPGGA,215539.000,3352.0104,N,09832.8932,W,1,06,2.3,311.9,M,-23.7,M,41.8,0000*70
$GPGSA,A,3,20,23,32,31,30,16,,,,,,,5.8,2.3,5.3*3C
$GPRMC,215539.000,A,3352.0104,N,09832.8932,W,2.21,228.43,300312,,,A*7A
$GPGGA,215540.000,3352.0096,N,09832.8945,W,1,06,2.3,311.2,M,-23.7,M,41.8,0000*7F
$GPGSA,A,3,20,23,32,31,30,16,,,,,,,5.8,2.3,5.3*3C
$GPRMC,215540.000,A,3352.0096,N,09832.8945,W,4.56,233.77,300312,,,A*75
$GPGGA,215541.000,3352.0089,N,09832.8967,W,1,06,2.3,310.5,M,-23.7,M,41.8,0000*76
$GPGSA,A,3,20,23,32,31,30,16,,,,,,,5.8,2.3,5.3*3C
$GPGSV,3,1,12,30,68,085,26,32,65,208,24,16,60,157,37,20,56,268,28*73
$GPGSV,3,2,12,23,36,313,35,31,31,048,30,06,09,144,19,13,09,301,17*7E
$GPGSV,3,3,12,14,07,107,16,03,07,158,27,01,05,227,23,29,01,049,*71
$GPRMC,215541.000,A,3352.0089,N,09832.8967,W,6.87,249.00,300312,,,A*79
$GPGGA,215542.000,3352.0087,N,09832.8997,W,1,06,2.3,309.6,M,-23.7,M,41.8,0000*7F
$GPGSA,A,3,20,23,32,31,30,16,,,,,,,5.8,2.3,5.3*3C
$GPRMC,215542.000,A,3352.0087,N,09832.8997,W,9.16,264.32,300312,,,A*72
$GPGGA,215543.000,3352.0089,N,09832.9036,W,1,06,2.3,308.5,M,-23.7,M,41.8,0000*71
$GPGSA,A,3,20,23,32,31,30,16,,,,,,,5.8,2.3,5.3*3C
$GPRMC,215543.000,A,3352.0089,N,09832.9036,W,11.54,275.03,300312,,,A*43
$GPGGA,215544.000,3352.0094,N,09832.9081,W,1,06,2.3,307.4,M,-23.7,M,41.8,0000*78
$GPGSA,A,3,20,23,32,31,30,16,,,,,,,5.8,2.3,5.3*3C
$GPRMC,215544.000,A,3352.0094,N,09832.9081,W,13.22,278.51,300312,,,A*4D
$GPGGA,215545.000,3352.0091,N,09832.9139,W,2,06,2.3,298.3,M,-23.7,M,0.8,0000*48
$GPGSA,A,3,20,23,32,31,30,16,,,,,,,5.8,2.3,5.3*3C
$GPRMC,215545.000,A,3352.0091,N,09832.9139,W,15.13,277.79,300312,,,D*4F
$GPGGA,215546.000,3352.0098,N,09832.9196,W,2,06,2.3,298.3,M,-23.7,M,0.8,0000*47
$GPGSA,A,3,20,23,32,31,30,16,,,,,,,5.8,2.3,5.3*3C
$GPGSV,3,1,12,30,68,085,28,32,65,208,37,16,60,157,36,20,56,268,33*74
$GPGSV,3,2,12,23,36,313,28,31,31,048,27,06,09,144,30,13,09,301,27*7C
$GPGSV,3,3,12,14,07,107,26,03,07,158,27,01,05,227,22,29,01,049,*73
$GPRMC,215546.000,A,3352.0098,N,09832.9196,W,16.45,275.73,300312,,,D*48
$GPGGA,215547.000,3352.0101,N,09832.9253,W,2,06,2.3,298.3,M,-23.7,M,0.8,0000*4D
$GPGSA,A,3,20,23,32,31,30,16,,,,,,,5.8,2.3,5.3*3C
$GPRMC,215547.000,A,3352.0101,N,09832.9253,W,17.79,273.37,300312,,,D*4A
$GPGGA,215548.000,3352.0103,N,09832.9316,W,2,06,2.3,298.2,M,-23.7,M,0.8,0000*41
$GPGSA,A,3,20,23,32,31,30,16,,,,,,,5.8,2.3,5.3*3C
$GPRMC,215548.000,A,3352.0103,N,09832.9316,W,19.02,270.34,300312,,,D*45
$GPGGA,215549.000,3352.0104,N,09832.9381,W,2,05,2.6,298.2,M,-23.7,M,1.8,0000*4E
$GPGSA,A,3,20,32,31,30,16,,,,,,,,6.0,2.6,5.4*34
$GPRMC,215549.000,A,3352.0104,N,09832.9381,W,19.81,269.56,300312,,,D*4A
$GPGGA,215550.000,3352.0105,N,09832.9450,W,2,06,2.3,298.0,M,-23.7,M,2.8,0000*4B
$GPGSA,A,3,20,23,32,31,30,16,,,,,,,5.8,2.3,5.3*3C
$GPRMC,215550.000,A,3352.0105,N,09832.9450,W,20.66,269.78,300312,,,D*47
$GPGGA,215551.000,3352.0100,N,09832.9517,W,2,06,2.3,297.6,M,-23.7,M,0.8,0000*46
$GPGSA,A,3,20,23,32,31,30,16,,,,,,,5.8,2.3,5.3*3C
$GPGSV,3,1,12,30,68,085,27,32,65,208,37,16,60,157,31,20,56,268,35*7A
$GPGSV,3,2,12,23,36,313,23,31,31,048,31,06,09,144,30,13,09,301,15*71
$GPGSV,3,3,12,14,07,107,18,03,07,158,25,01,05,227,14,29,01,049,*79
$GPRMC,215551.000,A,3352.0100,N,09832.9517,W,20.98,268.87,300312,,,D*41
$GPGGA,215552.000,3352.0099,N,09832.9588,W,2,06,2.3,297.5,M,-23.7,M,0.8,0000*41
$GPGSA,A,3,20,23,32,31,30,16,,,,,,,5.8,2.3,5.3*3C
$GPRMC,215552.000,A,3352.0099,N,09832.9588,W,21.73,269.23,300312,,,D*4E
$GPGGA,215553.000,3352.0098,N,09832.9661,W,2,06,2.3,297.5,M,-23.7,M,0.8,0000*45
$GPGSA,A,3,20,23,32,31,30,16,,,,,,,5.8,2.3,5.3*3C
$GPRMC,215553.000,A,3352.0098,N,09832.9661,W,22.34,269.58,300312,,,D*46
$GPGGA,215554.000,3352.0098,N,09832.9738,W,2,06,2.3,296.8,M,-23.7,M,1.8,0000*42
$GPGSA,A,3,20,23,32,31,30,16,,,,,,,5.8,2.3,5.3*3C
$GPRMC,215554.000,A,3352.0098,N,09832.9738,W,22.53,269.79,300312,,,D*4E
$GPGGA,215555.000,3352.0098,N,09832.9812,W,2,06,2.3,297.4,M,-23.7,M,2.8,0000*4A
$GPGSA,A,3,20,23,32,31,30,16,,,,,,,5.8,2.3,5.3*3C
$GPRMC,215555.000,A,3352.0098,N,09832.9812,W,22.55,270.36,300312,,,D*4D
$GPGGA,215556.000,3352.0100,N,09832.9890,W,2,06,2.3,297.0,M,-23.7,M,0.8,0000*45
$GPGSA,A,3,20,23,32,31,30,16,,,,,,,5.8,2.3,5.3*3C
$GPGSV,3,1,12,30,68,085,26,32,65,208,36,16,60,157,30,20,56,268,36*78
$GPGSV,3,2,12,23,36,313,22,31,31,048,32,06,09,144,30,13,09,301,25*70
$GPGSV,3,3,12,14,07,107,19,03,07,158,,01,05,227,25,29,01,049,*7D
$GPRMC,215556.000,A,3352.0100,N,09832.9890,W,22.64,270.94,300312,,,D*4E
$GPGGA,215557.000,3352.0103,N,09832.9968,W,2,05,2.7,296.5,M,-23.7,M,0.8,0000*42
$GPGSA,A,3,20,23,32,30,16,,,,,,,,8.2,2.7,7.7*3B
$GPRMC,215557.000,A,3352.0103,N,09832.9968,W,22.71,271.27,300312,,,D*47
$GPGGA,215558.000,3352.0106,N,09833.0047,W,2,06,2.3,296.5,M,-23.7,M,0.8,0000*43
$GPGSA,A,3,20,23,32,31,30,16,,,,,,,5.8,2.3,5.3*3C
$GPRMC,215558.000,A,3352.0106,N,09833.0047,W,22.74,270.07,300312,,,D*47
$GPGGA,215559.000,3352.0109,N,09833.0126,W,2,06,2.3,296.4,M,-23.7,M,0.8,0000*4A
$GPGSA,A,3,20,23,32,31,30,16,,,,,,,5.8,2.3,5.3*3C
$GPRMC,215559.000,A,3352.0109,N,09833.0126,W,22.80,269.16,300312,,,D*4C
$GPGGA,215600.000,3352.0109,N,09833.0204,W,2,06,2.3,296.7,M,-23.7,M,1.8,0000*44
$GPGSA,A,3,20,23,32,31,30,16,,,,,,,5.8,2.3,5.3*3C
$GPRMC,215600.000,A,3352.0109,N,09833.0204,W,22.81,268.61,300312,,,D*40
$GPGGA,215601.000,3352.0108,N,09833.0281,W,2,06,2.3,297.1,M,-23.7,M,2.8,0000*4D
$GPGSA,A,3,20,23,32,31,30,16,,,,,,,5.8,2.3,5.3*3C
$GPGSV,3,1,12,30,68,085,28,32,65,208,33,16,60,157,29,20,56,268,36*7B
$GPGSV,3,2,12,23,36,313,22,31,31,048,29,06,09,144,24,13,09,301,*78
$GPGSV,3,3,12,14,07,107,19,03,07,158,,01,05,227,19,29,01,049,*72
$GPRMC,215601.000,A,3352.0108,N,09833.0281,W,22.99,268.79,300312,,,D*4D
$GPGGA,215602.000,3352.0109,N,09833.0360,W,2,06,2.3,296.9,M,-23.7,M,3.8,0000*49
$GPGSA,A,3,20,23,32,31,30,16,,,,,,,5.8,2.3,5.3*3C
$GPRMC,215602.000,A,3352.0109,N,09833.0360,W,23.40,269.23,300312,,,D*4A
$GPGGA,215603.000,3352.0109,N,09833.0440,W,2,06,2.3,296.7,M,-23.7,M,0.8,0000*40
$GPGSA,A,3,20,23,32,31,30,16,,,,,,,5.8,2.3,5.3*3C
$GPRMC,215603.000,A,3352.0109,N,09833.0440,W,23.94,269.95,300312,,,D*4A
$GPGGA,215604.000,3352.0109,N,09833.0523,W,2,06,2.3,296.1,M,-23.7,M,0.8,0000*45
$GPGSA,A,3,20,23,32,31,30,16,,,,,,,5.8,2.3,5.3*3C
$GPRMC,215604.000,A,3352.0109,N,09833.0523,W,24.35,270.26,300312,,,D*45
$GPGGA,215605.000,3352.0108,N,09833.0604,W,2,06,2.3,295.3,M,-23.7,M,0.8,0000*42
$GPGSA,A,3,20,23,32,31,30,16,,,,,,,5.8,2.3,5.3*3C
$GPRMC,215605.000,A,3352.0108,N,09833.0604,W,24.72,269.96,300312,,,D*43
$GPGGA,215606.000,3352.0107,N,09833.0690,W,2,05,3.1,294.7,M,-23.7,M,1.8,0000*47
$GPGSA,A,3,20,23,32,31,30,,,,,,,,7.0,3.1,6.3*31
$GPGSV,3,1,12,30,68,085,27,32,65,208,33,16,60,157,27,20,56,268,36*7A
$GPGSV,3,2,12,23,36,313,28,31,31,048,33,06,09,144,26,13,09,301,24*7D
$GPGSV,3,3,12,14,07,107,19,03,07,158,21,01,05,227,19,29,01,049,*71
$GPRMC,215606.000,A,3352.0107,N,09833.0690,W,25.14,270.04,300312,,,D*40
$GPGGA,215607.000,3352.0108,N,09833.0775,W,2,06,2.3,294.6,M,-23.7,M,2.8,0000*41
$GPGSA,A,3,20,23,32,31,30,16,,,,,,,5.8,2.3,5.3*3C
$GPRMC,215607.000,A,3352.0108,N,09833.0775,W,24.98,269.83,300312,,,D*46
$GPGGA,215608.000,3352.0110,N,09833.0858,W,2,06,2.3,294.7,M,-23.7,M,3.8,0000*47
$GPGSA,A,3,20,23,32,31,30,16,,,,,,,5.8,2.3,5.3*3C
$GPRMC,215608.000,A,3352.0110,N,09833.0858,W,24.25,270.64,300312,,,D*47
$GPGGA,215609.000,3352.0113,N,09833.0937,W,2,06,2.3,294.8,M,-23.7,M,0.8,0000*41
$GPGSA,A,3,20,23,32,31,30,16,,,,,,,5.8,2.3,5.3*3C
$GPRMC,215609.000,A,3352.0113,N,09833.0937,W,22.83,270.39,300312,,,D*4F
$GPGGA,215610.000,3352.0115,N,09833.1008,W,2,06,2.3,296.2,M,-23.7,M,0.8,0000*43
$GPGSA,A,3,20,23,32,31,30,16,,,,,,,5.8,2.3,5.3*3C
$GPRMC,215610.000,A,3352.0115,N,09833.1008,W,20.91,269.84,300312,,,D*4A
$GPGGA,215611.000,3352.0118,N,09833.1073,W,2,06,2.3,297.0,M,-23.7,M,0.8,0000*40
$GPGSA,A,3,20,23,32,31,30,16,,,,,,,5.8,2.3,5.3*3C
$GPGSV,3,1,12,30,68,085,27,32,65,208,33,16,60,157,21,20,56,268,36*7C
$GPGSV,3,2,12,23,36,313,28,31,31,048,31,06,09,144,26,13,09,301,24*7F
$GPGSV,3,3,12,14,07,107,19,03,07,158,26,01,05,227,19,29,01,049,*76
$GPRMC,215611.000,A,3352.0118,N,09833.1073,W,18.63,269.94,300312,,,D*4D
$GPGGA,215612.000,3352.0121,N,09833.1126,W,2,06,2.3,298.9,M,-23.7,M,0.8,0000*4E
$GPGSA,A,3,20,23,32,31,30,16,,,,,,,5.8,2.3,5.3*3C
$GPRMC,215612.000,A,3352.0121,N,09833.1126,W,15.58,269.75,300312,,,D*4F
$GPGGA,215613.000,3352.0125,N,09833.1169,W,2,06,2.3,301.4,M,-23.7,M,0.8,0000*4C
$GPGSA,A,3,20,23,32,31,30,16,,,,,,,5.8,2.3,5.3*3C
$GPRMC,215613.000,A,3352.0125,N,09833.1169,W,12.59,268.43,300312,,,D*43
$GPGGA,215614.000,3352.0124,N,09833.1200,W,2,06,2.3,301.4,M,-23.7,M,1.8,0000*47
$GPGSA,A,3,20,23,32,31,30,16,,,,,,,5.8,2.3,5.3*3C
$GPRMC,215614.000,A,3352.0124,N,09833.1200,W,9.12,267.66,300312,,,D*74
$GPGGA,215615.000,3352.0119,N,09833.1221,W,2,06,2.3,299.8,M,-23.7,M,0.8,0000*46
$GPGSA,A,3,20,23,32,31,30,16,,,,,,,5.8,2.3,5.3*3C
$GPRMC,215615.000,A,3352.0119,N,09833.1221,W,6.98,266.13,300312,,,D*76
$GPGGA,215616.000,3352.0114,N,09833.1237,W,2,06,2.3,299.4,M,-23.7,M,0.8,0000*43
$GPGSA,A,3,20,23,32,31,30,16,,,,,,,5.8,2.3,5.3*3C
$GPGSV,3,1,12,30,68,085,33,32,65,208,34,16,60,157,30,20,56,268,37*7F
$GPGSV,3,2,12,23,36,313,29,31,31,048,31,06,09,144,26,13,09,301,23*79
$GPGSV,3,3,12,14,07,107,20,03,07,158,26,01,05,227,19,29,01,049,*7C
$GPRMC,215616.000,A,3352.0114,N,09833.1237,W,6.18,258.61,300312,,,D*7F
$GPGGA,215617.000,3352.0105,N,09833.1256,W,2,06,2.3,299.4,M,-23.7,M,0.8,0000*45
$GPGSA,A,3,20,23,32,31,30,16,,,,,,,5.8,2.3,5.3*3C
$GPRMC,215617.000,A,3352.0105,N,09833.1256,W,7.70,237.05,300312,,,D*7D
$GPGGA,215618.000,3352.0087,N,09833.1272,W,2,06,2.3,299.7,M,-23.7,M,0.8,0000*44
$GPGSA,A,3,20,23,32,31,30,16,,,,,,,5.8,2.3,5.3*3C
$GPRMC,215618.000,A,3352.0087,N,09833.1272,W,8.18,212.25,300312,,,D*7B
$GPGGA,215619.000,3352.0066,N,09833.1282,W,2,06,2.3,299.9,M,-23.7,M,1.8,0000*4A
$GPGSA,A,3,20,23,32,31,30,16,,,,,,,5.8,2.3,5.3*3C
$GPRMC,215619.000,A,3352.0066,N,09833.1282,W,8.69,197.30,300312,,,D*76
$GPGGA,215620.000,3352.0030,N,09833.1281,W,2,06,2.3,299.0,M,-23.7,M,2.8,0000*4A
$GPGSA,A,3,20,23,32,31,30,16,,,,,,,5.8,2.3,5.3*3C
$GPRMC,215620.000,A,3352.0030,N,09833.1281,W,11.09,184.19,300312,,,D*4B
$GPGGA,215621.000,3351.9982,N,09833.1280,W,2,06,2.3,294.8,M,-23.7,M,0.8,0000*47
$GPGSA,A,3,20,23,32,31,30,16,,,,,,,5.8,2.3,5.3*3C
$GPGSV,3,1,12,30,68,085,20,32,65,208,32,16,60,157,23,20,56,268,31*7F
$GPGSV,3,2,12,23,36,313,23,31,31,048,30,06,09,144,19,13,09,301,23*7E
$GPGSV,3,3,12,14,07,107,20,03,07,158,24,01,05,227,11,29,01,049,*76
$GPRMC,215621.000,A,3351.9982,N,09833.1280,W,13.44,181.74,300312,,,D*44
$GPGGA,215622.000,3351.9938,N,09833.1278,W,2,06,2.3,293.3,M,-23.7,M,0.8,0000*4E
$GPGSA,A,3,20,23,32,31,30,16,,,,,,,5.8,2.3,5.3*3C
$GPRMC,215622.000,A,3351.9938,N,09833.1278,W,15.12,180.69,300312,,,D*49
$GPGGA,215623.000,3351.9893,N,09833.1275,W,2,06,2.3,294.3,M,-23.7,M,0.8,0000*45
$GPGSA,A,3,20,23,32,31,30,16,,,,,,,5.8,2.3,5.3*3C
$GPRMC,215623.000,A,3351.9893,N,09833.1275,W,16.53,181.69,300312,,,D*42
$GPGGA,215624.000,3351.9840,N,09833.1275,W,2,06,2.3,293.0,M,-23.7,M,1.8,0000*49
$GPGSA,A,3,20,23,32,31,30,16,,,,,,,5.8,2.3,5.3*3C
$GPRMC,215624.000,A,3351.9840,N,09833.1275,W,18.71,181.12,300312,,,D*49
$GPGGA,215625.000,3351.9779,N,09833.1273,W,2,06,2.3,290.6,M,-23.7,M,0.8,0000*4F
$GPGSA,A,3,20,23,32,31,30,16,,,,,,,5.8,2.3,5.3*3C
$GPRMC,215625.000,A,3351.9779,N,09833.1273,W,19.64,181.08,300312,,,D*45
$GPGGA,215626.000,3351.9713,N,09833.1271,W,2,06,2.3,287.6,M,-23.7,M,1.8,0000*45
$GPGSA,A,3,20,23,32,31,30,16,,,,,,,5.8,2.3,5.3*3C
$GPGSV,3,1,12,30,68,085,26,32,65,208,26,16,60,157,19,20,56,268,32*76
$GPGSV,3,2,12,23,36,313,23,31,31,048,30,06,09,144,28,13,09,301,23*7C
$GPGSV,3,3,12,14,07,107,21,03,07,158,28,01,05,227,,29,01,049,*7B
$GPRMC,215626.000,A,3351.9713,N,09833.1271,W,20.25,180.26,300312,,,D*4A
$GPGGA,215627.000,3351.9659,N,09833.1270,W,2,06,2.3,287.3,M,-23.7,M,0.8,0000*4E
$GPGSA,A,3,20,23,32,31,30,16,,,,,,,5.8,2.3,5.3*3C
$GPRMC,215627.000,A,3351.9659,N,09833.1270,W,19.75,179.11,300312,,,D*48
$GPGGA,215628.000,3351.9616,N,09833.1279,W,2,06,2.3,284.5,M,-23.7,M,0.8,0000*46
$GPGSA,A,3,20,23,32,31,30,16,,,,,,,5.8,2.3,5.3*3C
$GPRMC,215628.000,A,3351.9616,N,09833.1279,W,16.67,180.61,300312,,,D*48
$GPGGA,215629.000,3351.9570,N,09833.1279,W,0,00,,283.9,M,-23.7,M,,0000*42
$GPGSA,A,1,,,,,,,,,,,,,,,*1E
$GPRMC,215629.000,V,3351.9570,N,09833.1279,W,,,300312,,,N*6F
$GPGGA,215630.000,3351.9524,N,09833.1280,W,0,00,,283.3,M,-23.7,M,,0000*47
$GPGSA,A,1,,,,,,,,,,,,,,,*1E
$GPRMC,215630.000,V,3351.9524,N,09833.1280,W,,,300312,,,N*60
$GPGGA,215631.000,3351.9477,N,09833.1280,W,0,00,,282.6,M,-23.7,M,,0000*45
$GPGSA,A,1,,,,,,,,,,,,,,,*1E
$GPGSV,3,1,12,30,68,085,31,32,65,208,,16,60,157,37,20,56,268,29*72
$GPGSV,3,2,12,23,36,313,31,31,31,048,,06,09,144,25,13,09,301,18*79
$GPGSV,3,3,12,14,07,107,26,03,07,158,28,01,05,227,,29,01,049,*7C
$GPRMC,215631.000,V,3351.9477,N,09833.1280,W,,,300312,,,N*66
$GPGGA,215632.000,3351.9503,N,09833.1330,W,2,06,2.3,282.9,M,-23.7,M,3.8,0000*4F
$GPGSA,A,3,20,23,31,32,30,16,,,,,,,5.8,2.3,5.3*3C
$GPRMC,215632.000,A,3351.9503,N,09833.1330,W,8.63,224.95,300312,,,D*75
$GPGGA,215633.000,3351.9515,N,09833.1366,W,2,06,2.3,282.1,M,-23.7,M,0.8,0000*41
$GPGSA,A,3,20,23,31,32,30,16,,,,,,,5.8,2.3,5.3*3C
$GPRMC,215633.000,A,3351.9515,N,09833.1366,W,9.98,264.92,300312,,,D*76
$GPGGA,215634.000,3351.9519,N,09833.1405,W,2,05,2.7,281.8,M,-23.7,M,0.8,0000*45
$GPGSA,A,3,20,23,32,30,16,,,,,,,,8.4,2.7,8.0*35
$GPRMC,215634.000,A,3351.9519,N,09833.1405,W,11.92,269.12,300312,,,D*49
$GPGGA,215635.000,3351.9521,N,09833.1449,W,2,06,2.3,282.1,M,-23.7,M,0.8,0000*4A
$GPGSA,A,3,20,23,31,32,30,16,,,,,,,5.8,2.3,5.3*3C
$GPRMC,215635.000,A,3351.9521,N,09833.1449,W,13.79,267.48,300312,,,D*4D
$GPGGA,215636.000,3351.9527,N,09833.1502,W,2,06,2.3,282.1,M,-23.7,M,1.8,0000*40
$GPGSA,A,3,20,23,31,32,30,16,,,,,,,5.8,2.3,5.3*3C
$GPGSV,3,1,12,30,68,085,33,32,65,208,38,16,60,157,32,20,56,268,37*71
$GPGSV,3,2,12,23,36,313,27,31,31,048,33,06,09,144,26,13,09,301,16*73
$GPGSV,3,3,12,14,07,107,19,03,07,158,18,01,05,227,,29,01,049,*73
$GPRMC,215636.000,A,3351.9527,N,09833.1502,W,15.19,266.05,300312,,,D*4E
$GPGGA,215637.000,3351.9526,N,09833.1556,W,2,06,2.3,282.8,M,-23.7,M,2.8,0000*4B
$GPGSA,A,3,20,23,31,32,30,16,,,,,,,5.8,2.3,5.3*3C
$GPRMC,215637.000,A,3351.9526,N,09833.1556,W,16.05,264.23,300312,,,D*47
$GPGGA,215638.000,3351.9527,N,09833.1612,W,2,06,2.3,284.8,M,-23.7,M,3.8,0000*41
$GPGSA,A,3,20,23,31,32,30,16,,,,,,,5.8,2.3,5.3*3C
$GPRMC,215638.000,A,3351.9527,N,09833.1612,W,16.99,267.14,300312,,,D*48
$GPGGA,215639.000,3351.9524,N,09833.1669,W,2,06,2.3,286.1,M,-23.7,M,0.8,0000*47
$GPGSA,A,3,20,23,31,32,30,16,,,,,,,5.8,2.3,5.3*3C
$GPRMC,215639.000,A,3351.9524,N,09833.1669,W,17.47,269.69,300312,,,D*40
$GPGGA,215640.000,3351.9525,N,09833.1724,W,2,06,2.3,288.2,M,-23.7,M,0.8,0000*4D
$GPGSA,A,3,20,23,31,32,30,16,,,,,,,5.8,2.3,5.3*3C
$GPRMC,215640.000,A,3351.9525,N,09833.1724,W,17.85,270.09,300312,,,D*47
$GPGGA,215641.000,3351.9524,N,09833.1787,W,2,06,2.3,287.8,M,-23.7,M,0.8,0000*41
$GPGSA,A,3,20,23,31,32,30,16,,,,,,,5.8,2.3,5.3*3C
$GPGSV,3,1,12,30,68,085,24,32,65,208,39,16,60,157,32,20,56,268,37*76
$GPGSV,3,2,12,23,36,313,21,31,31,048,33,06,09,144,22,13,09,301,*76
$GPGSV,3,3,12,14,07,107,16,03,07,158,,01,05,227,,29,01,049,*75
$GPRMC,215641.000,A,3351.9524,N,09833.1787,W,19.07,269.82,300312,,,D*41
$GPGGA,215642.000,3351.9527,N,09833.1852,W,2,06,2.3,289.0,M,-23.7,M,0.8,0000*40
$GPGSA,A,3,20,23,31,32,30,16,,,,,,,5.8,2.3,5.3*3C
$GPRMC,215642.000,A,3351.9527,N,09833.1852,W,19.56,269.14,300312,,,D*4D
$GPGGA,215643.000,3351.9534,N,09833.1915,W,2,06,2.3,294.0,M,-23.7,M,1.8,0000*4C
$GPGSA,A,3,20,23,31,32,30,16,,,,,,,5.8,2.3,5.3*3C
$GPRMC,215643.000,A,3351.9534,N,09833.1915,W,19.75,269.03,300312,,,D*4B
$GPGGA,215644.000,3351.9531,N,09833.1984,W,2,06,2.3,293.2,M,-23.7,M,0.8,0000*42
$GPGSA,A,3,20,23,31,32,30,16,,,,,,,5.8,2.3,5.3*3C
$GPRMC,215644.000,A,3351.9531,N,09833.1984,W,20.44,270.94,300312,,,D*4F
$GPGGA,215645.000,3351.9529,N,09833.2055,W,2,06,2.3,291.2,M,-23.7,M,0.8,0000*4E
$GPGSA,A,3,20,23,31,32,30,16,,,,,,,5.8,2.3,5.3*3C
$GPRMC,215645.000,A,3351.9529,N,09833.2055,W,20.79,271.02,300312,,,D*41
$GPGGA,215646.000,3351.9531,N,09833.2130,W,2,06,2.3,290.3,M,-23.7,M,0.8,0000*46
$GPGSA,A,3,20,23,31,32,30,16,,,,,,,5.8,2.3,5.3*3C
$GPGSV,3,1,12,30,68,085,30,32,65,208,39,16,60,157,32,20,56,268,38*7C
$GPGSV,3,2,12,23,36,313,25,31,31,048,33,06,09,144,30,13,09,301,*71
$GPGSV,3,3,12,14,07,107,15,03,07,158,,01,05,227,12,29,01,049,*75
$GPRMC,215646.000,A,3351.9531,N,09833.2130,W,21.39,272.80,300312,,,D*45
$GPGGA,215647.000,3351.9535,N,09833.2204,W,2,06,2.3,290.3,M,-23.7,M,0.8,0000*47
$GPGSA,A,3,20,23,31,32,30,16,,,,,,,5.8,2.3,5.3*3C
$GPRMC,215647.000,A,3351.9535,N,09833.2204,W,21.93,272.65,300312,,,D*4F
$GPGGA,215648.000,3351.9540,N,09833.2281,W,2,06,2.3,290.3,M,-23.7,M,1.8,0000*46
$GPGSA,A,3,20,23,31,32,30,16,,,,,,,5.8,2.3,5.3*3C
$GPRMC,215648.000,A,3351.9540,N,09833.2281,W,22.38,271.79,300312,,,D*43
$GPGGA,215649.000,3351.9544,N,09833.2360,W,2,06,2.3,290.4,M,-23.7,M,2.8,0000*49
$GPGSA,A,3,20,23,31,32,30,16,,,,,,,5.8,2.3,5.3*3C
$GPRMC,215649.000,A,3351.9544,N,09833.2360,W,22.78,271.26,300312,,,D*46
$GPGGA,215650.000,3351.9547,N,09833.2440,W,2,06,2.3,290.7,M,-23.7,M,3.8,0000*45
$GPGSA,A,3,20,23,31,32,30,16,,,,,,,5.8,2.3,5.3*3C
$GPRMC,215650.000,A,3351.9547,N,09833.2440,W,23.11,270.87,300312,,,D*4C
$GPGGA,215651.000,3351.9551,N,09833.2520,W,2,06,2.3,291.4,M,-23.7,M,0.8,0000*45
$GPGSA,A,3,20,23,31,32,30,16,,,,,,,5.8,2.3,5.3*3C
$GPGSV,3,1,12,30,68,085,34,32,65,208,39,16,60,157,33,20,56,268,38*79
$GPGSV,3,2,12,23,36,313,21,31,31,048,33,06,09,144,23,13,09,301,*77
$GPGSV,3,3,12,14,07,107,15,03,07,158,,01,05,227,12,29,01,049,*75
$GPRMC,215651.000,A,3351.9551,N,09833.2520,W,23.22,270.12,300312,,,D*41
$GPGGA,215652.000,3351.9553,N,09833.2598,W,2,06,2.3,291.9,M,-23.7,M,0.8,0000*4A
$GPGSA,A,3,20,23,31,32,30,16,,,,,,,5.8,2.3,5.3*3C
$GPRMC,215652.000,A,3351.9553,N,09833.2598,W,23.07,270.24,300312,,,D*41
$GPGGA,215653.000,3351.9555,N,09833.2677,W,2,06,2.3,292.5,M,-23.7,M,0.8,0000*40
$GPGSA,A,3,20,23,31,32,30,16,,,,,,,5.8,2.3,5.3*3C
$GPRMC,215653.000,A,3351.9555,N,09833.2677,W,23.62,271.39,300312,,,D*4A
$GPGGA,215654.000,3351.9558,N,09833.2757,W,2,06,2.3,293.0,M,-23.7,M,1.8,0000*4C
$GPGSA,A,3,20,23,31,32,30,16,,,,,,,5.8,2.3,5.3*3C
$GPRMC,215654.000,A,3351.9558,N,09833.2757,W,23.70,270.31,300312,,,D*49
$GPGGA,215655.000,3351.9560,N,09833.2838,W,2,06,2.3,293.6,M,-23.7,M,2.8,0000*45
$GPGSA,A,3,20,23,31,32,30,16,,,,,,,5.8,2.3,5.3*3C
$GPRMC,215655.000,A,3351.9560,N,09833.2838,W,23.93,270.18,300312,,,D*43
$GPGGA,215656.000,3351.9561,N,09833.2918,W,2,06,2.3,294.3,M,-23.7,M,3.8,0000*47
$GPGSA,A,3,20,23,31,32,30,16,,,,,,,5.8,2.3,5.3*3C
$GPGSV,3,1,12,30,68,085,34,32,65,208,40,16,60,157,33,20,56,268,38*77
$GPGSV,3,2,12,23,36,313,21,31,31,048,33,06,09,144,26,13,09,301,*72
$GPGSV,3,3,12,14,07,107,16,03,07,158,,01,05,227,,29,01,049,*75
$GPRMC,215656.000,A,3351.9561,N,09833.2918,W,24.08,270.07,300312,,,D*49
$GPGGA,215657.000,3351.9559,N,09833.2996,W,2,06,2.3,295.1,M,-23.7,M,0.8,0000*4B
$GPGSA,A,3,20,23,31,32,30,16,,,,,,,5.8,2.3,5.3*3C
$GPRMC,215657.000,A,3351.9559,N,09833.2996,W,24.20,269.81,300312,,,D*49
$GPGGA,215658.000,3351.9559,N,09833.3076,W,2,06,2.3,295.9,M,-23.7,M,0.8,0000*4A
$GPGSA,A,3,20,23,31,32,30,16,,,,,,,5.8,2.3,5.3*3C
$GPRMC,215658.000,A,3351.9559,N,09833.3076,W,24.65,270.22,300312,,,D*40
$GPGGA,215659.000,3351.9562,N,09833.3163,W,2,06,2.3,297.3,M,-23.7,M,0.8,0000*4E
$GPGSA,A,3,20,23,31,32,30,16,,,,,,,5.8,2.3,5.3*3C
$GPRMC,215659.000,A,3351.9562,N,09833.3163,W,25.10,270.87,300312,,,D*40
$GPGGA,215700.000,3351.9566,N,09833.3249,W,2,06,2.3,297.5,M,-23.7,M,1.8,0000*4B
$GPGSA,A,3,20,23,31,32,30,16,,,,,,,5.8,2.3,5.3*3C
$GPRMC,215700.000,A,3351.9566,N,09833.3249,W,25.38,271.90,300312,,,D*4F
$GPGGA,215701.000,3351.9569,N,09833.3334,W,2,06,2.3,297.6,M,-23.7,M,0.8,0000*4C
$GPGSA,A,3,20,23,31,32,30,16,,,,,,,5.8,2.3,5.3*3C
$GPGSV,3,1,12,30,68,085,32,32,65,208,39,16,60,157,33,20,56,268,38*7F
$GPGSV,3,2,12,23,36,313,21,31,31,048,31,06,09,144,26,13,09,301,*70
$GPGSV,3,3,12,14,07,107,16,03,07,158,,01,05,227,,29,01,049,*75
$GPRMC,215701.000,A,3351.9569,N,09833.3334,W,25.75,271.59,300312,,,D*46
$GPGGA,215702.000,3351.9570,N,09833.3418,W,2,06,2.3,297.7,M,-23.7,M,1.8,0000*4E
$GPGSA,A,3,20,23,31,32,30,16,,,,,,,5.8,2.3,5.3*3C
$GPRMC,215702.000,A,3351.9570,N,09833.3418,W,25.49,270.30,300312,,,D*45
$GPGGA,215703.000,3351.9570,N,09833.3502,W,2,06,2.3,298.0,M,-23.7,M,0.8,0000*4C
$GPGSA,A,3,20,23,31,32,30,16,,,,,,,5.8,2.3,5.3*3C
$GPRMC,215703.000,A,3351.9570,N,09833.3502,W,25.29,270.58,300312,,,D*46
$GPGGA,215704.000,3351.9570,N,09833.3583,W,2,06,2.3,298.2,M,-23.7,M,0.8,0000*40
$GPGSA,A,3,20,23,31,32,30,16,,,,,,,5.8,2.3,5.3*3C
$GPRMC,215704.000,A,3351.9570,N,09833.3583,W,24.90,270.34,300312,,,D*41
$GPGGA,215705.000,3351.9567,N,09833.3662,W,2,06,2.3,298.1,M,-23.7,M,0.8,0000*48
$GPGSA,A,3,20,23,31,32,30,16,,,,,,,5.8,2.3,5.3*3C
$GPRMC,215705.000,A,3351.9567,N,09833.3662,W,24.35,270.00,300312,,,D*42
$GPGGA,215706.000,3351.9566,N,09833.3742,W,2,06,2.3,298.2,M,-23.7,M,1.8,0000*4B
$GPGSA,A,3,20,23,31,32,30,16,,,,,,,5.8,2.3,5.3*3C
$GPGSV,3,1,12,30,68,085,33,32,65,208,39,16,60,157,28,20,56,268,38*74
$GPGSV,3,2,12,23,36,313,26,31,31,048,28,06,09,144,21,13,09,301,*78
$GPGSV,3,3,12,14,07,107,16,03,07,158,,01,05,227,,29,01,049,*75
$GPRMC,215706.000,A,3351.9566,N,09833.3742,W,24.28,269.22,300312,,,D*47
$GPGGA,215707.000,3351.9567,N,09833.3823,W,2,06,2.3,298.0,M,-23.7,M,0.8,0000*40
$GPGSA,A,3,20,23,31,32,30,16,,,,,,,5.8,2.3,5.3*3C
$GPRMC,215707.000,A,3351.9567,N,09833.3823,W,24.09,269.53,300312,,,D*4A
$GPGGA,215708.000,3351.9565,N,09833.3902,W,2,06,2.3,299.2,M,-23.7,M,1.8,0000*4D
$GPGSA,A,3,20,23,31,32,30,16,,,,,,,5.8,2.3,5.3*3C
$GPRMC,215708.000,A,3351.9565,N,09833.3902,W,23.86,270.43,300312,,,D*4C
$GPGGA,215709.000,3351.9564,N,09833.3978,W,2,06,2.3,299.9,M,-23.7,M,2.8,0000*48
$GPGSA,A,3,20,23,31,32,30,16,,,,,,,5.8,2.3,5.3*3C
$GPRMC,215709.000,A,3351.9564,N,09833.3978,W,22.92,270.23,300312,,,D*43
$GPGGA,215710.000,3351.9567,N,09833.4054,W,2,06,2.3,301.4,M,-23.7,M,0.8,0000*4C
$GPGSA,A,3,20,23,31,32,30,16,,,,,,,5.8,2.3,5.3*3C
$GPRMC,215710.000,A,3351.9567,N,09833.4054,W,22.15,264.71,300312,,,D*45
$GPGGA,215711.000,3351.9561,N,09833.4128,W,2,06,2.3,303.1,M,-23.7,M,0.8,0000*46
$GPGSA,A,3,20,23,31,32,30,16,,,,,,,5.8,2.3,5.3*3C
$GPGSV,3,1,12,30,68,085,33,32,65,208,32,16,60,157,35,20,56,268,37*7C
$GPGSV,3,2,12,23,36,313,33,31,31,048,25,06,09,144,20,13,09,301,*70
$GPGSV,3,3,12,14,07,107,17,03,07,158,20,01,05,227,,29,01,049,*76
$GPRMC,215711.000,A,3351.9561,N,09833.4128,W,21.11,259.68,300312,,,D*49
$GPGGA,215712.000,3351.9547,N,09833.4198,W,2,06,2.3,304.6,M,-23.7,M,1.8,0000*4B
$GPGSA,A,3,20,23,31,32,30,16,,,,,,,5.8,2.3,5.3*3C
$GPRMC,215712.000,A,3351.9547,N,09833.4198,W,20.78,250.86,300312,,,D*42
$GPGGA,215713.000,3351.9525,N,09833.4259,W,2,06,2.3,305.3,M,-23.7,M,0.8,0000*45
$GPGSA,A,3,20,23,31,32,30,16,,,,,,,5.8,2.3,5.3*3C
$GPRMC,215713.000,A,3351.9525,N,09833.4259,W,20.22,241.48,300312,,,D*44
$GPGGA,215714.000,3351.9494,N,09833.4318,W,2,06,2.3,303.6,M,-23.7,M,0.8,0000*4E
$GPGSA,A,3,20,23,31,32,30,16,,,,,,,5.8,2.3,5.3*3C
$GPRMC,215714.000,A,3351.9494,N,09833.4318,W,20.37,238.03,300312,,,D*49
$GPGGA,215715.000,3351.9470,N,09833.4377,W,2,06,2.3,305.4,M,-23.7,M,0.8,0000*48
$GPGSA,A,3,20,23,31,32,30,16,,,,,,,5.8,2.3,5.3*3C
$GPRMC,215715.000,A,3351.9470,N,09833.4377,W,20.02,244.87,300312,,,D*4A
$GPGGA,215716.000,3351.9458,N,09833.4433,W,2,06,2.3,308.7,M,-23.7,M,0.8,0000*48
$GPGSA,A,3,20,23,31,32,30,16,,,,,,,5.8,2.3,5.3*3C
$GPGSV,3,1,12,30,68,085,26,32,65,208,36,16,60,157,33,20,56,268,33*7E
$GPGSV,3,2,12,23,36,313,21,31,31,048,25,06,09,144,22,13,09,301,*71
$GPGSV,3,3,12,14,07,107,16,03,07,158,,01,05,227,22,29,01,049,*75
$GPRMC,215716.000,A,3351.9458,N,09833.4433,W,19.54,252.11,300312,,,D*45
$GPGGA,215717.000,3351.9453,N,09833.4491,W,2,06,2.3,309.7,M,-23.7,M,0.8,0000*4B
$GPGSA,A,3,20,23,31,32,30,16,,,,,,,5.8,2.3,5.3*3C
$GPRMC,215717.000,A,3351.9453,N,09833.4491,W,18.41,263.45,300312,,,D*41
$GPGGA,215718.000,3351.9459,N,09833.4552,W,2,06,2.3,309.1,M,-23.7,M,1.8,0000*47
$GPGSA,A,3,20,23,31,32,30,16,,,,,,,5.8,2.3,5.3*3C
$GPRMC,215718.000,A,3351.9459,N,09833.4552,W,18.35,275.50,300312,,,D*4A
$GPGGA,215719.000,3351.9477,N,09833.4616,W,2,06,2.3,309.4,M,-23.7,M,2.8,0000*4F
$GPGSA,A,3,20,23,31,32,30,16,,,,,,,5.8,2.3,5.3*3C
$GPRMC,215719.000,A,3351.9477,N,09833.4616,W,19.10,287.83,300312,,,D*41
$GPGGA,215720.000,3351.9498,N,09833.4680,W,2,05,1.5,309.7,M,-23.7,M,3.8,0000*4F
$GPGSA,A,3,20,23,31,32,16,,,,,,,,1.8,1.5,1.0*39
$GPRMC,215720.000,A,3351.9498,N,09833.4680,W,20.19,293.10,300312,,,D*49
$GPGGA,215721.000,3351.9524,N,09833.4742,W,2,06,2.3,310.5,M,-23.7,M,4.8,0000*4C
$GPGSA,A,3,20,23,31,32,30,16,,,,,,,5.8,2.3,5.3*3C
$GPGSV,3,1,12,30,68,085,35,32,65,208,39,16,60,157,24,20,56,268,28*7F
$GPGSV,3,2,12,23,36,313,35,31,31,048,25,06,09,144,19,13,09,301,30*7F
$GPGSV,3,3,12,14,07,107,20,03,07,158,21,01,05,227,14,29,01,049,*76
$GPRMC,215721.000,A,3351.9524,N,09833.4742,W,20.32,295.20,300312,,,D*4D
$GPGGA,215722.000,3351.9551,N,09833.4802,W,2,06,2.3,310.1,M,-23.7,M,5.8,0000*43
$GPGSA,A,3,20,23,31,32,30,16,,,,,,,5.8,2.3,5.3*3C
$GPRMC,215722.000,A,3351.9551,N,09833.4802,W,20.24,296.03,300312,,,D*42
$GPGGA,215723.000,3351.9582,N,09833.4866,W,2,06,2.3,310.1,M,-23.7,M,6.8,0000*4D
$GPGSA,A,3,20,23,31,32,30,16,,,,,,,5.8,2.3,5.3*3C
$GPRMC,215723.000,A,3351.9582,N,09833.4866,W,20.81,296.56,300312,,,D*40
$GPGGA,215724.000,3351.9614,N,09833.4932,W,2,05,2.8,311.9,M,-23.7,M,7.8,0000*46
$GPGSA,A,3,20,23,32,30,16,,,,,,,,8.8,2.8,8.3*35
$GPRMC,215724.000,A,3351.9614,N,09833.4932,W,21.73,295.85,300312,,,D*4A
$GPGGA,215725.000,3351.9643,N,09833.4996,W,2,06,2.3,311.1,M,-23.7,M,8.8,0000*44
$GPGSA,A,3,20,23,31,32,30,16,,,,,,,5.8,2.3,5.3*3C
$GPRMC,215725.000,A,3351.9643,N,09833.4996,W,22.04,295.83,300312,,,D*42
$GPGGA,215726.000,3351.9672,N,09833.5064,W,2,06,2.3,312.4,M,-23.7,M,9.8,0000*47
$GPGSA,A,3,20,23,31,32,30,16,,,,,,,5.8,2.3,5.3*3C
$GPGSV,3,1,12,30,67,081,34,32,63,206,39,16,61,155,24,20,56,266,28*70
$GPGSV,3,2,12,23,37,314,34,31,30,049,22,06,10,143,,13,09,302,25*7F
$GPGSV,3,3,12,03,08,158,18,14,06,108,11,01,05,226,16,29,01,047,*72
$GPRMC,215726.000,A,3351.9672,N,09833.5064,W,21.92,294.84,300312,,,D*4C
$GPGGA,215727.000,3351.9699,N,09833.5136,W,2,06,2.3,314.0,M,-23.7,M,10.8,0000*7F
$GPGSA,A,3,20,23,31,32,30,16,,,,,,,5.7,2.3,5.3*33
$GPRMC,215727.000,A,3351.9699,N,09833.5136,W,21.98,295.98,300312,,,D*48
$GPGGA,215728.000,3351.9736,N,09833.5201,W,2,06,2.3,316.2,M,-23.7,M,11.8,0000*72
$GPGSA,A,3,20,23,31,32,30,16,,,,,,,5.7,2.3,5.3*33
$GPRMC,215728.000,A,3351.9736,N,09833.5201,W,21.99,302.73,300312,,,D*4F
$GPGGA,215729.000,3351.9772,N,09833.5259,W,2,06,2.3,315.9,M,-23.7,M,12.8,0000*75
$GPGSA,A,3,20,23,31,32,30,16,,,,,,,5.7,2.3,5.3*33
$GPRMC,215729.000,A,3351.9772,N,09833.5259,W,21.69,306.91,300312,,,D*44
$GPGGA,215730.000,3351.9816,N,09833.5303,W,2,06,2.3,313.9,M,-23.7,M,13.8,0000*79
$GPGSA,A,3,20,23,31,32,30,16,,,,,,,5.7,2.3,5.3*33
$GPRMC,215730.000,A,3351.9816,N,09833.5303,W,20.80,317.26,300312,,,D*45
$GPGGA,215731.000,3351.9870,N,09833.5327,W,2,05,1.5,312.3,M,-23.7,M,14.8,0000*74
$GPGSA,A,3,20,23,31,32,16,,,,,,,,1.8,1.5,1.0*39
$GPGSV,3,1,12,30,67,081,,32,63,206,27,16,61,155,28,20,56,266,37*7A
$GPGSV,3,2,12,23,37,314,33,31,30,049,25,06,10,143,26,13,09,302,16*7B
$GPGSV,3,3,12,03,08,158,22,14,06,108,13,01,05,226,16,29,01,047,*79
$GPRMC,215731.000,A,3351.9870,N,09833.5327,W,20.03,331.09,300312,,,D*40
$GPGGA,215732.000,3351.9921,N,09833.5355,W,2,06,2.3,312.3,M,-23.7,M,15.8,0000*70
$GPGSA,A,3,20,23,31,32,30,16,,,,,,,5.7,2.3,5.3*33
$GPRMC,215732.000,A,3351.9921,N,09833.5355,W,19.10,333.17,300312,,,D*46
$GPGGA,215733.000,3351.9966,N,09833.5386,W,2,06,2.3,311.7,M,-23.7,M,0.8,0000*4F
$GPGSA,A,3,20,23,31,32,30,16,,,,,,,5.7,2.3,5.3*33
$GPRMC,215733.000,A,3351.9966,N,09833.5386,W,18.66,330.30,300312,,,D*4C
$GPGGA,215734.000,3352.0007,N,09833.5422,W,2,06,2.3,312.1,M,-23.7,M,1.8,0000*41
$GPGSA,A,3,20,23,31,32,30,16,,,,,,,5.7,2.3,5.3*33
$GPRMC,215734.000,A,3352.0007,N,09833.5422,W,18.66,321.53,300312,,,D*43
$GPGGA,215735.000,3352.0042,N,09833.5468,W,2,05,2.6,311.1,M,-23.7,M,2.8,0000*49
$GPGSA,A,3,20,31,32,30,16,,,,,,,,5.9,2.6,5.3*39
$GPRMC,215735.000,A,3352.0042,N,09833.5468,W,19.41,311.89,300312,,,D*4D
$GPGGA,215736.000,3352.0072,N,09833.5516,W,2,06,2.3,309.8,M,-23.7,M,3.8,0000*46
$GPGSA,A,3,20,23,31,32,30,16,,,,,,,5.7,2.3,5.3*33
$GPGSV,3,1,12,30,67,081,26,32,63,206,35,16,61,155,31,20,56,266,29*7A
$GPGSV,3,2,12,23,37,314,28,31,30,049,30,06,10,143,26,13,09,302,26*76
$GPGSV,3,3,12,03,08,158,22,14,06,108,14,01,05,226,17,29,01,047,*7F
$GPRMC,215736.000,A,3352.0072,N,09833.5516,W,18.81,305.66,300312,,,D*4C
$GPGGA,215737.000,3352.0094,N,09833.5570,W,2,06,2.3,307.3,M,-23.7,M,4.8,0000*4D
$GPGSA,A,3,20,23,31,32,30,16,,,,,,,5.7,2.3,5.3*33
$GPRMC,215737.000,A,3352.0094,N,09833.5570,W,19.46,297.20,300312,,,D*47
$GPGGA,215738.000,3352.0109,N,09833.5631,W,2,05,2.8,305.6,M,-23.7,M,5.8,0000*4F
$GPGSA,A,3,20,23,32,30,16,,,,,,,,8.9,2.8,8.4*33
$GPRMC,215738.000,A,3352.0109,N,09833.5631,W,19.76,288.06,300312,,,D*42
$GPGGA,215739.000,3352.0125,N,09833.5697,W,2,06,2.3,307.0,M,-23.7,M,6.8,0000*43
$GPGSA,A,3,20,23,31,32,30,16,,,,,,,5.7,2.3,5.3*33
$GPRMC,215739.000,A,3352.0125,N,09833.5697,W,20.53,280.58,300312,,,D*4F
$GPGGA,215740.000,3352.0129,N,09833.5771,W,2,06,2.3,311.0,M,-23.7,M,7.8,0000*4E
$GPGSA,A,3,20,23,31,32,30,16,,,,,,,5.7,2.3,5.3*33
$GPRMC,215740.000,A,3352.0129,N,09833.5771,W,21.32,272.91,300312,,,D*4A
$GPGGA,215741.000,3352.0136,N,09833.5839,W,2,05,2.8,313.9,M,-23.7,M,0.8,0000*46
$GPGSA,A,3,20,23,32,30,16,,,,,,,,8.9,2.8,8.5*32
$GPGSV,3,1,12,30,67,081,21,32,63,206,35,16,61,155,32,20,56,266,36*70
$GPGSV,3,2,12,23,37,314,24,31,30,049,,06,10,143,30,13,09,302,13*78
$GPGSV,3,3,12,03,08,158,22,14,06,108,14,01,05,226,16,29,01,047,*7E
$GPRMC,215741.000,A,3352.0136,N,09833.5839,W,21.57,271.00,300312,,,D*4E
$GPGGA,215742.000,3352.0144,N,09833.5910,W,2,06,2.3,317.5,M,-23.7,M,1.8,0000*4B
$GPGSA,A,3,20,23,31,32,30,16,,,,,,,5.7,2.3,5.3*33
$GPRMC,215742.000,A,3352.0144,N,09833.5910,W,22.11,271.30,300312,,,D*40
$GPGGA,215743.000,3352.0145,N,09833.5985,W,2,06,2.3,317.9,M,-23.7,M,2.8,0000*48
$GPGSA,A,3,20,23,31,32,30,16,,,,,,,5.7,2.3,5.3*33
$GPRMC,215743.000,A,3352.0145,N,09833.5985,W,21.21,271.50,300312,,,D*4A
$GPGGA,215744.000,3352.0144,N,09833.6055,W,2,06,2.3,319.8,M,-23.7,M,0.8,0000*44
$GPGSA,A,3,20,23,31,32,30,16,,,,,,,5.7,2.3,5.3*33
$GPRMC,215744.000,A,3352.0144,N,09833.6055,W,19.64,269.40,300312,,,D*49
$GPGGA,215745.000,3352.0138,N,09833.6113,W,2,06,2.3,319.9,M,-23.7,M,0.8,0000*4C
$GPGSA,A,3,20,23,31,32,30,16,,,,,,,5.7,2.3,5.3*33
$GPRMC,215745.000,A,3352.0138,N,09833.6113,W,16.33,266.31,300312,,,D*44
$GPGGA,215746.000,3352.0131,N,09833.6158,W,2,06,2.3,319.6,M,-23.7,M,0.8,0000*46
$GPGSA,A,3,20,23,31,32,30,16,,,,,,,5.7,2.3,5.3*33
$GPGSV,3,1,12,30,67,081,26,32,63,206,35,16,61,155,30,20,56,266,36*75
$GPGSV,3,2,12,23,37,314,25,31,30,049,23,06,10,143,17,13,09,302,*7F
$GPGSV,3,3,12,03,08,158,21,14,06,108,17,01,05,226,,29,01,047,*79
$GPRMC,215746.000,A,3352.0131,N,09833.6158,W,12.85,261.99,300312,,,D*4D
$GPGGA,215747.000,3352.0124,N,09833.6194,W,2,05,2.8,318.3,M,-23.7,M,1.8,0000*4E
$GPGSA,A,3,20,23,31,32,30,,,,,,,,6.5,2.8,5.8*35
$GPRMC,215747.000,A,3352.0124,N,09833.6194,W,10.97,265.03,300312,,,D*4E
$GPGGA,215748.000,3352.0115,N,09833.6221,W,2,06,2.3,315.7,M,-23.7,M,0.8,0000*4E
$GPGSA,A,3,20,23,31,32,30,16,,,,,,,5.7,2.3,5.3*33
$GPRMC,215748.000,A,3352.0115,N,09833.6221,W,9.57,264.50,300312,,,D*7D
$GPGGA,215749.000,3352.0109,N,09833.6251,W,2,06,2.3,313.7,M,-23.7,M,0.8,0000*43
$GPGSA,A,3,20,23,31,32,30,16,,,,,,,5.7,2.3,5.3*33
$GPRMC,215749.000,A,3352.0109,N,09833.6251,W,10.48,265.46,300312,,,D*46
$GPGGA,215750.000,3352.0104,N,09833.6288,W,2,07,1.2,312.7,M,-23.7,M,1.8,0000*41
$GPGSA,A,3,20,23,31,32,30,16,06,,,,,,2.0,1.2,1.6*36
$GPRMC,215750.000,A,3352.0104,N,09833.6288,W,11.22,264.45,300312,,,D*48
$GPGGA,215751.000,3352.0102,N,09833.6323,W,2,07,1.2,313.2,M,-23.7,M,0.8,0000*43
$GPGSA,A,3,20,23,31,32,30,16,06,,,,,,2.0,1.2,1.6*36
$GPGSV,3,1,12,30,67,081,26,32,63,206,35,16,61,155,23,20,56,266,36*77
$GPGSV,3,2,12,23,37,314,24,31,30,049,26,06,10,143,25,13,09,302,*7A
$GPGSV,3,3,12,03,08,158,21,14,06,108,19,01,05,226,21,29,01,047,*74
$GPRMC,215751.000,A,3352.0102,N,09833.6323,W,10.15,265.96,300312,,,D*45
$GPGGA,215752.000,3352.0102,N,09833.6350,W,2,07,1.2,313.0,M,-23.7,M,1.8,0000*47
$GPGSA,A,3,20,23,31,32,30,16,06,,,,,,2.0,1.2,1.6*36
$GPRMC,215752.000,A,3352.0102,N,09833.6350,W,7.88,276.13,300312,,,D*7F
$GPGGA,215753.000,3352.0103,N,09833.6371,W,2,07,1.2,311.5,M,-23.7,M,2.8,0000*40
$GPGSA,A,3,20,23,31,32,30,16,06,,,,,,2.0,1.2,1.6*36
$GPRMC,215753.000,A,3352.0103,N,09833.6371,W,5.99,287.86,300312,,,D*7C
$GPGGA,215754.000,3352.0111,N,09833.6382,W,2,07,1.2,310.8,M,-23.7,M,3.8,0000*45
$GPGSA,A,3,20,23,31,32,30,16,06,,,,,,2.0,1.2,1.6*36
$GPRMC,215754.000,A,3352.0111,N,09833.6382,W,4.35,312.00,300312,,,D*70
$GPGGA,215755.000,3352.0117,N,09833.6390,W,2,07,1.2,311.4,M,-23.7,M,4.8,0000*4B
$GPGSA,A,3,20,23,31,32,30,16,06,,,,,,2.0,1.2,1.6*36
$GPRMC,215755.000,A,3352.0117,N,09833.6390,W,3.12,336.11,300312,,,D*70
$GPGGA,215756.000,3352.0126,N,09833.6397,W,2,07,1.2,311.8,M,-23.7,M,5.8,0000*40
$GPGSA,A,3,20,23,31,32,30,16,06,,,,,,2.0,1.2,1.6*36
$GPGSV,3,1,12,30,67,081,29,32,63,206,27,16,61,155,29,20,56,266,35*72
$GPGSV,3,2,12,23,37,314,36,31,30,049,18,06,10,143,18,13,09,302,17*7C
$GPGSV,3,3,12,03,08,158,23,14,06,108,19,01,05,226,21,29,01,047,*76
$GPRMC,215756.000,A,3352.0126,N,09833.6397,W,2.75,338.18,300312,,,D*71
$GPGGA,215757.000,3352.0138,N,09833.6397,W,2,07,1.2,311.2,M,-23.7,M,6.8,0000*47
$GPGSA,A,3,20,23,31,32,30,16,06,,,,,,2.0,1.2,1.6*36
$GPRMC,215757.000,A,3352.0138,N,09833.6397,W,3.16,355.21,300312,,,D*7A
$GPGGA,215758.000,3352.0149,N,09833.6395,W,2,07,1.2,311.3,M,-23.7,M,7.8,0000*4C
$GPGSA,A,3,20,23,31,32,30,16,06,,,,,,2.0,1.2,1.6*36
$GPRMC,215758.000,A,3352.0149,N,09833.6395,W,1.89,20.27,300312,,,D*42
$GPGGA,215759.000,3352.0153,N,09833.6393,W,2,07,1.2,310.9,M,-23.7,M,8.8,0000*44
$GPGSA,A,3,20,23,31,32,30,16,06,,,,,,2.0,1.2,1.6*36
$GPRMC,215759.000,A,3352.0153,N,09833.6393,W,0.41,67.24,300312,,,D*4B
$GPGGA,215800.000,3352.0157,N,09833.6391,W,2,07,1.2,311.0,M,-23.7,M,9.8,0000*48
$GPGSA,A,3,20,23,31,32,30,16,06,,,,,,2.0,1.2,1.6*36
$GPRMC,215800.000,A,3352.0157,N,09833.6391,W,0.21,41.35,300312,,,D*4C
$GPGGA,215801.000,3352.0159,N,09833.6390,W,2,07,1.2,310.4,M,-23.7,M,10.8,0000*7B
$GPGSA,A,3,20,23,31,32,30,16,06,,,,,,2.0,1.2,1.6*36
$GPGSV,3,1,12,30,67,081,29,32,63,206,31,16,61,155,25,20,56,266,35*79
$GPGSV,3,2,12,23,37,314,36,31,30,049,20,06,10,143,23,13,09,302,24*7F
$GPGSV,3,3,12,03,08,158,26,14,06,108,28,01,05,226,22,29,01,047,*72
$GPRMC,215801.000,A,3352.0159,N,09833.6390,W,0.14,222.21,300312,,,D*76
$GPGGA,215802.000,3352.0161,N,09833.6390,W,2,07,1.2,310.4,M,-23.7,M,11.8,0000*72
$GPGSA,A,3,20,23,31,32,30,16,06,,,,,,2.0,1.2,1.6*36
$GPRMC,215802.000,A,3352.0161,N,09833.6390,W,0.25,255.19,300312,,,D*77
$GPGGA,215803.000,3352.0163,N,09833.6390,W,2,07,1.2,309.9,M,-23.7,M,12.8,0000*77
$GPGSA,A,3,20,23,31,32,30,16,06,,,,,,2.0,1.2,1.6*36
$GPRMC,215803.000,A,3352.0163,N,09833.6390,W,0.54,216.74,300312,,,D*7E
$GPGGA,215804.000,3352.0162,N,09833.6389,W,2,07,1.2,310.1,M,-23.7,M,13.8,0000*78
$GPGSA,A,3,20,23,31,32,30,16,06,,,,,,2.0,1.2,1.6*36
$GPRMC,215804.000,A,3352.0162,N,09833.6389,W,0.55,201.58,300312,,,D*79
$GPGGA,215805.000,3352.0164,N,09833.6388,W,2,07,1.2,309.5,M,-23.7,M,14.8,0000*75
$GPGSA,A,3,20,23,31,32,30,16,06,,,,,,2.0,1.2,1.6*36
$GPRMC,215805.000,A,3352.0164,N,09833.6388,W,0.21,63.07,300312,,,D*40
$GPGGA,215806.000,3352.0166,N,09833.6389,W,2,07,1.2,309.4,M,-23.7,M,15.8,0000*75
$GPGSA,A,3,20,23,31,32,30,16,06,,,,,,2.0,1.2,1.6*36
$GPGSV,3,1,12,30,67,081,30,32,63,206,32,16,61,155,28,20,56,266,36*7C
$GPGSV,3,2,12,23,37,314,37,31,30,049,20,06,10,143,18,13,09,302,23*71
$GPGSV,3,3,12,03,08,158,21,14,06,108,21,01,05,226,23,29,01,047,*7D
$GPRMC,215806.000,A,3352.0166,N,09833.6389,W,0.30,170.13,300312,,,D*76
$GPGGA,215807.000,3352.0168,N,09833.6389,W,2,07,1.2,309.8,M,-23.7,M,16.8,0000*75
$GPGSA,A,3,20,23,31,32,30,16,06,,,,,,2.0,1.2,1.6*36
$GPRMC,215807.000,A,3352.0168,N,09833.6389,W,0.27,190.32,300312,,,D*72
$GPGGA,215808.000,3352.0170,N,09833.6388,W,2,07,1.2,309.7,M,-23.7,M,17.8,0000*7C
$GPGSA,A,3,20,23,31,32,30,16,06,,,,,,2.0,1.2,1.6*36
$GPRMC,215808.000,A,3352.0170,N,09833.6388,W,0.27,50.80,300312,,,D*41
$GPGGA,215809.000,3352.0171,N,09833.6387,W,2,07,1.2,310.0,M,-23.7,M,18.8,0000*73
$GPGSA,A,3,20,23,31,32,30,16,06,,,,,,2.0,1.2,1.6*36
$GPRMC,215809.000,A,3352.0171,N,09833.6387,W,0.44,39.33,300312,,,D*4C
$GPGGA,215810.000,3352.0172,N,09833.6386,W,2,07,1.2,310.3,M,-23.7,M,7.8,0000*44
$GPGSA,A,3,20,23,31,32,30,16,06,,,,,,2.0,1.2,1.6*36
$GPRMC,215810.000,A,3352.0172,N,09833.6386,W,0.54,43.62,300312,,,D*4E
$GPGGA,215811.000,3352.0177,N,09833.6384,W,2,07,1.2,310.4,M,-23.7,M,8.8,0000*4A
$GPGSA,A,3,20,23,31,32,30,16,06,,,,,,2.0,1.2,1.6*36
$GPGSV,3,1,12,30,67,081,37,32,63,206,25,16,61,155,27,20,56,266,36*72
$GPGSV,3,2,12,23,37,314,37,31,30,049,19,06,10,143,31,13,09,302,27*74
$GPGSV,3,3,12,03,08,158,33,14,06,108,25,01,05,226,31,29,01,047,*79
$GPRMC,215811.000,A,3352.0177,N,09833.6384,W,0.31,38.27,300312,,,D*46
$GPGGA,215812.000,3352.0179,N,09833.6383,W,2,07,1.2,310.6,M,-23.7,M,9.8,0000*43
$GPGSA,A,3,20,23,31,32,30,16,06,,,,,,2.0,1.2,1.6*36
$GPRMC,215812.000,A,3352.0179,N,09833.6383,W,0.21,43.26,300312,,,D*40
$GPGGA,215813.000,3352.0177,N,09833.6383,W,2,07,1.2,311.2,M,-23.7,M,10.8,0000*71
$GPGSA,A,3,20,23,31,32,30,16,06,,,,,,2.0,1.2,1.6*36
$GPRMC,215813.000,A,3352.0177,N,09833.6383,W,0.15,97.84,300312,,,D*49
$GPGGA,215814.000,3352.0178,N,09833.6383,W,2,07,1.2,311.6,M,-23.7,M,11.8,0000*7C
$GPGSA,A,3,20,23,31,32,30,16,06,,,,,,2.0,1.2,1.6*36
$GPRMC,215814.000,A,3352.0178,N,09833.6383,W,0.12,179.77,300312,,,D*7B
$GPGGA,215815.000,3352.0179,N,09833.6383,W,2,07,1.2,311.7,M,-23.7,M,0.8,0000*4D
$GPGSA,A,3,20,23,31,32,30,16,06,,,,,,2.0,1.2,1.6*36
$GPRMC,215815.000,A,3352.0179,N,09833.6383,W,0.22,216.49,300312,,,D*7F
$GPGGA,215816.000,3352.0179,N,09833.6384,W,2,07,1.2,311.9,M,-23.7,M,0.8,0000*47
$GPGSA,A,3,20,23,31,32,30,16,06,,,,,,2.0,1.2,1.6*36
$GPGSV,3,1,12,30,67,081,37,32,63,206,20,16,61,155,23,20,56,266,36*73
$GPGSV,3,2,12,23,37,314,37,31,30,049,19,06,10,143,30,13,09,302,29*7B
$GPGSV,3,3,12,03,08,158,32,14,06,108,16,01,05,226,31,29,01,047,*78
$GPRMC,215816.000,A,3352.0179,N,09833.6384,W,0.36,216.66,300312,,,D*73
$GPGGA,215817.000,3352.0179,N,09833.6384,W,2,07,1.2,311.8,M,-23.7,M,0.8,0000*47
$GPGSA,A,3,20,23,31,32,30,16,06,,,,,,2.0,1.2,1.6*36
$GPRMC,215817.000,A,3352.0179,N,09833.6384,W,0.19,67.66,300312,,,D*4B
$GPGGA,215818.000,3352.0182,N,09833.6384,W,2,07,1.2,311.4,M,-23.7,M,1.8,0000*41
$GPGSA,A,3,20,23,31,32,30,16,06,,,,,,2.0,1.2,1.6*36
$GPRMC,215818.000,A,3352.0182,N,09833.6384,W,0.35,44.11,300312,,,D*4F
$GPGGA,215819.000,3352.0184,N,09833.6384,W,2,07,1.2,311.0,M,-23.7,M,2.8,0000*41
$GPGSA,A,3,20,23,31,32,30,16,06,,,,,,2.0,1.2,1.6*36
$GPRMC,215819.000,A,3352.0184,N,09833.6384,W,0.19,38.19,300312,,,D*45
$GPGGA,215820.000,3352.0186,N,09833.6385,W,2,07,1.2,310.7,M,-23.7,M,3.8,0000*4F
$GPGSA,A,3,20,23,31,32,30,16,06,,,,,,2.0,1.2,1.6*36
$GPRMC,215820.000,A,3352.0186,N,09833.6385,W,0.03,226.12,300312,,,D*71
$GPGGA,215821.000,3352.0187,N,09833.6385,W,2,07,1.2,310.4,M,-23.7,M,4.8,0000*4B
$GPGSA,A,3,20,23,31,32,30,16,06,,,,,,2.0,1.2,1.6*36
$GPGSV,3,1,12,30,67,081,37,32,63,206,28,16,61,155,30,20,56,266,36*79
$GPGSV,3,2,12,23,37,314,38,31,30,049,19,06,10,143,29,13,09,302,30*74
$GPGSV,3,3,12,03,08,158,32,14,06,108,30,01,05,226,31,29,01,047,*7C
$GPRMC,215821.000,A,3352.0187,N,09833.6385,W,0.15,46.44,300312,,,D*41
$GPGGA,215822.000,3352.0188,N,09833.6385,W,2,07,1.2,310.1,M,-23.7,M,5.8,0000*43
$GPGSA,A,3,20,23,31,32,30,16,06,,,,,,2.0,1.2,1.6*36
$GPRMC,215822.000,A,3352.0188,N,09833.6385,W,0.18,227.56,300312,,,D*76
$GPGGA,215823.000,3352.0189,N,09833.6385,W,2,07,1.2,309.8,M,-23.7,M,6.8,0000*41
$GPGSA,A,3,20,23,31,32,30,16,06,,,,,,2.0,1.2,1.6*36
$GPRMC,215823.000,A,3352.0189,N,09833.6385,W,0.13,233.72,300312,,,D*7E
$GPGGA,215824.000,3352.0189,N,09833.6386,W,2,07,1.2,309.6,M,-23.7,M,7.8,0000*4A
$GPGSA,A,3,20,23,31,32,30,16,06,,,,,,2.0,1.2,1.6*36
$GPRMC,215824.000,A,3352.0189,N,09833.6386,W,0.03,229.44,300312,,,D*75
$GPGGA,215825.000,3352.0190,N,09833.6386,W,2,07,1.2,309.4,M,-23.7,M,8.8,0000*4E
$GPGSA,A,3,20,23,31,32,30,16,06,,,,,,2.0,1.2,1.6*36
$GPRMC,215825.000,A,3352.0190,N,09833.6386,W,0.01,231.56,300312,,,D*74
$GPGGA,215826.000,3352.0190,N,09833.6386,W,2,07,1.2,309.2,M,-23.7,M,9.8,0000*4A
$GPGSA,A,3,20,23,31,32,30,16,06,,,,,,2.0,1.2,1.6*36
$GPGSV,3,1,12,30,67,081,34,32,63,206,28,16,61,155,30,20,56,266,37*7B
$GPGSV,3,2,12,23,37,314,37,31,30,049,25,06,10,143,29,13,09,302,30*74
$GPGSV,3,3,12,03,08,158,32,14,06,108,29,01,05,226,30,29,01,047,*75
$GPRMC,215826.000,A,3352.0190,N,09833.6386,W,0.01,173.83,300312,,,D*7A
$GPGGA,215827.000,3352.0191,N,09833.6386,W,2,07,1.2,309.0,M,-23.7,M,10.8,0000*70
$GPGSA,A,3,20,23,31,32,30,16,06,,,,,,2.0,1.2,1.6*36
$GPRMC,215827.000,A,3352.0191,N,09833.6386,W,0.01,195.35,300312,,,D*7F
$GPGGA,215828.000,3352.0191,N,09833.6386,W,2,07,1.2,308.8,M,-23.7,M,11.8,0000*77
$GPGSA,A,3,20,23,31,32,30,16,06,,,,,,2.0,1.2,1.6*36
$GPRMC,215828.000,A,3352.0191,N,09833.6386,W,0.04,208.18,300312,,,D*7D
$GPGGA,215829.000,3352.0191,N,09833.6385,W,2,07,1.2,308.8,M,-23.7,M,12.8,0000*76
$GPGSA,A,3,20,23,31,32,30,16,06,,,,,,2.0,1.2,1.6*36
$GPRMC,215829.000,A,3352.0191,N,09833.6385,W,0.03,144.87,300312,,,D*75
$GPGGA,215830.000,3352.0190,N,09833.6385,W,2,07,1.2,308.7,M,-23.7,M,13.8,0000*71
$GPGSA,A,3,20,23,31,32,30,16,06,,,,,,2.0,1.2,1.6*36
$GPRMC,215830.000,A,3352.0190,N,09833.6385,W,0.03,2.52,300312,,,D*77
$GPGGA,215831.000,3352.0190,N,09833.6385,W,2,07,1.2,308.5,M,-23.7,M,14.8,0000*75
$GPGSA,A,3,20,23,31,32,30,16,06,,,,,,2.0,1.2,1.6*36
$GPGSV,3,1,12,30,67,081,35,32,63,206,28,16,61,155,23,20,56,266,37*78
$GPGSV,3,2,12,23,37,314,36,31,30,049,25,06,10,143,28,13,09,302,31*75
$GPGSV,3,3,12,03,08,158,31,14,06,108,28,01,05,226,30,29,01,047,*77
$GPRMC,215831.000,A,3352.0190,N,09833.6385,W,0.05,330.92,300312,,,D*7E
$GPGGA,215832.000,3352.0190,N,09833.6384,W,2,07,1.2,308.4,M,-23.7,M,15.8,0000*77
$GPGSA,A,3,20,23,31,32,30,16,06,,,,,,2.0,1.2,1.6*36
$GPRMC,215832.000,A,3352.0190,N,09833.6384,W,0.02,142.17,300312,,,D*71
$GPGGA,215833.000,3352.0190,N,09833.6383,W,2,07,1.2,308.3,M,-23.7,M,16.8,0000*75
$GPGSA,A,3,20,23,31,32,30,16,06,,,,,,2.0,1.2,1.6*36
$GPRMC,215833.000,A,3352.0190,N,09833.6383,W,0.10,158.58,300312,,,D*74
$GPGGA,215834.000,3352.0190,N,09833.6383,W,2,07,1.2,308.0,M,-23.7,M,17.8,0000*70
$GPGSA,A,3,20,23,31,32,30,16,06,,,,,,2.0,1.2,1.6*36
$GPRMC,215834.000,A,3352.0190,N,09833.6383,W,0.27,162.94,300312,,,D*7E
$GPGGA,215835.000,3352.0188,N,09833.6383,W,1,07,1.2,307.9,M,-23.7,M,18.8,0000*72
$GPGSA,A,3,20,23,31,32,30,16,06,,,,,,2.0,1.2,1.6*36
$GPRMC,215835.000,A,3352.0188,N,09833.6383,W,0.79,177.32,300312,,,A*70
$GPGGA,215836.000,3352.0185,N,09833.6383,W,1,07,1.2,307.9,M,-23.7,M,18.8,0000*7C
$GPGSA,A,3,20,23,31,32,30,16,06,,,,,,2.0,1.2,1.6*36
$GPGSV,3,1,12,30,67,081,34,32,63,206,34,16,61,155,29,20,56,266,37*7E
$GPGSV,3,2,12,23,37,314,36,31,30,049,25,06,10,143,29,13,09,302,25*71
$GPGSV,3,3,12,03,08,158,31,14,06,108,28,01,05,226,23,29,01,047,*75
$GPRMC,215836.000,A,3352.0185,N,09833.6383,W,1.26,175.20,300312,,,A*74
$GPGGA,215837.000,3352.0181,N,09833.6382,W,1,07,1.2,307.9,M,-23.7,M,18.8,0000*78
$GPGSA,A,3,20,23,31,32,30,16,06,,,,,,2.0,1.2,1.6*36
$GPRMC,215837.000,A,3352.0181,N,09833.6382,W,1.39,169.21,300312,,,A*72
$GPGGA,215838.000,3352.0177,N,09833.6381,W,1,07,1.2,307.9,M,-23.7,M,18.8,0000*7D
$GPGSA,A,3,20,23,31,32,30,16,06,,,,,,2.0,1.2,1.6*36
$GPRMC,215838.000,A,3352.0177,N,09833.6381,W,1.51,164.21,300312,,,A*74
$GPGGA,215839.000,3352.0174,N,09833.6382,W,2,07,1.2,307.2,M,-23.7,M,0.8,0000*4D
$GPGSA,A,3,20,23,31,32,30,16,06,,,,,,2.0,1.2,1.6*36
$GPRMC,215839.000,A,3352.0174,N,09833.6382,W,1.32,165.16,300312,,,D*70
$GPGGA,215840.000,3352.0170,N,09833.6382,W,2,07,1.2,306.9,M,-23.7,M,0.8,0000*4D
$GPGSA,A,3,20,23,31,32,30,16,06,,,,,,2.0,1.2,1.6*36
$GPRMC,215840.000,A,3352.0170,N,09833.6382,W,2.03,175.45,300312,,,D*7C
$GPGGA,215841.000,3352.0163,N,09833.6381,W,2,07,1.2,307.1,M,-23.7,M,0.8,0000*44
$GPGSA,A,3,20,23,31,32,30,16,06,,,,,,2.0,1.2,1.6*36
$GPGSV,3,1,12,30,67,081,34,32,63,206,33,16,61,155,25,20,56,266,36*74
$GPGSV,3,2,12,23,37,314,36,31,30,049,18,06,10,143,22,13,09,302,20*71
$GPGSV,3,3,12,03,08,158,21,14,06,108,27,01,05,226,25,29,01,047,*7D
$GPRMC,215841.000,A,3352.0163,N,09833.6381,W,2.15,171.97,300312,,,D*70
$GPGGA,215842.000,3352.0157,N,09833.6380,W,2,07,1.2,307.4,M,-23.7,M,1.8,0000*45
$GPGSA,A,3,20,23,31,32,30,16,06,,,,,,2.0,1.2,1.6*36
$GPRMC,215842.000,A,3352.0157,N,09833.6380,W,2.19,176.88,300312,,,D*70
$GPGGA,215843.000,3352.0150,N,09833.6381,W,2,07,1.2,307.9,M,-23.7,M,2.8,0000*4C
$GPGSA,A,3,20,23,31,32,30,16,06,,,,,,2.0,1.2,1.6*36
$GPRMC,215843.000,A,3352.0150,N,09833.6381,W,2.38,185.02,300312,,,D*7A
$GPGGA,215844.000,3352.0139,N,09833.6387,W,2,07,1.2,308.6,M,-23.7,M,3.8,0000*43
$GPGSA,A,3,20,23,31,32,30,16,06,,,,,,2.0,1.2,1.6*36
$GPRMC,215844.000,A,3352.0139,N,09833.6387,W,2.34,178.55,300312,,,D*78
$GPGGA,215845.000,3352.0132,N,09833.6388,W,2,07,1.2,309.1,M,-23.7,M,4.8,0000*47
$GPGSA,A,3,20,23,31,32,30,16,06,,,,,,2.0,1.2,1.6*36
$GPRMC,215845.000,A,3352.0132,N,09833.6388,W,2.12,170.14,300312,,,D*74
$GPGGA,215846.000,3352.0126,N,09833.6388,W,2,07,1.2,309.4,M,-23.7,M,5.8,0000*45
$GPGSA,A,3,20,23,31,32,30,16,06,,,,,,2.0,1.2,1.6*36
$GPGSV,3,1,12,30,67,081,34,32,63,206,33,16,61,155,32,20,56,266,32*76
$GPGSV,3,2,12,23,37,314,31,31,30,049,28,06,10,143,16,13,09,302,24*76
$GPGSV,3,3,12,03,08,158,22,14,06,108,18,01,05,226,19,29,01,047,*7D
$GPRMC,215846.000,A,3352.0126,N,09833.6388,W,1.59,155.01,300312,,,D*7D
$GPGGA,215847.000,3352.0129,N,09833.6382,W,2,07,1.2,308.5,M,-23.7,M,6.8,0000*42
$GPGSA,A,3,20,23,31,32,30,16,06,,,,,,2.0,1.2,1.6*36
$GPRMC,215847.000,A,3352.0129,N,09833.6382,W,0.40,106.61,300312,,,D*70
$GPGGA,215848.000,3352.0129,N,09833.6380,W,2,07,1.2,308.5,M,-23.7,M,7.8,0000*4E
$GPGSA,A,3,20,23,31,32,30,16,06,,,,,,2.0,1.2,1.6*36
$GPRMC,215848.000,A,3352.0129,N,09833.6380,W,0.29,284.63,300312,,,D*79
$GPGGA,215849.000,3352.0130,N,09833.6382,W,2,07,1.2,308.5,M,-23.7,M,8.8,0000*4A
$GPGSA,A,3,20,23,31,32,30,16,06,,,,,,2.0,1.2,1.6*36
$GPRMC,215849.000,A,3352.0130,N,09833.6382,W,1.80,303.17,300312,,,D*7D
$GPGGA,215850.000,3352.0134,N,09833.6394,W,2,06,1.4,308.0,M,-23.7,M,9.8,0000*42
$GPGSA,A,3,20,23,31,32,16,06,,,,,,,2.4,1.4,2.0*32
$GPRMC,215850.000,A,3352.0134,N,09833.6394,W,5.38,294.68,300312,,,D*76
$GPGGA,215851.000,3352.0136,N,09833.6419,W,2,07,1.1,307.6,M,-23.7,M,10.8,0000*76
$GPGSA,A,3,20,23,31,32,16,13,06,,,,,,1.8,1.1,1.3*3A
$GPGSV,3,1,12,30,67,081,,32,63,206,41,16,61,155,37,20,56,266,31*72
$GPGSV,3,2,12,23,37,314,36,31,30,049,27,06,10,143,18,13,09,302,26*72
$GPGSV,3,3,12,03,08,158,20,14,06,108,17,01,05,226,19,29,01,047,*70
$GPRMC,215851.000,A,3352.0136,N,09833.6419,W,7.38,284.27,300312,,,D*7F
$GPGGA,215852.000,3352.0139,N,09833.6448,W,2,08,1.1,307.3,M,-23.7,M,11.8,0000*75
$GPGSA,A,3,20,23,31,32,30,16,13,06,,,,,1.6,1.1,1.2*36
$GPRMC,215852.000,A,3352.0139,N,09833.6448,W,9.28,279.66,300312,,,D*7F
$GPGGA,215853.000,3352.0143,N,09833.6481,W,2,08,1.1,307.5,M,-23.7,M,0.8,0000*4A
$GPGSA,A,3,20,23,31,32,30,16,13,06,,,,,1.6,1.1,1.2*36
$GPRMC,215853.000,A,3352.0143,N,09833.6481,W,10.15,280.81,300312,,,D*4F
$GPGGA,215854.000,3352.0150,N,09833.6515,W,2,08,1.1,307.5,M,-23.7,M,0.8,0000*43
$GPGSA,A,3,20,23,31,32,30,16,13,06,,,,,1.6,1.1,1.2*36
$GPRMC,215854.000,A,3352.0150,N,09833.6515,W,9.22,283.44,300312,,,D*70
$GPGGA,215855.000,3352.0156,N,09833.6541,W,2,08,1.1,307.7,M,-23.7,M,1.8,0000*46
$GPGSA,A,3,20,23,31,32,30,16,13,06,,,,,1.6,1.1,1.2*36
$GPRMC,215855.000,A,3352.0156,N,09833.6541,W,7.27,287.25,300312,,,D*7E
$GPGGA,215856.000,3352.0161,N,09833.6561,W,2,08,1.1,307.8,M,-23.7,M,2.8,0000*4F
$GPGSA,A,3,20,23,31,32,30,16,13,06,,,,,1.6,1.1,1.2*36
$GPGSV,3,1,12,30,67,079,37,32,63,205,40,16,62,154,37,20,56,264,34*76
$GPGSV,3,2,12,23,38,314,34,31,30,049,24,06,10,143,23,13,10,302,23*79
$GPGSV,3,3,12,03,08,157,20,14,06,108,17,01,04,226,24,29,01,047,*70
$GPRMC,215856.000,A,3352.0161,N,09833.6561,W,5.46,289.16,300312,,,D*70
$GPGGA,215857.000,3352.0163,N,09833.6575,W,2,08,1.1,308.5,M,-23.7,M,3.8,0000*4A
$GPGSA,A,3,20,23,31,32,30,16,13,06,,,,,1.6,1.1,1.2*36
$GPRMC,215857.000,A,3352.0163,N,09833.6575,W,2.55,289.00,300312,,,D*74
$GPGGA,215858.000,3352.0164,N,09833.6577,W,2,08,1.1,309.3,M,-23.7,M,4.8,0000*40
$GPGSA,A,3,20,23,31,32,30,16,13,06,,,,,1.6,1.1,1.2*36
$GPRMC,215858.000,A,3352.0164,N,09833.6577,W,0.15,202.55,300312,,,D*7B
$GPGGA,215859.000,3352.0165,N,09833.6575,W,2,08,1.1,309.9,M,-23.7,M,5.8,0000*49
$GPGSA,A,3,20,23,31,32,30,16,13,06,,,,,1.6,1.1,1.2*36
$GPRMC,215859.000,A,3352.0165,N,09833.6575,W,0.07,337.07,300312,,,D*7A
$GPGGA,215900.000,3352.0164,N,09833.6575,W,2,08,1.1,310.1,M,-23.7,M,6.8,0000*46
$GPGSA,A,3,20,23,31,32,30,16,13,06,,,,,1.6,1.1,1.2*36
$GPRMC,215900.000,A,3352.0164,N,09833.6575,W,0.21,284.81,300312,,,D*75
$GPGGA,215901.000,3352.0164,N,09833.6579,W,2,08,1.1,310.0,M,-23.7,M,7.8,0000*4B
$GPGSA,A,3,20,23,31,32,30,16,13,06,,,,,1.6,1.1,1.2*36
$GPGSV,3,1,12,30,67,079,39,32,63,205,40,16,62,154,37,20,56,264,33*7F
$GPGSV,3,2,12,23,38,314,34,31,30,049,29,06,10,143,25,13,10,302,30*70
$GPGSV,3,3,12,03,08,157,22,14,06,108,16,01,04,226,24,29,01,047,*73
$GPRMC,215901.000,A,3352.0164,N,09833.6579,W,2.31,291.00,300312,,,D*76
$GPGGA,215902.000,3352.0170,N,09833.6590,W,2,08,1.1,309.8,M,-23.7,M,8.8,0000*45
$GPGSA,A,3,20,23,31,32,30,16,13,06,,,,,1.6,1.1,1.2*36
$GPRMC,215902.000,A,3352.0170,N,09833.6590,W,5.48,302.29,300312,,,D*7E
$GPGGA,215903.000,3352.0185,N,09833.6604,W,2,08,1.1,309.6,M,-23.7,M,9.8,0000*4F
$GPGSA,A,3,20,23,31,32,30,16,13,06,,,,,1.6,1.1,1.2*36
$GPRMC,215903.000,A,3352.0185,N,09833.6604,W,7.82,331.64,300312,,,D*76
$GPGGA,215904.000,3352.0210,N,09833.6613,W,2,08,1.1,309.4,M,-23.7,M,10.8,0000*7B
$GPGSA,A,3,20,23,31,32,30,16,13,06,,,,,1.6,1.1,1.2*36
$GPRMC,215904.000,A,3352.0210,N,09833.6613,W,9.73,348.46,300312,,,D*76
$GPGGA,215905.000,3352.0244,N,09833.6616,W,2,08,1.1,309.6,M,-23.7,M,11.8,0000*7D
$GPGSA,A,3,20,23,31,32,30,16,13,06,,,,,1.6,1.1,1.2*36
$GPRMC,215905.000,A,3352.0244,N,09833.6616,W,12.84,355.89,300312,,,D*4E
$GPGGA,215906.000,3352.0288,N,09833.6613,W,2,08,1.1,309.3,M,-23.7,M,12.8,0000*7D
$GPGSA,A,3,20,23,31,32,30,16,13,06,,,,,1.6,1.1,1.2*36
$GPGSV,3,1,12,30,67,079,24,32,62,205,36,16,62,154,31,20,56,264,35*73
$GPGSV,3,2,12,23,38,314,35,31,29,049,26,06,10,143,32,13,10,302,23*72
$GPGSV,3,3,12,03,08,157,22,14,06,108,,01,04,226,22,29,01,047,*72
$GPRMC,215906.000,A,3352.0288,N,09833.6613,W,16.29,359.01,300312,,,D*47
$GPGGA,215907.000,3352.0338,N,09833.6614,W,2,08,1.1,309.5,M,-23.7,M,13.8,0000*76
$GPGSA,A,3,20,23,31,32,30,16,13,06,,,,,1.6,1.1,1.2*36
$GPRMC,215907.000,A,3352.0338,N,09833.6614,W,18.25,357.28,300312,,,D*4C
$GPGGA,215908.000,3352.0392,N,09833.6617,W,2,08,1.1,309.4,M,-23.7,M,14.8,0000*7C
$GPGSA,A,3,20,23,31,32,30,16,13,06,,,,,1.6,1.1,1.2*36
$GPRMC,215908.000,A,3352.0392,N,09833.6617,W,20.21,357.21,300312,,,D*46
$GPGGA,215909.000,3352.0457,N,09833.6613,W,2,08,1.1,309.2,M,-23.7,M,0.8,0000*44
$GPGSA,A,3,20,23,31,32,30,16,13,06,,,,,1.6,1.1,1.2*36
$GPRMC,215909.000,A,3352.0457,N,09833.6613,W,22.36,358.36,300312,,,D*40
$GPGGA,215910.000,3352.0531,N,09833.6607,W,2,08,1.1,309.7,M,-23.7,M,1.8,0000*4C
$GPGSA,A,3,20,23,31,32,30,16,13,06,,,,,1.6,1.1,1.2*36
$GPRMC,215910.000,A,3352.0531,N,09833.6607,W,24.96,0.50,300312,,,D*4E
$GPGGA,215911.000,3352.0609,N,09833.6601,W,2,08,1.1,310.2,M,-23.7,M,2.8,0000*4D
$GPGSA,A,3,20,23,31,32,30,16,13,06,,,,,1.6,1.1,1.2*36
$GPGSV,3,1,12,30,67,079,21,32,62,205,38,16,62,154,33,20,56,264,35*7A
$GPGSV,3,2,12,23,38,314,35,31,29,049,25,06,10,143,27,13,10,302,23*75
$GPGSV,3,3,12,03,08,157,21,14,06,108,29,01,04,226,15,29,01,047,*7E
$GPRMC,215911.000,A,3352.0609,N,09833.6601,W,26.67,0.25,300312,,,D*4F
$GPGGA,215912.000,3352.0688,N,09833.6600,W,2,08,1.1,310.8,M,-23.7,M,3.8,0000*4D
$GPGSA,A,3,20,23,31,32,30,16,13,06,,,,,1.6,1.1,1.2*36
$GPRMC,215912.000,A,3352.0688,N,09833.6600,W,27.79,359.19,300312,,,D*4A
$GPGGA,215913.000,3352.0768,N,09833.6601,W,2,08,1.1,311.2,M,-23.7,M,4.8,0000*4E
$GPGSA,A,3,20,23,31,32,30,16,13,06,,,,,1.6,1.1,1.2*36
$GPRMC,215913.000,A,3352.0768,N,09833.6601,W,29.19,359.59,300312,,,D*49
$GPGGA,215914.000,3352.0854,N,09833.6600,W,2,08,1.1,311.7,M,-23.7,M,5.8,0000*4C
$GPGSA,A,3,20,23,31,32,30,16,13,06,,,,,1.6,1.1,1.2*36
$GPRMC,215914.000,A,3352.0854,N,09833.6600,W,30.48,359.83,300312,,,D*44
$GPGGA,215915.000,3352.0941,N,09833.6603,W,2,08,1.1,312.2,M,-23.7,M,6.8,0000*4E
$GPGSA,A,3,20,23,31,32,30,16,13,06,,,,,1.6,1.1,1.2*36
$GPRMC,215915.000,A,3352.0941,N,09833.6603,W,31.66,0.07,300312,,,D*4D
$GPGGA,215916.000,3352.1032,N,09833.6602,W,2,08,1.1,312.3,M,-23.7,M,7.8,0000*40
$GPGSA,A,3,20,23,31,32,30,16,13,06,,,,,1.6,1.1,1.2*36
$GPGSV,3,1,12,30,67,079,24,32,62,205,38,16,62,154,33,20,56,264,35*7F
$GPGSV,3,2,12,23,38,314,36,31,29,049,24,06,10,143,29,13,10,302,23*79
$GPGSV,3,3,12,03,08,157,21,14,06,108,23,01,04,226,19,29,01,047,*78
$GPRMC,215916.000,A,3352.1032,N,09833.6602,W,32.70,0.29,300312,,,D*4B
$GPGGA,215917.000,3352.1123,N,09833.6606,W,2,08,1.1,311.5,M,-23.7,M,0.8,0000*46
$GPGSA,A,3,20,23,31,32,30,16,13,06,,,,,1.6,1.1,1.2*36
$GPRMC,215917.000,A,3352.1123,N,09833.6606,W,33.55,0.04,300312,,,D*46
$GPGGA,215918.000,3352.1218,N,09833.6607,W,2,07,1.7,311.2,M,-23.7,M,1.8,0000*4C
$GPGSA,A,3,20,23,32,30,16,13,06,,,,,,2.1,1.7,1.2*36
