$GPGGA,235848.000,3353.7567,N,09832.0251,W,1,08,1.2,313.0,M,-23.7,M,19.8,0000*72
$GPGSA,A,3,13,03,16,06,30,19,23,20,,,,,2.0,1.2,1.6*3C
$GPRMC,235848.000,A,3353.7567,N,09832.0251,W,0.52,293.19,010412,,,A*7E
$GPGGA,235849.000,3353.7568,N,09832.0253,W,1,08,1.2,312.2,M,-23.7,M,19.8,0000*7D
$GPGSA,A,3,13,03,16,06,30,19,23,20,,,,,2.0,1.2,1.6*3C
$GPRMC,235849.000,A,3353.7568,N,09832.0253,W,0.33,300.66,010412,,,A*76
$GPGGA,235850.000,3353.7570,N,09832.0254,W,1,08,1.2,311.5,M,-23.7,M,19.8,0000*7F
$GPGSA,A,3,13,03,16,06,30,19,23,20,,,,,2.0,1.2,1.6*3C
$GPRMC,235850.000,A,3353.7570,N,09832.0254,W,0.31,1.08,010412,,,A*78
$GPGGA,235851.000,3353.7572,N,09832.0256,W,1,08,1.2,310.7,M,-23.7,M,19.8,0000*7D
$GPGSA,A,3,13,03,16,06,30,19,23,20,,,,,2.0,1.2,1.6*3C
$GPRMC,235851.000,A,3353.7572,N,09832.0256,W,0.69,345.12,010412,,,A*7C
$GPGGA,235852.000,3353.7573,N,09832.0258,W,1,08,1.2,310.2,M,-23.7,M,19.8,0000*74
$GPGSA,A,3,13,03,16,06,30,19,23,20,,,,,2.0,1.2,1.6*3C
$GPGSV,3,1,12,23,83,156,29,13,61,321,22,03,48,104,25,16,43,040,21*74
$GPGSV,3,2,12,06,40,084,34,07,34,298,,19,29,148,32,10,21,297,*70
$GPGSV,3,3,12,20,17,201,14,30,16,047,23,32,07,180,28,08,05,278,*7B
$GPRMC,235852.000,A,3353.7573,N,09832.0258,W,0.23,340.48,010412,,,A*74
$GPGGA,235853.000,3353.7574,N,09832.0260,W,1,08,1.2,309.7,M,-23.7,M,19.8,0000*74
$GPGSA,A,3,13,03,16,06,30,19,23,20,,,,,2.0,1.2,1.6*3C
$GPRMC,235853.000,A,3353.7574,N,09832.0260,W,0.46,295.56,010412,,,A*7C
$GPGGA,235854.000,3353.7574,N,09832.0262,W,1,08,1.2,309.3,M,-23.7,M,19.8,0000*75
$GPGSA,A,3,13,03,16,06,30,19,23,20,,,,,2.0,1.2,1.6*3C
$GPRMC,235854.000,A,3353.7574,N,09832.0262,W,0.35,298.22,010412,,,A*73
$GPGGA,235855.000,3353.7576,N,09832.0262,W,1,08,1.2,309.1,M,-23.7,M,19.8,0000*74
$GPGSA,A,3,13,03,16,06,30,19,23,20,,,,,2.0,1.2,1.6*3C
$GPRMC,235855.000,A,3353.7576,N,09832.0262,W,0.39,0.50,010412,,,A*7A
$GPGGA,235856.000,3353.7576,N,09832.0263,W,1,08,1.2,309.0,M,-23.7,M,19.8,0000*77
$GPGSA,A,3,13,03,16,06,30,19,23,20,,,,,2.0,1.2,1.6*3C
$GPRMC,235856.000,A,3353.7576,N,09832.0263,W,0.05,334.26,010412,,,A*72
$GPGGA,235857.000,3353.7577,N,09832.0263,W,1,09,0.9,308.9,M,-23.7,M,19.8,0000*74
$GPGSA,A,3,13,03,16,06,30,19,23,07,20,,,,1.8,0.9,1.5*39
$GPGSV,3,1,12,23,83,156,26,13,61,321,30,03,48,104,32,16,43,040,32*7C
$GPGSV,3,2,12,06,40,084,35,07,34,298,22,19,29,148,32,10,21,297,*71
$GPGSV,3,3,12,20,17,201,20,30,16,047,29,32,07,180,28,08,05,278,*76
$GPRMC,235857.000,A,3353.7577,N,09832.0263,W,0.26,17.39,010412,,,A*4F
$GPGGA,235858.000,3353.7578,N,09832.0262,W,1,09,0.9,309.0,M,-23.7,M,19.8,0000*7D
$GPGSA,A,3,13,03,16,06,30,19,23,07,20,,,,1.8,0.9,1.5*39
$GPRMC,235858.000,A,3353.7578,N,09832.0262,W,0.40,39.52,010412,,,A*4F
$GPGGA,235859.000,3353.7578,N,09832.0262,W,1,09,0.9,309.2,M,-23.7,M,19.8,0000*7E
$GPGSA,A,3,13,03,16,06,30,19,23,07,20,,,,1.8,0.9,1.5*39
$GPRMC,235859.000,A,3353.7578,N,09832.0262,W,0.18,201.96,010412,,,A*72
$GPGGA,235900.000,3353.7578,N,09832.0261,W,1,07,2.0,309.5,M,-23.7,M,19.8,0000*72
$GPGSA,A,3,13,03,16,06,30,23,07,,,,,,3.3,2.0,2.7*30
$GPRMC,235900.000,A,3353.7578,N,09832.0261,W,0.08,102.05,010412,,,A*77
$GPGGA,235901.000,3353.7579,N,09832.0260,W,1,08,1.2,309.8,M,-23.7,M,19.8,0000*70
$GPGSA,A,3,13,03,16,06,30,19,23,07,,,,,2.2,1.2,1.9*34
$GPRMC,235901.000,A,3353.7579,N,09832.0260,W,0.36,25.65,010412,,,A*49
$GPGGA,235902.000,3353.7579,N,09832.0258,W,1,08,1.2,310.2,M,-23.7,M,19.8,0000*7A
$GPGSA,A,3,13,03,16,06,30,19,23,07,,,,,2.2,1.2,1.9*34
$GPGSV,3,1,12,23,83,156,33,13,61,321,29,03,48,104,32,16,43,040,33*71
$GPGSV,3,2,12,06,40,084,35,07,34,298,24,19,29,148,30,10,21,297,*75
$GPGSV,3,3,12,20,17,201,,30,16,047,29,32,07,180,28,08,05,278,*74
$GPRMC,235902.000,A,3353.7579,N,09832.0258,W,0.42,73.87,010412,,,A*4D
$GPGGA,235903.000,3353.7579,N,09832.0257,W,1,08,1.2,310.7,M,-23.7,M,19.8,0000*71
$GPGSA,A,3,13,03,16,06,30,19,23,07,,,,,2.2,1.2,1.9*34
$GPRMC,235903.000,A,3353.7579,N,09832.0257,W,0.20,56.11,010412,,,A*4F
$GPGGA,235904.000,3353.7580,N,09832.0256,W,1,08,1.2,311.3,M,-23.7,M,19.8,0000*74
$GPGSA,A,3,13,03,16,06,30,19,23,07,,,,,2.2,1.2,1.9*34
$GPRMC,235904.000,A,3353.7580,N,09832.0256,W,0.23,43.37,010412,,,A*4C
$GPGGA,235905.000,3353.7581,N,09832.0255,W,1,08,1.2,311.9,M,-23.7,M,19.8,0000*7D
$GPGSA,A,3,13,03,16,06,30,19,23,07,,,,,2.2,1.2,1.9*34
$GPRMC,235905.000,A,3353.7581,N,09832.0255,W,0.15,48.09,010412,,,A*4C
$GPGGA,235906.000,3353.7582,N,09832.0254,W,1,08,1.2,312.4,M,-23.7,M,19.8,0000*72
$GPGSA,A,3,13,03,16,06,30,19,23,07,,,,,2.2,1.2,1.9*34
$GPRMC,235906.000,A,3353.7582,N,09832.0254,W,0.13,39.48,010412,,,A*48
$GPGGA,235907.000,3353.7582,N,09832.0252,W,1,08,1.2,313.0,M,-23.7,M,19.8,0000*70
$GPGSA,A,3,13,03,16,06,30,19,23,07,,,,,2.2,1.2,1.9*34
$GPGSV,3,1,12,23,83,156,33,13,61,321,29,03,48,104,32,16,43,040,33*71
$GPGSV,3,2,12,06,40,084,34,07,34,298,24,19,29,148,31,10,21,297,*75
$GPGSV,3,3,12,20,17,201,,30,16,047,29,32,07,180,29,08,05,278,*75
$GPRMC,235907.000,A,3353.7582,N,09832.0252,W,0.22,61.86,010412,,,A*42
$GPGGA,235908.000,3353.7582,N,09832.0251,W,1,09,0.9,313.3,M,-23.7,M,19.8,0000*74
$GPGSA,A,3,13,03,16,06,30,19,23,07,20,,,,1.8,0.9,1.5*39
$GPRMC,235908.000,A,3353.7582,N,09832.0251,W,0.16,106.50,010412,,,A*72
$GPGGA,235909.000,3353.7583,N,09832.0251,W,1,09,0.9,313.6,M,-23.7,M,19.8,0000*71
$GPGSA,A,3,13,03,16,06,30,19,23,07,20,,,,1.8,0.9,1.5*39
$GPRMC,235909.000,A,3353.7583,N,09832.0251,W,0.18,266.55,010412,,,A*7C
$GPGGA,235910.000,3353.7583,N,09832.0252,W,1,09,0.9,313.8,M,-23.7,M,19.8,0000*74
$GPGSA,A,3,13,03,16,06,30,19,23,07,20,,,,1.8,0.9,1.5*39
$GPRMC,235910.000,A,3353.7583,N,09832.0252,W,0.26,259.98,010412,,,A*77
$GPGGA,235911.000,3353.7583,N,09832.0251,W,1,09,0.9,313.9,M,-23.7,M,19.8,0000*77
$GPGSA,A,3,13,03,16,06,30,19,23,07,20,,,,1.8,0.9,1.5*39
$GPRMC,235911.000,A,3353.7583,N,09832.0251,W,0.08,193.43,010412,,,A*7A
$GPGGA,235912.000,3353.7584,N,09832.0251,W,1,08,1.2,314.0,M,-23.7,M,19.8,0000*76
$GPGSA,A,3,13,03,16,06,30,19,23,07,,,,,2.2,1.2,1.9*34
$GPGSV,3,1,12,23,83,156,34,13,61,321,30,03,48,104,28,16,43,040,33*75
$GPGSV,3,2,12,06,40,083,32,07,34,298,23,19,29,148,31,10,21,297,*73
$GPGSV,3,3,12,20,17,201,12,30,16,047,29,32,07,180,29,08,05,278,*76
$GPRMC,235912.000,A,3353.7584,N,09832.0251,W,0.07,341.96,010412,,,A*74
$GPGGA,235913.000,3353.7584,N,09832.0251,W,1,07,1.2,314.1,M,-23.7,M,19.8,0000*79
$GPGSA,A,3,13,16,06,30,19,23,07,,,,,,2.2,1.2,1.9*37
$GPRMC,235913.000,A,3353.7584,N,09832.0251,W,0.04,3.57,010412,,,A*7E
$GPGGA,235914.000,3353.7585,N,09832.0250,W,1,08,1.2,314.2,M,-23.7,M,19.8,0000*72
$GPGSA,A,3,13,03,16,06,30,19,23,07,,,,,2.2,1.2,1.9*34
$GPRMC,235914.000,A,3353.7585,N,09832.0250,W,0.18,84.54,010412,,,A*48
$GPGGA,235915.000,3353.7585,N,09832.0249,W,1,08,1.2,314.3,M,-23.7,M,19.8,0000*7A
$GPGSA,A,3,13,03,16,06,30,19,23,07,,,,,2.2,1.2,1.9*34
$GPRMC,235915.000,A,3353.7585,N,09832.0249,W,0.18,53.86,010412,,,A*44
$GPGGA,235916.000,3353.7585,N,09832.0248,W,1,08,1.2,314.4,M,-23.7,M,19.8,0000*7F
$GPGSA,A,3,13,03,16,06,30,19,23,07,,,,,2.2,1.2,1.9*34
$GPRMC,235916.000,A,3353.7585,N,09832.0248,W,0.08,53.27,010412,,,A*4C
$GPGGA,235917.000,3353.7586,N,09832.0248,W,1,08,1.2,314.5,M,-23.7,M,19.8,0000*7C
$GPGSA,A,3,13,03,16,06,30,19,23,07,,,,,2.2,1.2,1.9*34
$GPGSV,3,1,12,23,83,156,34,13,61,321,30,03,48,104,33,16,43,040,34*78
$GPGSV,3,2,12,06,40,083,32,07,34,298,24,19,29,148,31,10,21,297,*74
$GPGSV,3,3,12,20,17,201,,30,16,047,28,32,07,180,29,08,05,278,*74
$GPRMC,235917.000,A,3353.7586,N,09832.0248,W,0.15,83.21,010412,,,A*49
$GPGGA,235918.000,3353.7586,N,09832.0247,W,1,08,1.2,314.5,M,-23.7,M,19.8,0000*7C
$GPGSA,A,3,13,03,16,06,30,19,23,07,,,,,2.2,1.2,1.9*34
$GPRMC,235918.000,A,3353.7586,N,09832.0247,W,0.11,62.27,010412,,,A*44
$GPGGA,235919.000,3353.7586,N,09832.0247,W,1,08,1.2,314.6,M,-23.7,M,19.8,0000*7E
$GPGSA,A,3,13,03,16,06,30,19,23,07,,,,,2.2,1.2,1.9*34
$GPRMC,235919.000,A,3353.7586,N,09832.0247,W,0.08,59.66,010412,,,A*40
$GPGGA,235920.000,3353.7586,N,09832.0246,W,1,09,0.9,314.6,M,-23.7,M,19.8,0000*7E
$GPGSA,A,3,13,03,16,06,30,19,23,07,20,,,,1.8,0.9,1.5*39
$GPRMC,235920.000,A,3353.7586,N,09832.0246,W,0.06,153.36,010412,,,A*7B
$GPGGA,235921.000,3353.7585,N,09832.0246,W,1,09,0.9,314.6,M,-23.7,M,19.8,0000*7C
$GPGSA,A,3,13,03,16,06,30,19,23,07,20,,,,1.8,0.9,1.5*39
$GPRMC,235921.000,A,3353.7585,N,09832.0246,W,0.11,182.81,010412,,,A*7F
$GPGGA,235922.000,3353.7585,N,09832.0246,W,1,09,0.9,314.5,M,-23.7,M,19.8,0000*7C
$GPGSA,A,3,13,03,16,06,30,19,23,07,20,,,,1.8,0.9,1.5*39
$GPGSV,3,1,12,23,83,156,33,13,61,321,30,03,48,104,34,16,43,040,34*78
$GPGSV,3,2,12,06,40,083,32,07,34,298,25,19,29,148,30,10,21,297,*74
$GPGSV,3,3,12,20,17,201,18,30,16,047,28,32,07,180,29,08,05,278,*7D
$GPRMC,235922.000,A,3353.7585,N,09832.0246,W,0.10,205.17,010412,,,A*7E
$GPGGA,235923.000,3353.7585,N,09832.0246,W,1,09,0.9,314.5,M,-23.7,M,19.8,0000*7D
$GPGSA,A,3,13,03,16,06,30,19,23,07,20,,,,1.8,0.9,1.5*39
$GPRMC,235923.000,A,3353.7585,N,09832.0246,W,0.18,43.96,010412,,,A*4E
$GPGGA,235924.000,3353.7585,N,09832.0246,W,1,09,0.9,314.5,M,-23.7,M,19.8,0000*7A
$GPGSA,A,3,13,03,16,06,30,19,23,07,20,,,,1.8,0.9,1.5*39
$GPRMC,235924.000,A,3353.7585,N,09832.0246,W,0.07,44.42,010412,,,A*49
$GPGGA,235925.000,3353.7585,N,09832.0246,W,1,09,0.9,314.4,M,-23.7,M,19.8,0000*7A
$GPGSA,A,3,13,03,16,06,30,19,23,07,20,,,,1.8,0.9,1.5*39
$GPRMC,235925.000,A,3353.7585,N,09832.0246,W,0.06,183.08,010412,,,A*7D
$GPGGA,235926.000,3353.7585,N,09832.0247,W,1,09,0.9,314.3,M,-23.7,M,19.8,0000*7F
$GPGSA,A,3,13,03,16,06,30,19,23,07,20,,,,1.8,0.9,1.5*39
$GPRMC,235926.000,A,3353.7585,N,09832.0247,W,0.14,205.04,010412,,,A*7D
$GPGGA,235927.000,3353.7584,N,09832.0247,W,1,09,0.9,314.3,M,-23.7,M,19.8,0000*7F
$GPGSA,A,3,13,03,16,06,30,19,23,07,20,,,,1.8,0.9,1.5*39
$GPGSV,3,1,12,23,83,156,33,13,61,321,30,03,48,104,35,16,43,040,37*7A
$GPGSV,3,2,12,06,40,083,31,07,34,298,25,19,29,148,31,10,21,297,*76
$GPGSV,3,3,12,20,17,201,18,30,16,047,29,32,07,180,29,08,05,278,*7C
$GPRMC,235927.000,A,3353.7584,N,09832.0247,W,0.08,161.63,010412,,,A*70
$GPGGA,235928.000,3353.7584,N,09832.0246,W,1,09,0.9,314.2,M,-23.7,M,19.8,0000*70
$GPGSA,A,3,13,03,16,06,30,19,23,07,20,,,,1.8,0.9,1.5*39
$GPRMC,235928.000,A,3353.7584,N,09832.0246,W,0.32,78.59,010412,,,A*47
$GPGGA,235929.000,3353.7583,N,09832.0245,W,1,09,0.9,314.3,M,-23.7,M,19.8,0000*74
$GPGSA,A,3,13,03,16,06,30,19,23,07,20,,,,1.8,0.9,1.5*39
$GPRMC,235929.000,A,3353.7583,N,09832.0245,W,0.44,85.46,010412,,,A*4F
$GPGGA,235930.000,3353.7583,N,09832.0245,W,1,09,0.9,314.3,M,-23.7,M,19.8,0000*7C
$GPGSA,A,3,13,03,16,06,30,19,23,07,20,,,,1.8,0.9,1.5*39
$GPRMC,235930.000,A,3353.7583,N,09832.0245,W,0.12,84.07,010412,,,A*40
$GPGGA,235931.000,3353.7582,N,09832.0246,W,1,09,0.9,314.3,M,-23.7,M,19.8,0000*7F
$GPGSA,A,3,13,03,16,06,30,19,23,07,20,,,,1.8,0.9,1.5*39
$GPRMC,235931.000,A,3353.7582,N,09832.0246,W,0.06,200.08,010412,,,A*77
$GPGGA,235932.000,3353.7582,N,09832.0246,W,1,09,0.9,314.3,M,-23.7,M,19.8,0000*7C
$GPGSA,A,3,13,03,16,06,30,19,23,07,20,,,,1.8,0.9,1.5*39
$GPGSV,3,1,12,23,83,156,34,13,61,321,30,03,48,104,35,16,43,040,35*7F
$GPGSV,3,2,12,06,40,083,32,07,34,298,25,19,29,148,35,10,21,297,*71
$GPGSV,3,3,12,20,17,201,19,30,16,047,33,32,07,180,33,08,05,278,*7D
$GPRMC,235932.000,A,3353.7582,N,09832.0246,W,0.06,143.58,010412,,,A*75
$GPGGA,235933.000,3353.7574,N,09832.0251,W,2,09,0.9,313.6,M,-23.7,M,0.8,0000*4B
$GPGSA,A,3,13,03,16,06,30,19,23,07,20,,,,1.8,0.9,1.5*39
$GPRMC,235933.000,A,3353.7574,N,09832.0251,W,0.16,212.69,010412,,,D*7A
$GPGGA,235934.000,3353.7572,N,09832.0251,W,2,09,0.9,313.8,M,-23.7,M,0.8,0000*44
$GPGSA,A,3,13,03,16,06,30,19,23,07,20,,,,1.8,0.9,1.5*39
$GPRMC,235934.000,A,3353.7572,N,09832.0251,W,0.18,85.70,010412,,,D*41
$GPGGA,235935.000,3353.7573,N,09832.0252,W,2,09,0.9,314.0,M,-23.7,M,1.8,0000*49
$GPGSA,A,3,13,03,16,06,30,19,23,07,20,,,,1.8,0.9,1.5*39
$GPRMC,235935.000,A,3353.7573,N,09832.0252,W,0.33,53.26,010412,,,D*43
$GPGGA,235936.000,3353.7573,N,09832.0251,W,2,09,0.9,314.2,M,-23.7,M,2.8,0000*48
$GPGSA,A,3,13,03,16,06,30,19,23,07,20,,,,1.8,0.9,1.5*39
$GPRMC,235936.000,A,3353.7573,N,09832.0251,W,0.48,63.30,010412,,,D*4B
$GPGGA,235937.000,3353.7574,N,09832.0252,W,2,09,0.9,314.2,M,-23.7,M,3.8,0000*4C
$GPGSA,A,3,13,03,16,06,30,19,23,07,20,,,,1.8,0.9,1.5*39
$GPGSV,3,1,12,23,83,156,34,13,61,321,30,03,48,104,33,16,43,040,35*79
$GPGSV,3,2,12,06,40,083,33,07,34,298,21,19,29,148,31,10,21,297,*70
$GPGSV,3,3,12,20,17,201,18,30,16,047,25,32,07,180,32,08,05,278,*7A
$GPRMC,235937.000,A,3353.7574,N,09832.0252,W,0.39,34.12,010412,,,D*4A
$GPGGA,235938.000,3353.7576,N,09832.0254,W,2,09,0.9,314.2,M,-23.7,M,4.8,0000*40
$GPGSA,A,3,13,03,16,06,30,19,23,07,20,,,,1.8,0.9,1.5*39
$GPRMC,235938.000,A,3353.7576,N,09832.0254,W,0.28,24.92,010412,,,D*48
$GPGGA,235939.000,3353.7577,N,09832.0254,W,2,09,0.9,314.4,M,-23.7,M,0.8,0000*42
$GPGSA,A,3,13,03,16,06,30,19,23,07,20,,,,1.8,0.9,1.5*39
$GPRMC,235939.000,A,3353.7577,N,09832.0254,W,0.40,56.18,010412,,,D*41
$GPGGA,235940.000,3353.7578,N,09832.0255,W,2,09,0.9,314.4,M,-23.7,M,1.8,0000*43
$GPGSA,A,3,13,03,16,06,30,19,23,07,20,,,,1.8,0.9,1.5*39
$GPRMC,235940.000,A,3353.7578,N,09832.0255,W,0.09,44.81,010412,,,D*4F
$GPGGA,235941.000,3353.7577,N,09832.0255,W,2,09,0.9,314.6,M,-23.7,M,2.8,0000*4C
$GPGSA,A,3,13,03,16,06,30,19,23,07,20,,,,1.8,0.9,1.5*39
$GPRMC,235941.000,A,3353.7577,N,09832.0255,W,0.12,266.55,010412,,,D*70
$GPGGA,235942.000,3353.7577,N,09832.0255,W,2,09,0.9,314.8,M,-23.7,M,3.8,0000*40
$GPGSA,A,3,13,03,16,06,30,19,23,07,20,,,,1.8,0.9,1.5*39
$GPGSV,3,1,12,23,83,156,34,13,61,321,30,03,48,104,34,16,43,040,35*7E
$GPGSV,3,2,12,06,40,083,33,07,34,298,22,19,29,148,32,10,21,297,*70
$GPGSV,3,3,12,20,17,201,17,30,16,047,32,32,07,180,30,08,05,278,*71
$GPRMC,235942.000,A,3353.7577,N,09832.0255,W,0.25,91.28,010412,,,D*47
$GPGGA,235943.000,3353.7577,N,09832.0255,W,2,09,0.9,314.8,M,-23.7,M,4.8,0000*46
$GPGSA,A,3,13,03,16,06,30,19,23,07,20,,,,1.8,0.9,1.5*39
$GPRMC,235943.000,A,3353.7577,N,09832.0255,W,0.14,111.19,010412,,,D*7F
$GPGGA,235944.000,3353.7576,N,09832.0255,W,2,09,0.9,314.9,M,-23.7,M,5.8,0000*40
$GPGSA,A,3,13,03,16,06,30,19,23,07,20,,,,1.8,0.9,1.5*39
$GPRMC,235944.000,A,3353.7576,N,09832.0255,W,0.24,123.98,010412,,,D*72
$GPGGA,235945.000,3353.7576,N,09832.0256,W,2,09,0.9,314.8,M,-23.7,M,6.8,0000*40
$GPGSA,A,3,13,03,16,06,30,19,23,07,20,,,,1.8,0.9,1.5*39
$GPRMC,235945.000,A,3353.7576,N,09832.0256,W,0.09,219.55,010412,,,D*74
$GPGGA,235946.000,3353.7576,N,09832.0257,W,2,09,0.9,314.7,M,-23.7,M,7.8,0000*4C
$GPGSA,A,3,13,03,16,06,30,19,23,07,20,,,,1.8,0.9,1.5*39
$GPRMC,235946.000,A,3353.7576,N,09832.0257,W,0.06,235.36,010412,,,D*72
$GPGGA,235947.000,3353.7579,N,09832.0258,W,2,08,1.2,314.5,M,-23.7,M,8.8,0000*4B
$GPGSA,A,3,13,03,16,06,30,19,23,07,,,,,2.2,1.2,1.9*34
$GPGSV,3,1,12,23,83,156,33,13,61,321,26,03,48,104,35,16,42,040,27*7D
$GPGSV,3,2,12,06,40,083,27,07,34,298,16,19,30,148,33,10,21,297,*7B
$GPGSV,3,3,12,20,17,201,13,30,16,047,33,32,06,180,31,08,05,278,*74
$GPRMC,235947.000,A,3353.7579,N,09832.0258,W,0.17,327.51,010412,,,D*70
$GPGGA,235948.000,3353.7578,N,09832.0258,W,2,07,1.7,314.6,M,-23.7,M,9.8,0000*4D
$GPGSA,A,3,13,03,16,06,30,19,23,,,,,,3.0,1.7,2.4*3B
$GPRMC,235948.000,A,3353.7578,N,09832.0258,W,0.04,21.25,010412,,,D*4A
$GPGGA,235949.000,3353.7578,N,09832.0257,W,2,07,1.7,314.6,M,-23.7,M,10.8,0000*7B
$GPGSA,A,3,13,03,16,06,30,19,23,,,,,,3.0,1.7,2.4*3B
$GPRMC,235949.000,A,3353.7578,N,09832.0257,W,0.14,53.15,010412,,,D*43
$GPGGA,235950.000,3353.7577,N,09832.0257,W,2,07,1.7,314.7,M,-23.7,M,11.8,0000*7C
$GPGSA,A,3,13,03,16,06,30,19,23,,,,,,3.0,1.7,2.4*3B
$GPRMC,235950.000,A,3353.7577,N,09832.0257,W,0.04,101.93,010412,,,D*7D
$GPGGA,235951.000,3353.7576,N,09832.0257,W,2,07,1.7,314.7,M,-23.7,M,12.8,0000*7F
$GPGSA,A,3,13,03,16,06,30,19,23,,,,,,3.0,1.7,2.4*3B
$GPRMC,235951.000,A,3353.7576,N,09832.0257,W,0.05,86.43,010412,,,D*4F
$GPGGA,235952.000,3353.7576,N,09832.0257,W,2,07,1.7,314.8,M,-23.7,M,13.8,0000*72
$GPGSA,A,3,13,03,16,06,30,19,23,,,,,,3.0,1.7,2.4*3B
$GPGSV,3,1,12,23,83,156,33,13,61,321,25,03,48,104,36,16,42,040,25*7F
$GPGSV,3,2,12,06,40,083,25,07,34,298,,19,30,148,33,10,21,297,*7E
$GPGSV,3,3,12,20,17,201,,30,16,047,33,32,06,180,31,08,05,278,*76
$GPRMC,235952.000,A,3353.7576,N,09832.0257,W,0.09,66.63,010412,,,D*4C
$GPGGA,235953.000,3353.7575,N,09832.0256,W,2,07,1.7,314.8,M,-23.7,M,14.8,0000*76
$GPGSA,A,3,13,03,16,06,30,19,23,,,,,,3.0,1.7,2.4*3B
$GPRMC,235953.000,A,3353.7575,N,09832.0256,W,0.04,173.85,010412,,,D*7F
$GPGGA,235954.000,3353.7575,N,09832.0256,W,2,07,1.7,314.8,M,-23.7,M,15.8,0000*70
$GPGSA,A,3,13,03,16,06,30,19,23,,,,,,3.0,1.7,2.4*3B
$GPRMC,235954.000,A,3353.7575,N,09832.0256,W,0.13,37.31,010412,,,D*40
$GPGGA,235955.000,3353.7574,N,09832.0256,W,2,07,1.7,314.8,M,-23.7,M,16.8,0000*73
$GPGSA,A,3,13,03,16,06,30,19,23,,,,,,3.0,1.7,2.4*3B
$GPRMC,235955.000,A,3353.7574,N,09832.0256,W,0.20,17.26,010412,,,D*44
$GPGGA,235956.000,3353.7577,N,09832.0263,W,2,07,1.7,314.4,M,-23.7,M,17.8,0000*78
$GPGSA,A,3,13,03,16,06,30,19,23,,,,,,3.0,1.7,2.4*3B
$GPRMC,235956.000,A,3353.7577,N,09832.0263,W,0.16,343.85,010412,,,D*7C
$GPGGA,235957.000,3353.7579,N,09832.0270,W,1,07,1.7,314.0,M,-23.7,M,18.8,0000*7D
$GPGSA,A,3,13,03,16,06,30,19,23,,,,,,3.0,1.7,2.4*3B
$GPGSV,3,1,12,23,83,156,33,13,61,321,26,03,48,104,37,16,42,040,20*78
$GPGSV,3,2,12,06,40,083,25,07,34,298,,19,30,148,33,10,21,297,*7E
$GPGSV,3,3,12,20,17,201,,30,16,047,33,32,06,180,31,08,05,278,*76
$GPRMC,235957.000,A,3353.7579,N,09832.0270,W,0.16,265.52,010412,,,A*7B
$GPGGA,235958.000,3353.7579,N,09832.0270,W,1,07,1.7,313.9,M,-23.7,M,18.8,0000*7C
$GPGSA,A,3,13,03,16,06,30,19,23,,,,,,3.0,1.7,2.4*3B
$GPRMC,235958.000,A,3353.7579,N,09832.0270,W,0.17,315.27,010412,,,A*71
$GPGGA,235959.000,3353.7580,N,09832.0271,W,1,07,1.7,313.9,M,-23.7,M,18.8,0000*7A
$GPGSA,A,3,13,03,16,06,30,19,23,,,,,,3.0,1.7,2.4*3B
$GPRMC,235959.000,A,3353.7580,N,09832.0271,W,0.11,311.38,010412,,,A*7B
$GPGGA,000000.000,3353.7580,N,09832.0272,W,1,07,1.7,313.8,M,-23.7,M,18.8,0000*79
$GPGSA,A,3,13,03,16,06,30,19,23,,,,,,3.0,1.7,2.4*3B
$GPRMC,000000.000,A,3353.7580,N,09832.0272,W,0.11,256.71,020412,,,A*75
$GPGGA,000001.000,3353.7580,N,09832.0274,W,1,07,1.7,313.6,M,-23.7,M,18.8,0000*70
$GPGSA,A,3,13,03,16,06,30,19,23,,,,,,3.0,1.7,2.4*3B
$GPRMC,000001.000,A,3353.7580,N,09832.0274,W,0.15,238.36,020412,,,A*7D
$GPGGA,000002.000,3353.7580,N,09832.0275,W,1,07,1.7,313.5,M,-23.7,M,18.8,0000*71
$GPGSA,A,3,13,03,16,06,30,19,23,,,,,,3.0,1.7,2.4*3B
$GPGSV,3,1,12,23,83,156,33,13,61,321,26,03,48,104,37,16,42,040,22*7A
$GPGSV,3,2,12,06,40,083,25,07,34,298,,19,30,148,32,10,21,297,*7F
$GPGSV,3,3,12,20,17,201,,30,16,047,33,32,06,180,31,08,05,278,*76
$GPRMC,000002.000,A,3353.7580,N,09832.0275,W,0.10,291.50,020412,,,A*79
$GPGGA,000003.000,3353.7580,N,09832.0277,W,1,07,1.7,313.3,M,-23.7,M,18.8,0000*74
$GPGSA,A,3,13,03,16,06,30,19,23,,,,,,3.0,1.7,2.4*3B
$GPRMC,000003.000,A,3353.7580,N,09832.0277,W,0.10,235.13,020412,,,A*73
$GPGGA,000004.000,3353.7581,N,09832.0278,W,1,07,1.7,313.1,M,-23.7,M,18.8,0000*7F
$GPGSA,A,3,13,03,16,06,30,19,23,,,,,,3.0,1.7,2.4*3B
$GPRMC,000004.000,A,3353.7581,N,09832.0278,W,0.11,301.95,020412,,,A*73
$GPGGA,000005.000,3353.7581,N,09832.0279,W,1,07,1.7,312.9,M,-23.7,M,18.8,0000*76
$GPGSA,A,3,13,03,16,06,30,19,23,,,,,,3.0,1.7,2.4*3B
$GPRMC,000005.000,A,3353.7581,N,09832.0279,W,0.05,293.33,020412,,,A*70
$GPGGA,000006.000,3353.7582,N,09832.0281,W,1,07,1.7,312.7,M,-23.7,M,18.8,0000*7F
$GPGSA,A,3,13,03,16,06,30,19,23,,,,,,3.0,1.7,2.4*3B
$GPRMC,000006.000,A,3353.7582,N,09832.0281,W,0.09,334.68,020412,,,A*79
$GPGGA,000007.000,3353.7582,N,09832.0282,W,1,07,1.7,312.6,M,-23.7,M,18.8,0000*7C
$GPGSA,A,3,13,03,16,06,30,19,23,,,,,,3.0,1.7,2.4*3B
$GPGSV,3,1,12,23,82,157,33,13,62,321,27,03,48,103,37,16,42,040,29*74
$GPGSV,3,2,12,06,40,083,26,07,34,299,,19,30,147,32,10,21,297,*72
$GPGSV,3,3,12,20,17,201,,30,16,047,33,32,06,180,31,08,05,278,*76
$GPRMC,000007.000,A,3353.7582,N,09832.0282,W,0.07,350.69,020412,,,A*76
$GPGGA,000008.000,3353.7583,N,09832.0283,W,1,07,1.7,312.4,M,-23.7,M,18.8,0000*71
$GPGSA,A,3,13,03,16,06,30,19,23,,,,,,3.0,1.7,2.4*3B
$GPRMC,000008.000,A,3353.7583,N,09832.0283,W,0.06,345.16,020412,,,A*74
$GPGGA,000009.000,3353.7583,N,09832.0284,W,1,07,1.7,312.2,M,-23.7,M,18.8,0000*71
$GPGSA,A,3,13,03,16,06,30,19,23,,,,,,3.0,1.7,2.4*3B
$GPRMC,000009.000,A,3353.7583,N,09832.0284,W,0.06,0.21,020412,,,A*74
$GPGGA,000010.000,3353.7584,N,09832.0284,W,1,07,1.7,312.1,M,-23.7,M,18.8,0000*7D
$GPGSA,A,3,13,03,16,06,30,19,23,,,,,,3.0,1.7,2.4*3B
$GPRMC,000010.000,A,3353.7584,N,09832.0284,W,0.08,353.09,020412,,,A*7A
$GPGGA,000011.000,3353.7585,N,09832.0285,W,1,08,1.2,311.9,M,-23.7,M,32.8,0000*75
$GPGSA,A,3,13,03,16,06,30,19,23,20,,,,,2.0,1.2,1.6*3C
$GPRMC,000011.000,A,3353.7585,N,09832.0285,W,0.07,30.46,020412,,,A*49
$GPGGA,000012.000,3353.7585,N,09832.0285,W,1,08,1.2,311.8,M,-23.7,M,32.8,0000*77
$GPGSA,A,3,13,03,16,06,30,19,23,20,,,,,2.0,1.2,1.6*3C
$GPGSV,3,1,12,23,82,157,33,13,62,321,27,03,48,103,37,16,42,040,29*74
$GPGSV,3,2,12,06,40,083,26,07,34,299,,19,30,147,31,10,21,297,*71
$GPGSV,3,3,12,20,17,201,17,30,16,047,34,32,06,180,31,08,05,278,*77
$GPRMC,000012.000,A,3353.7585,N,09832.0285,W,0.17,41.29,020412,,,A*44
$GPGGA,000013.000,3353.7586,N,09832.0286,W,1,08,1.2,311.7,M,-23.7,M,32.8,0000*79
$GPGSA,A,3,13,03,16,06,30,19,23,20,,,,,2.0,1.2,1.6*3C
$GPRMC,000013.000,A,3353.7586,N,09832.0286,W,0.17,45.89,020412,,,A*4B
$GPGGA,000014.000,3353.7587,N,09832.0286,W,1,08,1.2,311.6,M,-23.7,M,32.8,0000*7E
$GPGSA,A,3,13,03,16,06,30,19,23,20,,,,,2.0,1.2,1.6*3C
$GPRMC,000014.000,A,3353.7587,N,09832.0286,W,0.06,246.18,020412,,,A*74
$GPGGA,000015.000,3353.7587,N,09832.0287,W,1,08,1.2,311.4,M,-23.7,M,32.8,0000*7C
$GPGSA,A,3,13,03,16,06,30,19,23,20,,,,,2.0,1.2,1.6*3C
$GPRMC,000015.000,A,3353.7587,N,09832.0287,W,0.06,280.67,020412,,,A*76
$GPGGA,000016.000,3353.7587,N,09832.0288,W,1,09,0.9,311.3,M,-23.7,M,32.8,0000*7C
$GPGSA,A,3,13,03,16,06,30,19,23,20,07,,,,1.8,0.9,1.5*39
$GPRMC,000016.000,A,3353.7587,N,09832.0288,W,0.16,152.49,020412,,,A*7B
$GPGGA,000017.000,3353.7587,N,09832.0288,W,1,09,0.9,311.1,M,-23.7,M,32.8,0000*7F
$GPGSA,A,3,13,03,16,06,30,19,23,20,07,,,,1.8,0.9,1.5*39
$GPGSV,3,1,12,23,82,157,32,13,62,321,28,03,48,103,37,16,42,040,28*7B
$GPGSV,3,2,12,06,40,083,27,07,34,299,20,19,30,147,30,10,21,297,*73
$GPGSV,3,3,12,20,16,201,19,30,16,047,34,32,06,179,31,08,05,278,*7E
$GPRMC,000017.000,A,3353.7587,N,09832.0288,W,0.10,161.23,020412,,,A*70
$GPGGA,000018.000,3353.7588,N,09832.0289,W,1,09,0.9,311.0,M,-23.7,M,32.8,0000*7F
$GPGSA,A,3,13,03,16,06,30,19,23,20,07,,,,1.8,0.9,1.5*39
$GPRMC,000018.000,A,3353.7588,N,09832.0289,W,0.12,343.78,020412,,,A*7F
$GPGGA,000019.000,3353.7589,N,09832.0289,W,1,09,0.9,310.8,M,-23.7,M,32.8,0000*76
$GPGSA,A,3,13,03,16,06,30,19,23,20,07,,,,1.8,0.9,1.5*39
$GPRMC,000019.000,A,3353.7589,N,09832.0289,W,0.27,327.42,020412,,,A*72
$GPGGA,000020.000,3353.7589,N,09832.0290,W,1,09,0.9,310.7,M,-23.7,M,32.8,0000*7B
$GPGSA,A,3,13,03,16,06,30,19,23,20,07,,,,1.8,0.9,1.5*39
$GPRMC,000020.000,A,3353.7589,N,09832.0290,W,0.13,342.45,020412,,,A*73
$GPGGA,000021.000,3353.7589,N,09832.0290,W,1,09,0.9,310.5,M,-23.7,M,32.8,0000*78
$GPGSA,A,3,13,03,16,06,30,19,23,20,07,,,,1.8,0.9,1.5*39
$GPRMC,000021.000,A,3353.7589,N,09832.0290,W,0.15,154.28,020412,,,A*7A
$GPGGA,000022.000,3353.7589,N,09832.0290,W,1,09,0.9,310.4,M,-23.7,M,32.8,0000*7A
$GPGSA,A,3,13,03,16,06,30,19,23,20,07,,,,1.8,0.9,1.5*39
$GPGSV,3,1,12,23,82,157,32,13,62,321,28,03,48,103,37,16,42,040,28*7B
$GPGSV,3,2,12,06,40,083,28,07,34,299,19,19,30,147,30,10,21,297,*76
$GPGSV,3,3,12,20,16,201,20,30,16,047,34,32,06,179,31,08,05,278,*74
$GPRMC,000022.000,A,3353.7589,N,09832.0290,W,0.19,125.46,020412,,,A*7B
$GPGGA,000023.000,3353.7589,N,09832.0291,W,1,09,0.9,310.2,M,-23.7,M,32.8,0000*7C
$GPGSA,A,3,13,03,16,06,30,19,23,20,07,,,,1.8,0.9,1.5*39
$GPRMC,000023.000,A,3353.7589,N,09832.0291,W,0.09,250.79,020412,,,A*77
$GPGGA,000024.000,3353.7589,N,09832.0292,W,1,09,0.9,310.1,M,-23.7,M,32.8,0000*7B
$GPGSA,A,3,13,03,16,06,30,19,23,20,07,,,,1.8,0.9,1.5*39
$GPRMC,000024.000,A,3353.7589,N,09832.0292,W,0.15,329.34,020412,,,A*78
$GPGGA,000025.000,3353.7590,N,09832.0292,W,1,09,0.9,310.0,M,-23.7,M,32.8,0000*73
$GPGSA,A,3,13,03,16,06,30,19,23,20,07,,,,1.8,0.9,1.5*39
$GPRMC,000025.000,A,3353.7590,N,09832.0292,W,0.15,50.55,020412,,,A*4B
$GPGGA,000026.000,3353.7590,N,09832.0292,W,1,09,0.9,309.9,M,-23.7,M,32.8,0000*71
$GPGSA,A,3,13,03,16,06,30,19,23,20,07,,,,1.8,0.9,1.5*39
$GPRMC,000026.000,A,3353.7590,N,09832.0292,W,0.25,73.27,020412,,,A*4F
$GPGGA,000027.000,3353.7590,N,09832.0292,W,1,09,0.9,309.8,M,-23.7,M,32.8,0000*71
$GPGSA,A,3,13,03,16,06,30,19,23,20,07,,,,1.8,0.9,1.5*39
$GPGSV,3,1,12,23,82,157,32,13,62,321,29,03,48,103,37,16,42,040,28*7A
$GPGSV,3,2,12,06,40,083,29,07,34,299,20,19,30,147,29,10,21,297,*75
$GPGSV,3,3,12,20,16,201,21,30,16,047,34,32,06,179,31,08,05,278,*75
$GPRMC,000027.000,A,3353.7590,N,09832.0292,W,0.12,129.75,020412,,,A*73
$GPGGA,000028.000,3353.7590,N,09832.0292,W,1,09,0.9,309.7,M,-23.7,M,32.8,0000*71
$GPGSA,A,3,13,03,16,06,30,19,23,20,07,,,,1.8,0.9,1.5*39
$GPRMC,000028.000,A,3353.7590,N,09832.0292,W,0.23,60.04,020412,,,A*44
$GPGGA,000029.000,3353.7590,N,09832.0292,W,1,09,0.9,309.7,M,-23.7,M,32.8,0000*70
$GPGSA,A,3,13,03,16,06,30,19,23,20,07,,,,1.8,0.9,1.5*39
$GPRMC,000029.000,A,3353.7590,N,09832.0292,W,0.26,16.58,020412,,,A*48
$GPGGA,000030.000,3353.7590,N,09832.0293,W,1,09,0.9,309.7,M,-23.7,M,32.8,0000*79
$GPGSA,A,3,13,03,16,06,30,19,23,20,07,,,,1.8,0.9,1.5*39
$GPRMC,000030.000,A,3353.7590,N,09832.0293,W,0.06,47.87,020412,,,A*45
$GPGGA,000031.000,3353.7590,N,09832.0294,W,1,09,0.9,309.6,M,-23.7,M,32.8,0000*7E
$GPGSA,A,3,13,03,16,06,30,19,23,20,07,,,,1.8,0.9,1.5*39
$GPRMC,000031.000,A,3353.7590,N,09832.0294,W,0.08,253.59,020412,,,A*79
$GPGGA,000032.000,3353.7590,N,09832.0294,W,1,09,0.9,309.5,M,-23.7,M,32.8,0000*7E
$GPGSA,A,3,13,03,16,06,30,19,23,20,07,,,,1.8,0.9,1.5*39
$GPGSV,3,1,12,23,82,157,31,13,62,321,29,03,48,103,37,16,42,040,28*79
$GPGSV,3,2,12,06,40,083,30,07,34,299,20,19,30,147,29,10,21,297,*7D
$GPGSV,3,3,12,20,16,201,21,30,16,047,34,32,06,179,31,08,05,278,*75
$GPRMC,000032.000,A,3353.7590,N,09832.0294,W,0.06,121.00,020412,,,A*7E
$GPGGA,000033.000,3353.7590,N,09832.0295,W,1,09,0.9,309.5,M,-23.7,M,32.8,0000*7E
$GPGSA,A,3,13,03,16,06,30,19,23,20,07,,,,1.8,0.9,1.5*39
$GPRMC,000033.000,A,3353.7590,N,09832.0295,W,0.11,342.94,020412,,,A*72
$GPGGA,000034.000,3353.7590,N,09832.0295,W,1,09,0.9,309.4,M,-23.7,M,32.8,0000*78
$GPGSA,A,3,13,03,16,06,30,19,23,20,07,,,,1.8,0.9,1.5*39
$GPRMC,000034.000,A,3353.7590,N,09832.0295,W,0.30,56.56,020412,,,A*4E
$GPGGA,000035.000,3353.7590,N,09832.0295,W,1,09,0.9,309.4,M,-23.7,M,32.8,0000*79
$GPGSA,A,3,13,03,16,06,30,19,23,20,07,,,,1.8,0.9,1.5*39
$GPRMC,000035.000,A,3353.7590,N,09832.0295,W,0.24,78.16,020412,,,A*42
$GPGGA,000036.000,3353.7590,N,09832.0296,W,1,09,0.9,309.4,M,-23.7,M,32.8,0000*79
$GPGSA,A,3,13,03,16,06,30,19,23,20,07,,,,1.8,0.9,1.5*39
$GPRMC,000036.000,A,3353.7590,N,09832.0296,W,0.15,256.19,020412,,,A*71
$GPGGA,000037.000,3353.7589,N,09832.0296,W,1,09,0.9,309.4,M,-23.7,M,32.8,0000*70
$GPGSA,A,3,13,03,16,06,30,19,23,20,07,,,,1.8,0.9,1.5*39
$GPGSV,3,1,12,23,82,157,31,13,62,321,29,03,48,103,37,16,42,040,28*79
$GPGSV,3,2,12,06,40,083,31,07,34,299,20,19,30,147,29,10,21,297,*7C
$GPGSV,3,3,12,20,16,201,21,30,16,047,34,32,06,179,31,08,05,279,*74
$GPRMC,000037.000,A,3353.7589,N,09832.0296,W,0.17,99.41,020412,,,A*46
$GPGGA,000038.000,3353.7589,N,09832.0297,W,1,09,0.9,309.3,M,-23.7,M,32.8,0000*79
$GPGSA,A,3,13,03,16,06,30,19,23,20,07,,,,1.8,0.9,1.5*39
$GPRMC,000038.000,A,3353.7589,N,09832.0297,W,0.02,95.13,020412,,,A*47
$GPGGA,000039.000,3353.7589,N,09832.0298,W,1,09,0.9,309.3,M,-23.7,M,32.8,0000*77
$GPGSA,A,3,13,03,16,06,30,19,23,20,07,,,,1.8,0.9,1.5*39
$GPRMC,000039.000,A,3353.7589,N,09832.0298,W,0.14,311.96,020412,,,A*7C
$GPGGA,000040.000,3353.7589,N,09832.0300,W,1,09,0.9,309.2,M,-23.7,M,32.8,0000*78
$GPGSA,A,3,13,03,16,06,30,19,23,20,07,,,,1.8,0.9,1.5*39
$GPRMC,000040.000,A,3353.7589,N,09832.0300,W,0.33,265.35,020412,,,A*7C
$GPGGA,000041.000,3353.7588,N,09832.0300,W,1,09,0.9,309.1,M,-23.7,M,32.8,0000*7B
$GPGSA,A,3,13,03,16,06,30,19,23,20,07,,,,1.8,0.9,1.5*39
$GPRMC,000041.000,A,3353.7588,N,09832.0300,W,0.07,123.60,020412,,,A*7A
$GPGGA,000042.000,3353.7589,N,09832.0300,W,1,09,0.9,309.0,M,-23.7,M,32.8,0000*78
$GPGSA,A,3,13,03,16,06,30,19,23,20,07,,,,1.8,0.9,1.5*39
$GPGSV,3,1,12,23,82,157,30,13,62,321,29,03,48,103,37,16,42,040,27*77
$GPGSV,3,2,12,06,40,083,31,07,34,299,20,19,30,147,29,10,21,297,*7C
$GPGSV,3,3,12,20,16,201,20,30,16,047,34,32,06,179,30,08,05,279,*74
$GPRMC,000042.000,A,3353.7589,N,09832.0300,W,0.26,62.71,020412,,,A*4F
$GPGGA,000043.000,3353.7588,N,09832.0301,W,1,09,0.9,309.0,M,-23.7,M,32.8,0000*79
$GPGSA,A,3,13,03,16,06,30,19,23,20,07,,,,1.8,0.9,1.5*39
$GPRMC,000043.000,A,3353.7588,N,09832.0301,W,0.08,340.17,020412,,,A*71
$GPGGA,000044.000,3353.7588,N,09832.0302,W,1,09,0.9,308.9,M,-23.7,M,32.8,0000*75
$GPGSA,A,3,13,03,16,06,30,19,23,20,07,,,,1.8,0.9,1.5*39
$GPRMC,000044.000,A,3353.7588,N,09832.0302,W,0.22,258.17,020412,,,A*75
$GPGGA,000045.000,3353.7587,N,09832.0303,W,1,09,0.9,308.8,M,-23.7,M,32.8,0000*7B
$GPGSA,A,3,13,03,16,06,30,19,23,20,07,,,,1.8,0.9,1.5*39
$GPRMC,000045.000,A,3353.7587,N,09832.0303,W,0.23,192.35,020412,,,A*7E
$GPGGA,000046.000,3353.7587,N,09832.0304,W,1,09,0.9,308.6,M,-23.7,M,32.8,0000*71
$GPGSA,A,3,13,03,16,06,30,19,23,20,07,,,,1.8,0.9,1.5*39
$GPRMC,000046.000,A,3353.7587,N,09832.0304,W,0.21,161.93,020412,,,A*78
$GPGGA,000047.000,3353.7586,N,09832.0305,W,1,09,0.9,308.5,M,-23.7,M,32.8,0000*73
$GPGSA,A,3,13,03,16,06,30,19,23,20,07,,,,1.8,0.9,1.5*39
$GPGSV,3,1,12,23,82,157,30,13,62,321,30,03,48,103,37,16,42,040,28*70
$GPGSV,3,2,12,06,40,082,30,07,34,299,20,19,30,147,28,10,21,297,*7D
$GPGSV,3,3,12,20,16,201,20,30,16,047,34,32,06,179,30,08,05,279,*74
$GPRMC,000047.000,A,3353.7586,N,09832.0305,W,0.16,247.89,020412,,,A*71
$GPGGA,000048.000,3353.7587,N,09832.0305,W,1,09,0.9,308.4,M,-23.7,M,32.8,0000*7C
$GPGSA,A,3,13,03,16,06,30,19,23,20,07,,,,1.8,0.9,1.5*39
$GPRMC,000048.000,A,3353.7587,N,09832.0305,W,0.18,348.79,020412,,,A*70
$GPGGA,000049.000,3353.7586,N,09832.0306,W,1,09,0.9,308.3,M,-23.7,M,32.8,0000*78
$GPGSA,A,3,13,03,16,06,30,19,23,20,07,,,,1.8,0.9,1.5*39
$GPRMC,000049.000,A,3353.7586,N,09832.0306,W,0.11,105.06,020412,,,A*79
$GPGGA,000050.000,3353.7587,N,09832.0306,W,1,09,0.9,308.2,M,-23.7,M,32.8,0000*70
$GPGSA,A,3,13,03,16,06,30,19,23,20,07,,,,1.8,0.9,1.5*39
$GPRMC,000050.000,A,3353.7587,N,09832.0306,W,0.11,284.10,020412,,,A*7D
$GPGGA,000051.000,3353.7587,N,09832.0307,W,1,09,0.9,308.1,M,-23.7,M,32.8,0000*73
$GPGSA,A,3,13,03,16,06,30,19,23,20,07,,,,1.8,0.9,1.5*39
$GPRMC,000051.000,A,3353.7587,N,09832.0307,W,0.07,305.58,020412,,,A*7E
$GPGGA,000052.000,3353.7587,N,09832.0306,W,1,09,0.9,308.0,M,-23.7,M,32.8,0000*70
$GPGSA,A,3,13,03,16,06,30,19,23,20,07,,,,1.8,0.9,1.5*39
$GPGSV,3,1,12,23,82,157,29,13,62,321,30,03,48,103,37,16,42,040,29*79
$GPGSV,3,2,12,06,40,082,29,07,34,299,21,19,30,147,27,10,21,297,*7B
$GPGSV,3,3,12,20,16,201,20,30,16,047,35,32,06,179,30,08,05,279,*75
$GPRMC,000052.000,A,3353.7587,N,09832.0306,W,0.29,67.19,020412,,,A*42
$GPGGA,000053.000,3353.7587,N,09832.0306,W,1,09,0.9,307.9,M,-23.7,M,32.8,0000*77
$GPGSA,A,3,13,03,16,06,30,19,23,20,07,,,,1.8,0.9,1.5*39
$GPRMC,000053.000,A,3353.7587,N,09832.0306,W,0.15,88.37,020412,,,A*41
$GPGGA,000054.000,3353.7588,N,09832.0307,W,1,08,1.0,307.9,M,-23.7,M,32.8,0000*77
$GPGSA,A,3,13,03,06,30,19,23,20,07,,,,,1.8,1.0,1.5*36
$GPRMC,000054.000,A,3353.7588,N,09832.0307,W,0.05,327.86,020412,,,A*75
$GPGGA,000055.000,3353.7588,N,09832.0307,W,1,09,0.9,307.8,M,-23.7,M,32.8,0000*7E
$GPGSA,A,3,13,03,16,06,30,19,23,20,07,,,,1.8,0.9,1.5*39
$GPRMC,000055.000,A,3353.7588,N,09832.0307,W,0.07,291.95,020412,,,A*78
$GPGGA,000056.000,3353.7588,N,09832.0307,W,1,09,0.9,307.8,M,-23.7,M,32.8,0000*7D
$GPGSA,A,3,13,03,16,06,30,19,23,20,07,,,,1.8,0.9,1.5*39
$GPRMC,000056.000,A,3353.7588,N,09832.0307,W,0.06,38.30,020412,,,A*44
$GPGGA,000057.000,3353.7588,N,09832.0307,W,1,09,0.9,307.8,M,-23.7,M,32.8,0000*7C
$GPGSA,A,3,13,03,16,06,30,19,23,20,07,,,,1.8,0.9,1.5*39
$GPGSV,3,1,12,23,82,157,28,13,62,321,30,03,48,103,37,16,42,040,32*72
$GPGSV,3,2,12,06,40,082,29,07,34,299,21,19,30,147,27,10,21,297,*7B
$GPGSV,3,3,12,20,16,201,21,30,16,047,34,32,06,179,30,08,05,279,*75
$GPRMC,000057.000,A,3353.7588,N,09832.0307,W,0.20,105.58,020412,,,A*70
$GPGGA,000058.000,3353.7589,N,09832.0306,W,1,09,0.9,307.8,M,-23.7,M,32.8,0000*73
$GPGSA,A,3,13,03,16,06,30,19,23,20,07,,,,1.8,0.9,1.5*39
$GPRMC,000058.000,A,3353.7589,N,09832.0306,W,0.28,66.66,020412,,,A*4E
$GPGGA,000059.000,3353.7589,N,09832.0305,W,1,09,0.9,307.9,M,-23.7,M,32.8,0000*70
$GPGSA,A,3,13,03,16,06,30,19,23,20,07,,,,1.8,0.9,1.5*39
$GPRMC,000059.000,A,3353.7589,N,09832.0305,W,0.44,66.78,020412,,,A*49
$GPGGA,000100.000,3353.7589,N,09832.0304,W,1,09,0.9,308.0,M,-23.7,M,32.8,0000*7A
$GPGSA,A,3,13,03,16,06,30,19,23,20,07,,,,1.8,0.9,1.5*39
$GPRMC,000100.000,A,3353.7589,N,09832.0304,W,0.31,83.26,020412,,,A*47
$GPGGA,000101.000,3353.7589,N,09832.0305,W,1,09,0.9,308.0,M,-23.7,M,32.8,0000*7A
$GPGSA,A,3,13,03,16,06,30,19,23,20,07,,,,1.8,0.9,1.5*39
$GPRMC,000101.000,A,3353.7589,N,09832.0305,W,0.04,185.84,020412,,,A*7E
$GPGGA,000102.000,3353.7588,N,09832.0305,W,1,09,0.9,308.1,M,-23.7,M,32.8,0000*79
$GPGSA,A,3,13,03,16,06,30,19,23,20,07,,,,1.8,0.9,1.5*39
$GPGSV,3,1,12,23,82,157,23,13,62,321,31,03,48,103,37,16,42,040,32*78
$GPGSV,3,2,12,06,40,082,29,07,34,299,23,19,30,147,26,10,21,297,*78
$GPGSV,3,3,12,20,16,201,22,30,16,047,34,32,06,179,30,08,05,279,*76
$GPRMC,000102.000,A,3353.7588,N,09832.0305,W,0.16,126.53,020412,,,A*7C
$GPGGA,000103.000,3353.7588,N,09832.0305,W,1,09,0.9,308.2,M,-23.7,M,32.8,0000*7B
$GPGSA,A,3,13,03,16,06,30,19,23,20,07,,,,1.8,0.9,1.5*39
$GPRMC,000103.000,A,3353.7588,N,09832.0305,W,0.08,65.26,020412,,,A*46
$GPGGA,000104.000,3353.7588,N,09832.0305,W,1,09,0.9,308.3,M,-23.7,M,32.8,0000*7D
$GPGSA,A,3,13,03,16,06,30,19,23,20,07,,,,1.8,0.9,1.5*39
$GPRMC,000104.000,A,3353.7588,N,09832.0305,W,0.05,357.54,020412,,,A*7B
$GPGGA,000105.000,3353.7587,N,09832.0305,W,1,09,0.9,308.4,M,-23.7,M,32.8,0000*74
$GPGSA,A,3,13,03,16,06,30,19,23,20,07,,,,1.8,0.9,1.5*39
$GPRMC,000105.000,A,3353.7587,N,09832.0305,W,0.07,105.89,020412,,,A*72
$GPGGA,000106.000,3353.7587,N,09832.0305,W,1,09,0.9,308.6,M,-23.7,M,32.8,0000*75
$GPGSA,A,3,13,03,16,06,30,19,23,20,07,,,,1.8,0.9,1.5*39
$GPRMC,000106.000,A,3353.7587,N,09832.0305,W,0.32,65.37,020412,,,A*45
$GPGGA,000107.000,3353.7587,N,09832.0305,W,1,09,0.9,308.8,M,-23.7,M,32.8,0000*7A
$GPGSA,A,3,13,03,16,06,30,19,23,20,07,,,,1.8,0.9,1.5*39
$GPGSV,3,1,12,23,82,157,23,13,62,321,31,03,48,103,38,16,42,040,32*77
$GPGSV,3,2,12,06,40,082,29,07,34,299,23,19,30,147,25,10,21,297,*7B
$GPGSV,3,3,12,20,16,201,22,30,16,047,34,32,06,179,30,08,05,279,*76
$GPRMC,000107.000,A,3353.7587,N,09832.0305,W,0.16,148.14,020412,,,A*7D
$GPGGA,000108.000,3353.7586,N,09832.0305,W,1,09,0.9,309.0,M,-23.7,M,32.8,0000*7D
$GPGSA,A,3,13,03,16,06,30,19,23,20,07,,,,1.8,0.9,1.5*39
$GPRMC,000108.000,A,3353.7586,N,09832.0305,W,0.15,141.62,020412,,,A*78
$GPGGA,000109.000,3353.7586,N,09832.0305,W,1,09,0.9,309.3,M,-23.7,M,32.8,0000*7F
$GPGSA,A,3,13,03,16,06,30,19,23,20,07,,,,1.8,0.9,1.5*39
$GPRMC,000109.000,A,3353.7586,N,09832.0305,W,0.32,84.50,020412,,,A*45
$GPGGA,000110.000,3353.7586,N,09832.0304,W,1,09,0.9,309.6,M,-23.7,M,32.8,0000*73
$GPGSA,A,3,13,03,16,06,30,19,23,20,07,,,,1.8,0.9,1.5*39
$GPRMC,000110.000,A,3353.7586,N,09832.0304,W,0.36,34.92,020412,,,A*4D
$GPGGA,000111.000,3353.7586,N,09832.0304,W,1,09,0.9,310.0,M,-23.7,M,32.8,0000*7C
$GPGSA,A,3,13,03,16,06,30,19,23,20,07,,,,1.8,0.9,1.5*39
$GPRMC,000111.000,A,3353.7586,N,09832.0304,W,0.41,60.83,020412,,,A*4D
$GPGGA,000112.000,3353.7586,N,09832.0304,W,1,09,0.9,310.3,M,-23.7,M,32.8,0000*7C
$GPGSA,A,3,13,03,16,06,30,19,23,20,07,,,,1.8,0.9,1.5*39
$GPGSV,3,1,12,23,82,157,23,13,62,321,32,03,48,103,38,16,42,040,32*74
$GPGSV,3,2,12,06,40,082,29,07,34,299,23,19,30,147,25,10,21,297,*7B
$GPGSV,3,3,12,20,16,201,19,30,16,047,34,32,06,179,30,08,05,279,*7E
$GPRMC,000112.000,A,3353.7586,N,09832.0304,W,0.06,102.20,020412,,,A*71
$GPGGA,000113.000,3353.7585,N,09832.0304,W,1,09,0.9,310.6,M,-23.7,M,32.8,0000*7B
$GPGSA,A,3,13,03,16,06,30,19,23,20,07,,,,1.8,0.9,1.5*39
$GPRMC,000113.000,A,3353.7585,N,09832.0304,W,0.22,82.44,020412,,,A*4E
$GPGGA,000114.000,3353.7585,N,09832.0304,W,1,09,0.9,310.8,M,-23.7,M,32.8,0000*72
$GPGSA,A,3,13,03,16,06,30,19,23,20,07,,,,1.8,0.9,1.5*39
$GPRMC,000114.000,A,3353.7585,N,09832.0304,W,0.02,213.50,020412,,,A*74
$GPGGA,000115.000,3353.7585,N,09832.0305,W,1,09,0.9,311.1,M,-23.7,M,32.8,0000*7A
$GPGSA,A,3,13,03,16,06,30,19,23,20,07,,,,1.8,0.9,1.5*39
$GPRMC,000115.000,A,3353.7585,N,09832.0305,W,0.17,36.65,020412,,,A*43
$GPGGA,000116.000,3353.7584,N,09832.0305,W,1,09,0.9,311.3,M,-23.7,M,32.8,0000*7A
$GPGSA,A,3,13,03,16,06,30,19,23,20,07,,,,1.8,0.9,1.5*39
$GPRMC,000116.000,A,3353.7584,N,09832.0305,W,0.22,138.42,020412,,,A*7D
$GPGGA,000117.000,3353.7583,N,09832.0306,W,1,09,0.9,311.4,M,-23.7,M,32.8,0000*78
$GPGSA,A,3,13,03,16,06,30,19,23,20,07,,,,1.8,0.9,1.5*39
$GPGSV,3,1,12,23,82,157,22,13,62,321,33,03,48,103,38,16,42,040,32*74
$GPGSV,3,2,12,06,40,082,28,07,34,299,22,19,30,147,25,10,21,297,*7B
$GPGSV,3,3,12,20,16,201,19,30,16,047,33,32,06,179,30,08,05,279,*79
$GPRMC,000117.000,A,3353.7583,N,09832.0306,W,0.22,207.66,020412,,,A*71
$GPGGA,000118.000,3353.7582,N,09832.0307,W,1,09,0.9,311.5,M,-23.7,M,32.8,0000*76
$GPGSA,A,3,13,03,16,06,30,19,23,20,07,,,,1.8,0.9,1.5*39
$GPRMC,000118.000,A,3353.7582,N,09832.0307,W,0.24,263.45,020412,,,A*7B
$GPGGA,000119.000,3353.7582,N,09832.0307,W,1,09,0.9,311.6,M,-23.7,M,32.8,0000*74
$GPGSA,A,3,13,03,16,06,30,19,23,20,07,,,,1.8,0.9,1.5*39
$GPRMC,000119.000,A,3353.7582,N,09832.0307,W,0.05,142.50,020412,,,A*7D
$GPGGA,000120.000,3353.7581,N,09832.0308,W,1,09,0.9,311.7,M,-23.7,M,32.8,0000*73
$GPGSA,A,3,13,03,16,06,30,19,23,20,07,,,,1.8,0.9,1.5*39
$GPRMC,000120.000,A,3353.7581,N,09832.0308,W,0.21,164.39,020412,,,A*76
$GPGGA,000121.000,3353.7581,N,09832.0308,W,1,09,0.9,311.8,M,-23.7,M,32.8,0000*7D
$GPGSA,A,3,13,03,16,06,30,19,23,20,07,,,,1.8,0.9,1.5*39
$GPRMC,000121.000,A,3353.7581,N,09832.0308,W,0.15,309.19,020412,,,A*7B
$GPGGA,000122.000,3353.7581,N,09832.0309,W,1,09,0.9,311.8,M,-23.7,M,32.8,0000*7F
$GPGSA,A,3,13,03,16,06,30,19,23,20,07,,,,1.8,0.9,1.5*39
$GPGSV,3,1,12,23,82,157,22,13,62,321,33,03,48,103,38,16,42,040,32*74
$GPGSV,3,2,12,06,40,082,28,07,34,299,21,19,30,147,25,10,21,297,*78
$GPGSV,3,3,12,20,16,201,20,30,16,047,33,32,06,179,30,08,05,279,*73
$GPRMC,000122.000,A,3353.7581,N,09832.0309,W,0.27,342.70,020412,,,A*78
$GPGGA,000123.000,3353.7581,N,09832.0309,W,1,09,0.9,311.8,M,-23.7,M,32.8,0000*7E
$GPGSA,A,3,13,03,16,06,30,19,23,20,07,,,,1.8,0.9,1.5*39
$GPRMC,000123.000,A,3353.7581,N,09832.0309,W,0.31,69.27,020412,,,A*46
$GPGGA,000124.000,3353.7580,N,09832.0309,W,1,09,0.9,311.8,M,-23.7,M,32.8,0000*78
$GPGSA,A,3,13,03,16,06,30,19,23,20,07,,,,1.8,0.9,1.5*39
$GPRMC,000124.000,A,3353.7580,N,09832.0309,W,0.19,23.10,020412,,,A*40
$GPGGA,000125.000,3353.7581,N,09832.0309,W,1,09,0.9,311.8,M,-23.7,M,32.8,0000*78
$GPGSA,A,3,13,03,16,06,30,19,23,20,07,,,,1.8,0.9,1.5*39
$GPRMC,000125.000,A,3353.7581,N,09832.0309,W,0.26,19.36,020412,,,A*41
$GPGGA,000126.000,3353.7581,N,09832.0308,W,1,09,0.9,311.8,M,-23.7,M,32.8,0000*7A
$GPGSA,A,3,13,03,16,06,30,19,23,20,07,,,,1.8,0.9,1.5*39
$GPRMC,000126.000,A,3353.7581,N,09832.0308,W,0.47,66.89,020412,,,A*48
$GPGGA,000127.000,3353.7580,N,09832.0307,W,1,09,0.9,311.8,M,-23.7,M,32.8,0000*75
$GPGSA,A,3,13,03,16,06,30,19,23,20,07,,,,1.8,0.9,1.5*39
$GPGSV,3,1,12,23,82,157,24,13,62,321,33,03,48,103,38,16,42,040,32*72
$GPGSV,3,2,12,06,40,082,28,07,34,299,20,19,30,147,25,10,21,297,*79
$GPGSV,3,3,12,20,16,201,20,30,16,047,33,32,06,179,30,08,05,279,*73
$GPRMC,000127.000,A,3353.7580,N,09832.0307,W,0.42,104.55,020412,,,A*76
$GPGGA,000128.000,3353.7579,N,09832.0308,W,1,09,0.9,311.8,M,-23.7,M,32.8,0000*73
$GPGSA,A,3,13,03,16,06,30,19,23,20,07,,,,1.8,0.9,1.5*39
$GPRMC,000128.000,A,3353.7579,N,09832.0308,W,0.12,175.75,020412,,,A*71
$GPGGA,000129.000,3353.7578,N,09832.0308,W,1,09,0.9,311.7,M,-23.7,M,32.8,0000*7C
$GPGSA,A,3,13,03,16,06,30,19,23,20,07,,,,1.8,0.9,1.5*39
$GPRMC,000129.000,A,3353.7578,N,09832.0308,W,0.19,161.55,020412,,,A*7D
$GPGGA,000130.000,3353.7577,N,09832.0308,W,1,09,0.9,311.7,M,-23.7,M,32.8,0000*7B
$GPGSA,A,3,13,03,16,06,30,19,23,20,07,,,,1.8,0.9,1.5*39
$GPRMC,000130.000,A,3353.7577,N,09832.0308,W,0.24,154.30,020412,,,A*71
$GPGGA,000131.000,3353.7576,N,09832.0308,W,1,09,0.9,311.6,M,-23.7,M,32.8,0000*7A
$GPGSA,A,3,13,03,16,06,30,19,23,20,07,,,,1.8,0.9,1.5*39
$GPRMC,000131.000,A,3353.7576,N,09832.0308,W,0.11,142.87,020412,,,A*7C
$GPGGA,000132.000,3353.7575,N,09832.0308,W,1,09,0.9,311.5,M,-23.7,M,32.8,0000*79
$GPGSA,A,3,13,03,16,06,30,19,23,20,07,,,,1.8,0.9,1.5*39
$GPGSV,3,1,12,23,82,157,24,13,62,321,33,03,48,103,38,16,42,040,32*72
$GPGSV,3,2,12,06,40,082,28,07,34,299,20,19,30,147,26,10,21,297,*7A
$GPGSV,3,3,12,20,16,201,19,30,16,047,32,32,06,179,30,08,05,279,*78
$GPRMC,000132.000,A,3353.7575,N,09832.0308,W,0.24,112.36,020412,,,A*75
$GPGGA,000133.000,3353.7575,N,09832.0308,W,1,09,0.9,311.4,M,-23.7,M,32.8,0000*79
$GPGSA,A,3,13,03,16,06,30,19,23,20,07,,,,1.8,0.9,1.5*39
$GPRMC,000133.000,A,3353.7575,N,09832.0308,W,0.26,147.59,020412,,,A*7F
$GPGGA,000134.000,3353.7574,N,09832.0308,W,1,09,0.9,311.4,M,-23.7,M,32.8,0000*7F
$GPGSA,A,3,13,03,16,06,30,19,23,20,07,,,,1.8,0.9,1.5*39
$GPRMC,000134.000,A,3353.7574,N,09832.0308,W,0.30,161.22,020412,,,A*76
$GPGGA,000135.000,3353.7574,N,09832.0308,W,1,09,0.9,311.4,M,-23.7,M,32.8,0000*7E
$GPGSA,A,3,13,03,16,06,30,19,23,20,07,,,,1.8,0.9,1.5*39
$GPRMC,000135.000,A,3353.7574,N,09832.0308,W,0.21,12.51,020412,,,A*46
$GPGGA,000136.000,3353.7574,N,09832.0309,W,1,09,0.9,311.4,M,-23.7,M,32.8,0000*7C
$GPGSA,A,3,13,03,16,06,30,19,23,20,07,,,,1.8,0.9,1.5*39
$GPRMC,000136.000,A,3353.7574,N,09832.0309,W,0.21,337.94,020412,,,A*79
$GPGGA,000137.000,3353.7574,N,09832.0309,W,1,09,0.9,311.4,M,-23.7,M,32.8,0000*7D
$GPGSA,A,3,13,03,16,06,30,19,23,20,07,,,,1.8,0.9,1.5*39
$GPGSV,3,1,12,23,82,157,24,13,62,321,34,03,48,103,38,16,42,040,32*75
$GPGSV,3,2,12,06,40,082,29,07,34,299,20,19,30,147,26,10,21,297,*7B
$GPGSV,3,3,12,20,16,201,19,30,16,047,32,32,06,179,30,08,05,279,*78
$GPRMC,000137.000,A,3353.7574,N,09832.0309,W,0.09,123.29,020412,,,A*73
$GPGGA,000138.000,3353.7575,N,09832.0307,W,1,09,0.9,311.5,M,-23.7,M,32.8,0000*7C
$GPGSA,A,3,13,03,16,06,30,19,23,20,07,,,,1.8,0.9,1.5*39
$GPRMC,000138.000,A,3353.7575,N,09832.0307,W,0.45,71.16,020412,,,A*41
$GPGGA,000139.000,3353.7575,N,09832.0306,W,1,09,0.9,311.6,M,-23.7,M,32.8,0000*7F
$GPGSA,A,3,13,03,16,06,30,19,23,20,07,,,,1.8,0.9,1.5*39
$GPRMC,000139.000,A,3353.7575,N,09832.0306,W,0.46,68.22,020412,,,A*4D
$GPGGA,000140.000,3353.7575,N,09832.0306,W,1,10,0.8,311.8,M,-23.7,M,252.8,0000*42
$GPGSA,A,3,13,03,16,06,30,19,23,20,07,10,,,1.6,0.8,1.4*36
$GPRMC,000140.000,A,3353.7575,N,09832.0306,W,0.20,81.57,020412,,,A*46
$GPGGA,000141.000,3353.7575,N,09832.0305,W,1,10,0.8,311.9,M,-23.7,M,252.8,0000*41
$GPGSA,A,3,13,03,16,06,30,19,23,20,07,10,,,1.6,0.8,1.4*36
$GPRMC,000141.000,A,3353.7575,N,09832.0305,W,0.18,101.32,020412,,,A*75
$GPGGA,000142.000,3353.7575,N,09832.0306,W,1,10,0.8,312.0,M,-23.7,M,252.8,0000*4B
$GPGSA,A,3,13,03,16,06,30,19,23,20,07,10,,,1.6,0.8,1.4*36
$GPGSV,3,1,12,23,82,157,24,13,62,321,34,03,48,103,38,16,42,040,33*74
$GPGSV,3,2,12,06,40,082,29,07,34,299,20,19,30,147,25,10,21,297,13*7A
$GPGSV,3,3,12,20,16,201,20,30,16,047,32,32,06,179,30,08,05,279,*72
$GPRMC,000142.000,A,3353.7575,N,09832.0306,W,0.08,194.81,020412,,,A*70
$GPGGA,000143.000,3353.7575,N,09832.0305,W,1,10,0.8,312.1,M,-23.7,M,252.8,0000*48
$GPGSA,A,3,13,03,16,06,30,19,23,20,07,10,,,1.6,0.8,1.4*36
$GPRMC,000143.000,A,3353.7575,N,09832.0305,W,0.19,131.38,020412,,,A*7F
$GPGGA,000144.000,3353.7575,N,09832.0305,W,1,10,0.8,312.2,M,-23.7,M,252.8,0000*4C
$GPGSA,A,3,13,03,16,06,30,19,23,20,07,10,,,1.6,0.8,1.4*36
$GPRMC,000144.000,A,3353.7575,N,09832.0305,W,0.23,67.14,020412,,,A*4D
$GPGGA,000145.000,3353.7575,N,09832.0305,W,1,10,0.8,312.2,M,-23.7,M,252.8,0000*4D
$GPGSA,A,3,13,03,16,06,30,19,23,20,07,10,,,1.6,0.8,1.4*36
$GPRMC,000145.000,A,3353.7575,N,09832.0305,W,0.16,121.43,020412,,,A*7B
$GPGGA,000146.000,3353.7575,N,09832.0304,W,1,10,0.8,312.3,M,-23.7,M,252.8,0000*4E
$GPGSA,A,3,13,03,16,06,30,19,23,20,07,10,,,1.6,0.8,1.4*36
$GPRMC,000146.000,A,3353.7575,N,09832.0304,W,0.18,98.64,020412,,,A*41
$GPGGA,000147.000,3353.7576,N,09832.0304,W,1,10,0.8,312.4,M,-23.7,M,252.8,0000*4B
$GPGSA,A,3,13,03,16,06,30,19,23,20,07,10,,,1.6,0.8,1.4*36
$GPGSV,3,1,12,23,82,157,25,13,62,321,34,03,48,103,39,16,42,040,34*73
$GPGSV,3,2,12,06,40,082,29,07,34,299,20,19,30,147,25,10,21,297,14*7D
$GPGSV,3,3,12,20,16,201,20,30,16,047,32,32,06,179,30,08,05,279,*72
$GPRMC,000147.000,A,3353.7576,N,09832.0304,W,0.31,55.39,020412,,,A*41
$GPGGA,000148.000,3353.7576,N,09832.0303,W,1,10,0.8,312.5,M,-23.7,M,252.8,0000*42
$GPGSA,A,3,13,03,16,06,30,19,23,20,07,10,,,1.6,0.8,1.4*36
$GPRMC,000148.000,A,3353.7576,N,09832.0303,W,0.31,33.65,020412,,,A*40
$GPGGA,000149.000,3353.7577,N,09832.0303,W,1,10,0.8,312.6,M,-23.7,M,252.8,0000*41
$GPGSA,A,3,13,03,16,06,30,19,23,20,07,10,,,1.6,0.8,1.4*36
$GPRMC,000149.000,A,3353.7577,N,09832.0303,W,0.16,23.94,020412,,,A*4A
$GPGGA,000150.000,3353.7577,N,09832.0303,W,1,10,0.8,312.6,M,-23.7,M,252.8,0000*49
$GPGSA,A,3,13,03,16,06,30,19,23,20,07,10,,,1.6,0.8,1.4*36
$GPRMC,000150.000,A,3353.7577,N,09832.0303,W,0.09,140.00,020412,,,A*75
$GPGGA,000151.000,3353.7577,N,09832.0302,W,1,10,0.8,312.7,M,-23.7,M,252.8,0000*48
$GPGSA,A,3,13,03,16,06,30,19,23,20,07,10,,,1.6,0.8,1.4*36
$GPRMC,000151.000,A,3353.7577,N,09832.0302,W,0.30,123.67,020412,,,A*7B
$GPGGA,000152.000,3353.7577,N,09832.0302,W,1,10,0.8,312.8,M,-23.7,M,252.8,0000*44
$GPGSA,A,3,13,03,16,06,30,19,23,20,07,10,,,1.6,0.8,1.4*36
$GPGSV,3,1,12,23,82,157,26,13,62,321,33,03,48,103,39,16,42,040,34*77
$GPGSV,3,2,12,06,40,082,28,07,34,299,21,19,30,147,25,10,21,297,16*7F
$GPGSV,3,3,12,20,16,201,21,30,16,047,31,32,06,179,30,08,05,279,*70
$GPRMC,000152.000,A,3353.7577,N,09832.0302,W,0.27,75.03,020412,,,A*4E
$GPGGA,000153.000,3353.7578,N,09832.0301,W,1,10,0.8,312.9,M,-23.7,M,252.8,0000*48
$GPGSA,A,3,13,03,16,06,30,19,23,20,07,10,,,1.6,0.8,1.4*36
$GPRMC,000153.000,A,3353.7578,N,09832.0301,W,0.41,56.87,020412,,,A*4E
$GPGGA,000154.000,3353.7578,N,09832.0300,W,1,10,0.8,313.0,M,-23.7,M,252.8,0000*46
$GPGSA,A,3,13,03,16,06,30,19,23,20,07,10,,,1.6,0.8,1.4*36
$GPRMC,000154.000,A,3353.7578,N,09832.0300,W,0.28,91.35,020412,,,A*45
$GPGGA,000155.000,3353.7578,N,09832.0300,W,1,10,0.8,313.1,M,-23.7,M,252.8,0000*46
$GPGSA,A,3,13,03,16,06,30,19,23,20,07,10,,,1.6,0.8,1.4*36
$GPRMC,000155.000,A,3353.7578,N,09832.0300,W,0.11,125.42,020412,,,A*70
$GPGGA,000156.000,3353.7579,N,09832.0300,W,1,10,0.8,313.2,M,-23.7,M,252.8,0000*47
$GPGSA,A,3,13,03,16,06,30,19,23,20,07,10,,,1.6,0.8,1.4*36
$GPRMC,000156.000,A,3353.7579,N,09832.0300,W,0.13,329.31,020412,,,A*7A
$GPGGA,000157.000,3353.7579,N,09832.0301,W,1,10,0.8,313.2,M,-23.7,M,252.8,0000*47
$GPGSA,A,3,13,03,16,06,30,19,23,20,07,10,,,1.6,0.8,1.4*36
$GPGSV,3,1,12,23,82,157,27,13,62,321,33,03,48,103,39,16,42,040,35*77
$GPGSV,3,2,12,06,40,082,29,07,34,299,22,19,30,147,25,10,21,297,16*7D
$GPGSV,3,3,12,20,16,201,20,30,16,047,31,32,06,179,29,08,05,279,*79
$GPRMC,000157.000,A,3353.7579,N,09832.0301,W,0.21,335.98,020412,,,A*75
$GPGGA,000158.000,3353.7580,N,09832.0301,W,1,10,0.8,313.3,M,-23.7,M,252.8,0000*4F
$GPGSA,A,3,13,03,16,06,30,19,23,20,07,10,,,1.6,0.8,1.4*36
$GPRMC,000158.000,A,3353.7580,N,09832.0301,W,0.24,337.64,020412,,,A*78
$GPGGA,000159.000,3353.7580,N,09832.0302,W,1,10,0.8,313.3,M,-23.7,M,252.8,0000*4D
$GPGSA,A,3,13,03,16,06,30,19,23,20,07,10,,,1.6,0.8,1.4*36
$GPRMC,000159.000,A,3353.7580,N,09832.0302,W,0.13,299.33,020412,,,A*79
$GPGGA,000200.000,3353.7581,N,09832.0302,W,1,09,1.1,313.3,M,-23.7,M,252.8,0000*43
$GPGSA,A,3,13,03,16,06,30,19,23,07,10,,,,1.9,1.1,1.6*31
$GPRMC,000200.000,A,3353.7581,N,09832.0302,W,0.05,16.74,020412,,,A*46
$GPGGA,000201.000,3353.7581,N,09832.0302,W,1,09,1.1,313.3,M,-23.7,M,252.8,0000*42
$GPGSA,A,3,13,03,16,06,30,19,23,07,10,,,,1.9,1.1,1.6*31
$GPRMC,000201.000,A,3353.7581,N,09832.0302,W,0.08,23.08,020412,,,A*47
$GPGGA,000202.000,3353.7582,N,09832.0302,W,1,09,1.1,313.3,M,-23.7,M,252.8,0000*42
$GPGSA,A,3,13,03,16,06,30,19,23,07,10,,,,1.9,1.1,1.6*31
$GPGSV,3,1,12,23,82,157,28,13,62,321,33,03,48,103,40,16,42,040,35*76
$GPGSV,3,2,12,06,40,082,29,07,34,299,22,19,30,147,26,10,21,297,14*7C
$GPGSV,3,3,12,20,16,201,,30,16,047,31,32,06,179,29,08,05,279,*7B
$GPRMC,000202.000,A,3353.7582,N,09832.0302,W,0.10,13.61,020412,,,A*42
$GPGGA,000203.000,3353.7582,N,09832.0302,W,1,09,1.1,313.4,M,-23.7,M,,0000*67
$GPGSA,A,3,13,03,16,06,30,19,23,07,10,,,,1.9,1.1,1.6*31
$GPRMC,000203.000,A,3353.7582,N,09832.0302,W,0.10,54.59,020412,,,A*4B
$GPGGA,000204.000,3353.7582,N,09832.0302,W,1,09,1.1,313.4,M,-23.7,M,,0000*60
$GPGSA,A,3,13,03,16,06,30,19,23,07,10,,,,1.9,1.1,1.6*31
$GPRMC,000204.000,A,3353.7582,N,09832.0302,W,0.11,47.87,020412,,,A*4C
$GPGGA,000205.000,3353.7584,N,09832.0304,W,2,08,1.2,312.8,M,-23.7,M,0.8,0000*4B
$GPGSA,A,3,13,03,16,06,30,19,23,07,,,,,2.2,1.2,1.9*34
$GPRMC,000205.000,A,3353.7584,N,09832.0304,W,0.10,312.31,020412,,,D*77
$GPGGA,000206.000,3353.7584,N,09832.0305,W,2,08,1.2,312.8,M,-23.7,M,0.8,0000*49
$GPGSA,A,3,13,03,16,06,30,19,23,07,,,,,2.2,1.2,1.9*34
$GPRMC,000206.000,A,3353.7584,N,09832.0305,W,0.20,298.32,020412,,,D*76
$GPGGA,000207.000,3353.7584,N,09832.0305,W,2,08,1.2,312.8,M,-23.7,M,1.8,0000*49
$GPGSA,A,3,13,03,16,06,30,19,23,07,,,,,2.2,1.2,1.9*34
$GPGSV,3,1,12,23,82,157,28,13,62,321,33,03,48,103,40,16,42,040,35*76
$GPGSV,3,2,12,06,40,082,29,07,34,299,23,19,30,147,26,10,21,297,*78
$GPGSV,3,3,12,20,16,201,,30,16,047,30,32,06,179,29,08,05,279,*7A
$GPRMC,000207.000,A,3353.7584,N,09832.0305,W,0.06,316.05,020412,,,D*70
$GPGGA,000208.000,3353.7584,N,09832.0305,W,2,08,1.2,313.0,M,-23.7,M,2.8,0000*4C
$GPGSA,A,3,13,03,16,06,30,19,23,07,,,,,2.2,1.2,1.9*34
$GPRMC,000208.000,A,3353.7584,N,09832.0305,W,0.22,84.69,020412,,,D*4B
$GPGGA,000209.000,3353.7584,N,09832.0305,W,2,08,1.2,313.1,M,-23.7,M,0.8,0000*4E
$GPGSA,A,3,13,03,16,06,30,19,23,07,,,,,2.2,1.2,1.9*34
$GPRMC,000209.000,A,3353.7584,N,09832.0305,W,0.06,24.58,020412,,,D*44
$GPGGA,000210.000,3353.7583,N,09832.0305,W,2,07,1.2,312.8,M,-23.7,M,0.8,0000*46
$GPGSA,A,3,13,03,16,06,30,19,07,,,,,,2.5,1.2,2.2*3A
$GPRMC,000210.000,A,3353.7583,N,09832.0305,W,0.25,86.66,020412,,,D*4F
$GPGGA,000211.000,3353.7583,N,09832.0306,W,2,08,1.2,312.9,M,-23.7,M,0.8,0000*4A
$GPGSA,A,3,13,03,16,06,30,19,23,07,,,,,2.2,1.2,1.9*34
$GPRMC,000211.000,A,3353.7583,N,09832.0306,W,0.13,254.07,020412,,,D*72
$GPGGA,000212.000,3353.7583,N,09832.0306,W,2,08,1.2,312.9,M,-23.7,M,1.8,0000*48
$GPGSA,A,3,13,03,16,06,30,19,23,07,,,,,2.2,1.2,1.9*34
$GPGSV,3,1,12,23,82,157,31,13,62,321,34,03,48,103,40,16,42,040,34*78
$GPGSV,3,2,12,06,40,082,29,07,34,299,22,19,30,147,26,10,21,297,*79
$GPGSV,3,3,12,20,16,201,,30,16,047,30,32,06,179,29,08,05,279,*7A
$GPRMC,000212.000,A,3353.7583,N,09832.0306,W,0.04,43.43,020412,,,D*43
$GPGGA,000213.000,3353.7583,N,09832.0306,W,2,08,1.2,312.7,M,-23.7,M,2.8,0000*44
$GPGSA,A,3,13,03,16,06,30,19,23,07,,,,,2.2,1.2,1.9*34
$GPRMC,000213.000,A,3353.7583,N,09832.0306,W,0.17,299.73,020412,,,D*76
$GPGGA,000214.000,3353.7584,N,09832.0306,W,2,08,1.2,312.5,M,-23.7,M,3.8,0000*47
$GPGSA,A,3,13,03,16,06,30,19,23,07,,,,,2.2,1.2,1.9*34
$GPRMC,000214.000,A,3353.7584,N,09832.0306,W,0.13,73.76,020412,,,D*41
$GPGGA,000215.000,3353.7583,N,09832.0307,W,2,08,1.2,312.7,M,-23.7,M,0.8,0000*41
$GPGSA,A,3,13,03,16,06,30,19,23,07,,,,,2.2,1.2,1.9*34
$GPRMC,000215.000,A,3353.7583,N,09832.0307,W,0.15,290.56,020412,,,D*7D
$GPGGA,000216.000,3353.7583,N,09832.0307,W,2,08,1.2,313.0,M,-23.7,M,0.8,0000*44
$GPGSA,A,3,13,03,16,06,30,19,23,07,,,,,2.2,1.2,1.9*34
$GPRMC,000216.000,A,3353.7583,N,09832.0307,W,0.21,90.75,020412,,,D*4A
$GPGGA,000217.000,3353.7583,N,09832.0306,W,2,08,1.2,313.1,M,-23.7,M,0.8,0000*45
$GPGSA,A,3,13,03,16,06,30,19,23,07,,,,,2.2,1.2,1.9*34
$GPGSV,3,1,12,23,82,157,32,13,62,321,34,03,48,103,40,16,42,040,34*7B
$GPGSV,3,2,12,06,40,082,29,07,34,299,19,19,30,147,22,10,21,297,*75
$GPGSV,3,3,12,20,16,201,,30,16,047,30,32,06,179,28,08,05,279,*7B
$GPRMC,000217.000,A,3353.7583,N,09832.0306,W,0.27,112.46,020412,,,D*77
$GPGGA,000218.000,3353.7583,N,09832.0306,W,2,08,1.2,313.0,M,-23.7,M,1.8,0000*4A
$GPGSA,A,3,13,03,16,06,30,19,23,07,,,,,2.2,1.2,1.9*34
$GPRMC,000218.000,A,3353.7583,N,09832.0306,W,0.08,94.18,020412,,,D*41
$GPGGA,000219.000,3353.7584,N,09832.0306,W,2,08,1.2,313.0,M,-23.7,M,2.8,0000*4F
$GPGSA,A,3,13,03,16,06,30,19,23,07,,,,,2.2,1.2,1.9*34
$GPRMC,000219.000,A,3353.7584,N,09832.0306,W,0.15,351.88,020412,,,D*78
$GPGGA,000220.000,3353.7583,N,09832.0307,W,2,08,1.2,313.0,M,-23.7,M,0.8,0000*41
$GPGSA,A,3,13,03,16,06,30,19,23,07,,,,,2.2,1.2,1.9*34
$GPRMC,000220.000,A,3353.7583,N,09832.0307,W,0.19,259.18,020412,,,D*78
$GPGGA,000221.000,3353.7582,N,09832.0308,W,2,08,1.2,313.0,M,-23.7,M,0.8,0000*4E
$GPGSA,A,3,13,03,16,06,30,19,23,07,,,,,2.2,1.2,1.9*34
$GPRMC,000221.000,A,3353.7582,N,09832.0308,W,0.29,239.84,020412,,,D*77
$GPGGA,000222.000,3353.7582,N,09832.0309,W,2,08,1.2,313.2,M,-23.7,M,0.8,0000*4E
$GPGSA,A,3,13,03,16,06,30,19,23,07,,,,,2.2,1.2,1.9*34
$GPGSV,3,1,12,23,82,157,32,13,62,321,34,03,48,103,40,16,42,040,34*7B
$GPGSV,3,2,12,06,40,082,29,07,34,299,19,19,30,147,23,10,21,297,*74
$GPGSV,3,3,12,20,16,201,,30,16,047,29,32,06,179,28,08,05,279,*73
$GPRMC,000222.000,A,3353.7582,N,09832.0309,W,0.10,327.89,020412,,,D*7C
$GPGGA,000223.000,3353.7583,N,09832.0308,W,2,08,1.2,313.5,M,-23.7,M,0.8,0000*48
$GPGSA,A,3,13,03,16,06,30,19,23,07,,,,,2.2,1.2,1.9*34
$GPRMC,000223.000,A,3353.7583,N,09832.0308,W,0.23,45.48,020412,,,D*47
$GPGGA,000224.000,3353.7583,N,09832.0307,W,2,08,1.2,313.8,M,-23.7,M,1.8,0000*4C
$GPGSA,A,3,13,03,16,06,30,19,23,07,,,,,2.2,1.2,1.9*34
$GPRMC,000224.000,A,3353.7583,N,09832.0307,W,0.30,91.18,020412,,,D*41
$GPGGA,000225.000,3353.7584,N,09832.0306,W,2,08,1.2,314.2,M,-23.7,M,2.8,0000*45
$GPGSA,A,3,13,03,16,06,30,19,23,07,,,,,2.2,1.2,1.9*34
$GPRMC,000225.000,A,3353.7584,N,09832.0306,W,0.37,68.50,020412,,,D*4B
$GPGGA,000226.000,3353.7585,N,09832.0305,W,2,08,1.2,314.4,M,-23.7,M,3.8,0000*43
$GPGSA,A,3,13,03,16,06,30,19,23,07,,,,,2.2,1.2,1.9*34
$GPRMC,000226.000,A,3353.7585,N,09832.0305,W,0.22,18.05,020412,,,D*49
$GPGGA,000227.000,3353.7585,N,09832.0305,W,2,08,1.2,314.5,M,-23.7,M,0.8,0000*40
$GPGSA,A,3,13,03,16,06,30,19,23,07,,,,,2.2,1.2,1.9*34
$GPGSV,3,1,12,23,82,157,32,13,62,321,34,03,48,103,40,16,42,040,35*7A
$GPGSV,3,2,12,06,40,082,28,07,34,299,19,19,30,147,23,10,21,297,*75
$GPGSV,3,3,12,20,16,201,,30,16,047,29,32,06,179,28,08,05,279,*73
$GPRMC,000227.000,A,3353.7585,N,09832.0305,W,0.25,0.04,020412,,,D*77
$GPGGA,000228.000,3353.7585,N,09832.0306,W,2,08,1.2,314.4,M,-23.7,M,0.8,0000*4D
$GPGSA,A,3,13,03,16,06,30,19,23,07,,,,,2.2,1.2,1.9*34
$GPRMC,000228.000,A,3353.7585,N,09832.0306,W,0.15,275.29,020412,,,D*77
$GPGGA,000229.000,3353.7586,N,09832.0306,W,2,08,1.2,314.6,M,-23.7,M,0.8,0000*4D
$GPGSA,A,3,13,03,16,06,30,19,23,07,,,,,2.2,1.2,1.9*34
$GPRMC,000229.000,A,3353.7586,N,09832.0306,W,0.14,353.70,020412,,,D*7D
$GPGGA,000230.000,3353.7587,N,09832.0305,W,2,08,1.2,314.9,M,-23.7,M,1.8,0000*49
$GPGSA,A,3,13,03,16,06,30,19,23,07,,,,,2.2,1.2,1.9*34
$GPRMC,000230.000,A,3353.7587,N,09832.0305,W,0.44,60.14,020412,,,D*43
$GPGGA,000231.000,3353.7588,N,09832.0304,W,2,08,1.2,315.3,M,-23.7,M,2.8,0000*4E
$GPGSA,A,3,13,03,16,06,30,19,23,07,,,,,2.2,1.2,1.9*34
$GPRMC,000231.000,A,3353.7588,N,09832.0304,W,0.41,66.10,020412,,,D*4B
$GPGGA,000232.000,3353.7588,N,09832.0303,W,2,08,1.2,315.4,M,-23.7,M,0.8,0000*4F
$GPGSA,A,3,13,03,16,06,30,19,23,07,,,,,2.2,1.2,1.9*34
$GPGSV,3,1,12,23,82,157,33,13,62,321,34,03,48,103,41,16,42,040,35*7A
$GPGSV,3,2,12,06,40,082,28,07,34,299,20,19,30,147,22,10,21,297,*7E
$GPGSV,3,3,12,20,16,201,,30,16,047,28,32,06,179,28,08,05,279,*72
$GPRMC,000232.000,A,3353.7588,N,09832.0303,W,0.25,65.67,020412,,,D*4E
$GPGGA,000233.000,3353.7588,N,09832.0303,W,2,08,1.2,315.6,M,-23.7,M,0.8,0000*4C
$GPGSA,A,3,13,03,16,06,30,19,23,07,,,,,2.2,1.2,1.9*34
$GPRMC,000233.000,A,3353.7588,N,09832.0303,W,0.29,73.99,020412,,,D*45
$GPGGA,000234.000,3353.7588,N,09832.0303,W,2,08,1.2,315.5,M,-23.7,M,0.8,0000*48
$GPGSA,A,3,13,03,16,06,30,19,23,07,,,,,2.2,1.2,1.9*34
$GPRMC,000234.000,A,3353.7588,N,09832.0303,W,0.03,179.37,020412,,,D*75
$GPGGA,000235.000,3353.7588,N,09832.0303,W,2,08,1.2,315.5,M,-23.7,M,0.8,0000*49
$GPGSA,A,3,13,03,16,06,30,19,23,07,,,,,2.2,1.2,1.9*34
$GPRMC,000235.000,A,3353.7588,N,09832.0303,W,0.18,120.78,020412,,,D*79
$GPGGA,000236.000,3353.7588,N,09832.0303,W,2,08,1.2,315.8,M,-23.7,M,0.8,0000*47
$GPGSA,A,3,13,03,16,06,30,19,23,07,,,,,2.2,1.2,1.9*34
$GPRMC,000236.000,A,3353.7588,N,09832.0303,W,0.21,10.90,020412,,,D*44
$GPGGA,000237.000,3353.7589,N,09832.0302,W,2,08,1.2,316.2,M,-23.7,M,1.8,0000*4E
$GPGSA,A,3,13,03,16,06,30,19,23,07,,,,,2.2,1.2,1.9*34
$GPGSV,3,1,12,23,82,157,33,13,62,321,33,03,48,103,41,16,42,040,36*7E
$GPGSV,3,2,12,06,40,082,28,07,34,299,21,19,30,147,19,10,21,297,*77
$GPGSV,3,3,12,20,16,201,,30,16,047,28,32,06,179,28,08,05,279,*72
$GPRMC,000237.000,A,3353.7589,N,09832.0302,W,0.34,32.36,020412,,,D*4D
$GPGGA,000238.000,3353.7590,N,09832.0302,W,2,08,1.2,316.3,M,-23.7,M,2.8,0000*4B
$GPGSA,A,3,13,03,16,06,30,19,23,07,,,,,2.2,1.2,1.9*34
$GPRMC,000238.000,A,3353.7590,N,09832.0302,W,0.30,95.61,020412,,,D*41
$GPGGA,000239.000,3353.7589,N,09832.0301,W,2,08,1.2,316.5,M,-23.7,M,0.8,0000*45
$GPGSA,A,3,13,03,16,06,30,19,23,07,,,,,2.2,1.2,1.9*34
$GPRMC,000239.000,A,3353.7589,N,09832.0301,W,0.36,102.41,020412,,,D*70
$GPGGA,000240.000,3353.7590,N,09832.0300,W,2,08,1.2,316.9,M,-23.7,M,0.8,0000*4E
$GPGSA,A,3,13,03,16,06,30,19,23,07,,,,,2.2,1.2,1.9*34
$GPRMC,000240.000,A,3353.7590,N,09832.0300,W,0.40,71.26,020412,,,D*42
$GPGGA,000241.000,3353.7591,N,09832.0299,W,2,08,1.2,317.2,M,-23.7,M,0.8,0000*45
$GPGSA,A,3,13,03,16,06,30,19,23,07,,,,,2.2,1.2,1.9*34
$GPRMC,000241.000,A,3353.7591,N,09832.0299,W,0.33,28.61,020412,,,D*48
$GPGGA,000242.000,3353.7592,N,09832.0298,W,2,08,1.2,317.8,M,-23.7,M,1.8,0000*4F
$GPGSA,A,3,13,03,16,06,30,19,23,07,,,,,2.2,1.2,1.9*34
$GPGSV,3,1,12,23,82,157,33,13,62,321,33,03,48,103,41,16,42,040,36*7E
$GPGSV,3,2,12,06,40,082,28,07,34,299,21,19,30,147,19,10,21,297,*77
$GPGSV,3,3,12,20,16,201,,30,16,047,27,32,06,179,28,08,05,279,*7D
$GPRMC,000242.000,A,3353.7592,N,09832.0298,W,0.46,50.72,020412,,,D*46
$GPGGA,000243.000,3353.7593,N,09832.0298,W,2,08,1.2,318.1,M,-23.7,M,0.8,0000*48
$GPGSA,A,3,13,03,16,06,30,19,23,07,,,,,2.2,1.2,1.9*34
$GPRMC,000243.000,A,3353.7593,N,09832.0298,W,0.38,22.80,020412,,,D*47
$GPGGA,000244.000,3353.7594,N,09832.0298,W,2,08,1.2,318.3,M,-23.7,M,1.8,0000*4B
$GPGSA,A,3,13,03,16,06,30,19,23,07,,,,,2.2,1.2,1.9*34
$GPRMC,000244.000,A,3353.7594,N,09832.0298,W,0.27,16.74,020412,,,D*45
$GPGGA,000245.000,3353.7594,N,09832.0298,W,2,08,1.2,318.5,M,-23.7,M,0.8,0000*4D
$GPGSA,A,3,13,03,16,06,30,19,23,07,,,,,2.2,1.2,1.9*34
$GPRMC,000245.000,A,3353.7594,N,09832.0298,W,0.32,92.50,020412,,,D*4A
$GPGGA,000246.000,3353.7593,N,09832.0298,W,2,08,1.2,318.4,M,-23.7,M,0.8,0000*48
$GPGSA,A,3,13,03,16,06,30,19,23,07,,,,,2.2,1.2,1.9*34
$GPRMC,000246.000,A,3353.7593,N,09832.0298,W,0.04,214.85,020412,,,D*7F
$GPGGA,000247.000,3353.7594,N,09832.0298,W,2,08,1.2,318.7,M,-23.7,M,0.8,0000*4D
$GPGSA,A,3,13,03,16,06,30,19,23,07,,,,,2.2,1.2,1.9*34
$GPGSV,3,1,12,23,82,157,34,13,62,321,33,03,48,103,41,16,42,040,35*7A
$GPGSV,3,2,12,06,40,082,28,07,34,299,20,19,30,147,18,10,21,297,*77
