$GPGGA,021825.000,3351.4551,N,09832.0581,W,2,07,1.1,285.9,M,-23.7,M,2.8,0000*42
$GPGSA,A,3,11,19,13,08,03,07,28,,,,,,2.2,1.1,1.9*36
$GPGSV,3,1,12,07,73,047,22,08,48,326,43,19,47,055,17,13,39,183,32*72
$GPGSV,3,2,12,28,33,271,34,11,33,122,32,01,16,136,19,03,13,043,30*7D
$GPGSV,3,3,12,23,12,168,,17,11,208,18,26,10,322,33,06,02,040,*74
$GPRMC,021825.000,A,3351.4551,N,09832.0581,W,0.04,291.23,030412,,,D*73
$GPGGA,021826.000,3351.4553,N,09832.0581,W,2,07,1.1,285.7,M,-23.7,M,3.8,0000*4C
$GPGSA,A,3,11,19,13,08,03,07,28,,,,,,2.2,1.1,1.9*36
$GPRMC,021826.000,A,3351.4553,N,09832.0581,W,0.04,68.19,030412,,,D*4F
$GPGGA,021827.000,3351.4555,N,09832.0580,W,2,07,1.1,285.4,M,-23.7,M,0.8,0000*4A
$GPGSA,A,3,11,19,13,08,03,07,28,,,,,,2.2,1.1,1.9*36
$GPRMC,021827.000,A,3351.4555,N,09832.0580,W,0.08,26.87,030412,,,D*48
$GPGGA,021828.000,3351.4557,N,09832.0579,W,2,07,1.1,285.1,M,-23.7,M,0.8,0000*44
$GPGSA,A,3,11,19,13,08,03,07,28,,,,,,2.2,1.1,1.9*36
$GPRMC,021828.000,A,3351.4557,N,09832.0579,W,0.09,248.20,030412,,,D*75
$GPGGA,021829.000,3351.4559,N,09832.0579,W,2,07,1.1,284.7,M,-23.7,M,0.8,0000*4C
$GPGSA,A,3,11,19,13,08,03,07,28,,,,,,2.2,1.1,1.9*36
$GPRMC,021829.000,A,3351.4559,N,09832.0579,W,0.13,227.24,030412,,,D*7C
$GPGGA,021830.000,3351.4560,N,09832.0578,W,2,07,1.1,284.2,M,-23.7,M,1.8,0000*4B
$GPGSA,A,3,11,19,13,08,03,07,28,,,,,,2.2,1.1,1.9*36
$GPGSV,3,1,12,07,73,047,22,08,48,326,43,19,47,055,20,13,39,183,33*77
$GPGSV,3,2,12,28,33,271,34,11,33,122,32,01,16,136,20,03,13,043,31*76
$GPGSV,3,3,12,23,12,168,,17,11,208,20,26,10,322,33,06,02,040,*7F
$GPRMC,021830.000,A,3351.4560,N,09832.0578,W,0.12,231.35,030412,,,D*79
$GPGGA,021831.000,3351.4561,N,09832.0578,W,2,07,1.1,284.0,M,-23.7,M,2.8,0000*4A
$GPGSA,A,3,11,19,13,08,03,07,28,,,,,,2.2,1.1,1.9*36
$GPRMC,021831.000,A,3351.4561,N,09832.0578,W,0.11,111.25,030412,,,D*7A
$GPGGA,021832.000,3351.4562,N,09832.0577,W,2,07,1.1,283.7,M,-23.7,M,0.8,0000*47
$GPGSA,A,3,11,19,13,08,03,07,28,,,,,,2.2,1.1,1.9*36
$GPRMC,021832.000,A,3351.4562,N,09832.0577,W,0.10,104.40,030412,,,D*73
$GPGGA,021833.000,3351.4562,N,09832.0576,W,2,07,1.1,283.7,M,-23.7,M,0.8,0000*47
$GPGSA,A,3,11,19,13,08,03,07,28,,,,,,2.2,1.1,1.9*36
$GPRMC,021833.000,A,3351.4562,N,09832.0576,W,0.10,118.48,030412,,,D*76
$GPGGA,021834.000,3351.4563,N,09832.0575,W,2,07,1.1,283.4,M,-23.7,M,0.8,0000*41
$GPGSA,A,3,11,19,13,08,03,07,28,,,,,,2.2,1.1,1.9*36
$GPRMC,021834.000,A,3351.4563,N,09832.0575,W,0.10,101.34,030412,,,D*70
$GPGGA,021835.000,3351.4562,N,09832.0574,W,2,07,1.1,283.5,M,-23.7,M,0.8,0000*41
$GPGSA,A,3,11,19,13,08,03,07,28,,,,,,2.2,1.1,1.9*36
$GPGSV,3,1,12,07,73,047,21,08,48,326,42,19,47,055,21,13,39,183,33*74
$GPGSV,3,2,12,28,33,271,34,11,33,122,32,01,16,136,21,03,13,043,30*76
$GPGSV,3,3,12,23,12,168,,17,11,208,20,26,10,322,33,06,02,040,*7F
$GPRMC,021835.000,A,3351.4562,N,09832.0574,W,0.07,94.78,030412,,,D*42
$GPGGA,021836.000,3351.4562,N,09832.0574,W,2,07,1.1,283.5,M,-23.7,M,0.8,0000*42
$GPGSA,A,3,11,19,13,08,03,07,28,,,,,,2.2,1.1,1.9*36
$GPRMC,021836.000,A,3351.4562,N,09832.0574,W,0.06,249.54,030412,,,D*7C
$GPGGA,021837.000,3351.4562,N,09832.0573,W,2,07,1.1,283.8,M,-23.7,M,0.8,0000*49
$GPGSA,A,3,11,19,13,08,03,07,28,,,,,,2.2,1.1,1.9*36
$GPRMC,021837.000,A,3351.4562,N,09832.0573,W,0.13,91.88,030412,,,D*48
$GPGGA,021838.000,3351.4562,N,09832.0572,W,2,08,1.0,284.4,M,-23.7,M,0.8,0000*42
$GPGSA,A,3,11,26,19,13,08,03,07,28,,,,,1.8,1.0,1.5*36
$GPRMC,021838.000,A,3351.4562,N,09832.0572,W,0.11,93.89,030412,,,D*47
$GPGGA,021839.000,3351.4562,N,09832.0571,W,2,08,1.0,284.9,M,-23.7,M,0.8,0000*4D
$GPGSA,A,3,11,26,19,13,08,03,07,28,,,,,1.8,1.0,1.5*36
$GPRMC,021839.000,A,3351.4562,N,09832.0571,W,0.05,163.77,030412,,,D*7F
$GPGGA,021840.000,3351.4563,N,09832.0570,W,2,09,0.9,285.2,M,-23.7,M,0.8,0000*40
$GPGSA,A,3,11,26,19,23,13,08,03,07,28,,,,1.5,0.9,1.3*34
$GPGSV,3,1,12,07,73,047,22,08,48,326,42,19,47,055,21,13,39,183,33*77
$GPGSV,3,2,12,28,33,271,34,11,33,122,32,01,16,136,21,03,13,043,30*76
$GPGSV,3,3,12,23,12,168,12,17,11,208,21,26,10,322,33,06,02,040,*7D
$GPRMC,021840.000,A,3351.4563,N,09832.0570,W,0.04,358.81,030412,,,D*73
$GPGGA,021841.000,3351.4563,N,09832.0570,W,2,09,0.9,285.5,M,-23.7,M,0.8,0000*46
$GPGSA,A,3,11,26,19,23,13,08,03,07,28,,,,1.5,0.9,1.3*34
$GPRMC,021841.000,A,3351.4563,N,09832.0570,W,0.05,106.22,030412,,,D*73
$GPGGA,021842.000,3351.4563,N,09832.0569,W,2,09,0.9,285.8,M,-23.7,M,0.8,0000*40
$GPGSA,A,3,11,26,19,23,13,08,03,07,28,,,,1.5,0.9,1.3*34
$GPRMC,021842.000,A,3351.4563,N,09832.0569,W,0.20,102.00,030412,,,D*7B
$GPGGA,021843.000,3351.4563,N,09832.0569,W,2,08,1.0,286.0,M,-23.7,M,1.8,0000*42
$GPGSA,A,3,11,26,19,13,08,03,07,28,,,,,1.8,1.0,1.5*36
$GPRMC,021843.000,A,3351.4563,N,09832.0569,W,0.09,184.10,030412,,,D*7E
$GPGGA,021844.000,3351.4563,N,09832.0569,W,2,08,1.0,286.2,M,-23.7,M,2.8,0000*44
$GPGSA,A,3,11,26,19,13,08,03,07,28,,,,,1.8,1.0,1.5*36
$GPRMC,021844.000,A,3351.4563,N,09832.0569,W,0.14,185.01,030412,,,D*74
$GPGGA,021845.000,3351.4563,N,09832.0569,W,2,08,1.0,286.3,M,-23.7,M,0.8,0000*46
$GPGSA,A,3,11,26,19,13,08,03,07,28,,,,,1.8,1.0,1.5*36
$GPGSV,3,1,12,07,73,047,24,08,48,326,42,19,47,055,21,13,39,183,33*71
$GPGSV,3,2,12,28,33,271,34,11,33,122,32,01,16,136,17,03,13,043,31*72
$GPGSV,3,3,12,23,12,168,,17,11,208,22,26,10,322,33,06,02,040,*7D
$GPRMC,021845.000,A,3351.4563,N,09832.0569,W,0.12,198.54,030412,,,D*7F
$GPGGA,021846.000,3351.4563,N,09832.0569,W,2,08,1.0,286.3,M,-23.7,M,0.8,0000*45
$GPGSA,A,3,11,26,19,13,08,03,07,28,,,,,1.8,1.0,1.5*36
$GPRMC,021846.000,A,3351.4563,N,09832.0569,W,0.08,144.77,030412,,,D*77
$GPGGA,021847.000,3351.4563,N,09832.0568,W,2,08,1.0,286.5,M,-23.7,M,0.8,0000*43
$GPGSA,A,3,11,26,19,13,08,03,07,28,,,,,1.8,1.0,1.5*36
$GPRMC,021847.000,A,3351.4563,N,09832.0568,W,0.06,219.85,030412,,,D*7F
$GPGGA,021848.000,3351.4563,N,09832.0568,W,2,08,1.0,286.6,M,-23.7,M,1.8,0000*4E
$GPGSA,A,3,11,26,19,13,08,03,07,28,,,,,1.8,1.0,1.5*36
$GPRMC,021848.000,A,3351.4563,N,09832.0568,W,0.07,217.21,030412,,,D*71
$GPGGA,021849.000,3351.4563,N,09832.0568,W,2,08,1.0,286.8,M,-23.7,M,0.8,0000*40
$GPGSA,A,3,11,26,19,13,08,03,07,28,,,,,1.8,1.0,1.5*36
$GPRMC,021849.000,A,3351.4563,N,09832.0568,W,0.05,126.17,030412,,,D*76
$GPGGA,021850.000,3351.4564,N,09832.0567,W,2,08,1.0,286.9,M,-23.7,M,0.8,0000*41
$GPGSA,A,3,11,26,19,13,08,03,07,28,,,,,1.8,1.0,1.5*36
$GPGSV,3,1,12,07,73,048,25,08,48,326,42,19,47,055,20,13,39,183,34*79
$GPGSV,3,2,12,28,33,272,34,11,33,121,31,01,16,136,16,03,13,043,30*71
$GPGSV,3,3,12,23,12,168,,17,11,208,21,26,10,322,32,06,02,040,*7F
$GPRMC,021850.000,A,3351.4564,N,09832.0567,W,0.13,83.54,030412,,,D*48
$GPGGA,021851.000,3351.4564,N,09832.0567,W,2,08,1.0,287.1,M,-23.7,M,0.8,0000*49
$GPGSA,A,3,11,26,19,13,08,03,07,28,,,,,1.8,1.0,1.5*36
$GPRMC,021851.000,A,3351.4564,N,09832.0567,W,0.15,84.78,030412,,,D*46
$GPGGA,021852.000,3351.4564,N,09832.0566,W,2,07,1.0,287.2,M,-23.7,M,0.8,0000*47
$GPGSA,A,3,11,26,13,08,03,07,28,,,,,,1.9,1.0,1.6*3C
$GPRMC,021852.000,A,3351.4564,N,09832.0566,W,0.07,118.42,030412,,,D*7A
$GPGGA,021853.000,3351.4564,N,09832.0566,W,2,07,1.0,287.3,M,-23.7,M,0.8,0000*47
$GPGSA,A,3,11,26,13,08,03,07,28,,,,,,1.9,1.0,1.6*3C
$GPRMC,021853.000,A,3351.4564,N,09832.0566,W,0.11,138.39,030412,,,D*72
$GPGGA,021854.000,3351.4564,N,09832.0566,W,2,07,1.0,287.5,M,-23.7,M,1.8,0000*47
$GPGSA,A,3,11,26,13,08,03,07,28,,,,,,1.9,1.0,1.6*3C
$GPRMC,021854.000,A,3351.4564,N,09832.0566,W,0.12,142.12,030412,,,D*72
$GPGGA,021855.000,3351.4564,N,09832.0566,W,2,07,1.0,287.5,M,-23.7,M,2.8,0000*45
$GPGSA,A,3,11,26,13,08,03,07,28,,,,,,1.9,1.0,1.6*3C
$GPGSV,3,1,12,07,73,048,25,08,48,326,42,19,47,055,,13,39,183,35*7A
$GPGSV,3,2,12,28,33,272,34,11,33,121,31,01,16,136,14,03,13,043,31*72
$GPGSV,3,3,12,23,12,168,,17,11,208,21,26,10,322,31,06,02,040,*7C
$GPRMC,021855.000,A,3351.4564,N,09832.0566,W,0.10,141.10,030412,,,D*70
$GPGGA,021856.000,3351.4564,N,09832.0565,W,2,07,1.0,287.6,M,-23.7,M,3.8,0000*47
$GPGSA,A,3,11,26,13,08,03,07,28,,,,,,1.9,1.0,1.6*3C
$GPRMC,021856.000,A,3351.4564,N,09832.0565,W,0.12,134.75,030412,,,D*73
$GPGGA,021857.000,3351.4564,N,09832.0565,W,2,07,1.0,287.7,M,-23.7,M,0.8,0000*44
$GPGSA,A,3,11,26,13,08,03,07,28,,,,,,1.9,1.0,1.6*3C
$GPRMC,021857.000,A,3351.4564,N,09832.0565,W,0.12,156.13,030412,,,D*76
$GPGGA,021858.000,3351.4564,N,09832.0565,W,2,07,1.0,287.7,M,-23.7,M,0.8,0000*4B
$GPGSA,A,3,11,26,13,08,03,07,28,,,,,,1.9,1.0,1.6*3C
$GPRMC,021858.000,A,3351.4564,N,09832.0565,W,0.13,140.46,030412,,,D*7F
$GPGGA,021859.000,3351.4564,N,09832.0565,W,2,07,1.0,287.8,M,-23.7,M,0.8,0000*45
$GPGSA,A,3,11,26,13,08,03,07,28,,,,,,1.9,1.0,1.6*3C
$GPRMC,021859.000,A,3351.4564,N,09832.0565,W,0.04,114.37,030412,,,D*7F
$GPGGA,021900.000,3351.4564,N,09832.0565,W,2,07,1.0,287.9,M,-23.7,M,1.8,0000*48
$GPGSA,A,3,11,26,13,08,03,07,28,,,,,,1.9,1.0,1.6*3C
$GPGSV,3,1,12,07,73,048,26,08,48,326,42,19,47,055,,13,39,183,35*79
$GPGSV,3,2,12,28,33,272,35,11,33,121,31,01,16,136,,03,13,043,31*76
$GPGSV,3,3,12,23,12,168,,17,11,208,18,26,10,322,31,06,02,040,*76
$GPRMC,021900.000,A,3351.4564,N,09832.0565,W,0.05,119.99,030412,,,D*7A
$GPGGA,021901.000,3351.4565,N,09832.0565,W,2,07,1.0,288.1,M,-23.7,M,2.8,0000*4C
$GPGSA,A,3,11,26,13,08,03,07,28,,,,,,1.9,1.0,1.6*3C
$GPRMC,021901.000,A,3351.4565,N,09832.0565,W,0.05,117.41,030412,,,D*71
$GPGGA,021902.000,3351.4565,N,09832.0565,W,2,07,1.0,288.3,M,-23.7,M,3.8,0000*4C
$GPGSA,A,3,11,26,13,08,03,07,28,,,,,,1.9,1.0,1.6*3C
$GPRMC,021902.000,A,3351.4565,N,09832.0565,W,0.05,115.24,030412,,,D*73
$GPGGA,021903.000,3351.4565,N,09832.0565,W,2,07,1.0,288.5,M,-23.7,M,0.8,0000*48
$GPGSA,A,3,11,26,13,08,03,07,28,,,,,,1.9,1.0,1.6*3C
$GPRMC,021903.000,A,3351.4565,N,09832.0565,W,0.05,122.63,030412,,,D*75
$GPGGA,021904.000,3351.4565,N,09832.0565,W,2,07,1.0,288.6,M,-23.7,M,0.8,0000*4C
$GPGSA,A,3,11,26,13,08,03,07,28,,,,,,1.9,1.0,1.6*3C
$GPRMC,021904.000,A,3351.4565,N,09832.0565,W,0.06,121.94,030412,,,D*7A
$GPGGA,021905.000,3351.4565,N,09832.0565,W,2,07,1.0,288.6,M,-23.7,M,0.8,0000*4D
$GPGSA,A,3,11,26,13,08,03,07,28,,,,,,1.9,1.0,1.6*3C
$GPGSV,3,1,12,07,73,048,25,08,48,326,42,19,47,055,,13,39,183,36*79
$GPGSV,3,2,12,28,33,272,35,11,33,121,31,01,16,136,,03,13,043,31*76
$GPGSV,3,3,12,23,12,168,,17,11,208,,26,10,322,31,06,02,040,*7F
$GPRMC,021905.000,A,3351.4565,N,09832.0565,W,0.11,138.94,030412,,,D*75
$GPGGA,021906.000,3351.4565,N,09832.0565,W,2,08,0.9,288.5,M,-23.7,M,0.8,0000*4A
$GPGSA,A,3,11,23,26,13,08,03,07,28,,,,,1.6,0.9,1.3*3F
$GPRMC,021906.000,A,3351.4565,N,09832.0565,W,0.17,151.52,030412,,,D*75
$GPGGA,021907.000,3351.4565,N,09832.0565,W,2,08,0.9,288.5,M,-23.7,M,0.8,0000*4B
$GPGSA,A,3,11,23,26,13,08,03,07,28,,,,,1.6,0.9,1.3*3F
$GPRMC,021907.000,A,3351.4565,N,09832.0565,W,0.16,153.54,030412,,,D*71
$GPGGA,021908.000,3351.4565,N,09832.0565,W,2,08,0.9,288.4,M,-23.7,M,1.8,0000*44
$GPGSA,A,3,11,23,26,13,08,03,07,28,,,,,1.6,0.9,1.3*3F
$GPRMC,021908.000,A,3351.4565,N,09832.0565,W,0.17,153.36,030412,,,D*7B
$GPGGA,021909.000,3351.4565,N,09832.0565,W,2,08,0.9,288.3,M,-23.7,M,0.8,0000*43
$GPGSA,A,3,11,23,26,13,08,03,07,28,,,,,1.6,0.9,1.3*3F
$GPRMC,021909.000,A,3351.4565,N,09832.0565,W,0.19,158.46,030412,,,D*78
$GPGGA,021910.000,3351.4564,N,09832.0565,W,2,08,0.9,288.1,M,-23.7,M,0.8,0000*48
$GPGSA,A,3,11,23,26,13,08,03,07,28,,,,,1.6,0.9,1.3*3F
$GPGSV,3,1,12,07,73,048,25,08,48,326,42,19,47,055,,13,39,183,36*79
$GPGSV,3,2,12,28,33,272,35,11,33,121,31,01,16,136,17,03,13,043,31*70
$GPGSV,3,3,12,23,12,168,16,17,11,208,,26,10,322,31,06,02,040,*78
$GPRMC,021910.000,A,3351.4564,N,09832.0565,W,0.18,166.20,030412,,,D*7D
$GPGGA,021911.000,3351.4564,N,09832.0565,W,2,08,0.9,288.1,M,-23.7,M,0.8,0000*49
$GPGSA,A,3,11,23,26,13,08,03,07,28,,,,,1.6,0.9,1.3*3F
$GPRMC,021911.000,A,3351.4564,N,09832.0565,W,0.12,176.50,030412,,,D*70
$GPGGA,021912.000,3351.4564,N,09832.0565,W,2,08,0.9,288.1,M,-23.7,M,1.8,0000*4B
$GPGSA,A,3,11,23,26,13,08,03,07,28,,,,,1.6,0.9,1.3*3F
$GPRMC,021912.000,A,3351.4564,N,09832.0565,W,0.08,177.72,030412,,,D*79
$GPGGA,021913.000,3351.4564,N,09832.0566,W,2,08,0.9,288.1,M,-23.7,M,2.8,0000*4A
$GPGSA,A,3,11,23,26,13,08,03,07,28,,,,,1.6,0.9,1.3*3F
$GPRMC,021913.000,A,3351.4564,N,09832.0566,W,0.06,190.56,030412,,,D*7A
$GPGGA,021914.000,3351.4565,N,09832.0566,W,2,08,0.9,288.2,M,-23.7,M,0.8,0000*4D
$GPGSA,A,3,11,23,26,13,08,03,07,28,,,,,1.6,0.9,1.3*3F
$GPRMC,021914.000,A,3351.4565,N,09832.0566,W,0.02,304.95,030412,,,D*78
$GPGGA,021915.000,3351.4565,N,09832.0566,W,2,08,0.9,288.3,M,-23.7,M,0.8,0000*4D
$GPGSA,A,3,11,23,26,13,08,03,07,28,,,,,1.6,0.9,1.3*3F
$GPGSV,3,1,12,07,73,048,25,08,48,326,42,19,47,055,,13,39,183,36*79
$GPGSV,3,2,12,28,33,272,35,11,33,121,31,01,16,136,17,03,13,043,31*70
$GPGSV,3,3,12,23,12,168,15,17,11,208,,26,10,322,31,06,02,040,*7B
$GPRMC,021915.000,A,3351.4565,N,09832.0566,W,0.04,15.38,030412,,,D*4B
$GPGGA,021916.000,3351.4565,N,09832.0566,W,2,08,0.9,288.4,M,-23.7,M,0.8,0000*49
$GPGSA,A,3,11,23,26,13,08,03,07,28,,,,,1.6,0.9,1.3*3F
$GPRMC,021916.000,A,3351.4565,N,09832.0566,W,0.07,65.23,030412,,,D*46
$GPGGA,021917.000,3351.4566,N,09832.0566,W,2,08,0.9,288.4,M,-23.7,M,0.8,0000*4B
$GPGSA,A,3,11,23,26,13,08,03,07,28,,,,,1.6,0.9,1.3*3F
$GPRMC,021917.000,A,3351.4566,N,09832.0566,W,0.09,79.47,030412,,,D*45
$GPGGA,021918.000,3351.4566,N,09832.0565,W,2,08,0.9,288.5,M,-23.7,M,1.8,0000*47
$GPGSA,A,3,11,23,26,13,08,03,07,28,,,,,1.6,0.9,1.3*3F
$GPRMC,021918.000,A,3351.4566,N,09832.0565,W,0.10,64.17,030412,,,D*48
$GPGGA,021919.000,3351.4566,N,09832.0565,W,2,08,0.9,288.5,M,-23.7,M,2.8,0000*45
$GPGSA,A,3,11,23,26,13,08,03,07,28,,,,,1.6,0.9,1.3*3F
$GPRMC,021919.000,A,3351.4566,N,09832.0565,W,0.10,70.48,030412,,,D*46
$GPGGA,021920.000,3351.4567,N,09832.0565,W,2,08,0.9,288.5,M,-23.7,M,3.8,0000*4F
$GPGSA,A,3,11,23,26,13,08,03,07,28,,,,,1.6,0.9,1.3*3F
$GPGSV,3,1,12,07,73,049,26,08,48,326,42,19,47,055,,13,39,183,37*7A
$GPGSV,3,2,12,28,33,272,35,11,33,121,31,01,16,135,18,03,13,043,31*7C
$GPGSV,3,3,12,23,11,168,14,17,11,208,,26,10,322,31,06,02,040,*79
$GPRMC,021920.000,A,3351.4567,N,09832.0565,W,0.11,119.34,030412,,,D*79
$GPGGA,021921.000,3351.4567,N,09832.0564,W,2,08,0.9,288.4,M,-23.7,M,0.8,0000*4D
$GPGSA,A,3,11,23,26,13,08,03,07,28,,,,,1.6,0.9,1.3*3F
$GPRMC,021921.000,A,3351.4567,N,09832.0564,W,0.15,139.14,030412,,,D*7D
$GPGGA,021922.000,3351.4567,N,09832.0564,W,2,08,0.9,288.2,M,-23.7,M,0.8,0000*48
$GPGSA,A,3,11,23,26,13,08,03,07,28,,,,,1.6,0.9,1.3*3F
$GPRMC,021922.000,A,3351.4567,N,09832.0564,W,0.16,156.51,030412,,,D*75
$GPGGA,021923.000,3351.4567,N,09832.0564,W,2,08,0.9,288.1,M,-23.7,M,0.8,0000*4A
$GPGSA,A,3,11,23,26,13,08,03,07,28,,,,,1.6,0.9,1.3*3F
$GPRMC,021923.000,A,3351.4567,N,09832.0564,W,0.15,169.48,030412,,,D*73
$GPGGA,021924.000,3351.4566,N,09832.0564,W,2,08,0.9,288.0,M,-23.7,M,1.8,0000*4C
$GPGSA,A,3,11,23,26,13,08,03,07,28,,,,,1.6,0.9,1.3*3F
$GPRMC,021924.000,A,3351.4566,N,09832.0564,W,0.18,177.52,030412,,,D*7C
$GPGGA,021925.000,3351.4566,N,09832.0564,W,2,08,0.9,287.9,M,-23.7,M,2.8,0000*48
$GPGSA,A,3,11,23,26,13,08,03,07,28,,,,,1.6,0.9,1.3*3F
$GPGSV,3,1,12,07,73,049,27,08,48,326,42,19,47,055,,13,39,183,37*7B
$GPGSV,3,2,12,28,33,272,35,11,33,121,31,01,16,135,18,03,13,043,31*7C
$GPGSV,3,3,12,23,11,168,14,17,11,208,19,26,10,322,31,06,02,040,*71
$GPRMC,021925.000,A,3351.4566,N,09832.0564,W,0.16,170.56,030412,,,D*70
$GPGGA,021926.000,3351.4566,N,09832.0564,W,2,08,0.9,287.9,M,-23.7,M,3.8,0000*4A
$GPGSA,A,3,11,23,26,13,08,03,07,28,,,,,1.6,0.9,1.3*3F
$GPRMC,021926.000,A,3351.4566,N,09832.0564,W,0.16,177.32,030412,,,D*76
$GPGGA,021927.000,3351.4566,N,09832.0564,W,2,08,0.9,287.8,M,-23.7,M,0.8,0000*49
$GPGSA,A,3,11,23,26,13,08,03,07,28,,,,,1.6,0.9,1.3*3F
$GPRMC,021927.000,A,3351.4566,N,09832.0564,W,0.17,175.62,030412,,,D*71
$GPGGA,021928.000,3351.4566,N,09832.0564,W,2,08,0.9,287.7,M,-23.7,M,1.8,0000*48
$GPGSA,A,3,11,23,26,13,08,03,07,28,,,,,1.6,0.9,1.3*3F
$GPRMC,021928.000,A,3351.4566,N,09832.0564,W,0.18,165.50,030412,,,D*71
$GPGGA,021929.000,3351.4566,N,09832.0564,W,2,08,0.9,287.6,M,-23.7,M,0.8,0000*49
$GPGSA,A,3,11,23,26,13,08,03,07,28,,,,,1.6,0.9,1.3*3F
$GPRMC,021929.000,A,3351.4566,N,09832.0564,W,0.16,162.57,030412,,,D*7E
$GPGGA,021930.000,3351.4566,N,09832.0564,W,2,09,0.9,287.4,M,-23.7,M,1.8,0000*43
$GPGSA,A,3,11,23,26,13,08,03,07,28,19,,,,1.5,0.9,1.3*34
$GPGSV,3,1,12,07,73,049,28,08,48,326,42,19,47,055,20,13,39,183,37*76
$GPGSV,3,2,12,28,33,272,35,11,33,121,32,01,16,135,16,03,13,043,31*71
$GPGSV,3,3,12,23,11,168,14,17,11,208,20,26,10,322,31,06,02,040,*7B
$GPRMC,021930.000,A,3351.4566,N,09832.0564,W,0.19,195.48,030412,,,D*7F
$GPGGA,021931.000,3351.4566,N,09832.0564,W,2,09,0.9,287.3,M,-23.7,M,0.8,0000*44
$GPGSA,A,3,11,23,26,13,08,03,07,28,19,,,,1.5,0.9,1.3*34
$GPRMC,021931.000,A,3351.4566,N,09832.0564,W,0.19,141.07,030412,,,D*7C
$GPGGA,021932.000,3351.4566,N,09832.0564,W,2,09,0.9,287.2,M,-23.7,M,1.8,0000*47
$GPGSA,A,3,11,23,26,13,08,03,07,28,19,,,,1.5,0.9,1.3*34
$GPRMC,021932.000,A,3351.4566,N,09832.0564,W,0.19,139.70,030412,,,D*70
$GPGGA,021933.000,3351.4566,N,09832.0563,W,2,09,0.9,287.0,M,-23.7,M,0.8,0000*42
$GPGSA,A,3,11,23,26,13,08,03,07,28,19,,,,1.5,0.9,1.3*34
$GPRMC,021933.000,A,3351.4566,N,09832.0563,W,0.17,168.25,030412,,,D*7C
$GPGGA,021934.000,3351.4566,N,09832.0563,W,2,09,0.9,286.8,M,-23.7,M,0.8,0000*4C
$GPGSA,A,3,11,23,26,13,08,03,07,28,19,,,,1.5,0.9,1.3*34
$GPRMC,021934.000,A,3351.4566,N,09832.0563,W,0.16,163.78,030412,,,D*79
$GPGGA,021935.000,3351.4566,N,09832.0563,W,2,09,0.9,286.7,M,-23.7,M,0.8,0000*42
$GPGSA,A,3,11,23,26,13,08,03,07,28,19,,,,1.5,0.9,1.3*34
$GPGSV,3,1,12,07,73,049,28,08,48,326,42,19,47,055,21,13,39,183,37*77
$GPGSV,3,2,12,28,33,272,35,11,33,121,32,01,16,135,15,03,13,043,31*72
$GPGSV,3,3,12,23,11,168,13,17,11,208,20,26,10,322,31,06,02,040,*7C
$GPRMC,021935.000,A,3351.4566,N,09832.0563,W,0.15,155.16,030412,,,D*76
$GPGGA,021936.000,3351.4566,N,09832.0563,W,2,09,0.9,286.6,M,-23.7,M,1.8,0000*41
$GPGSA,A,3,11,23,26,13,08,03,07,28,19,,,,1.5,0.9,1.3*34
$GPRMC,021936.000,A,3351.4566,N,09832.0563,W,0.18,131.98,030412,,,D*7C
$GPGGA,021937.000,3351.4566,N,09832.0563,W,2,09,0.9,286.5,M,-23.7,M,0.8,0000*42
$GPGSA,A,3,11,23,26,13,08,03,07,28,19,,,,1.5,0.9,1.3*34
$GPRMC,021937.000,A,3351.4566,N,09832.0563,W,0.17,134.34,030412,,,D*71
$GPGGA,021938.000,3351.4566,N,09832.0562,W,2,09,0.9,286.3,M,-23.7,M,1.8,0000*4B
$GPGSA,A,3,11,23,26,13,08,03,07,28,19,,,,1.5,0.9,1.3*34
$GPRMC,021938.000,A,3351.4566,N,09832.0562,W,0.16,136.57,030412,,,D*79
$GPGGA,021939.000,3351.4566,N,09832.0562,W,2,09,0.9,286.2,M,-23.7,M,0.8,0000*4A
$GPGSA,A,3,11,23,26,13,08,03,07,28,19,,,,1.5,0.9,1.3*34
$GPRMC,021939.000,A,3351.4566,N,09832.0562,W,0.16,182.88,030412,,,D*75
$GPGGA,021940.000,3351.4566,N,09832.0562,W,2,08,1.0,286.1,M,-23.7,M,0.8,0000*4E
$GPGSA,A,3,11,26,13,08,03,07,28,19,,,,,1.8,1.0,1.5*36
$GPGSV,3,1,12,07,73,049,29,08,48,326,42,19,47,055,22,13,39,183,37*75
$GPGSV,3,2,12,28,33,272,35,11,33,121,32,01,16,135,15,03,13,043,31*72
$GPGSV,3,3,12,23,11,168,12,17,11,208,20,26,10,322,31,06,02,040,*7D
$GPRMC,021940.000,A,3351.4566,N,09832.0562,W,0.08,192.85,030412,,,D*78
$GPGGA,021941.000,3351.4567,N,09832.0562,W,2,08,1.0,286.1,M,-23.7,M,0.8,0000*4E
$GPGSA,A,3,11,26,13,08,03,07,28,19,,,,,1.8,1.0,1.5*36
$GPRMC,021941.000,A,3351.4567,N,09832.0562,W,0.07,165.47,030412,,,D*71
$GPGGA,021942.000,3351.4567,N,09832.0562,W,2,08,1.0,286.1,M,-23.7,M,1.8,0000*4C
$GPGSA,A,3,11,26,13,08,03,07,28,19,,,,,1.8,1.0,1.5*36
$GPRMC,021942.000,A,3351.4567,N,09832.0562,W,0.11,217.77,030412,,,D*70
$GPGGA,021943.000,3351.4567,N,09832.0562,W,2,08,1.0,286.1,M,-23.7,M,2.8,0000*4E
$GPGSA,A,3,11,26,13,08,03,07,28,19,,,,,1.8,1.0,1.5*36
$GPRMC,021943.000,A,3351.4567,N,09832.0562,W,0.12,109.86,030412,,,D*70
$GPGGA,021944.000,3351.4567,N,09832.0562,W,2,08,1.0,286.1,M,-23.7,M,3.8,0000*48
$GPGSA,A,3,11,26,13,08,03,07,28,19,,,,,1.8,1.0,1.5*36
$GPRMC,021944.000,A,3351.4567,N,09832.0562,W,0.11,111.26,030412,,,D*77
$GPGGA,021945.000,3351.4568,N,09832.0561,W,2,08,1.0,286.1,M,-23.7,M,0.8,0000*46
$GPGSA,A,3,11,26,13,08,03,07,28,19,,,,,1.8,1.0,1.5*36
$GPGSV,3,1,12,07,73,049,28,08,48,326,42,19,47,055,23,13,39,183,37*75
$GPGSV,3,2,12,28,33,272,35,11,33,121,32,01,16,135,14,03,13,043,31*73
$GPGSV,3,3,12,23,11,168,,17,11,208,20,26,10,322,31,06,02,040,*7E
$GPRMC,021945.000,A,3351.4568,N,09832.0561,W,0.07,188.35,030412,,,D*7F
$GPGGA,021946.000,3351.4568,N,09832.0562,W,2,08,1.0,286.1,M,-23.7,M,0.8,0000*46
$GPGSA,A,3,11,26,13,08,03,07,28,19,,,,,1.8,1.0,1.5*36
$GPRMC,021946.000,A,3351.4568,N,09832.0562,W,0.07,135.22,030412,,,D*7F
$GPGGA,021947.000,3351.4568,N,09832.0561,W,2,08,1.0,285.9,M,-23.7,M,0.8,0000*4F
$GPGSA,A,3,11,26,13,08,03,07,28,19,,,,,1.8,1.0,1.5*36
$GPRMC,021947.000,A,3351.4568,N,09832.0561,W,0.10,159.74,030412,,,D*72
$GPGGA,021948.000,3351.4568,N,09832.0561,W,2,08,1.0,285.8,M,-23.7,M,1.8,0000*40
$GPGSA,A,3,11,26,13,08,03,07,28,19,,,,,1.8,1.0,1.5*36
$GPRMC,021948.000,A,3351.4568,N,09832.0561,W,0.16,104.51,030412,,,D*74
$GPGGA,021949.000,3351.4569,N,09832.0561,W,2,08,1.0,285.6,M,-23.7,M,2.8,0000*4D
$GPGSA,A,3,11,26,13,08,03,07,28,19,,,,,1.8,1.0,1.5*36
$GPRMC,021949.000,A,3351.4569,N,09832.0561,W,0.10,175.43,030412,,,D*77
$GPGGA,021950.000,3351.4569,N,09832.0561,W,2,08,1.0,285.4,M,-23.7,M,3.8,0000*46
$GPGSA,A,3,11,26,13,08,03,07,28,19,,,,,1.8,1.0,1.5*36
$GPGSV,3,1,12,07,73,050,29,08,49,326,42,19,46,054,23,13,39,183,36*7C
$GPGSV,3,2,12,28,34,272,35,11,33,121,33,01,16,135,15,03,12,043,31*75
$GPGSV,3,3,12,17,11,208,18,23,11,168,,26,10,322,31,06,02,040,*75
$GPRMC,021950.000,A,3351.4569,N,09832.0561,W,0.09,176.23,030412,,,D*72
$GPGGA,021951.000,3351.4569,N,09832.0561,W,2,08,1.0,285.3,M,-23.7,M,0.8,0000*43
$GPGSA,A,3,11,26,13,08,03,07,28,19,,,,,1.8,1.0,1.5*36
$GPRMC,021951.000,A,3351.4569,N,09832.0561,W,0.10,151.10,030412,,,D*7E
$GPGGA,021952.000,3351.4569,N,09832.0561,W,2,08,1.0,285.2,M,-23.7,M,0.8,0000*41
$GPGSA,A,3,11,26,13,08,03,07,28,19,,,,,1.8,1.0,1.5*36
$GPRMC,021952.000,A,3351.4569,N,09832.0561,W,0.17,104.68,030412,,,D*75
$GPGGA,021953.000,3351.4570,N,09832.0561,W,2,08,1.0,285.1,M,-23.7,M,0.8,0000*4B
$GPGSA,A,3,11,26,13,08,03,07,28,19,,,,,1.8,1.0,1.5*36
$GPRMC,021953.000,A,3351.4570,N,09832.0561,W,0.06,148.13,030412,,,D*78
$GPGGA,021954.000,3351.4570,N,09832.0561,W,2,08,1.0,285.1,M,-23.7,M,0.8,0000*4C
$GPGSA,A,3,11,26,13,08,03,07,28,19,,,,,1.8,1.0,1.5*36
$GPRMC,021954.000,A,3351.4570,N,09832.0561,W,0.08,155.80,030412,,,D*77
$GPGGA,021955.000,3351.4570,N,09832.0561,W,2,08,1.0,285.0,M,-23.7,M,0.8,0000*4C
$GPGSA,A,3,11,26,13,08,03,07,28,19,,,,,1.8,1.0,1.5*36
$GPGSV,3,1,12,07,73,050,29,08,49,326,41,19,46,054,23,13,39,183,36*7F
$GPGSV,3,2,12,28,34,272,35,11,33,121,33,01,16,135,15,03,12,043,31*75
$GPGSV,3,3,12,17,11,208,18,23,11,168,,26,10,322,31,06,02,040,*75
$GPRMC,021955.000,A,3351.4570,N,09832.0561,W,0.09,196.31,030412,,,D*72
$GPGGA,021956.000,3351.4570,N,09832.0561,W,2,08,1.0,285.0,M,-23.7,M,1.8,0000*4E
$GPGSA,A,3,11,26,13,08,03,07,28,19,,,,,1.8,1.0,1.5*36
$GPRMC,021956.000,A,3351.4570,N,09832.0561,W,0.11,106.02,030412,,,D*71
$GPGGA,021957.000,3351.4570,N,09832.0561,W,2,08,1.0,285.0,M,-23.7,M,0.8,0000*4E
$GPGSA,A,3,11,26,13,08,03,07,28,19,,,,,1.8,1.0,1.5*36
$GPRMC,021957.000,A,3351.4570,N,09832.0561,W,0.08,127.04,030412,,,D*7D
$GPGGA,021958.000,3351.4571,N,09832.0561,W,2,08,1.0,284.9,M,-23.7,M,0.8,0000*48
$GPGSA,A,3,11,26,13,08,03,07,28,19,,,,,1.8,1.0,1.5*36
$GPRMC,021958.000,A,3351.4571,N,09832.0561,W,0.10,114.21,030412,,,D*7D
$GPGGA,021959.000,3351.4571,N,09832.0561,W,2,08,1.0,284.8,M,-23.7,M,0.8,0000*48
$GPGSA,A,3,11,26,13,08,03,07,28,19,,,,,1.8,1.0,1.5*36
$GPRMC,021959.000,A,3351.4571,N,09832.0561,W,0.15,112.31,030412,,,D*7E
$GPGGA,022000.000,3351.4571,N,09832.0561,W,2,08,1.0,284.6,M,-23.7,M,1.8,0000*41
$GPGSA,A,3,11,26,13,08,03,07,28,19,,,,,1.8,1.0,1.5*36
$GPGSV,3,1,12,07,73,050,29,08,49,326,41,19,46,054,24,13,39,183,36*78
$GPGSV,3,2,12,28,34,272,35,11,33,121,34,01,16,135,16,03,12,043,31*71
$GPGSV,3,3,12,17,11,208,17,23,11,168,,26,10,322,31,06,02,040,*7A
$GPRMC,022000.000,A,3351.4571,N,09832.0561,W,0.09,167.73,030412,,,D*71
$GPGGA,022001.000,3351.4571,N,09832.0561,W,2,09,0.9,284.4,M,-23.7,M,2.8,0000*48
$GPGSA,A,3,11,23,26,13,08,03,07,28,19,,,,1.5,0.9,1.3*34
$GPRMC,022001.000,A,3351.4571,N,09832.0561,W,0.03,243.47,030412,,,D*78
$GPGGA,022002.000,3351.4572,N,09832.0561,W,2,09,0.9,284.3,M,-23.7,M,0.8,0000*4D
$GPGSA,A,3,11,23,26,13,08,03,07,28,19,,,,1.5,0.9,1.3*34
$GPRMC,022002.000,A,3351.4572,N,09832.0561,W,0.15,67.40,030412,,,D*4C
$GPGGA,022003.000,3351.4572,N,09832.0561,W,2,09,0.9,284.2,M,-23.7,M,0.8,0000*4D
$GPGSA,A,3,11,23,26,13,08,03,07,28,19,,,,1.5,0.9,1.3*34
$GPRMC,022003.000,A,3351.4572,N,09832.0561,W,0.14,74.89,030412,,,D*4B
$GPGGA,022004.000,3351.4573,N,09832.0560,W,2,09,0.9,284.1,M,-23.7,M,0.8,0000*49
$GPGSA,A,3,11,23,26,13,08,03,07,28,19,,,,1.5,0.9,1.3*34
$GPRMC,022004.000,A,3351.4573,N,09832.0560,W,0.22,70.08,030412,,,D*44
$GPGGA,022005.000,3351.4573,N,09832.0560,W,2,09,0.9,284.1,M,-23.7,M,0.8,0000*48
$GPGSA,A,3,11,23,26,13,08,03,07,28,19,,,,1.5,0.9,1.3*34
$GPGSV,3,1,12,07,73,050,29,08,49,326,41,19,46,054,24,13,39,183,35*7B
$GPGSV,3,2,12,28,34,272,35,11,33,121,33,01,16,135,15,03,12,043,31*75
$GPGSV,3,3,12,17,11,208,16,23,11,168,15,26,10,322,31,06,02,040,*7F
$GPRMC,022005.000,A,3351.4573,N,09832.0560,W,0.05,40.06,030412,,,D*4D
$GPGGA,022006.000,3351.4574,N,09832.0560,W,2,09,0.9,284.2,M,-23.7,M,1.8,0000*4E
$GPGSA,A,3,11,23,26,13,08,03,07,28,19,,,,1.5,0.9,1.3*34
$GPRMC,022006.000,A,3351.4574,N,09832.0560,W,0.15,56.89,030412,,,D*48
$GPGGA,022007.000,3351.4574,N,09832.0560,W,2,09,0.9,284.2,M,-23.7,M,2.8,0000*4C
$GPGSA,A,3,11,23,26,13,08,03,07,28,19,,,,1.5,0.9,1.3*34
$GPRMC,022007.000,A,3351.4574,N,09832.0560,W,0.15,62.34,030412,,,D*48
$GPGGA,022008.000,3351.4574,N,09832.0560,W,2,09,0.9,284.2,M,-23.7,M,3.8,0000*42
$GPGSA,A,3,11,23,26,13,08,03,07,28,19,,,,1.5,0.9,1.3*34
$GPRMC,022008.000,A,3351.4574,N,09832.0560,W,0.08,163.95,030412,,,D*70
$GPGGA,022009.000,3351.4574,N,09832.0560,W,2,09,0.9,284.2,M,-23.7,M,0.8,0000*40
$GPGSA,A,3,11,23,26,13,08,03,07,28,19,,,,1.5,0.9,1.3*34
$GPRMC,022009.000,A,3351.4574,N,09832.0560,W,0.15,164.14,030412,,,D*73
$GPGGA,022010.000,3351.4574,N,09832.0560,W,2,09,0.9,284.1,M,-23.7,M,0.8,0000*4B
$GPGSA,A,3,11,23,26,13,08,03,07,28,19,,,,1.5,0.9,1.3*34
$GPGSV,3,1,12,07,73,050,28,08,49,326,41,19,46,054,24,13,39,183,35*7A
$GPGSV,3,2,12,28,34,272,35,11,33,121,33,01,16,135,14,03,12,043,31*74
$GPGSV,3,3,12,17,11,208,16,23,11,168,15,26,10,322,31,06,02,040,*7F
$GPRMC,022010.000,A,3351.4574,N,09832.0560,W,0.18,172.54,030412,,,D*75
$GPGGA,022011.000,3351.4574,N,09832.0560,W,2,09,0.9,283.9,M,-23.7,M,0.8,0000*45
$GPGSA,A,3,11,23,26,13,08,03,07,28,19,,,,1.5,0.9,1.3*34
$GPRMC,022011.000,A,3351.4574,N,09832.0560,W,0.25,157.22,030412,,,D*7C
$GPGGA,022012.000,3351.4574,N,09832.0560,W,2,09,0.9,283.8,M,-23.7,M,0.8,0000*47
$GPGSA,A,3,11,23,26,13,08,03,07,28,19,,,,1.5,0.9,1.3*34
$GPRMC,022012.000,A,3351.4574,N,09832.0560,W,0.23,156.96,030412,,,D*77
$GPGGA,022013.000,3351.4574,N,09832.0560,W,2,09,0.9,283.6,M,-23.7,M,1.8,0000*49
$GPGSA,A,3,11,23,26,13,08,03,07,28,19,,,,1.5,0.9,1.3*34
$GPRMC,022013.000,A,3351.4574,N,09832.0560,W,0.24,157.36,030412,,,D*7A
$GPGGA,022014.000,3351.4574,N,09832.0560,W,2,09,0.9,283.5,M,-23.7,M,0.8,0000*4C
$GPGSA,A,3,11,23,26,13,08,03,07,28,19,,,,1.5,0.9,1.3*34
$GPRMC,022014.000,A,3351.4574,N,09832.0560,W,0.09,100.02,030412,,,D*77
$GPGGA,022015.000,3351.4574,N,09832.0560,W,2,09,0.9,283.4,M,-23.7,M,0.8,0000*4C
$GPGSA,A,3,11,23,26,13,08,03,07,28,19,,,,1.5,0.9,1.3*34
$GPGSV,3,1,12,07,73,050,27,08,49,326,41,19,46,054,25,13,39,183,34*75
$GPGSV,3,2,12,28,34,272,35,11,33,121,33,01,16,135,,03,12,043,32*72
$GPGSV,3,3,12,17,11,208,16,23,11,168,15,26,10,322,31,06,02,040,*7F
$GPRMC,022015.000,A,3351.4574,N,09832.0560,W,0.11,70.75,030412,,,D*49
$GPGGA,022016.000,3351.4574,N,09832.0559,W,2,09,0.9,283.4,M,-23.7,M,0.8,0000*45
$GPGSA,A,3,11,23,26,13,08,03,07,28,19,,,,1.5,0.9,1.3*34
$GPRMC,022016.000,A,3351.4574,N,09832.0559,W,0.15,62.82,030412,,,D*4F
$GPGGA,022017.000,3351.4575,N,09832.0559,W,2,09,0.9,283.5,M,-23.7,M,0.8,0000*44
$GPGSA,A,3,11,23,26,13,08,03,07,28,19,,,,1.5,0.9,1.3*34
$GPRMC,022017.000,A,3351.4575,N,09832.0559,W,0.11,30.47,030412,,,D*45
$GPGGA,022018.000,3351.4575,N,09832.0559,W,2,09,0.9,283.5,M,-23.7,M,1.8,0000*4A
$GPGSA,A,3,11,23,26,13,08,03,07,28,19,,,,1.5,0.9,1.3*34
$GPRMC,022018.000,A,3351.4575,N,09832.0559,W,0.10,34.39,030412,,,D*46
$GPGGA,022019.000,3351.4576,N,09832.0559,W,2,09,0.9,283.6,M,-23.7,M,0.8,0000*4A
$GPGSA,A,3,11,23,26,13,08,03,07,28,19,,,,1.5,0.9,1.3*34
$GPRMC,022019.000,A,3351.4576,N,09832.0559,W,0.09,48.06,030412,,,D*4B
$GPGGA,022020.000,3351.4576,N,09832.0559,W,2,09,0.9,283.6,M,-23.7,M,1.8,0000*41
$GPGSA,A,3,11,23,26,13,08,03,07,28,19,,,,1.5,0.9,1.3*34
$GPGSV,3,1,12,07,73,050,28,08,49,327,41,19,46,054,25,13,38,183,33*7D
$GPGSV,3,2,12,28,34,272,35,11,33,121,33,01,17,135,,03,12,043,32*73
$GPGSV,3,3,12,17,12,208,,23,11,168,16,26,10,322,30,06,01,040,*7A
$GPRMC,022020.000,A,3351.4576,N,09832.0559,W,0.10,38.84,030412,,,D*44
$GPGGA,022021.000,3351.4577,N,09832.0559,W,2,09,0.9,283.6,M,-23.7,M,0.8,0000*40
$GPGSA,A,3,11,23,26,13,08,03,07,28,19,,,,1.5,0.9,1.3*34
$GPRMC,022021.000,A,3351.4577,N,09832.0559,W,0.11,151.16,030412,,,D*70
$GPGGA,022022.000,3351.4576,N,09832.0560,W,2,09,0.9,283.5,M,-23.7,M,0.8,0000*4B
$GPGSA,A,3,11,23,26,13,08,03,07,28,19,,,,1.5,0.9,1.3*34
$GPRMC,022022.000,A,3351.4576,N,09832.0560,W,0.17,168.31,030412,,,D*71
$GPGGA,022023.000,3351.4576,N,09832.0560,W,2,09,0.9,283.8,M,-23.7,M,0.8,0000*47
$GPGSA,A,3,11,23,26,13,08,03,07,28,19,,,,1.5,0.9,1.3*34
$GPRMC,022023.000,A,3351.4576,N,09832.0560,W,0.08,68.78,030412,,,D*42
$GPGGA,022024.000,3351.4576,N,09832.0561,W,2,09,0.9,284.1,M,-23.7,M,1.8,0000*4E
$GPGSA,A,3,11,23,26,13,08,03,07,28,19,,,,1.5,0.9,1.3*34
$GPRMC,022024.000,A,3351.4576,N,09832.0561,W,0.10,48.59,030412,,,D*4C
$GPGGA,022025.000,3351.4576,N,09832.0561,W,2,09,0.9,284.4,M,-23.7,M,0.8,0000*4B
$GPGSA,A,3,11,23,26,13,08,03,07,28,19,,,,1.5,0.9,1.3*34
$GPGSV,3,1,12,07,73,050,28,08,49,327,41,19,46,054,26,13,38,183,31*7C
$GPGSV,3,2,12,28,34,272,35,11,33,121,32,01,17,135,,03,12,043,32*72
$GPGSV,3,3,12,17,12,208,,23,11,168,17,26,10,322,30,06,01,040,*7B
$GPRMC,022025.000,A,3351.4576,N,09832.0561,W,0.13,39.08,030412,,,D*4C
$GPGGA,022026.000,3351.4576,N,09832.0561,W,2,09,0.9,284.6,M,-23.7,M,0.8,0000*4A
$GPGSA,A,3,11,23,26,13,08,03,07,28,19,,,,1.5,0.9,1.3*34
$GPRMC,022026.000,A,3351.4576,N,09832.0561,W,0.09,105.25,030412,,,D*75
$GPGGA,022027.000,3351.4575,N,09832.0562,W,2,09,0.9,284.8,M,-23.7,M,0.8,0000*45
$GPGSA,A,3,11,23,26,13,08,03,07,28,19,,,,1.5,0.9,1.3*34
$GPRMC,022027.000,A,3351.4575,N,09832.0562,W,0.13,151.43,030412,,,D*7E
$GPGGA,022028.000,3351.4574,N,09832.0562,W,2,09,0.9,285.0,M,-23.7,M,0.8,0000*42
$GPGSA,A,3,11,23,26,13,08,03,07,28,19,,,,1.5,0.9,1.3*34
$GPRMC,022028.000,A,3351.4574,N,09832.0562,W,0.20,159.27,030412,,,D*7A
$GPGGA,022029.000,3351.4573,N,09832.0563,W,2,09,0.9,285.1,M,-23.7,M,0.8,0000*44
$GPGSA,A,3,11,23,26,13,08,03,07,28,19,,,,1.5,0.9,1.3*34
$GPRMC,022029.000,A,3351.4573,N,09832.0563,W,0.23,162.80,030412,,,D*7B
$GPGGA,022030.000,3351.4573,N,09832.0563,W,2,09,0.9,285.3,M,-23.7,M,1.8,0000*4F
$GPGSA,A,3,11,23,26,13,08,03,07,28,19,,,,1.5,0.9,1.3*34
$GPGSV,3,1,12,07,73,050,28,08,49,327,41,19,46,054,27,13,38,183,27*7A
$GPGSV,3,2,12,28,34,272,34,11,33,121,32,01,17,135,,03,12,043,32*73
$GPGSV,3,3,12,17,12,208,,23,11,168,18,26,10,322,30,06,01,040,*74
$GPRMC,022030.000,A,3351.4573,N,09832.0563,W,0.11,136.07,030412,,,D*7C
$GPGGA,022031.000,3351.4572,N,09832.0563,W,2,09,0.9,285.4,M,-23.7,M,2.8,0000*4B
$GPGSA,A,3,11,23,26,13,08,03,07,28,19,,,,1.5,0.9,1.3*34
$GPRMC,022031.000,A,3351.4572,N,09832.0563,W,0.20,162.90,030412,,,D*71
$GPGGA,022032.000,3351.4571,N,09832.0564,W,2,09,0.9,285.5,M,-23.7,M,3.8,0000*4C
$GPGSA,A,3,11,23,26,13,08,03,07,28,19,,,,1.5,0.9,1.3*34
$GPRMC,022032.000,A,3351.4571,N,09832.0564,W,0.23,165.42,030412,,,D*7D
$GPGGA,022033.000,3351.4570,N,09832.0564,W,2,09,0.9,285.7,M,-23.7,M,0.8,0000*4D
$GPGSA,A,3,11,23,26,13,08,03,07,28,19,,,,1.5,0.9,1.3*34
$GPRMC,022033.000,A,3351.4570,N,09832.0564,W,0.08,88.86,030412,,,D*4E
$GPGGA,022034.000,3351.4570,N,09832.0565,W,2,09,0.9,285.8,M,-23.7,M,0.8,0000*44
$GPGSA,A,3,11,23,26,13,08,03,07,28,19,,,,1.5,0.9,1.3*34
$GPRMC,022034.000,A,3351.4570,N,09832.0565,W,0.09,56.37,030412,,,D*40
$GPGGA,022035.000,3351.4570,N,09832.0565,W,2,09,0.9,286.0,M,-23.7,M,0.8,0000*4E
$GPGSA,A,3,11,23,26,13,08,03,07,28,19,,,,1.5,0.9,1.3*34
$GPGSV,3,1,12,07,73,050,28,08,49,327,41,19,46,054,27,13,38,183,26*7B
$GPGSV,3,2,12,28,34,272,35,11,33,121,32,01,17,135,,03,12,043,33*73
$GPGSV,3,3,12,17,12,208,,23,11,168,17,26,10,322,30,06,01,040,*7B
$GPRMC,022035.000,A,3351.4570,N,09832.0565,W,0.10,50.77,030412,,,D*4B
$GPGGA,022036.000,3351.4570,N,09832.0565,W,2,09,0.9,286.1,M,-23.7,M,0.8,0000*4C
$GPGSA,A,3,11,23,26,13,08,03,07,28,19,,,,1.5,0.9,1.3*34
$GPRMC,022036.000,A,3351.4570,N,09832.0565,W,0.12,79.38,030412,,,D*4A
$GPGGA,022037.000,3351.4569,N,09832.0565,W,2,09,0.9,286.2,M,-23.7,M,1.8,0000*47
$GPGSA,A,3,11,23,26,13,08,03,07,28,19,,,,1.5,0.9,1.3*34
$GPRMC,022037.000,A,3351.4569,N,09832.0565,W,0.20,162.78,030412,,,D*7D
$GPGGA,022038.000,3351.4569,N,09832.0565,W,2,09,0.9,286.2,M,-23.7,M,2.8,0000*4B
$GPGSA,A,3,11,23,26,13,08,03,07,28,19,,,,1.5,0.9,1.3*34
$GPRMC,022038.000,A,3351.4569,N,09832.0565,W,0.10,134.95,030412,,,D*71
$GPGGA,022039.000,3351.4569,N,09832.0566,W,2,09,0.9,286.3,M,-23.7,M,0.8,0000*4A
$GPGSA,A,3,11,23,26,13,08,03,07,28,19,,,,1.5,0.9,1.3*34
$GPRMC,022039.000,A,3351.4569,N,09832.0566,W,0.18,31.16,030412,,,D*44
$GPGGA,022040.000,3351.4569,N,09832.0565,W,2,09,0.9,286.5,M,-23.7,M,0.8,0000*41
$GPGSA,A,3,11,23,26,13,08,03,07,28,19,,,,1.5,0.9,1.3*34
$GPGSV,3,1,12,07,73,050,28,08,49,327,41,19,46,054,28,13,38,183,25*77
$GPGSV,3,2,12,28,34,272,35,11,33,121,31,01,17,135,,03,12,043,33*70
$GPGSV,3,3,12,17,12,208,,23,11,168,15,26,10,322,30,06,01,040,*79
$GPRMC,022040.000,A,3351.4569,N,09832.0565,W,0.18,48.16,030412,,,D*47
$GPGGA,022041.000,3351.4569,N,09832.0565,W,2,09,0.9,286.7,M,-23.7,M,0.8,0000*42
$GPGSA,A,3,11,23,26,13,08,03,07,28,19,,,,1.5,0.9,1.3*34
$GPRMC,022041.000,A,3351.4569,N,09832.0565,W,0.16,37.12,030412,,,D*44
$GPGGA,022042.000,3351.4569,N,09832.0566,W,2,09,0.9,286.9,M,-23.7,M,1.8,0000*4D
$GPGSA,A,3,11,23,26,13,08,03,07,28,19,,,,1.5,0.9,1.3*34
$GPRMC,022042.000,A,3351.4569,N,09832.0566,W,0.13,51.92,030412,,,D*49
$GPGGA,022043.000,3351.4568,N,09832.0566,W,2,09,0.9,287.1,M,-23.7,M,2.8,0000*47
$GPGSA,A,3,11,23,26,13,08,03,07,28,19,,,,1.5,0.9,1.3*34
$GPRMC,022043.000,A,3351.4568,N,09832.0566,W,0.11,44.15,030412,,,D*40
$GPGGA,022044.000,3351.4568,N,09832.0566,W,2,09,0.9,287.3,M,-23.7,M,0.8,0000*40
$GPGSA,A,3,11,23,26,13,08,03,07,28,19,,,,1.5,0.9,1.3*34
$GPRMC,022044.000,A,3351.4568,N,09832.0566,W,0.10,114.15,030412,,,D*72
$GPGGA,022045.000,3351.4568,N,09832.0566,W,2,09,0.9,287.4,M,-23.7,M,0.8,0000*46
$GPGSA,A,3,11,23,26,13,08,03,07,28,19,,,,1.5,0.9,1.3*34
$GPGSV,3,1,12,07,73,050,28,08,49,327,41,19,46,054,29,13,38,183,24*77
$GPGSV,3,2,12,28,34,272,35,11,33,121,31,01,17,135,23,03,12,043,33*71
$GPGSV,3,3,12,17,12,208,,23,11,168,14,26,10,322,31,06,01,040,*79
$GPRMC,022045.000,A,3351.4568,N,09832.0566,W,0.20,157.88,030412,,,D*73
$GPGGA,022046.000,3351.4567,N,09832.0566,W,2,09,0.9,287.4,M,-23.7,M,0.8,0000*4A
$GPGSA,A,3,11,23,26,13,08,03,07,28,19,,,,1.5,0.9,1.3*34
$GPRMC,022046.000,A,3351.4567,N,09832.0566,W,0.38,179.69,030412,,,D*75
$GPGGA,022047.000,3351.4566,N,09832.0567,W,2,09,0.9,287.4,M,-23.7,M,0.8,0000*4B
$GPGSA,A,3,11,23,26,13,08,03,07,28,19,,,,1.5,0.9,1.3*34
$GPRMC,022047.000,A,3351.4566,N,09832.0567,W,0.11,117.62,030412,,,D*7C
$GPGGA,022048.000,3351.4566,N,09832.0567,W,2,09,0.9,287.5,M,-23.7,M,1.8,0000*44
$GPGSA,A,3,11,23,26,13,08,03,07,28,19,,,,1.5,0.9,1.3*34
$GPRMC,022048.000,A,3351.4566,N,09832.0567,W,0.13,64.03,030412,,,D*43
$GPGGA,022049.000,3351.4565,N,09832.0567,W,2,09,0.9,287.5,M,-23.7,M,2.8,0000*45
$GPGSA,A,3,11,23,26,13,08,03,07,28,19,,,,1.5,0.9,1.3*34
$GPRMC,022049.000,A,3351.4565,N,09832.0567,W,0.19,160.44,030412,,,D*7D
$GPGGA,022050.000,3351.4565,N,09832.0567,W,2,09,0.9,287.5,M,-23.7,M,3.8,0000*4C
$GPGSA,A,3,11,23,26,13,08,03,07,28,19,,,,1.5,0.9,1.3*34
$GPGSV,3,1,12,07,73,051,27,08,49,327,41,19,46,054,30,13,38,183,24*71
$GPGSV,3,2,12,28,34,273,35,11,34,120,31,01,17,135,24,03,12,043,33*71
$GPGSV,3,3,12,17,12,208,,23,11,167,14,26,11,322,31,06,01,040,*77
$GPRMC,022050.000,A,3351.4565,N,09832.0567,W,0.17,148.85,030412,,,D*7C
$GPGGA,022051.000,3351.4564,N,09832.0567,W,2,09,0.9,287.6,M,-23.7,M,0.8,0000*4C
$GPGSA,A,3,11,23,26,13,08,03,07,28,19,,,,1.5,0.9,1.3*34
$GPRMC,022051.000,A,3351.4564,N,09832.0567,W,0.17,161.87,030412,,,D*75
$GPGGA,022052.000,3351.4563,N,09832.0567,W,2,09,0.9,287.8,M,-23.7,M,0.8,0000*46
$GPGSA,A,3,11,23,26,13,08,03,07,28,19,,,,1.5,0.9,1.3*34
$GPRMC,022052.000,A,3351.4563,N,09832.0567,W,0.20,147.00,030412,,,D*7E
$GPGGA,022053.000,3351.4563,N,09832.0567,W,2,09,0.9,288.0,M,-23.7,M,0.8,0000*40
$GPGSA,A,3,11,23,26,13,08,03,07,28,19,,,,1.5,0.9,1.3*34
$GPRMC,022053.000,A,3351.4563,N,09832.0567,W,0.19,162.20,030412,,,D*70
$GPGGA,022054.000,3351.4562,N,09832.0567,W,2,09,0.9,288.2,M,-23.7,M,1.8,0000*45
$GPGSA,A,3,11,23,26,13,08,03,07,28,19,,,,1.5,0.9,1.3*34
$GPRMC,022054.000,A,3351.4562,N,09832.0567,W,0.23,167.67,030412,,,D*79
$GPGGA,022055.000,3351.4561,N,09832.0567,W,2,09,0.9,288.4,M,-23.7,M,2.8,0000*42
$GPGSA,A,3,11,23,26,13,08,03,07,28,19,,,,1.5,0.9,1.3*34
$GPGSV,3,1,12,07,73,051,27,08,49,327,41,19,46,054,30,13,38,183,25*70
$GPGSV,3,2,12,28,34,273,35,11,34,120,31,01,17,135,24,03,12,043,33*71
$GPGSV,3,3,12,17,12,208,20,23,11,167,14,26,11,322,31,06,01,040,*75
$GPRMC,022055.000,A,3351.4561,N,09832.0567,W,0.17,159.16,030412,,,D*77
$GPGGA,022056.000,3351.4560,N,09832.0567,W,2,09,0.9,288.7,M,-23.7,M,3.8,0000*42
$GPGSA,A,3,11,23,26,13,08,03,07,28,19,,,,1.5,0.9,1.3*34
$GPRMC,022056.000,A,3351.4560,N,09832.0567,W,0.07,98.65,030412,,,D*4C
$GPGGA,022057.000,3351.4560,N,09832.0567,W,2,09,0.9,289.0,M,-23.7,M,0.8,0000*46
$GPGSA,A,3,11,23,26,13,08,03,07,28,19,,,,1.5,0.9,1.3*34
$GPRMC,022057.000,A,3351.4560,N,09832.0567,W,0.16,33.38,030412,,,D*44
$GPGGA,022058.000,3351.4561,N,09832.0567,W,2,09,0.9,289.2,M,-23.7,M,0.8,0000*4A
$GPGSA,A,3,11,23,26,13,08,03,07,28,19,,,,1.5,0.9,1.3*34
$GPRMC,022058.000,A,3351.4561,N,09832.0567,W,0.15,26.72,030412,,,D*43
$GPGGA,022059.000,3351.4561,N,09832.0567,W,2,09,0.9,289.5,M,-23.7,M,0.8,0000*4C
$GPGSA,A,3,11,23,26,13,08,03,07,28,19,,,,1.5,0.9,1.3*34
$GPRMC,022059.000,A,3351.4561,N,09832.0567,W,0.20,30.42,030412,,,D*40
$GPGGA,022100.000,3351.4561,N,09832.0567,W,2,09,0.9,289.8,M,-23.7,M,1.8,0000*4D
$GPGSA,A,3,11,23,26,13,08,03,07,28,19,,,,1.5,0.9,1.3*34
$GPGSV,3,1,12,07,73,051,27,08,49,327,41,19,46,054,30,13,38,183,26*73
$GPGSV,3,2,12,28,34,273,35,11,34,120,30,01,17,135,25,03,12,043,33*71
$GPGSV,3,3,12,17,12,208,21,23,11,167,14,26,11,322,31,06,01,040,*74
$GPRMC,022100.000,A,3351.4561,N,09832.0567,W,0.17,32.72,030412,,,D*48
$GPGGA,022101.000,3351.4561,N,09832.0567,W,2,09,0.9,290.1,M,-23.7,M,2.8,0000*4E
$GPGSA,A,3,11,23,26,13,08,03,07,28,19,,,,1.5,0.9,1.3*34
$GPRMC,022101.000,A,3351.4561,N,09832.0567,W,0.18,30.54,030412,,,D*40
$GPGGA,022102.000,3351.4561,N,09832.0567,W,2,09,0.9,290.3,M,-23.7,M,3.8,0000*4E
$GPGSA,A,3,11,23,26,13,08,03,07,28,19,,,,1.5,0.9,1.3*34
$GPRMC,022102.000,A,3351.4561,N,09832.0567,W,0.10,103.13,030412,,,D*79
$GPGGA,022103.000,3351.4561,N,09832.0567,W,2,09,0.9,290.4,M,-23.7,M,0.8,0000*4B
$GPGSA,A,3,11,23,26,13,08,03,07,28,19,,,,1.5,0.9,1.3*34
$GPRMC,022103.000,A,3351.4561,N,09832.0567,W,0.15,149.07,030412,,,D*76
$GPGGA,022104.000,3351.4560,N,09832.0567,W,2,09,0.9,290.6,M,-23.7,M,1.8,0000*4E
$GPGSA,A,3,11,23,26,13,08,03,07,28,19,,,,1.5,0.9,1.3*34
$GPRMC,022104.000,A,3351.4560,N,09832.0567,W,0.18,160.54,030412,,,D*70
$GPGGA,022105.000,3351.4559,N,09832.0567,W,2,09,0.9,290.7,M,-23.7,M,0.8,0000*45
$GPGSA,A,3,11,23,26,13,08,03,07,28,19,,,,1.5,0.9,1.3*34
$GPGSV,3,1,12,07,73,051,27,08,49,327,41,19,46,054,30,13,38,183,27*72
$GPGSV,3,2,12,28,34,273,35,11,34,120,30,01,17,135,26,03,12,043,33*72
$GPGSV,3,3,12,17,12,208,21,23,11,167,16,26,11,322,31,06,01,040,*76
$GPRMC,022105.000,A,3351.4559,N,09832.0567,W,0.10,75.35,030412,,,D*41
$GPGGA,022106.000,3351.4559,N,09832.0567,W,2,09,0.9,290.9,M,-23.7,M,1.8,0000*49
$GPGSA,A,3,11,23,26,13,08,03,07,28,19,,,,1.5,0.9,1.3*34
$GPRMC,022106.000,A,3351.4559,N,09832.0567,W,0.10,69.02,030412,,,D*4B
$GPGGA,022107.000,3351.4559,N,09832.0567,W,2,09,0.9,291.1,M,-23.7,M,2.8,0000*42
$GPGSA,A,3,11,23,26,13,08,03,07,28,19,,,,1.5,0.9,1.3*34
$GPRMC,022107.000,A,3351.4559,N,09832.0567,W,0.12,52.19,030412,,,D*4A
$GPGGA,022108.000,3351.4559,N,09832.0567,W,2,09,0.9,291.2,M,-23.7,M,3.8,0000*4F
$GPGSA,A,3,11,23,26,13,08,03,07,28,19,,,,1.5,0.9,1.3*34
$GPRMC,022108.000,A,3351.4559,N,09832.0567,W,0.12,136.79,030412,,,D*70
$GPGGA,022109.000,3351.4558,N,09832.0567,W,2,09,0.9,291.2,M,-23.7,M,0.8,0000*4C
$GPGSA,A,3,11,23,26,13,08,03,07,28,19,,,,1.5,0.9,1.3*34
$GPRMC,022109.000,A,3351.4558,N,09832.0567,W,0.19,161.04,030412,,,D*73
$GPGGA,022110.000,3351.4558,N,09832.0567,W,2,09,0.9,291.3,M,-23.7,M,0.8,0000*45
$GPGSA,A,3,11,23,26,13,08,03,07,28,19,,,,1.5,0.9,1.3*34
$GPGSV,3,1,12,07,73,051,28,08,49,327,41,19,46,054,30,13,38,183,28*72
$GPGSV,3,2,12,28,34,273,35,11,34,120,29,01,17,135,26,03,12,043,33*7A
$GPGSV,3,3,12,17,12,208,22,23,11,167,16,26,11,322,31,06,01,040,*75
$GPRMC,022110.000,A,3351.4558,N,09832.0567,W,0.09,116.21,030412,,,D*7D
$GPGGA,022111.000,3351.4557,N,09832.0567,W,2,09,0.9,291.3,M,-23.7,M,0.8,0000*4B
$GPGSA,A,3,11,23,26,13,08,03,07,28,19,,,,1.5,0.9,1.3*34
$GPRMC,022111.000,A,3351.4557,N,09832.0567,W,0.11,137.06,030412,,,D*7C
$GPGGA,022112.000,3351.4557,N,09832.0567,W,2,09,0.9,291.3,M,-23.7,M,1.8,0000*49
$GPGSA,A,3,11,23,26,13,08,03,07,28,19,,,,1.5,0.9,1.3*34
$GPRMC,022112.000,A,3351.4557,N,09832.0567,W,0.17,155.52,030412,,,D*7C
$GPGGA,022113.000,3351.4556,N,09832.0567,W,2,09,0.9,291.4,M,-23.7,M,0.8,0000*4F
$GPGSA,A,3,11,23,26,13,08,03,07,28,19,,,,1.5,0.9,1.3*34
$GPRMC,022113.000,A,3351.4556,N,09832.0567,W,0.11,136.46,030412,,,D*7A
$GPGGA,022114.000,3351.4556,N,09832.0567,W,2,09,0.9,291.5,M,-23.7,M,1.8,0000*48
$GPGSA,A,3,11,23,26,13,08,03,07,28,19,,,,1.5,0.9,1.3*34
$GPRMC,022114.000,A,3351.4556,N,09832.0567,W,0.11,41.96,030412,,,D*41
$GPGGA,022115.000,3351.4556,N,09832.0567,W,2,09,0.9,291.5,M,-23.7,M,0.8,0000*48
$GPGSA,A,3,11,23,26,13,08,03,07,28,19,,,,1.5,0.9,1.3*34
$GPGSV,3,1,12,07,73,051,28,08,49,327,41,19,46,054,30,13,38,183,29*73
$GPGSV,3,2,12,28,34,273,35,11,34,120,30,01,17,135,27,03,12,043,33*73
$GPGSV,3,3,12,17,12,208,22,23,11,167,17,26,11,322,31,06,01,040,*74
$GPRMC,022115.000,A,3351.4556,N,09832.0567,W,0.13,138.91,030412,,,D*7A
$GPGGA,022116.000,3351.4555,N,09832.0567,W,2,09,0.9,291.7,M,-23.7,M,0.8,0000*4A
$GPGSA,A,3,11,23,26,13,08,03,07,28,19,,,,1.5,0.9,1.3*34
$GPRMC,022116.000,A,3351.4555,N,09832.0567,W,0.11,53.72,030412,,,D*49
$GPGGA,022117.000,3351.4555,N,09832.0567,W,2,09,0.9,291.8,M,-23.7,M,0.8,0000*44
$GPGSA,A,3,11,23,26,13,08,03,07,28,19,,,,1.5,0.9,1.3*34
$GPRMC,022117.000,A,3351.4555,N,09832.0567,W,0.09,13.70,030412,,,D*47
$GPGGA,022118.000,3351.4556,N,09832.0567,W,2,09,0.9,292.0,M,-23.7,M,0.8,0000*43
$GPGSA,A,3,11,23,26,13,08,03,07,28,19,,,,1.5,0.9,1.3*34
$GPRMC,022118.000,A,3351.4556,N,09832.0567,W,0.13,41.20,030412,,,D*42
$GPGGA,022119.000,3351.4556,N,09832.0567,W,2,09,0.9,292.0,M,-23.7,M,0.8,0000*42
$GPGSA,A,3,11,23,26,13,08,03,07,28,19,,,,1.5,0.9,1.3*34
$GPRMC,022119.000,A,3351.4556,N,09832.0567,W,0.12,113.47,030412,,,D*75
$GPGGA,022120.000,3351.4555,N,09832.0567,W,2,09,0.9,292.1,M,-23.7,M,0.8,0000*4A
$GPGSA,A,3,11,23,26,13,08,03,07,28,19,,,,1.5,0.9,1.3*34
$GPGSV,3,1,12,07,73,052,28,08,49,327,41,19,46,054,31,13,38,183,30*79
$GPGSV,3,2,12,28,34,273,35,11,34,120,30,01,17,135,28,17,12,208,23*75
$GPGSV,3,3,12,03,12,043,34,26,11,322,31,23,11,167,17,06,01,040,*7B
$GPRMC,022120.000,A,3351.4555,N,09832.0567,W,0.09,105.40,030412,,,D*76
$GPGGA,022121.000,3351.4555,N,09832.0567,W,2,09,0.9,292.2,M,-23.7,M,0.8,0000*48
$GPGSA,A,3,11,23,26,13,08,03,07,28,19,,,,1.5,0.9,1.3*34
$GPRMC,022121.000,A,3351.4555,N,09832.0567,W,0.11,129.82,030412,,,D*7E
$GPGGA,022122.000,3351.4555,N,09832.0567,W,2,09,0.9,292.2,M,-23.7,M,0.8,0000*4B
$GPGSA,A,3,11,23,26,13,08,03,07,28,19,,,,1.5,0.9,1.3*34
$GPRMC,022122.000,A,3351.4555,N,09832.0567,W,0.19,151.89,030412,,,D*71
$GPGGA,022123.000,3351.4553,N,09832.0567,W,2,09,0.9,292.3,M,-23.7,M,0.8,0000*4D
$GPGSA,A,3,11,23,26,13,08,03,07,28,19,,,,1.5,0.9,1.3*34
$GPRMC,022123.000,A,3351.4553,N,09832.0567,W,0.21,157.61,030412,,,D*7D
$GPGGA,022124.000,3351.4552,N,09832.0567,W,2,09,0.9,292.3,M,-23.7,M,0.8,0000*4B
$GPGSA,A,3,11,23,26,13,08,03,07,28,19,,,,1.5,0.9,1.3*34
$GPRMC,022124.000,A,3351.4552,N,09832.0567,W,0.11,137.85,030412,,,D*74
$GPGGA,022125.000,3351.4551,N,09832.0567,W,2,09,0.9,292.4,M,-23.7,M,0.8,0000*4E
$GPGSA,A,3,11,23,26,13,08,03,07,28,19,,,,1.5,0.9,1.3*34
$GPGSV,3,1,12,07,73,052,27,08,49,327,41,19,46,054,31,13,38,183,31*77
$GPGSV,3,2,12,28,34,273,35,11,34,120,30,01,17,135,27,17,12,208,23*7A
$GPGSV,3,3,12,03,12,043,34,26,11,322,31,23,11,167,18,06,01,040,*74
$GPRMC,022125.000,A,3351.4551,N,09832.0567,W,0.17,153.00,030412,,,D*7F
$GPGGA,022126.000,3351.4550,N,09832.0567,W,2,09,0.9,292.5,M,-23.7,M,0.8,0000*4D
$GPGSA,A,3,11,23,26,13,08,03,07,28,19,,,,1.5,0.9,1.3*34
$GPRMC,022126.000,A,3351.4550,N,09832.0567,W,0.10,74.61,030412,,,D*49
$GPGGA,022127.000,3351.4549,N,09832.0567,W,2,09,0.9,292.5,M,-23.7,M,0.8,0000*44
$GPGSA,A,3,11,23,26,13,08,03,07,28,19,,,,1.5,0.9,1.3*34
$GPRMC,022127.000,A,3351.4549,N,09832.0567,W,0.10,89.31,030412,,,D*47
$GPGGA,022128.000,3351.4549,N,09832.0567,W,2,09,0.9,292.4,M,-23.7,M,1.8,0000*4B
$GPGSA,A,3,11,23,26,13,08,03,07,28,19,,,,1.5,0.9,1.3*34
$GPRMC,022128.000,A,3351.4549,N,09832.0567,W,0.08,93.32,030412,,,D*49
$GPGGA,022129.000,3351.4548,N,09832.0567,W,2,09,0.9,292.3,M,-23.7,M,0.8,0000*4D
$GPGSA,A,3,11,23,26,13,08,03,07,28,19,,,,1.5,0.9,1.3*34
$GPRMC,022129.000,A,3351.4548,N,09832.0567,W,0.20,150.48,030412,,,D*70
$GPGGA,022130.000,3351.4548,N,09832.0567,W,2,09,0.9,292.2,M,-23.7,M,0.8,0000*44
$GPGSA,A,3,11,23,26,13,08,03,07,28,19,,,,1.5,0.9,1.3*34
$GPGSV,3,1,12,07,73,052,27,08,49,327,41,19,46,054,31,13,38,183,31*77
$GPGSV,3,2,12,28,34,273,35,11,34,120,30,01,17,135,27,17,12,208,22*7B
$GPGSV,3,3,12,03,12,043,34,26,11,322,31,23,11,167,18,06,01,040,*74
$GPRMC,022130.000,A,3351.4548,N,09832.0567,W,0.24,161.47,030412,,,D*71
$GPGGA,022131.000,3351.4547,N,09832.0567,W,2,09,0.9,292.1,M,-23.7,M,0.8,0000*49
$GPGSA,A,3,11,23,26,13,08,03,07,28,19,,,,1.5,0.9,1.3*34
$GPRMC,022131.000,A,3351.4547,N,09832.0567,W,0.17,146.37,030412,,,D*7D
$GPGGA,022132.000,3351.4547,N,09832.0566,W,2,09,0.9,292.2,M,-23.7,M,0.8,0000*48
$GPGSA,A,3,11,23,26,13,08,03,07,28,19,,,,1.5,0.9,1.3*34
$GPRMC,022132.000,A,3351.4547,N,09832.0566,W,0.10,64.91,030412,,,D*45
$GPGGA,022133.000,3351.4547,N,09832.0566,W,2,10,0.8,292.1,M,-23.7,M,0.8,0000*43
$GPGSA,A,3,11,23,26,01,13,08,03,07,28,19,,,1.5,0.8,1.2*35
$GPRMC,022133.000,A,3351.4547,N,09832.0566,W,0.12,154.02,030412,,,D*7E
$GPGGA,022134.000,3351.4546,N,09832.0566,W,2,10,0.8,292.2,M,-23.7,M,1.8,0000*47
$GPGSA,A,3,11,23,26,01,13,08,03,07,28,19,,,1.5,0.8,1.2*35
$GPRMC,022134.000,A,3351.4546,N,09832.0566,W,0.10,60.82,030412,,,D*44
$GPGGA,022135.000,3351.4546,N,09832.0566,W,2,10,0.8,292.2,M,-23.7,M,2.8,0000*45
$GPGSA,A,3,11,23,26,01,13,08,03,07,28,19,,,1.5,0.8,1.2*35
$GPGSV,3,1,12,07,73,053,27,08,49,327,41,19,46,054,31,13,38,183,32*75
$GPGSV,3,2,12,28,34,273,34,11,34,120,29,01,17,135,28,17,12,208,21*7E
$GPGSV,3,3,12,03,12,043,34,26,11,322,30,23,11,167,18,06,01,040,*75
$GPRMC,022135.000,A,3351.4546,N,09832.0566,W,0.11,52.05,030412,,,D*4A
$GPGGA,022136.000,3351.4547,N,09832.0566,W,2,10,0.8,292.3,M,-23.7,M,3.8,0000*47
$GPGSA,A,3,11,23,26,01,13,08,03,07,28,19,,,1.5,0.8,1.2*35
$GPRMC,022136.000,A,3351.4547,N,09832.0566,W,0.13,53.19,030412,,,D*46
$GPGGA,022137.000,3351.4547,N,09832.0565,W,2,10,0.8,292.3,M,-23.7,M,0.8,0000*46
$GPGSA,A,3,11,23,26,01,13,08,03,07,28,19,,,1.5,0.8,1.2*35
$GPRMC,022137.000,A,3351.4547,N,09832.0565,W,0.11,55.60,030412,,,D*4E
$GPGGA,022138.000,3351.4547,N,09832.0565,W,2,10,0.8,292.4,M,-23.7,M,0.8,0000*4E
$GPGSA,A,3,11,23,26,01,13,08,03,07,28,19,,,1.5,0.8,1.2*35
$GPRMC,022138.000,A,3351.4547,N,09832.0565,W,0.08,99.14,030412,,,D*4A
$GPGGA,022139.000,3351.4547,N,09832.0565,W,2,10,0.8,292.4,M,-23.7,M,1.8,0000*4E
$GPGSA,A,3,11,23,26,01,13,08,03,07,28,19,,,1.5,0.8,1.2*35
$GPRMC,022139.000,A,3351.4547,N,09832.0565,W,0.10,142.12,030412,,,D*73
$GPGGA,022140.000,3351.4547,N,09832.0565,W,2,10,0.8,292.5,M,-23.7,M,0.8,0000*40
$GPGSA,A,3,11,23,26,01,13,08,03,07,28,19,,,1.5,0.8,1.2*35
$GPGSV,3,1,12,07,73,053,27,08,49,327,41,19,46,054,31,13,38,183,32*75
$GPGSV,3,2,12,28,34,273,34,11,34,120,29,01,17,135,28,17,12,208,20*7F
$GPGSV,3,3,12,03,12,043,34,26,11,322,30,23,11,167,18,06,01,040,*75
$GPRMC,022140.000,A,3351.4547,N,09832.0565,W,0.12,54.59,030412,,,D*46
$GPGGA,022141.000,3351.4547,N,09832.0565,W,2,10,0.8,292.6,M,-23.7,M,1.8,0000*43
$GPGSA,A,3,11,23,26,01,13,08,03,07,28,19,,,1.5,0.8,1.2*35
$GPRMC,022141.000,A,3351.4547,N,09832.0565,W,0.10,50.27,030412,,,D*48
$GPGGA,022142.000,3351.4547,N,09832.0565,W,2,10,0.8,292.5,M,-23.7,M,0.8,0000*42
$GPGSA,A,3,11,23,26,01,13,08,03,07,28,19,,,1.5,0.8,1.2*35
$GPRMC,022142.000,A,3351.4547,N,09832.0565,W,0.13,146.97,030412,,,D*75
$GPGGA,022143.000,3351.4547,N,09832.0565,W,2,10,0.8,292.6,M,-23.7,M,0.8,0000*40
$GPGSA,A,3,11,23,26,01,13,08,03,07,28,19,,,1.5,0.8,1.2*35
$GPRMC,022143.000,A,3351.4547,N,09832.0565,W,0.10,60.60,030412,,,D*4A
$GPGGA,022144.000,3351.4547,N,09832.0565,W,2,10,0.8,292.6,M,-23.7,M,0.8,0000*47
$GPGSA,A,3,11,23,26,01,13,08,03,07,28,19,,,1.5,0.8,1.2*35
$GPRMC,022144.000,A,3351.4547,N,09832.0565,W,0.12,59.89,030412,,,D*42
$GPGGA,022145.000,3351.4547,N,09832.0565,W,2,10,0.8,292.6,M,-23.7,M,0.8,0000*46
$GPGSA,A,3,11,23,26,01,13,08,03,07,28,19,,,1.5,0.8,1.2*35
$GPGSV,3,1,12,07,73,053,27,08,49,327,41,19,46,054,31,13,38,183,33*74
$GPGSV,3,2,12,28,34,273,34,11,34,120,29,01,17,135,27,17,12,208,21*71
$GPGSV,3,3,12,03,12,043,34,26,11,322,30,23,11,167,19,06,01,040,*74
$GPRMC,022145.000,A,3351.4547,N,09832.0565,W,0.10,65.45,030412,,,D*4E
$GPGGA,022146.000,3351.4547,N,09832.0565,W,2,10,0.8,292.6,M,-23.7,M,1.8,0000*44
$GPGSA,A,3,11,23,26,01,13,08,03,07,28,19,,,1.5,0.8,1.2*35
$GPRMC,022146.000,A,3351.4547,N,09832.0565,W,0.14,154.39,030412,,,D*71
$GPGGA,022147.000,3351.4546,N,09832.0565,W,2,10,0.8,292.5,M,-23.7,M,2.8,0000*44
$GPGSA,A,3,11,23,26,01,13,08,03,07,28,19,,,1.5,0.8,1.2*35
$GPRMC,022147.000,A,3351.4546,N,09832.0565,W,0.16,160.57,030412,,,D*7C
$GPGGA,022148.000,3351.4546,N,09832.0565,W,2,10,0.8,292.4,M,-23.7,M,0.8,0000*48
$GPGSA,A,3,11,23,26,01,13,08,03,07,28,19,,,1.5,0.8,1.2*35
$GPRMC,022148.000,A,3351.4546,N,09832.0565,W,0.15,160.42,030412,,,D*74
$GPGGA,022149.000,3351.4546,N,09832.0565,W,2,10,0.8,292.4,M,-23.7,M,0.8,0000*49
$GPGSA,A,3,11,23,26,01,13,08,03,07,28,19,,,1.5,0.8,1.2*35
$GPRMC,022149.000,A,3351.4546,N,09832.0565,W,0.11,107.56,030412,,,D*75
$GPGGA,022150.000,3351.4546,N,09832.0565,W,2,10,0.8,292.4,M,-23.7,M,0.8,0000*41
$GPGSA,A,3,11,23,26,01,13,08,03,07,28,19,,,1.5,0.8,1.2*35
$GPGSV,3,1,12,07,73,053,26,08,49,327,41,19,46,053,32,13,38,183,34*76
$GPGSV,3,2,12,28,34,273,34,11,34,120,30,01,17,135,27,17,12,208,22*7A
$GPGSV,3,3,12,03,12,043,34,26,11,322,30,23,10,167,19,06,01,040,*75
$GPRMC,022150.000,A,3351.4546,N,09832.0565,W,0.09,92.33,030412,,,D*4A
$GPGGA,022151.000,3351.4546,N,09832.0565,W,2,10,0.8,292.4,M,-23.7,M,1.8,0000*41
$GPGSA,A,3,11,23,26,01,13,08,03,07,28,19,,,1.5,0.8,1.2*35
$GPRMC,022151.000,A,3351.4546,N,09832.0565,W,0.09,81.18,030412,,,D*40
$GPGGA,022152.000,3351.4546,N,09832.0565,W,2,10,0.8,292.4,M,-23.7,M,0.8,0000*43
$GPGSA,A,3,11,23,26,01,13,08,03,07,28,19,,,1.5,0.8,1.2*35
$GPRMC,022152.000,A,3351.4546,N,09832.0565,W,0.14,45.54,030412,,,D*4F
$GPGGA,022153.000,3351.4546,N,09832.0565,W,2,10,0.8,292.5,M,-23.7,M,1.8,0000*42
$GPGSA,A,3,11,23,26,01,13,08,03,07,28,19,,,1.5,0.8,1.2*35
$GPRMC,022153.000,A,3351.4546,N,09832.0565,W,0.16,47.23,030412,,,D*4E
$GPGGA,022154.000,3351.4547,N,09832.0566,W,2,10,0.8,292.4,M,-23.7,M,0.8,0000*47
$GPGSA,A,3,11,23,26,01,13,08,03,07,28,19,,,1.5,0.8,1.2*35
$GPRMC,022154.000,A,3351.4547,N,09832.0566,W,0.07,111.51,030412,,,D*7C
$GPGGA,022155.000,3351.4547,N,09832.0566,W,2,10,0.8,292.4,M,-23.7,M,0.8,0000*46
$GPGSA,A,3,11,23,26,01,13,08,03,07,28,19,,,1.5,0.8,1.2*35
$GPGSV,3,1,12,07,73,053,26,08,49,327,41,19,46,053,32,13,38,183,34*76
$GPGSV,3,2,12,28,34,273,34,11,34,120,29,01,17,135,26,17,12,208,22*73
$GPGSV,3,3,12,03,12,043,34,26,11,322,30,23,10,167,19,06,01,040,*75
$GPRMC,022155.000,A,3351.4547,N,09832.0566,W,0.09,48.43,030412,,,D*4D
$GPGGA,022156.000,3351.4547,N,09832.0566,W,2,10,0.8,292.4,M,-23.7,M,0.8,0000*45
$GPGSA,A,3,11,23,26,01,13,08,03,07,28,19,,,1.5,0.8,1.2*35
$GPRMC,022156.000,A,3351.4547,N,09832.0566,W,0.10,51.04,030412,,,D*4D
$GPGGA,022157.000,3351.4547,N,09832.0566,W,2,10,0.8,292.5,M,-23.7,M,0.8,0000*45
$GPGSA,A,3,11,23,26,01,13,08,03,07,28,19,,,1.5,0.8,1.2*35
$GPRMC,022157.000,A,3351.4547,N,09832.0566,W,0.12,50.81,030412,,,D*42
$GPGGA,022158.000,3351.4547,N,09832.0566,W,2,10,0.8,292.5,M,-23.7,M,1.8,0000*4B
$GPGSA,A,3,11,23,26,01,13,08,03,07,28,19,,,1.5,0.8,1.2*35
$GPRMC,022158.000,A,3351.4547,N,09832.0566,W,0.09,57.97,030412,,,D*47
$GPGGA,022159.000,3351.4548,N,09832.0566,W,2,10,0.8,292.5,M,-23.7,M,2.8,0000*46
$GPGSA,A,3,11,23,26,01,13,08,03,07,28,19,,,1.5,0.8,1.2*35
$GPRMC,022159.000,A,3351.4548,N,09832.0566,W,0.11,49.98,030412,,,D*40
$GPGGA,022200.000,3351.4548,N,09832.0566,W,2,10,0.8,292.6,M,-23.7,M,0.8,0000*48
$GPGSA,A,3,11,23,26,01,13,08,03,07,28,19,,,1.5,0.8,1.2*35
$GPGSV,3,1,12,07,73,053,25,08,49,327,41,19,46,053,32,13,38,183,34*75
$GPGSV,3,2,12,28,34,273,34,11,34,120,28,01,17,135,26,17,12,208,21*71
$GPGSV,3,3,12,03,12,043,34,26,11,322,30,23,10,167,19,06,01,040,*75
$GPRMC,022200.000,A,3351.4548,N,09832.0566,W,0.14,56.40,030412,,,D*41
$GPGGA,022201.000,3351.4548,N,09832.0566,W,2,10,0.8,292.6,M,-23.7,M,0.8,0000*49
$GPGSA,A,3,11,23,26,01,13,08,03,07,28,19,,,1.5,0.8,1.2*35
$GPRMC,022201.000,A,3351.4548,N,09832.0566,W,0.10,96.10,030412,,,D*4D
$GPGGA,022202.000,3351.4548,N,09832.0566,W,2,10,0.8,292.5,M,-23.7,M,0.8,0000*49
$GPGSA,A,3,11,23,26,01,13,08,03,07,28,19,,,1.5,0.8,1.2*35
$GPRMC,022202.000,A,3351.4548,N,09832.0566,W,0.16,149.64,030412,,,D*78
$GPGGA,022203.000,3351.4548,N,09832.0566,W,2,10,0.8,292.5,M,-23.7,M,0.8,0000*48
$GPGSA,A,3,11,23,26,01,13,08,03,07,28,19,,,1.5,0.8,1.2*35
$GPRMC,022203.000,A,3351.4548,N,09832.0566,W,0.13,151.54,030412,,,D*76
$GPGGA,022204.000,3351.4548,N,09832.0566,W,2,10,0.8,292.5,M,-23.7,M,1.8,0000*4E
$GPGSA,A,3,11,23,26,01,13,08,03,07,28,19,,,1.5,0.8,1.2*35
$GPRMC,022204.000,A,3351.4548,N,09832.0566,W,0.15,128.72,030412,,,D*7D
$GPGGA,022205.000,3351.4547,N,09832.0566,W,2,10,0.8,292.4,M,-23.7,M,0.8,0000*40
$GPGSA,A,3,11,23,26,01,13,08,03,07,28,19,,,1.5,0.8,1.2*35
$GPGSV,3,1,12,07,73,053,25,08,49,327,41,19,46,053,32,13,38,183,34*75
$GPGSV,3,2,12,28,34,273,34,11,34,120,28,01,17,135,25,17,12,208,21*72
$GPGSV,3,3,12,03,12,043,34,26,11,322,30,23,10,167,19,06,01,040,*75
$GPRMC,022205.000,A,3351.4547,N,09832.0566,W,0.13,167.52,030412,,,D*7C
$GPGGA,022206.000,3351.4547,N,09832.0566,W,2,10,0.8,292.4,M,-23.7,M,0.8,0000*43
$GPGSA,A,3,11,23,26,01,13,08,03,07,28,19,,,1.5,0.8,1.2*35
$GPRMC,022206.000,A,3351.4547,N,09832.0566,W,0.05,120.24,030412,,,D*7A
$GPGGA,022207.000,3351.4547,N,09832.0567,W,2,10,0.8,292.3,M,-23.7,M,0.8,0000*44
$GPGSA,A,3,11,23,26,01,13,08,03,07,28,19,,,1.5,0.8,1.2*35
$GPRMC,022207.000,A,3351.4547,N,09832.0567,W,0.10,155.03,030412,,,D*79
$GPGGA,022208.000,3351.4547,N,09832.0567,W,2,10,0.8,292.3,M,-23.7,M,1.8,0000*4A
$GPGSA,A,3,11,23,26,01,13,08,03,07,28,19,,,1.5,0.8,1.2*35
$GPRMC,022208.000,A,3351.4547,N,09832.0567,W,0.07,78.97,030412,,,D*43
$GPGGA,022209.000,3351.4548,N,09832.0567,W,2,10,0.8,292.3,M,-23.7,M,2.8,0000*47
$GPGSA,A,3,11,23,26,01,13,08,03,07,28,19,,,1.5,0.8,1.2*35
$GPRMC,022209.000,A,3351.4548,N,09832.0567,W,0.10,68.56,030412,,,D*47
$GPGGA,022210.000,3351.4548,N,09832.0567,W,2,10,0.8,292.3,M,-23.7,M,3.8,0000*4E
$GPGSA,A,3,11,23,26,01,13,08,03,07,28,19,,,1.5,0.8,1.2*35
$GPGSV,3,1,12,07,73,053,25,08,49,327,41,19,46,053,32,13,38,183,34*75
$GPGSV,3,2,12,28,34,273,34,11,34,120,27,01,17,135,24,17,12,208,21*7C
$GPGSV,3,3,12,03,12,043,33,26,11,322,30,23,10,167,20,06,01,040,*78
$GPRMC,022210.000,A,3351.4548,N,09832.0567,W,0.07,52.22,030412,,,D*43
$GPGGA,022211.000,3351.4548,N,09832.0567,W,2,10,0.8,292.3,M,-23.7,M,4.8,0000*48
$GPGSA,A,3,11,23,26,01,13,08,03,07,28,19,,,1.5,0.8,1.2*35
$GPRMC,022211.000,A,3351.4548,N,09832.0567,W,0.09,143.69,030412,,,D*72
$GPGGA,022212.000,3351.4548,N,09832.0566,W,2,10,0.8,292.3,M,-23.7,M,0.8,0000*4E
$GPGSA,A,3,11,23,26,01,13,08,03,07,28,19,,,1.5,0.8,1.2*35
$GPRMC,022212.000,A,3351.4548,N,09832.0566,W,0.08,74.29,030412,,,D*40
$GPGGA,022213.000,3351.4548,N,09832.0567,W,2,10,0.8,292.3,M,-23.7,M,0.8,0000*4E
$GPGSA,A,3,11,23,26,01,13,08,03,07,28,19,,,1.5,0.8,1.2*35
$GPRMC,022213.000,A,3351.4548,N,09832.0567,W,0.10,148.42,030412,,,D*7A
$GPGGA,022214.000,3351.4548,N,09832.0566,W,2,10,0.8,292.3,M,-23.7,M,0.8,0000*48
$GPGSA,A,3,11,23,26,01,13,08,03,07,28,19,,,1.5,0.8,1.2*35
$GPRMC,022214.000,A,3351.4548,N,09832.0566,W,0.15,105.03,030412,,,D*75
$GPGGA,022215.000,3351.4548,N,09832.0566,W,2,10,0.8,292.3,M,-23.7,M,1.8,0000*48
$GPGSA,A,3,11,23,26,01,13,08,03,07,28,19,,,1.5,0.8,1.2*35
$GPGSV,3,1,12,07,73,053,25,08,49,327,41,19,46,053,32,13,38,183,34*75
$GPGSV,3,2,12,28,34,273,34,11,34,120,27,01,17,135,24,17,12,208,21*7C
$GPGSV,3,3,12,03,12,043,33,26,11,322,30,23,10,167,21,06,01,040,*79
$GPRMC,022215.000,A,3351.4548,N,09832.0566,W,0.12,141.35,030412,,,D*76
$GPGGA,022216.000,3351.4548,N,09832.0566,W,2,10,0.8,292.3,M,-23.7,M,2.8,0000*48
$GPGSA,A,3,11,23,26,01,13,08,03,07,28,19,,,1.5,0.8,1.2*35
$GPRMC,022216.000,A,3351.4548,N,09832.0566,W,0.04,97.15,030412,,,D*4A
$GPGGA,022217.000,3351.4548,N,09832.0567,W,2,10,0.8,292.4,M,-23.7,M,3.8,0000*4E
$GPGSA,A,3,11,23,26,01,13,08,03,07,28,19,,,1.5,0.8,1.2*35
$GPRMC,022217.000,A,3351.4548,N,09832.0567,W,0.11,44.51,030412,,,D*40
$GPGGA,022218.000,3351.4548,N,09832.0567,W,2,10,0.8,292.3,M,-23.7,M,0.8,0000*45
$GPGSA,A,3,11,23,26,01,13,08,03,07,28,19,,,1.5,0.8,1.2*35
$GPRMC,022218.000,A,3351.4548,N,09832.0567,W,0.04,156.37,030412,,,D*79
$GPGGA,022219.000,3351.4549,N,09832.0567,W,2,10,0.8,292.4,M,-23.7,M,0.8,0000*42
$GPGSA,A,3,11,23,26,01,13,08,03,07,28,19,,,1.5,0.8,1.2*35
$GPRMC,022219.000,A,3351.4549,N,09832.0567,W,0.09,43.68,030412,,,D*4B
$GPGGA,022220.000,3351.4549,N,09832.0567,W,2,10,0.8,292.4,M,-23.7,M,0.8,0000*48
$GPGSA,A,3,11,23,26,01,13,08,03,07,28,19,,,1.5,0.8,1.2*35
$GPGSV,3,1,12,07,73,053,24,08,49,327,41,19,46,053,32,13,38,183,34*74
$GPGSV,3,2,12,28,34,273,34,11,34,120,27,01,17,135,24,17,12,208,21*7C
$GPGSV,3,3,12,03,12,043,33,26,11,322,31,23,10,167,21,06,01,040,*78
$GPRMC,022220.000,A,3351.4549,N,09832.0567,W,0.13,82.61,030412,,,D*4E
$GPGGA,022221.000,3351.4549,N,09832.0567,W,2,10,0.8,292.4,M,-23.7,M,1.8,0000*48
$GPGSA,A,3,11,23,26,01,13,08,03,07,28,19,,,1.5,0.8,1.2*35
$GPRMC,022221.000,A,3351.4549,N,09832.0567,W,0.13,115.78,030412,,,D*78
$GPGGA,022222.000,3351.4549,N,09832.0567,W,2,10,0.8,292.3,M,-23.7,M,2.8,0000*4F
$GPGSA,A,3,11,23,26,01,13,08,03,07,28,19,,,1.5,0.8,1.2*35
$GPRMC,022222.000,A,3351.4549,N,09832.0567,W,0.14,142.89,030412,,,D*70
$GPGGA,022223.000,3351.4549,N,09832.0567,W,2,10,0.8,292.4,M,-23.7,M,3.8,0000*48
$GPGSA,A,3,11,23,26,01,13,08,03,07,28,19,,,1.5,0.8,1.2*35
$GPRMC,022223.000,A,3351.4549,N,09832.0567,W,0.13,68.95,030412,,,D*42
$GPGGA,022224.000,3351.4549,N,09832.0566,W,2,10,0.8,292.4,M,-23.7,M,0.8,0000*4D
