$GPGGA,021212.000,3353.7477,N,09832.0283,W,2,07,1.5,325.3,M,-23.7,M,0.8,0000*4A
$GPGSA,A,3,01,11,23,07,08,13,19,,,,,,3.0,1.5,2.5*37
$GPRMC,021212.000,A,3353.7477,N,09832.0283,W,0.29,141.43,040412,,,D*7C
$GPGGA,021213.000,3353.7477,N,09832.0283,W,2,07,1.5,325.6,M,-23.7,M,0.8,0000*4E
$GPGSA,A,3,01,11,23,07,08,13,19,,,,,,3.0,1.5,2.5*37
$GPGSV,3,1,12,07,73,044,31,19,48,056,38,08,47,325,27,13,40,183,34*74
$GPGSV,3,2,12,28,33,270,16,11,32,123,33,01,15,136,21,03,14,043,*71
$GPGSV,3,3,12,23,13,168,36,17,10,208,,26,09,323,,06,03,040,*70
$GPRMC,021213.000,A,3353.7477,N,09832.0283,W,0.31,133.83,040412,,,D*7D
$GPGGA,021214.000,3353.7476,N,09832.0284,W,2,07,1.5,326.0,M,-23.7,M,0.8,0000*4A
$GPGSA,A,3,01,11,23,07,08,13,19,,,,,,3.0,1.5,2.5*37
$GPRMC,021214.000,A,3353.7476,N,09832.0284,W,0.14,227.65,040412,,,D*75
$GPGGA,021215.000,3353.7476,N,09832.0286,W,2,07,1.5,326.4,M,-23.7,M,0.8,0000*4D
$GPGSA,A,3,01,11,23,07,08,13,19,,,,,,3.0,1.5,2.5*37
$GPRMC,021215.000,A,3353.7476,N,09832.0286,W,0.22,242.90,040412,,,D*7A
$GPGGA,021216.000,3353.7476,N,09832.0287,W,2,07,1.5,326.8,M,-23.7,M,0.8,0000*43
$GPGSA,A,3,01,11,23,07,08,13,19,,,,,,3.0,1.5,2.5*37
$GPRMC,021216.000,A,3353.7476,N,09832.0287,W,0.21,245.46,040412,,,D*77
$GPGGA,021217.000,3353.7475,N,09832.0288,W,2,07,1.5,327.6,M,-23.7,M,1.8,0000*40
$GPGSA,A,3,01,11,23,07,08,13,19,,,,,,3.0,1.5,2.5*37
$GPRMC,021217.000,A,3353.7475,N,09832.0288,W,0.22,235.09,040412,,,D*75
$GPGGA,021218.000,3353.7475,N,09832.0289,W,2,07,1.5,328.8,M,-23.7,M,0.8,0000*4E
$GPGSA,A,3,01,11,23,07,08,13,19,,,,,,3.0,1.5,2.5*37
$GPGSV,3,1,12,07,73,044,30,19,48,056,38,08,47,325,27,13,40,183,34*75
$GPGSV,3,2,12,28,33,271,19,11,32,122,33,01,15,136,21,03,14,043,*7E
$GPGSV,3,3,12,23,13,168,35,17,10,208,,26,09,323,,06,03,040,*73
$GPRMC,021218.000,A,3353.7475,N,09832.0289,W,0.13,174.85,040412,,,D*7B
$GPGGA,021219.000,3353.7474,N,09832.0289,W,2,08,1.2,329.8,M,-23.7,M,0.8,0000*47
$GPGSA,A,3,01,11,23,03,07,08,13,19,,,,,2.1,1.2,1.7*32
$GPRMC,021219.000,A,3353.7474,N,09832.0289,W,0.27,175.11,040412,,,D*70
$GPGGA,021220.000,3353.7473,N,09832.0289,W,2,08,1.2,330.8,M,-23.7,M,0.8,0000*42
$GPGSA,A,3,01,11,23,03,07,08,13,19,,,,,2.1,1.2,1.7*32
$GPRMC,021220.000,A,3353.7473,N,09832.0289,W,0.32,166.09,040412,,,D*72
$GPGGA,021221.000,3353.7472,N,09832.0289,W,2,08,1.2,331.8,M,-23.7,M,0.8,0000*43
$GPGSA,A,3,01,11,23,03,07,08,13,19,,,,,2.1,1.2,1.7*32
$GPRMC,021221.000,A,3353.7472,N,09832.0289,W,0.31,196.99,040412,,,D*77
$GPGGA,021222.000,3353.7471,N,09832.0289,W,2,08,1.2,332.7,M,-23.7,M,1.8,0000*4E
$GPGSA,A,3,01,11,23,03,07,08,13,19,,,,,2.1,1.2,1.7*32
$GPRMC,021222.000,A,3353.7471,N,09832.0289,W,0.27,170.57,040412,,,D*7A
$GPGGA,021223.000,3353.7471,N,09832.0288,W,2,08,1.2,333.2,M,-23.7,M,2.8,0000*49
$GPGSA,A,3,01,11,23,03,07,08,13,19,,,,,2.1,1.2,1.7*32
$GPGSV,3,1,12,07,73,044,31,19,48,056,38,08,47,325,27,13,40,183,34*74
$GPGSV,3,2,12,28,33,271,20,11,32,122,33,01,15,136,21,03,14,043,16*73
$GPGSV,3,3,12,23,13,168,35,17,10,208,,26,09,323,,06,03,040,*73
$GPRMC,021223.000,A,3353.7471,N,09832.0288,W,0.42,117.77,040412,,,D*7A
$GPGGA,021224.000,3353.7471,N,09832.0288,W,2,08,1.2,333.7,M,-23.7,M,0.8,0000*49
$GPGSA,A,3,01,11,23,03,07,08,13,19,,,,,2.1,1.2,1.7*32
$GPRMC,021224.000,A,3353.7471,N,09832.0288,W,0.19,122.38,040412,,,D*7E
$GPGGA,021225.000,3353.7472,N,09832.0287,W,2,08,1.2,334.1,M,-23.7,M,1.8,0000*44
$GPGSA,A,3,01,11,23,03,07,08,13,19,,,,,2.1,1.2,1.7*32
$GPRMC,021225.000,A,3353.7472,N,09832.0287,W,0.14,122.12,040412,,,D*76
$GPGGA,021226.000,3353.7471,N,09832.0288,W,2,08,1.2,334.9,M,-23.7,M,0.8,0000*42
$GPGSA,A,3,01,11,23,03,07,08,13,19,,,,,2.1,1.2,1.7*32
$GPRMC,021226.000,A,3353.7471,N,09832.0288,W,0.32,215.28,040412,,,D*73
$GPGGA,021227.000,3353.7471,N,09832.0289,W,2,08,1.2,335.3,M,-23.7,M,1.8,0000*48
$GPGSA,A,3,01,11,23,03,07,08,13,19,,,,,2.1,1.2,1.7*32
$GPRMC,021227.000,A,3353.7471,N,09832.0289,W,0.12,189.41,040412,,,D*78
$GPGGA,021228.000,3353.7471,N,09832.0289,W,2,08,1.2,335.8,M,-23.7,M,2.8,0000*4F
$GPGSA,A,3,01,11,23,03,07,08,13,19,,,,,2.1,1.2,1.7*32
$GPGSV,3,1,12,07,73,044,31,19,48,056,37,08,47,325,28,13,40,183,34*74
$GPGSV,3,2,12,28,33,271,20,11,32,122,33,01,15,136,22,03,14,043,18*7E
$GPGSV,3,3,12,23,13,168,35,17,10,208,,26,09,323,,06,03,040,*73
$GPRMC,021228.000,A,3353.7471,N,09832.0289,W,0.22,199.01,040412,,,D*71
$GPGGA,021229.000,3353.7471,N,09832.0290,W,2,08,1.2,336.2,M,-23.7,M,0.8,0000*4D
$GPGSA,A,3,01,11,23,03,07,08,13,19,,,,,2.1,1.2,1.7*32
$GPRMC,021229.000,A,3353.7471,N,09832.0290,W,0.18,188.17,040412,,,D*76
$GPGGA,021230.000,3353.7471,N,09832.0290,W,2,08,1.2,336.6,M,-23.7,M,0.8,0000*41
$GPGSA,A,3,01,11,23,03,07,08,13,19,,,,,2.1,1.2,1.7*32
$GPRMC,021230.000,A,3353.7471,N,09832.0290,W,0.17,173.57,040412,,,D*71
$GPGGA,021231.000,3353.7471,N,09832.0290,W,2,08,1.2,337.0,M,-23.7,M,0.8,0000*47
$GPGSA,A,3,01,11,23,03,07,08,13,19,,,,,2.1,1.2,1.7*32
$GPRMC,021231.000,A,3353.7471,N,09832.0290,W,0.08,194.16,040412,,,D*72
$GPGGA,021232.000,3353.7471,N,09832.0289,W,2,08,1.2,337.2,M,-23.7,M,0.8,0000*4E
$GPGSA,A,3,01,11,23,03,07,08,13,19,,,,,2.1,1.2,1.7*32
$GPRMC,021232.000,A,3353.7471,N,09832.0289,W,0.17,92.42,040412,,,D*41
$GPGGA,021233.000,3353.7471,N,09832.0289,W,2,08,1.2,337.6,M,-23.7,M,1.8,0000*4A
$GPGSA,A,3,01,11,23,03,07,08,13,19,,,,,2.1,1.2,1.7*32
$GPGSV,3,1,12,07,73,044,31,19,48,056,37,08,47,325,29,13,40,183,34*75
$GPGSV,3,2,12,28,33,271,21,11,32,122,33,01,15,136,22,03,14,043,19*7E
$GPGSV,3,3,12,23,13,168,35,17,10,208,,26,09,323,,06,03,040,*73
$GPRMC,021233.000,A,3353.7471,N,09832.0289,W,0.29,148.18,040412,,,D*74
$GPGGA,021234.000,3353.7471,N,09832.0288,W,2,08,1.2,337.8,M,-23.7,M,0.8,0000*43
$GPGSA,A,3,01,11,23,03,07,08,13,19,,,,,2.1,1.2,1.7*32
$GPRMC,021234.000,A,3353.7471,N,09832.0288,W,0.23,109.40,040412,,,D*70
$GPGGA,021235.000,3353.7471,N,09832.0287,W,2,08,1.2,338.0,M,-23.7,M,0.8,0000*4A
$GPGSA,A,3,01,11,23,03,07,08,13,19,,,,,2.1,1.2,1.7*32
$GPRMC,021235.000,A,3353.7471,N,09832.0287,W,0.26,126.86,040412,,,D*7C
$GPGGA,021236.000,3353.7471,N,09832.0287,W,2,08,1.2,338.2,M,-23.7,M,0.8,0000*4B
$GPGSA,A,3,01,11,23,03,07,08,13,19,,,,,2.1,1.2,1.7*32
$GPRMC,021236.000,A,3353.7471,N,09832.0287,W,0.17,199.35,040412,,,D*71
$GPGGA,021237.000,3353.7471,N,09832.0286,W,2,08,1.2,338.3,M,-23.7,M,0.8,0000*4A
$GPGSA,A,3,01,11,23,03,07,08,13,19,,,,,2.1,1.2,1.7*32
$GPRMC,021237.000,A,3353.7471,N,09832.0286,W,0.07,97.41,040412,,,D*4C
$GPGGA,021238.000,3353.7471,N,09832.0287,W,2,08,1.2,338.6,M,-23.7,M,0.8,0000*41
$GPGSA,A,3,01,11,23,03,07,08,13,19,,,,,2.1,1.2,1.7*32
$GPGSV,3,1,12,07,73,044,31,19,48,056,37,08,47,325,30,13,40,183,34*7D
$GPGSV,3,2,12,28,33,271,22,11,32,122,33,01,15,136,22,03,14,043,20*77
$GPGSV,3,3,12,23,13,168,35,17,10,208,16,26,09,323,,06,03,040,*74
$GPRMC,021238.000,A,3353.7471,N,09832.0287,W,0.25,222.12,040412,,,D*78
$GPGGA,021239.000,3353.7471,N,09832.0287,W,2,08,1.2,338.7,M,-23.7,M,1.8,0000*40
$GPGSA,A,3,01,11,23,03,07,08,13,19,,,,,2.1,1.2,1.7*32
$GPRMC,021239.000,A,3353.7471,N,09832.0287,W,0.05,200.83,040412,,,D*73
$GPGGA,021240.000,3353.7471,N,09832.0287,W,2,08,1.2,338.7,M,-23.7,M,2.8,0000*4D
$GPGSA,A,3,01,11,23,03,07,08,13,19,,,,,2.1,1.2,1.7*32
$GPRMC,021240.000,A,3353.7471,N,09832.0287,W,0.08,107.80,040412,,,D*77
$GPGGA,021241.000,3353.7472,N,09832.0287,W,2,08,1.2,338.7,M,-23.7,M,0.8,0000*4D
$GPGSA,A,3,01,11,23,03,07,08,13,19,,,,,2.1,1.2,1.7*32
$GPRMC,021241.000,A,3353.7472,N,09832.0287,W,0.07,55.88,040412,,,D*44
$GPGGA,021242.000,3353.7472,N,09832.0287,W,2,08,1.2,338.8,M,-23.7,M,0.8,0000*41
$GPGSA,A,3,01,11,23,03,07,08,13,19,,,,,2.1,1.2,1.7*32
$GPRMC,021242.000,A,3353.7472,N,09832.0287,W,0.06,317.19,040412,,,D*7B
$GPGGA,021243.000,3353.7472,N,09832.0287,W,2,08,1.2,338.8,M,-23.7,M,0.8,0000*40
$GPGSA,A,3,01,11,23,03,07,08,13,19,,,,,2.1,1.2,1.7*32
$GPGSV,3,1,12,07,73,044,31,19,48,056,37,08,47,325,30,13,40,183,34*7D
$GPGSV,3,2,12,28,33,271,23,11,32,122,33,01,15,136,21,03,14,043,21*74
$GPGSV,3,3,12,23,13,168,35,17,10,208,17,26,09,323,,06,03,040,*75
$GPRMC,021243.000,A,3353.7472,N,09832.0287,W,0.13,0.94,040412,,,D*7E
$GPGGA,021244.000,3353.7472,N,09832.0286,W,2,08,1.2,339.1,M,-23.7,M,0.8,0000*4E
$GPGSA,A,3,01,11,23,03,07,08,13,19,,,,,2.1,1.2,1.7*32
$GPRMC,021244.000,A,3353.7472,N,09832.0286,W,0.11,236.06,040412,,,D*76
$GPGGA,021245.000,3353.7473,N,09832.0286,W,2,08,1.2,339.0,M,-23.7,M,0.8,0000*4F
$GPGSA,A,3,01,11,23,03,07,08,13,19,,,,,2.1,1.2,1.7*32
$GPRMC,021245.000,A,3353.7473,N,09832.0286,W,0.18,62.70,040412,,,D*4D
$GPGGA,021246.000,3353.7473,N,09832.0285,W,2,08,1.2,339.1,M,-23.7,M,0.8,0000*4E
$GPGSA,A,3,01,11,23,03,07,08,13,19,,,,,2.1,1.2,1.7*32
$GPRMC,021246.000,A,3353.7473,N,09832.0285,W,0.23,125.34,040412,,,D*77
$GPGGA,021247.000,3353.7472,N,09832.0283,W,2,08,1.2,339.0,M,-23.7,M,1.8,0000*48
$GPGSA,A,3,01,11,23,03,07,08,13,19,,,,,2.1,1.2,1.7*32
$GPRMC,021247.000,A,3353.7472,N,09832.0283,W,0.28,111.79,040412,,,D*74
$GPGGA,021248.000,3353.7473,N,09832.0282,W,2,08,1.2,338.9,M,-23.7,M,0.8,0000*4E
$GPGSA,A,3,01,11,23,03,07,08,13,19,,,,,2.1,1.2,1.7*32
$GPGSV,3,1,12,07,73,045,31,08,48,325,30,19,47,056,37,13,40,183,34*7C
$GPGSV,3,2,12,28,33,271,23,11,32,122,33,01,16,136,21,03,14,043,23*75
$GPGSV,3,3,12,23,12,168,35,17,10,208,18,26,09,323,,06,03,040,*7B
$GPRMC,021248.000,A,3353.7473,N,09832.0282,W,0.21,69.37,040412,,,D*46
$GPGGA,021249.000,3353.7473,N,09832.0282,W,2,08,1.2,338.8,M,-23.7,M,0.8,0000*4E
$GPGSA,A,3,01,11,23,03,07,08,13,19,,,,,2.1,1.2,1.7*32
$GPRMC,021249.000,A,3353.7473,N,09832.0282,W,0.12,55.03,040412,,,D*4F
$GPGGA,021250.000,3353.7473,N,09832.0282,W,2,08,1.2,338.8,M,-23.7,M,0.8,0000*46
$GPGSA,A,3,01,11,23,03,07,08,13,19,,,,,2.1,1.2,1.7*32
$GPRMC,021250.000,A,3353.7473,N,09832.0282,W,0.09,309.31,040412,,,D*76
$GPGGA,021251.000,3353.7473,N,09832.0282,W,2,08,1.2,338.8,M,-23.7,M,1.8,0000*46
$GPGSA,A,3,01,11,23,03,07,08,13,19,,,,,2.1,1.2,1.7*32
$GPRMC,021251.000,A,3353.7473,N,09832.0282,W,0.10,341.84,040412,,,D*7D
$GPGGA,021252.000,3353.7474,N,09832.0282,W,2,08,1.2,338.6,M,-23.7,M,2.8,0000*4F
$GPGSA,A,3,01,11,23,03,07,08,13,19,,,,,2.1,1.2,1.7*32
$GPRMC,021252.000,A,3353.7474,N,09832.0282,W,0.09,335.63,040412,,,D*7B
$GPGGA,021253.000,3353.7474,N,09832.0282,W,2,08,1.2,338.8,M,-23.7,M,3.8,0000*41
$GPGSA,A,3,01,11,23,03,07,08,13,19,,,,,2.1,1.2,1.7*32
$GPGSV,3,1,12,07,73,045,32,08,48,325,30,19,47,056,37,13,40,183,34*7F
$GPGSV,3,2,12,28,33,271,23,11,32,122,34,01,16,136,20,03,14,043,24*74
$GPGSV,3,3,12,23,12,168,35,17,10,208,18,26,09,323,,06,03,040,*7B
$GPRMC,021253.000,A,3353.7474,N,09832.0282,W,0.20,253.10,040412,,,D*74
$GPGGA,021254.000,3353.7474,N,09832.0283,W,2,08,1.2,338.9,M,-23.7,M,0.8,0000*45
$GPGSA,A,3,01,11,23,03,07,08,13,19,,,,,2.1,1.2,1.7*32
$GPRMC,021254.000,A,3353.7474,N,09832.0283,W,0.15,275.36,040412,,,D*74
$GPGGA,021255.000,3353.7473,N,09832.0283,W,2,08,1.2,338.9,M,-23.7,M,0.8,0000*43
$GPGSA,A,3,01,11,23,03,07,08,13,19,,,,,2.1,1.2,1.7*32
$GPRMC,021255.000,A,3353.7473,N,09832.0283,W,0.15,194.20,040412,,,D*79
$GPGGA,021256.000,3353.7474,N,09832.0282,W,2,08,1.2,338.7,M,-23.7,M,0.8,0000*48
$GPGSA,A,3,01,11,23,03,07,08,13,19,,,,,2.1,1.2,1.7*32
$GPRMC,021256.000,A,3353.7474,N,09832.0282,W,0.14,63.80,040412,,,D*4E
$GPGGA,021257.000,3353.7474,N,09832.0282,W,2,08,1.2,338.6,M,-23.7,M,1.8,0000*49
$GPGSA,A,3,01,11,23,03,07,08,13,19,,,,,2.1,1.2,1.7*32
$GPRMC,021257.000,A,3353.7474,N,09832.0282,W,0.06,358.53,040412,,,D*79
$GPGGA,021258.000,3353.7474,N,09832.0282,W,2,08,1.2,338.4,M,-23.7,M,2.8,0000*47
$GPGSA,A,3,01,11,23,03,07,08,13,19,,,,,2.1,1.2,1.7*32
$GPGSV,3,1,12,07,73,045,32,08,48,325,29,19,47,056,37,13,40,183,34*77
$GPGSV,3,2,12,28,33,271,23,11,32,122,34,01,16,136,20,03,14,043,24*74
$GPGSV,3,3,12,23,12,168,35,17,10,208,19,26,09,323,,06,03,040,*7A
$GPRMC,021258.000,A,3353.7474,N,09832.0282,W,0.18,90.06,040412,,,D*4E
$GPGGA,021259.000,3353.7474,N,09832.0281,W,2,08,1.2,338.2,M,-23.7,M,0.8,0000*41
$GPGSA,A,3,01,11,23,03,07,08,13,19,,,,,2.1,1.2,1.7*32
$GPRMC,021259.000,A,3353.7474,N,09832.0281,W,0.16,130.35,040412,,,D*79
$GPGGA,021300.000,3353.7474,N,09832.0281,W,2,08,1.2,338.1,M,-23.7,M,1.8,0000*4E
$GPGSA,A,3,01,11,23,03,07,08,13,19,,,,,2.1,1.2,1.7*32
$GPRMC,021300.000,A,3353.7474,N,09832.0281,W,0.19,127.75,040412,,,D*79
$GPGGA,021301.000,3353.7475,N,09832.0280,W,2,08,1.2,337.9,M,-23.7,M,0.8,0000*49
$GPGSA,A,3,01,11,23,03,07,08,13,19,,,,,2.1,1.2,1.7*32
$GPRMC,021301.000,A,3353.7475,N,09832.0280,W,0.07,28.95,040412,,,D*47
$GPGGA,021302.000,3353.7475,N,09832.0280,W,2,08,1.2,337.9,M,-23.7,M,0.8,0000*4A
$GPGSA,A,3,01,11,23,03,07,08,13,19,,,,,2.1,1.2,1.7*32
$GPRMC,021302.000,A,3353.7475,N,09832.0280,W,0.08,325.75,040412,,,D*7B
$GPGGA,021303.000,3353.7475,N,09832.0280,W,2,08,1.2,337.9,M,-23.7,M,1.8,0000*4A
$GPGSA,A,3,01,11,23,03,07,08,13,19,,,,,2.1,1.2,1.7*32
$GPGSV,3,1,12,07,73,045,32,08,48,325,29,19,47,056,38,13,40,183,34*78
$GPGSV,3,2,12,28,33,271,23,11,32,122,34,01,16,136,20,03,14,043,24*74
$GPGSV,3,3,12,23,12,168,35,17,10,208,20,26,09,323,,06,03,040,*70
$GPRMC,021303.000,A,3353.7475,N,09832.0280,W,0.10,299.02,040412,,,D*75
$GPGGA,021304.000,3353.7475,N,09832.0280,W,2,08,1.2,337.9,M,-23.7,M,2.8,0000*4E
$GPGSA,A,3,01,11,23,03,07,08,13,19,,,,,2.1,1.2,1.7*32
$GPRMC,021304.000,A,3353.7475,N,09832.0280,W,0.08,134.20,040412,,,D*7F
$GPGGA,021305.000,3353.7475,N,09832.0280,W,2,08,1.2,337.9,M,-23.7,M,3.8,0000*4E
$GPGSA,A,3,01,11,23,03,07,08,13,19,,,,,2.1,1.2,1.7*32
$GPRMC,021305.000,A,3353.7475,N,09832.0280,W,0.02,180.56,040412,,,D*7A
$GPGGA,021306.000,3353.7475,N,09832.0280,W,2,08,1.2,337.9,M,-23.7,M,0.8,0000*4E
$GPGSA,A,3,01,11,23,03,07,08,13,19,,,,,2.1,1.2,1.7*32
$GPRMC,021306.000,A,3353.7475,N,09832.0280,W,0.13,127.94,040412,,,D*7A
$GPGGA,021307.000,3353.7475,N,09832.0280,W,2,08,1.2,337.8,M,-23.7,M,0.8,0000*4E
$GPGSA,A,3,01,11,23,03,07,08,13,19,,,,,2.1,1.2,1.7*32
$GPRMC,021307.000,A,3353.7475,N,09832.0280,W,0.13,159.52,040412,,,D*78
$GPGGA,021308.000,3353.7475,N,09832.0280,W,2,08,1.2,337.7,M,-23.7,M,0.8,0000*4E
$GPGSA,A,3,01,11,23,03,07,08,13,19,,,,,2.1,1.2,1.7*32
$GPGSV,3,1,12,07,73,045,32,08,48,325,28,19,47,056,38,13,40,183,33*7E
$GPGSV,3,2,12,28,33,271,23,11,32,122,34,01,16,136,21,03,14,043,24*75
$GPGSV,3,3,12,23,12,168,35,17,10,208,20,26,09,323,,06,03,040,*70
$GPRMC,021308.000,A,3353.7475,N,09832.0280,W,0.07,21.58,040412,,,D*46
$GPGGA,021309.000,3353.7475,N,09832.0280,W,2,08,1.2,337.5,M,-23.7,M,1.8,0000*4C
$GPGSA,A,3,01,11,23,03,07,08,13,19,,,,,2.1,1.2,1.7*32
$GPRMC,021309.000,A,3353.7475,N,09832.0280,W,0.05,67.75,040412,,,D*48
$GPGGA,021310.000,3353.7476,N,09832.0280,W,2,08,1.2,337.2,M,-23.7,M,2.8,0000*43
$GPGSA,A,3,01,11,23,03,07,08,13,19,,,,,2.1,1.2,1.7*32
$GPRMC,021310.000,A,3353.7476,N,09832.0280,W,0.16,60.62,040412,,,D*40
$GPGGA,021311.000,3353.7476,N,09832.0280,W,2,08,1.2,337.1,M,-23.7,M,3.8,0000*40
$GPGSA,A,3,01,11,23,03,07,08,13,19,,,,,2.1,1.2,1.7*32
$GPRMC,021311.000,A,3353.7476,N,09832.0280,W,0.07,290.14,040412,,,D*7D
$GPGGA,021312.000,3353.7476,N,09832.0280,W,2,08,1.2,337.0,M,-23.7,M,0.8,0000*41
$GPGSA,A,3,01,11,23,03,07,08,13,19,,,,,2.1,1.2,1.7*32
$GPRMC,021312.000,A,3353.7476,N,09832.0280,W,0.10,305.91,040412,,,D*78
$GPGGA,021313.000,3353.7477,N,09832.0280,W,2,08,1.2,336.8,M,-23.7,M,0.8,0000*48
$GPGSA,A,3,01,11,23,03,07,08,13,19,,,,,2.1,1.2,1.7*32
$GPGSV,3,1,12,07,73,045,32,08,48,326,28,19,47,056,38,13,40,183,33*7D
$GPGSV,3,2,12,28,33,271,23,11,33,122,34,01,16,136,22,03,13,043,25*71
$GPGSV,3,3,12,23,12,168,36,17,10,208,20,26,09,323,,06,03,040,*73
$GPRMC,021313.000,A,3353.7477,N,09832.0280,W,0.12,101.24,040412,,,D*72
$GPGGA,021314.000,3353.7477,N,09832.0280,W,2,08,1.2,336.8,M,-23.7,M,0.8,0000*4F
$GPGSA,A,3,01,11,23,03,07,08,13,19,,,,,2.1,1.2,1.7*32
$GPRMC,021314.000,A,3353.7477,N,09832.0280,W,0.12,257.18,040412,,,D*7A
$GPGGA,021315.000,3353.7477,N,09832.0280,W,2,08,1.2,336.7,M,-23.7,M,1.8,0000*40
$GPGSA,A,3,01,11,23,03,07,08,13,19,,,,,2.1,1.2,1.7*32
$GPRMC,021315.000,A,3353.7477,N,09832.0280,W,0.11,72.94,040412,,,D*49
$GPGGA,021316.000,3353.7477,N,09832.0280,W,2,08,1.2,336.7,M,-23.7,M,2.8,0000*40
$GPGSA,A,3,01,11,23,03,07,08,13,19,,,,,2.1,1.2,1.7*32
$GPRMC,021316.000,A,3353.7477,N,09832.0280,W,0.08,301.29,040412,,,D*73
$GPGGA,021317.000,3353.7477,N,09832.0281,W,2,08,1.2,336.7,M,-23.7,M,3.8,0000*41
$GPGSA,A,3,01,11,23,03,07,08,13,19,,,,,2.1,1.2,1.7*32
$GPRMC,021317.000,A,3353.7477,N,09832.0281,W,0.09,139.27,040412,,,D*75
$GPGGA,021318.000,3353.7477,N,09832.0281,W,2,08,1.2,336.6,M,-23.7,M,0.8,0000*4C
$GPGSA,A,3,01,11,23,03,07,08,13,19,,,,,2.1,1.2,1.7*32
$GPGSV,3,1,12,07,73,046,32,08,48,326,28,19,47,056,38,13,40,183,32*7F
$GPGSV,3,2,12,28,33,271,22,11,33,122,34,01,16,136,22,03,13,043,25*70
$GPGSV,3,3,12,23,12,168,36,17,10,208,21,26,09,323,,06,03,040,*72
$GPRMC,021318.000,A,3353.7477,N,09832.0281,W,0.03,359.73,040412,,,D*75
$GPGGA,021319.000,3353.7478,N,09832.0281,W,2,08,1.2,336.5,M,-23.7,M,0.8,0000*41
$GPGSA,A,3,01,11,23,03,07,08,13,19,,,,,2.1,1.2,1.7*32
$GPRMC,021319.000,A,3353.7478,N,09832.0281,W,0.07,317.43,040412,,,D*76
$GPGGA,021320.000,3353.7478,N,09832.0281,W,2,08,1.2,336.3,M,-23.7,M,0.8,0000*4D
$GPGSA,A,3,01,11,23,03,07,08,13,19,,,,,2.1,1.2,1.7*32
$GPRMC,021320.000,A,3353.7478,N,09832.0281,W,0.17,103.62,040412,,,D*79
$GPGGA,021321.000,3353.7478,N,09832.0281,W,2,08,1.2,336.1,M,-23.7,M,1.8,0000*4F
$GPGSA,A,3,01,11,23,03,07,08,13,19,,,,,2.1,1.2,1.7*32
$GPRMC,021321.000,A,3353.7478,N,09832.0281,W,0.06,21.00,040412,,,D*4D
$GPGGA,021322.000,3353.7479,N,09832.0281,W,2,08,1.2,335.8,M,-23.7,M,0.8,0000*46
$GPGSA,A,3,01,11,23,03,07,08,13,19,,,,,2.1,1.2,1.7*32
$GPRMC,021322.000,A,3353.7479,N,09832.0281,W,0.11,85.64,040412,,,D*45
$GPGGA,021323.000,3353.7479,N,09832.0281,W,2,08,1.2,335.6,M,-23.7,M,1.8,0000*48
$GPGSA,A,3,01,11,23,03,07,08,13,19,,,,,2.1,1.2,1.7*32
$GPGSV,3,1,12,07,73,046,32,08,48,326,27,19,47,056,38,13,40,183,31*73
$GPGSV,3,2,12,28,33,271,23,11,33,122,33,01,16,136,22,03,13,043,26*75
$GPGSV,3,3,12,23,12,168,36,17,10,208,21,26,09,323,,06,03,040,*72
$GPRMC,021323.000,A,3353.7479,N,09832.0281,W,0.07,86.06,040412,,,D*44
$GPGGA,021324.000,3353.7479,N,09832.0281,W,2,08,1.2,335.4,M,-23.7,M,0.8,0000*4C
$GPGSA,A,3,01,11,23,03,07,08,13,19,,,,,2.1,1.2,1.7*32
$GPRMC,021324.000,A,3353.7479,N,09832.0281,W,0.09,9.85,040412,,,D*71
$GPGGA,021325.000,3353.7480,N,09832.0281,W,2,08,1.2,335.1,M,-23.7,M,0.8,0000*4E
$GPGSA,A,3,01,11,23,03,07,08,13,19,,,,,2.1,1.2,1.7*32
$GPRMC,021325.000,A,3353.7480,N,09832.0281,W,0.15,42.10,040412,,,D*48
$GPGGA,021326.000,3353.7481,N,09832.0281,W,2,08,1.2,334.8,M,-23.7,M,0.8,0000*44
$GPGSA,A,3,01,11,23,03,07,08,13,19,,,,,2.1,1.2,1.7*32
$GPRMC,021326.000,A,3353.7481,N,09832.0281,W,0.22,44.14,040412,,,D*4C
$GPGGA,021327.000,3353.7481,N,09832.0281,W,2,08,1.2,334.6,M,-23.7,M,1.8,0000*4A
$GPGSA,A,3,01,11,23,03,07,08,13,19,,,,,2.1,1.2,1.7*32
$GPRMC,021327.000,A,3353.7481,N,09832.0281,W,0.19,62.38,040412,,,D*4F
$GPGGA,021328.000,3353.7481,N,09832.0281,W,2,08,1.2,334.5,M,-23.7,M,2.8,0000*45
$GPGSA,A,3,01,11,23,03,07,08,13,19,,,,,2.1,1.2,1.7*32
$GPGSV,3,1,12,07,73,046,32,08,48,326,27,19,47,056,38,13,40,183,30*72
$GPGSV,3,2,12,28,33,271,22,11,33,122,33,01,16,136,22,03,13,043,25*77
$GPGSV,3,3,12,23,12,168,37,17,10,208,20,26,09,323,,06,03,040,*72
$GPRMC,021328.000,A,3353.7481,N,09832.0281,W,0.07,85.59,040412,,,D*41
$GPGGA,021329.000,3353.7481,N,09832.0281,W,2,08,1.2,334.4,M,-23.7,M,3.8,0000*44
$GPGSA,A,3,01,11,23,03,07,08,13,19,,,,,2.1,1.2,1.7*32
$GPRMC,021329.000,A,3353.7481,N,09832.0281,W,0.13,32.56,040412,,,D*46
$GPGGA,021330.000,3353.7481,N,09832.0281,W,2,08,1.2,334.4,M,-23.7,M,4.8,0000*4B
$GPGSA,A,3,01,11,23,03,07,08,13,19,,,,,2.1,1.2,1.7*32
$GPRMC,021330.000,A,3353.7481,N,09832.0281,W,0.13,92.73,040412,,,D*43
$GPGGA,021331.000,3353.7481,N,09832.0281,W,2,08,1.2,334.4,M,-23.7,M,5.8,0000*4B
$GPGSA,A,3,01,11,23,03,07,08,13,19,,,,,2.1,1.2,1.7*32
$GPRMC,021331.000,A,3353.7481,N,09832.0281,W,0.11,100.46,040412,,,D*7C
$GPGGA,021332.000,3353.7481,N,09832.0281,W,2,08,1.2,334.3,M,-23.7,M,0.8,0000*4A
$GPGSA,A,3,01,11,23,03,07,08,13,19,,,,,2.1,1.2,1.7*32
$GPRMC,021332.000,A,3353.7481,N,09832.0281,W,0.10,291.69,040412,,,D*78
$GPGGA,021333.000,3353.7481,N,09832.0281,W,2,08,1.2,334.1,M,-23.7,M,0.8,0000*49
$GPGSA,A,3,01,11,23,03,07,08,13,19,,,,,2.1,1.2,1.7*32
$GPGSV,3,1,12,07,73,046,32,08,48,326,28,19,47,056,38,13,40,183,30*7D
$GPGSV,3,2,12,28,33,271,22,11,33,122,33,01,16,136,22,03,13,043,25*77
$GPGSV,3,3,12,23,12,168,37,17,10,208,20,26,09,323,,06,03,040,*72
$GPRMC,021333.000,A,3353.7481,N,09832.0281,W,0.19,56.20,040412,,,D*44
$GPGGA,021334.000,3353.7482,N,09832.0281,W,2,08,1.2,333.9,M,-23.7,M,1.8,0000*43
$GPGSA,A,3,01,11,23,03,07,08,13,19,,,,,2.1,1.2,1.7*32
$GPRMC,021334.000,A,3353.7482,N,09832.0281,W,0.13,82.11,040412,,,D*41
$GPGGA,021335.000,3353.7482,N,09832.0281,W,2,08,1.2,333.7,M,-23.7,M,2.8,0000*4F
$GPGSA,A,3,01,11,23,03,07,08,13,19,,,,,2.1,1.2,1.7*32
$GPRMC,021335.000,A,3353.7482,N,09832.0281,W,0.24,67.75,040412,,,D*4D
$GPGGA,021336.000,3353.7482,N,09832.0281,W,2,08,1.2,333.5,M,-23.7,M,0.8,0000*4C
$GPGSA,A,3,01,11,23,03,07,08,13,19,,,,,2.1,1.2,1.7*32
$GPRMC,021336.000,A,3353.7482,N,09832.0281,W,0.16,22.49,040412,,,D*41
$GPGGA,021337.000,3353.7483,N,09832.0281,W,2,08,1.2,333.5,M,-23.7,M,0.8,0000*4C
$GPGSA,A,3,01,11,23,03,07,08,13,19,,,,,2.1,1.2,1.7*32
$GPRMC,021337.000,A,3353.7483,N,09832.0281,W,0.16,283.75,040412,,,D*77
$GPGGA,021338.000,3353.7482,N,09832.0281,W,2,08,1.2,333.6,M,-23.7,M,0.8,0000*41
$GPGSA,A,3,01,11,23,03,07,08,13,19,,,,,2.1,1.2,1.7*32
$GPGSV,3,1,12,07,73,046,32,08,48,326,28,19,47,056,38,13,40,183,29*75
$GPGSV,3,2,12,28,33,271,23,11,33,122,33,01,16,136,22,03,13,043,25*76
$GPGSV,3,3,12,23,12,168,37,17,10,208,19,26,09,323,,06,03,040,*78
$GPRMC,021338.000,A,3353.7482,N,09832.0281,W,0.10,171.64,040412,,,D*71
$GPGGA,021339.000,3353.7482,N,09832.0281,W,2,08,1.2,333.5,M,-23.7,M,0.8,0000*43
$GPGSA,A,3,01,11,23,03,07,08,13,19,,,,,2.1,1.2,1.7*32
$GPRMC,021339.000,A,3353.7482,N,09832.0281,W,0.12,336.18,040412,,,D*78
$GPGGA,021340.000,3353.7483,N,09832.0281,W,2,08,1.2,333.4,M,-23.7,M,1.8,0000*4C
$GPGSA,A,3,01,11,23,03,07,08,13,19,,,,,2.1,1.2,1.7*32
$GPRMC,021340.000,A,3353.7483,N,09832.0281,W,0.17,2.10,040412,,,D*7E
$GPGGA,021341.000,3353.7482,N,09832.0281,W,2,08,1.2,333.5,M,-23.7,M,2.8,0000*4E
$GPGSA,A,3,01,11,23,03,07,08,13,19,,,,,2.1,1.2,1.7*32
$GPRMC,021341.000,A,3353.7482,N,09832.0281,W,0.15,123.44,040412,,,D*7F
$GPGGA,021342.000,3353.7482,N,09832.0281,W,2,08,1.2,333.5,M,-23.7,M,3.8,0000*4C
$GPGSA,A,3,01,11,23,03,07,08,13,19,,,,,2.1,1.2,1.7*32
$GPRMC,021342.000,A,3353.7482,N,09832.0281,W,0.11,82.34,040412,,,D*45
$GPGGA,021343.000,3353.7482,N,09832.0281,W,2,08,1.2,333.6,M,-23.7,M,4.8,0000*49
$GPGSA,A,3,01,11,23,03,07,08,13,19,,,,,2.1,1.2,1.7*32
$GPGSV,3,1,12,07,73,046,32,08,48,326,28,19,47,056,38,13,40,183,29*75
$GPGSV,3,2,12,28,33,271,24,11,33,122,32,01,16,136,21,03,13,043,24*72
$GPGSV,3,3,12,23,12,168,37,17,10,208,18,26,09,323,,06,03,040,*79
$GPRMC,021343.000,A,3353.7482,N,09832.0281,W,0.06,283.18,040412,,,D*7F
$GPGGA,021344.000,3353.7482,N,09832.0281,W,2,08,1.2,333.7,M,-23.7,M,5.8,0000*4E
$GPGSA,A,3,01,11,23,03,07,08,13,19,,,,,2.1,1.2,1.7*32
$GPRMC,021344.000,A,3353.7482,N,09832.0281,W,0.10,269.26,040412,,,D*76
$GPGGA,021345.000,3353.7482,N,09832.0281,W,2,08,1.2,333.9,M,-23.7,M,6.8,0000*42
$GPGSA,A,3,01,11,23,03,07,08,13,19,,,,,2.1,1.2,1.7*32
$GPRMC,021345.000,A,3353.7482,N,09832.0281,W,0.10,237.19,040412,,,D*70
$GPGGA,021346.000,3353.7481,N,09832.0281,W,2,08,1.2,334.1,M,-23.7,M,7.8,0000*4C
$GPGSA,A,3,01,11,23,03,07,08,13,19,,,,,2.1,1.2,1.7*32
$GPRMC,021346.000,A,3353.7481,N,09832.0281,W,0.07,270.66,040412,,,D*7D
$GPGGA,021347.000,3353.7481,N,09832.0281,W,2,08,1.2,334.1,M,-23.7,M,0.8,0000*4A
$GPGSA,A,3,01,11,23,03,07,08,13,19,,,,,2.1,1.2,1.7*32
$GPRMC,021347.000,A,3353.7481,N,09832.0281,W,0.11,123.04,040412,,,D*7A
$GPGGA,021348.000,3353.7481,N,09832.0281,W,2,08,1.2,334.2,M,-23.7,M,1.8,0000*47
$GPGSA,A,3,01,11,23,03,07,08,13,19,,,,,2.1,1.2,1.7*32
$GPGSV,3,1,12,07,73,046,33,08,48,326,28,19,47,056,38,13,40,183,29*74
$GPGSV,3,2,12,28,33,271,24,11,33,122,32,01,16,136,21,03,13,043,23*75
$GPGSV,3,3,12,23,12,168,37,17,10,208,18,26,09,323,,06,03,040,*79
$GPRMC,021348.000,A,3353.7481,N,09832.0281,W,0.21,129.20,040412,,,D*7A
$GPGGA,021349.000,3353.7481,N,09832.0280,W,2,08,1.2,334.1,M,-23.7,M,0.8,0000*45
$GPGSA,A,3,01,11,23,03,07,08,13,19,,,,,2.1,1.2,1.7*32
$GPRMC,021349.000,A,3353.7481,N,09832.0280,W,0.28,93.56,040412,,,D*42
$GPGGA,021350.000,3353.7482,N,09832.0280,W,2,08,1.2,333.9,M,-23.7,M,0.8,0000*41
$GPGSA,A,3,01,11,23,03,07,08,13,19,,,,,2.1,1.2,1.7*32
$GPRMC,021350.000,A,3353.7482,N,09832.0280,W,0.23,101.19,040412,,,D*73
$GPGGA,021351.000,3353.7482,N,09832.0279,W,2,08,1.2,333.9,M,-23.7,M,1.8,0000*47
$GPGSA,A,3,01,11,23,03,07,08,13,19,,,,,2.1,1.2,1.7*32
$GPRMC,021351.000,A,3353.7482,N,09832.0279,W,0.02,258.43,040412,,,D*77
$GPGGA,021352.000,3353.7482,N,09832.0280,W,2,08,1.2,333.8,M,-23.7,M,2.8,0000*40
$GPGSA,A,3,01,11,23,03,07,08,13,19,,,,,2.1,1.2,1.7*32
$GPRMC,021352.000,A,3353.7482,N,09832.0280,W,0.07,339.80,040412,,,D*7E
$GPGGA,021353.000,3353.7483,N,09832.0280,W,2,08,1.2,333.5,M,-23.7,M,3.8,0000*4C
$GPGSA,A,3,01,11,23,03,07,08,13,19,,,,,2.1,1.2,1.7*32
$GPGSV,3,1,12,07,73,046,33,08,48,326,28,19,47,056,38,13,40,183,29*74
$GPGSV,3,2,12,28,33,271,23,11,33,122,32,01,16,136,20,03,13,043,23*73
$GPGSV,3,3,12,23,12,168,37,17,10,208,18,26,09,323,,06,03,040,*79
$GPRMC,021353.000,A,3353.7483,N,09832.0280,W,0.16,31.03,040412,,,D*4E
$GPGGA,021354.000,3353.7483,N,09832.0280,W,2,08,1.2,333.5,M,-23.7,M,0.8,0000*48
$GPGSA,A,3,01,11,23,03,07,08,13,19,,,,,2.1,1.2,1.7*32
$GPRMC,021354.000,A,3353.7483,N,09832.0280,W,0.07,137.13,040412,,,D*7F
$GPGGA,021355.000,3353.7483,N,09832.0280,W,2,08,1.2,333.4,M,-23.7,M,1.8,0000*49
$GPGSA,A,3,01,11,23,03,07,08,13,19,,,,,2.1,1.2,1.7*32
$GPRMC,021355.000,A,3353.7483,N,09832.0280,W,0.16,141.90,040412,,,D*74
$GPGGA,021356.000,3353.7483,N,09832.0279,W,2,08,1.2,333.3,M,-23.7,M,2.8,0000*48
$GPGSA,A,3,01,11,23,03,07,08,13,19,,,,,2.1,1.2,1.7*32
$GPRMC,021356.000,A,3353.7483,N,09832.0279,W,0.21,128.03,040412,,,D*70
$GPGGA,021357.000,3353.7484,N,09832.0280,W,2,08,1.2,333.1,M,-23.7,M,3.8,0000*4B
$GPGSA,A,3,01,11,23,03,07,08,13,19,,,,,2.1,1.2,1.7*32
$GPRMC,021357.000,A,3353.7484,N,09832.0280,W,0.09,23.49,040412,,,D*4E
$GPGGA,021358.000,3353.7484,N,09832.0280,W,2,08,1.2,332.8,M,-23.7,M,4.8,0000*4B
$GPGSA,A,3,01,11,23,03,07,08,13,19,,,,,2.1,1.2,1.7*32
$GPGSV,3,1,12,07,73,046,33,08,48,326,27,19,47,056,38,13,40,183,29*7B
$GPGSV,3,2,12,28,33,271,22,11,33,122,32,01,16,136,20,03,13,043,22*73
$GPGSV,3,3,12,23,12,168,37,17,10,208,17,26,09,323,,06,03,040,*76
$GPRMC,021358.000,A,3353.7484,N,09832.0280,W,0.16,5.33,040412,,,D*76
$GPGGA,021359.000,3353.7485,N,09832.0280,W,2,08,1.2,332.4,M,-23.7,M,5.8,0000*46
$GPGSA,A,3,01,11,23,03,07,08,13,19,,,,,2.1,1.2,1.7*32
$GPRMC,021359.000,A,3353.7485,N,09832.0280,W,0.18,22.04,040412,,,D*49
$GPGGA,021400.000,3353.7486,N,09832.0280,W,2,08,1.2,332.0,M,-23.7,M,0.8,0000*4F
$GPGSA,A,3,01,11,23,03,07,08,13,19,,,,,2.1,1.2,1.7*32
$GPRMC,021400.000,A,3353.7486,N,09832.0280,W,0.20,359.04,040412,,,D*75
$GPGGA,021401.000,3353.7487,N,09832.0280,W,2,08,1.2,331.9,M,-23.7,M,1.8,0000*44
$GPGSA,A,3,01,11,23,03,07,08,13,19,,,,,2.1,1.2,1.7*32
$GPRMC,021401.000,A,3353.7487,N,09832.0280,W,0.16,328.04,040412,,,D*76
$GPGGA,021402.000,3353.7487,N,09832.0280,W,2,08,1.2,331.9,M,-23.7,M,2.8,0000*44
$GPGSA,A,3,01,11,23,03,07,08,13,19,,,,,2.1,1.2,1.7*32
$GPRMC,021402.000,A,3353.7487,N,09832.0280,W,0.04,300.88,040412,,,D*78
$GPGGA,021403.000,3353.7488,N,09832.0280,W,2,08,1.2,331.8,M,-23.7,M,3.8,0000*4A
$GPGSA,A,3,01,11,23,03,07,08,13,19,,,,,2.1,1.2,1.7*32
$GPGSV,3,1,12,07,73,046,33,08,48,326,27,19,47,056,38,13,40,183,29*7B
$GPGSV,3,2,12,28,33,271,22,11,33,122,31,01,16,136,21,03,13,043,14*74
$GPGSV,3,3,12,23,12,168,37,17,10,208,17,26,09,323,,06,03,040,*76
$GPRMC,021403.000,A,3353.7488,N,09832.0280,W,0.08,299.84,040412,,,D*77
$GPGGA,021404.000,3353.7488,N,09832.0280,W,2,08,1.2,331.7,M,-23.7,M,0.8,0000*41
$GPGSA,A,3,01,11,23,03,07,08,13,19,,,,,2.1,1.2,1.7*32
$GPRMC,021404.000,A,3353.7488,N,09832.0280,W,0.04,165.82,040412,,,D*7A
$GPGGA,021405.000,3353.7488,N,09832.0280,W,2,08,1.2,331.7,M,-23.7,M,0.8,0000*40
$GPGSA,A,3,01,11,23,03,07,08,13,19,,,,,2.1,1.2,1.7*32
$GPRMC,021405.000,A,3353.7488,N,09832.0280,W,0.17,125.66,040412,,,D*77
$GPGGA,021406.000,3353.7488,N,09832.0279,W,2,08,1.2,331.6,M,-23.7,M,0.8,0000*44
$GPGSA,A,3,01,11,23,03,07,08,13,19,,,,,2.1,1.2,1.7*32
$GPRMC,021406.000,A,3353.7488,N,09832.0279,W,0.14,156.98,040412,,,D*74
$GPGGA,021407.000,3353.7488,N,09832.0279,W,2,08,1.2,331.6,M,-23.7,M,0.8,0000*45
$GPGSA,A,3,01,11,23,03,07,08,13,19,,,,,2.1,1.2,1.7*32
$GPRMC,021407.000,A,3353.7488,N,09832.0279,W,0.07,225.49,040412,,,D*7C
$GPGGA,021408.000,3353.7488,N,09832.0280,W,2,08,1.2,331.5,M,-23.7,M,0.8,0000*4F
$GPGSA,A,3,01,11,23,03,07,08,13,19,,,,,2.1,1.2,1.7*32
$GPGSV,3,1,12,07,73,046,33,08,48,326,28,19,47,056,38,13,40,183,29*74
$GPGSV,3,2,12,28,33,271,22,11,33,122,31,01,16,136,22,03,13,043,13*70
$GPGSV,3,3,12,23,12,168,36,17,10,208,18,26,09,323,,06,03,040,*78
$GPRMC,021408.000,A,3353.7488,N,09832.0280,W,0.14,243.01,040412,,,D*7B
$GPGGA,021409.000,3353.7489,N,09832.0280,W,2,08,1.2,331.4,M,-23.7,M,1.8,0000*4F
$GPGSA,A,3,01,11,23,03,07,08,13,19,,,,,2.1,1.2,1.7*32
$GPRMC,021409.000,A,3353.7489,N,09832.0280,W,0.11,211.74,040412,,,D*7B
$GPGGA,021410.000,3353.7489,N,09832.0280,W,2,07,1.5,331.2,M,-23.7,M,2.8,0000*4A
$GPGSA,A,3,01,11,23,07,08,13,19,,,,,,3.0,1.5,2.5*37
$GPRMC,021410.000,A,3353.7489,N,09832.0280,W,0.19,122.50,040412,,,D*7E
$GPGGA,021411.000,3353.7489,N,09832.0279,W,2,07,1.5,331.0,M,-23.7,M,0.8,0000*4D
$GPGSA,A,3,01,11,23,07,08,13,19,,,,,,3.0,1.5,2.5*37
$GPRMC,021411.000,A,3353.7489,N,09832.0279,W,0.20,114.42,040412,,,D*75
$GPGGA,021412.000,3353.7490,N,09832.0279,W,2,07,1.5,330.8,M,-23.7,M,0.8,0000*4F
$GPGSA,A,3,01,11,23,07,08,13,19,,,,,,3.0,1.5,2.5*37
$GPRMC,021412.000,A,3353.7490,N,09832.0279,W,0.08,76.76,040412,,,D*46
$GPGGA,021413.000,3353.7491,N,09832.0278,W,2,07,1.5,330.5,M,-23.7,M,1.8,0000*42
$GPGSA,A,3,01,11,23,07,08,13,19,,,,,,3.0,1.5,2.5*37
$GPGSV,3,1,12,07,73,047,33,08,48,326,28,19,47,055,38,13,39,183,28*79
$GPGSV,3,2,12,28,33,271,22,11,33,122,31,01,16,136,24,03,13,043,*74
$GPGSV,3,3,12,23,12,168,36,17,11,208,18,26,10,322,,06,02,040,*71
$GPRMC,021413.000,A,3353.7491,N,09832.0278,W,0.20,91.09,040412,,,D*4C
$GPGGA,021414.000,3353.7490,N,09832.0279,W,2,07,1.5,330.5,M,-23.7,M,0.8,0000*44
$GPGSA,A,3,01,11,23,07,08,13,19,,,,,,3.0,1.5,2.5*37
$GPRMC,021414.000,A,3353.7490,N,09832.0279,W,0.06,44.19,040412,,,D*46
$GPGGA,021415.000,3353.7490,N,09832.0279,W,2,07,1.5,330.6,M,-23.7,M,1.8,0000*47
$GPGSA,A,3,01,11,23,07,08,13,19,,,,,,3.0,1.5,2.5*37
$GPRMC,021415.000,A,3353.7490,N,09832.0279,W,0.06,58.69,040412,,,D*4D
$GPGGA,021416.000,3353.7490,N,09832.0280,W,2,07,1.5,330.7,M,-23.7,M,2.8,0000*40
$GPGSA,A,3,01,11,23,07,08,13,19,,,,,,3.0,1.5,2.5*37
$GPRMC,021416.000,A,3353.7490,N,09832.0280,W,0.03,13.69,040412,,,D*42
$GPGGA,021417.000,3353.7489,N,09832.0281,W,2,07,1.5,330.8,M,-23.7,M,3.8,0000*46
$GPGSA,A,3,01,11,23,07,08,13,19,,,,,,3.0,1.5,2.5*37
$GPRMC,021417.000,A,3353.7489,N,09832.0281,W,0.05,66.10,040412,,,D*40
$GPGGA,021418.000,3353.7489,N,09832.0282,W,2,07,1.5,330.9,M,-23.7,M,0.8,0000*48
$GPGSA,A,3,01,11,23,07,08,13,19,,,,,,3.0,1.5,2.5*37
$GPGSV,3,1,12,07,73,047,33,08,48,326,28,19,47,055,38,13,39,183,27*76
$GPGSV,3,2,12,28,33,271,22,11,33,122,31,01,16,136,25,03,13,043,*75
$GPGSV,3,3,12,23,12,168,36,17,11,208,20,26,10,322,,06,02,040,*7A
$GPRMC,021418.000,A,3353.7489,N,09832.0282,W,0.05,205.10,040412,,,D*7B
$GPGGA,021419.000,3353.7488,N,09832.0283,W,2,07,1.5,331.1,M,-23.7,M,0.8,0000*40
$GPGSA,A,3,01,11,23,07,08,13,19,,,,,,3.0,1.5,2.5*37
$GPRMC,021419.000,A,3353.7488,N,09832.0283,W,0.03,184.89,040412,,,D*76
$GPGGA,021420.000,3353.7487,N,09832.0283,W,2,07,1.5,331.3,M,-23.7,M,0.8,0000*47
$GPGSA,A,3,01,11,23,07,08,13,19,,,,,,3.0,1.5,2.5*37
$GPRMC,021420.000,A,3353.7487,N,09832.0283,W,0.10,150.96,040412,,,D*76
$GPGGA,021421.000,3353.7486,N,09832.0284,W,2,07,1.5,331.3,M,-23.7,M,0.8,0000*40
$GPGSA,A,3,01,11,23,07,08,13,19,,,,,,3.0,1.5,2.5*37
$GPRMC,021421.000,A,3353.7486,N,09832.0284,W,0.14,89.67,040412,,,D*4E
$GPGGA,021422.000,3353.7486,N,09832.0284,W,2,07,1.5,331.4,M,-23.7,M,1.8,0000*45
$GPGSA,A,3,01,11,23,07,08,13,19,,,,,,3.0,1.5,2.5*37
$GPRMC,021422.000,A,3353.7486,N,09832.0284,W,0.12,112.00,040412,,,D*79
$GPGGA,021423.000,3353.7485,N,09832.0284,W,2,07,1.5,331.6,M,-23.7,M,2.8,0000*46
$GPGSA,A,3,01,11,23,07,08,13,19,,,,,,3.0,1.5,2.5*37
$GPGSV,3,1,12,07,73,047,33,08,48,326,29,19,47,055,38,13,39,183,22*72
$GPGSV,3,2,12,28,33,271,22,11,33,122,31,01,16,136,25,03,13,043,*75
$GPGSV,3,3,12,23,12,168,36,17,11,208,20,26,10,322,,06,02,040,*7A
$GPRMC,021423.000,A,3353.7485,N,09832.0284,W,0.11,155.71,040412,,,D*7D
$GPGGA,021424.000,3353.7484,N,09832.0285,W,2,07,1.5,331.6,M,-23.7,M,3.8,0000*40
$GPGSA,A,3,01,11,23,07,08,13,19,,,,,,3.0,1.5,2.5*37
$GPRMC,021424.000,A,3353.7484,N,09832.0285,W,0.19,81.11,040412,,,D*4C
$GPGGA,021425.000,3353.7483,N,09832.0285,W,2,07,1.5,331.7,M,-23.7,M,0.8,0000*44
$GPGSA,A,3,01,11,23,07,08,13,19,,,,,,3.0,1.5,2.5*37
$GPRMC,021425.000,A,3353.7483,N,09832.0285,W,0.12,124.52,040412,,,D*78
$GPGGA,021426.000,3353.7482,N,09832.0286,W,2,07,1.5,331.9,M,-23.7,M,0.8,0000*4B
$GPGSA,A,3,01,11,23,07,08,13,19,,,,,,3.0,1.5,2.5*37
$GPRMC,021426.000,A,3353.7482,N,09832.0286,W,0.11,221.44,040412,,,D*7B
$GPGGA,021427.000,3353.7481,N,09832.0287,W,2,07,1.5,332.1,M,-23.7,M,1.8,0000*42
$GPGSA,A,3,01,11,23,07,08,13,19,,,,,,3.0,1.5,2.6*34
$GPRMC,021427.000,A,3353.7481,N,09832.0287,W,0.13,217.36,040412,,,D*7A
$GPGGA,021428.000,3353.7480,N,09832.0289,W,2,07,1.5,332.4,M,-23.7,M,2.8,0000*44
$GPGSA,A,3,01,11,23,07,08,13,19,,,,,,3.0,1.5,2.6*34
$GPGSV,3,1,12,07,73,047,33,08,48,326,29,19,47,055,38,13,39,183,15*76
$GPGSV,3,2,12,28,33,271,22,11,33,122,31,01,16,136,26,03,13,043,*76
$GPGSV,3,3,12,23,12,168,36,17,11,208,20,26,10,322,,06,02,040,*7A
$GPRMC,021428.000,A,3353.7480,N,09832.0289,W,0.20,215.71,040412,,,D*7B
$GPGGA,021429.000,3353.7479,N,09832.0290,W,2,07,1.5,332.6,M,-23.7,M,3.8,0000*48
$GPGSA,A,3,01,11,23,07,08,13,19,,,,,,3.0,1.5,2.6*34
$GPRMC,021429.000,A,3353.7479,N,09832.0290,W,0.17,214.65,040412,,,D*74
$GPGGA,021430.000,3353.7478,N,09832.0291,W,2,06,2.2,332.7,M,-23.7,M,0.8,0000*47
$GPGSA,A,3,01,11,23,07,08,19,,,,,,,4.1,2.2,3.5*36
$GPRMC,021430.000,A,3353.7478,N,09832.0291,W,0.08,150.30,040412,,,D*71
$GPGGA,021431.000,3353.7478,N,09832.0291,W,2,06,2.2,332.8,M,-23.7,M,0.8,0000*49
$GPGSA,A,3,01,11,23,07,08,19,,,,,,,4.1,2.2,3.5*36
$GPRMC,021431.000,A,3353.7478,N,09832.0291,W,0.12,153.01,040412,,,D*7A
$GPGGA,021432.000,3353.7477,N,09832.0291,W,2,06,2.2,333.0,M,-23.7,M,0.8,0000*4C
$GPGSA,A,3,01,11,23,07,08,19,,,,,,,4.1,2.2,3.5*36
$GPRMC,021432.000,A,3353.7477,N,09832.0291,W,0.12,127.68,040412,,,D*7A
$GPGGA,021433.000,3353.7476,N,09832.0292,W,2,06,2.2,333.2,M,-23.7,M,1.8,0000*4C
$GPGSA,A,3,01,11,23,07,08,19,,,,,,,4.1,2.2,3.5*36
$GPGSV,3,1,12,07,73,047,33,08,48,326,30,19,47,055,38,13,39,183,*7A
$GPGSV,3,2,12,28,33,271,21,11,33,122,31,01,16,136,26,03,13,043,*75
$GPGSV,3,3,12,23,12,168,36,17,11,208,21,26,10,322,,06,02,040,*7B
$GPRMC,021433.000,A,3353.7476,N,09832.0292,W,0.13,131.54,040412,,,D*70
$GPGGA,021434.000,3353.7475,N,09832.0292,W,2,06,2.2,333.4,M,-23.7,M,2.8,0000*4D
$GPGSA,A,3,01,11,23,07,08,19,,,,,,,4.1,2.2,3.5*36
$GPRMC,021434.000,A,3353.7475,N,09832.0292,W,0.12,124.97,040412,,,D*7E
$GPGGA,021435.000,3353.7475,N,09832.0292,W,2,06,2.2,333.5,M,-23.7,M,3.8,0000*4C
$GPGSA,A,3,01,11,23,07,08,19,,,,,,,4.1,2.2,3.5*36
$GPRMC,021435.000,A,3353.7475,N,09832.0292,W,0.17,120.87,040412,,,D*7F
$GPGGA,021436.000,3353.7474,N,09832.0292,W,2,06,2.2,333.6,M,-23.7,M,4.8,0000*4A
$GPGSA,A,3,01,11,23,07,08,19,,,,,,,4.1,2.2,3.5*36
$GPRMC,021436.000,A,3353.7474,N,09832.0292,W,0.15,126.50,040412,,,D*73
$GPGGA,021437.000,3353.7473,N,09832.0292,W,2,06,2.2,333.7,M,-23.7,M,0.8,0000*49
$GPGSA,A,3,01,11,23,07,08,19,,,,,,,4.1,2.2,3.5*36
$GPRMC,021437.000,A,3353.7473,N,09832.0292,W,0.13,128.94,040412,,,D*75
$GPGGA,021438.000,3353.7474,N,09832.0293,W,2,07,1.3,333.4,M,-23.7,M,0.8,0000*40
$GPGSA,A,3,01,11,23,03,07,08,19,,,,,,2.2,1.3,1.7*32
$GPGSV,3,1,12,07,73,047,33,08,48,326,30,19,47,055,38,13,39,183,*7A
$GPGSV,3,2,12,28,33,271,19,11,33,122,31,01,16,136,26,03,13,043,18*77
$GPGSV,3,3,12,23,12,168,35,17,11,208,21,26,10,322,,06,02,040,*78
$GPRMC,021438.000,A,3353.7474,N,09832.0293,W,0.14,70.60,040412,,,D*4C
$GPGGA,021439.000,3353.7474,N,09832.0293,W,2,07,1.3,333.4,M,-23.7,M,1.8,0000*40
$GPGSA,A,3,01,11,23,03,07,08,19,,,,,,2.2,1.3,1.7*32
$GPRMC,021439.000,A,3353.7474,N,09832.0293,W,0.07,106.72,040412,,,D*7C
$GPGGA,021440.000,3353.7473,N,09832.0294,W,2,07,1.3,333.3,M,-23.7,M,0.8,0000*48
$GPGSA,A,3,01,11,23,03,07,08,19,,,,,,2.2,1.3,1.7*32
$GPRMC,021440.000,A,3353.7473,N,09832.0294,W,0.09,104.99,040412,,,D*7B
$GPGGA,021441.000,3353.7473,N,09832.0294,W,2,07,1.3,333.4,M,-23.7,M,1.8,0000*4F
$GPGSA,A,3,01,11,23,03,07,08,19,,,,,,2.2,1.3,1.7*32
$GPRMC,021441.000,A,3353.7473,N,09832.0294,W,0.08,198.64,040412,,,D*7C
$GPGGA,021442.000,3353.7472,N,09832.0295,W,2,07,1.3,333.6,M,-23.7,M,0.8,0000*4F
$GPGSA,A,3,01,11,23,03,07,08,19,,,,,,2.2,1.3,1.7*32
$GPRMC,021442.000,A,3353.7472,N,09832.0295,W,0.07,184.08,040412,,,D*77
$GPGGA,021443.000,3353.7471,N,09832.0296,W,2,07,1.3,333.7,M,-23.7,M,0.8,0000*4F
$GPGSA,A,3,01,11,23,03,07,08,19,,,,,,2.2,1.3,1.7*32
$GPGSV,3,1,12,07,73,047,34,08,48,326,30,19,47,055,38,13,39,183,*7D
$GPGSV,3,2,12,28,33,271,19,11,33,122,31,01,16,136,26,03,13,043,18*77
$GPGSV,3,3,12,23,12,168,35,17,11,208,21,26,10,322,,06,02,040,*78
$GPRMC,021443.000,A,3353.7471,N,09832.0296,W,0.11,185.05,040412,,,D*7D
$GPGGA,021444.000,3353.7472,N,09832.0296,W,2,07,1.3,333.5,M,-23.7,M,0.8,0000*49
$GPGSA,A,3,01,11,23,03,07,08,19,,,,,,2.2,1.3,1.7*32
$GPRMC,021444.000,A,3353.7472,N,09832.0296,W,0.14,66.34,040412,,,D*42
$GPGGA,021445.000,3353.7471,N,09832.0297,W,2,08,1.2,333.5,M,-23.7,M,0.8,0000*44
$GPGSA,A,3,01,11,23,03,07,08,13,19,,,,,2.1,1.2,1.7*32
$GPRMC,021445.000,A,3353.7471,N,09832.0297,W,0.06,190.77,040412,,,D*7D
$GPGGA,021446.000,3353.7471,N,09832.0297,W,2,08,1.2,333.4,M,-23.7,M,1.8,0000*47
$GPGSA,A,3,01,11,23,03,07,08,13,19,,,,,2.1,1.2,1.7*32
$GPRMC,021446.000,A,3353.7471,N,09832.0297,W,0.07,115.58,040412,,,D*7F
$GPGGA,021447.000,3353.7471,N,09832.0298,W,2,08,1.2,333.6,M,-23.7,M,2.8,0000*48
$GPGSA,A,3,01,11,23,03,07,08,13,19,,,,,2.1,1.2,1.7*32
$GPRMC,021447.000,A,3353.7471,N,09832.0298,W,0.17,217.73,040412,,,D*78
$GPGGA,021448.000,3353.7470,N,09832.0299,W,2,08,1.2,333.8,M,-23.7,M,3.8,0000*48
$GPGSA,A,3,01,11,23,03,07,08,13,19,,,,,2.1,1.2,1.7*32
$GPGSV,3,1,12,07,73,047,34,08,48,326,29,19,47,055,38,13,39,183,19*7D
$GPGSV,3,2,12,28,33,271,19,11,33,122,31,01,16,136,26,03,13,043,18*77
$GPGSV,3,3,12,23,12,168,35,17,11,208,21,26,10,322,,06,02,040,*78
$GPRMC,021448.000,A,3353.7470,N,09832.0299,W,0.34,218.94,040412,,,D*70
$GPGGA,021449.000,3353.7469,N,09832.0300,W,2,08,1.2,334.0,M,-23.7,M,0.8,0000*4C
$GPGSA,A,3,01,11,23,03,07,08,13,19,,,,,2.1,1.2,1.7*32
$GPRMC,021449.000,A,3353.7469,N,09832.0300,W,0.16,202.85,040412,,,D*73
$GPGGA,021450.000,3353.7468,N,09832.0300,W,2,08,1.2,334.0,M,-23.7,M,0.8,0000*45
$GPGSA,A,3,01,11,23,03,07,08,13,19,,,,,2.1,1.2,1.7*32
$GPRMC,021450.000,A,3353.7468,N,09832.0300,W,0.14,165.05,040412,,,D*72
$GPGGA,021451.000,3353.7468,N,09832.0301,W,2,08,1.2,333.9,M,-23.7,M,0.8,0000*4B
$GPGSA,A,3,01,11,23,03,07,08,13,19,,,,,2.1,1.2,1.7*32
$GPRMC,021451.000,A,3353.7468,N,09832.0301,W,0.06,184.71,040412,,,D*7D
$GPGGA,021452.000,3353.7469,N,09832.0301,W,2,08,1.2,333.7,M,-23.7,M,1.8,0000*46
$GPGSA,A,3,01,11,23,03,07,08,13,19,,,,,2.1,1.2,1.7*32
$GPRMC,021452.000,A,3353.7469,N,09832.0301,W,0.08,170.21,040412,,,D*7F
$GPGGA,021453.000,3353.7469,N,09832.0302,W,2,08,1.2,333.5,M,-23.7,M,2.8,0000*45
$GPGSA,A,3,01,11,23,03,07,08,13,19,,,,,2.1,1.2,1.7*32
$GPGSV,3,1,12,07,73,047,34,08,48,326,30,19,47,055,38,13,39,183,21*7E
$GPGSV,3,2,12,28,33,271,18,11,33,122,31,01,16,136,25,03,13,043,17*7A
$GPGSV,3,3,12,23,12,168,34,17,11,208,21,26,10,322,,06,02,040,*79
$GPRMC,021453.000,A,3353.7469,N,09832.0302,W,0.06,202.66,040412,,,D*76
$GPGGA,021454.000,3353.7469,N,09832.0302,W,2,08,1.2,333.4,M,-23.7,M,0.8,0000*41
$GPGSA,A,3,01,11,23,03,07,08,13,19,,,,,2.1,1.2,1.7*32
$GPRMC,021454.000,A,3353.7469,N,09832.0302,W,0.02,220.58,040412,,,D*78
$GPGGA,021455.000,3353.7470,N,09832.0302,W,2,08,1.2,332.9,M,-23.7,M,1.8,0000*45
$GPGSA,A,3,01,11,23,03,07,08,13,19,,,,,2.1,1.2,1.7*32
$GPRMC,021455.000,A,3353.7470,N,09832.0302,W,0.38,65.96,040412,,,D*49
$GPGGA,021456.000,3353.7470,N,09832.0302,W,2,08,1.2,332.8,M,-23.7,M,2.8,0000*44
$GPGSA,A,3,01,11,23,03,07,08,13,19,,,,,2.1,1.2,1.7*32
$GPRMC,021456.000,A,3353.7470,N,09832.0302,W,0.07,144.63,040412,,,D*7E
$GPGGA,021457.000,3353.7470,N,09832.0302,W,2,08,1.2,332.7,M,-23.7,M,3.8,0000*4B
$GPGSA,A,3,01,11,23,03,07,08,13,19,,,,,2.1,1.2,1.7*32
$GPRMC,021457.000,A,3353.7470,N,09832.0302,W,0.04,351.38,040412,,,D*74
$GPGGA,021458.000,3353.7470,N,09832.0303,W,2,08,1.3,332.7,M,-23.7,M,0.8,0000*47
$GPGSA,A,3,01,11,23,03,07,08,13,19,,,,,2.1,1.3,1.7*33
$GPGSV,3,1,12,07,73,047,35,08,48,326,30,19,47,055,38,13,39,183,22*7C
$GPGSV,3,2,12,28,33,271,17,11,33,122,31,01,16,136,24,03,13,043,16*75
$GPGSV,3,3,12,23,12,168,34,17,11,208,19,26,10,322,,06,02,040,*72
$GPRMC,021458.000,A,3353.7470,N,09832.0303,W,0.06,298.32,040412,,,D*76
$GPGGA,021459.000,3353.7470,N,09832.0303,W,2,08,1.3,332.6,M,-23.7,M,1.8,0000*46
$GPGSA,A,3,01,11,23,03,07,08,13,19,,,,,2.1,1.3,1.7*33
$GPRMC,021459.000,A,3353.7470,N,09832.0303,W,0.15,179.70,040412,,,D*7F
$GPGGA,021500.000,3353.7470,N,09832.0303,W,2,08,1.3,332.5,M,-23.7,M,0.8,0000*49
$GPGSA,A,3,01,11,23,03,07,08,13,19,,,,,2.1,1.3,1.7*33
$GPRMC,021500.000,A,3353.7470,N,09832.0303,W,0.09,88.30,040412,,,D*44
$GPGGA,021501.000,3353.7470,N,09832.0303,W,2,08,1.3,332.4,M,-23.7,M,1.8,0000*48
$GPGSA,A,3,01,11,23,03,07,08,13,19,,,,,2.1,1.3,1.7*33
$GPRMC,021501.000,A,3353.7470,N,09832.0303,W,0.13,131.61,040412,,,D*79
$GPGGA,021502.000,3353.7469,N,09832.0303,W,2,08,1.3,332.5,M,-23.7,M,0.8,0000*43
$GPGSA,A,3,01,11,23,03,07,08,13,19,,,,,2.1,1.3,1.7*33
$GPRMC,021502.000,A,3353.7469,N,09832.0303,W,0.31,181.44,040412,,,D*7E
$GPGGA,021503.000,3353.7469,N,09832.0303,W,2,08,1.3,332.2,M,-23.7,M,1.8,0000*44
$GPGSA,A,3,01,11,23,03,07,08,13,19,,,,,2.1,1.3,1.7*33
$GPGSV,3,1,12,07,73,047,35,08,48,326,30,19,47,055,38,13,39,183,22*7C
$GPGSV,3,2,12,28,33,271,16,11,33,122,31,01,16,136,17,03,13,043,15*77
$GPGSV,3,3,12,23,12,168,34,17,11,208,18,26,10,322,,06,02,040,*73
$GPRMC,021503.000,A,3353.7469,N,09832.0303,W,0.24,106.73,040412,,,D*70
$GPGGA,021504.000,3353.7470,N,09832.0302,W,2,08,1.3,331.8,M,-23.7,M,2.8,0000*40
$GPGSA,A,3,01,11,23,03,07,08,13,19,,,,,2.1,1.3,1.7*33
$GPRMC,021504.000,A,3353.7470,N,09832.0302,W,0.51,70.76,040412,,,D*49
$GPGGA,021505.000,3353.7471,N,09832.0301,W,2,08,1.3,331.4,M,-23.7,M,3.8,0000*4E
$GPGSA,A,3,01,11,23,03,07,08,13,19,,,,,2.1,1.3,1.7*33
$GPRMC,021505.000,A,3353.7471,N,09832.0301,W,0.22,75.75,040412,,,D*48
$GPGGA,021506.000,3353.7471,N,09832.0302,W,2,08,1.3,331.1,M,-23.7,M,0.8,0000*48
$GPGSA,A,3,01,11,23,03,07,08,13,19,,,,,2.1,1.3,1.7*33
$GPRMC,021506.000,A,3353.7471,N,09832.0302,W,0.14,19.34,040412,,,D*42
$GPGGA,021507.000,3353.7472,N,09832.0302,W,2,08,1.3,330.6,M,-23.7,M,0.8,0000*4C
$GPGSA,A,3,01,11,23,03,07,08,13,19,,,,,2.1,1.3,1.7*33
$GPRMC,021507.000,A,3353.7472,N,09832.0302,W,0.42,34.03,040412,,,D*48
$GPGGA,021508.000,3353.7474,N,09832.0301,W,2,08,1.3,330.1,M,-23.7,M,0.8,0000*41
$GPGSA,A,3,01,11,23,03,07,08,13,19,,,,,2.1,1.3,1.7*33
$GPGSV,3,1,12,07,73,047,35,08,48,326,31,19,47,055,38,13,39,183,22*7D
$GPGSV,3,2,12,28,33,271,,11,33,122,30,01,16,136,16,03,13,043,14*71
$GPGSV,3,3,12,23,12,168,34,17,11,208,17,26,10,322,,06,02,040,*7C
$GPRMC,021508.000,A,3353.7474,N,09832.0301,W,0.39,26.63,040412,,,D*4B
$GPGGA,021509.000,3353.7474,N,09832.0302,W,2,08,1.3,329.8,M,-23.7,M,1.8,0000*43
$GPGSA,A,3,01,11,23,03,07,08,13,19,,,,,2.1,1.3,1.7*33
$GPRMC,021509.000,A,3353.7474,N,09832.0302,W,0.23,5.41,040412,,,D*73
$GPGGA,021510.000,3353.7475,N,09832.0302,W,2,08,1.3,329.5,M,-23.7,M,2.8,0000*44
$GPGSA,A,3,01,11,23,03,07,08,13,19,,,,,2.1,1.3,1.7*33
$GPRMC,021510.000,A,3353.7475,N,09832.0302,W,0.23,353.04,040412,,,D*7B
$GPGGA,021511.000,3353.7476,N,09832.0302,W,2,08,1.3,329.0,M,-23.7,M,3.8,0000*42
$GPGSA,A,3,01,11,23,03,07,08,13,19,,,,,2.1,1.3,1.7*33
$GPRMC,021511.000,A,3353.7476,N,09832.0302,W,0.47,28.65,040412,,,D*43
$GPGGA,021512.000,3353.7477,N,09832.0301,W,2,08,1.3,328.6,M,-23.7,M,0.8,0000*47
$GPGSA,A,3,01,11,23,03,07,08,13,19,,,,,2.1,1.3,1.7*33
$GPRMC,021512.000,A,3353.7477,N,09832.0301,W,0.54,31.13,040412,,,D*49
$GPGGA,021513.000,3353.7478,N,09832.0300,W,2,08,1.3,328.1,M,-23.7,M,0.8,0000*4F
$GPGSA,A,3,01,11,23,03,07,08,13,19,,,,,2.1,1.3,1.7*33
$GPGSV,3,1,12,07,73,047,35,08,48,326,31,19,47,055,38,13,39,183,22*7D
$GPGSV,3,2,12,28,33,271,,11,33,122,30,01,16,136,16,03,13,043,14*71
$GPGSV,3,3,12,23,12,168,34,17,11,208,16,26,10,322,,06,02,040,*7D
$GPRMC,021513.000,A,3353.7478,N,09832.0300,W,0.38,48.18,040412,,,D*49
$GPGGA,021514.000,3353.7479,N,09832.0300,W,2,08,1.3,327.7,M,-23.7,M,0.8,0000*40
$GPGSA,A,3,01,11,23,03,07,08,13,19,,,,,2.1,1.3,1.7*33
$GPRMC,021514.000,A,3353.7479,N,09832.0300,W,0.42,51.52,040412,,,D*44
$GPGGA,021515.000,3353.7479,N,09832.0299,W,2,08,1.3,327.5,M,-23.7,M,1.8,0000*43
$GPGSA,A,3,01,11,23,03,07,08,13,19,,,,,2.1,1.3,1.7*33
$GPRMC,021515.000,A,3353.7479,N,09832.0299,W,0.12,62.86,040412,,,D*48
$GPGGA,021516.000,3353.7479,N,09832.0299,W,2,08,1.3,327.3,M,-23.7,M,2.8,0000*45
$GPGSA,A,3,01,11,23,03,07,08,13,19,,,,,2.1,1.3,1.7*33
$GPRMC,021516.000,A,3353.7479,N,09832.0299,W,0.28,35.83,040412,,,D*45
$GPGGA,021517.000,3353.7479,N,09832.0299,W,2,08,1.3,327.2,M,-23.7,M,3.8,0000*44
$GPGSA,A,3,01,11,23,03,07,08,13,19,,,,,2.1,1.3,1.7*33
$GPRMC,021517.000,A,3353.7479,N,09832.0299,W,0.13,53.55,040412,,,D*47
$GPGGA,021518.000,3353.7479,N,09832.0299,W,2,08,1.3,327.1,M,-23.7,M,0.8,0000*4B
$GPGSA,A,3,01,11,23,03,07,08,13,19,,,,,2.1,1.3,1.7*33
$GPGSV,3,1,12,07,73,047,36,08,48,326,32,19,47,055,37,13,39,183,22*72
$GPGSV,3,2,12,28,33,271,,11,33,122,29,01,16,136,15,03,13,043,13*7D
$GPGSV,3,3,12,23,12,168,35,17,11,208,16,26,10,322,,06,02,040,*7C
$GPRMC,021518.000,A,3353.7479,N,09832.0299,W,0.09,50.08,040412,,,D*48
$GPGGA,021519.000,3353.7479,N,09832.0299,W,2,08,1.3,327.0,M,-23.7,M,0.8,0000*4B
$GPGSA,A,3,01,11,23,03,07,08,13,19,,,,,2.1,1.3,1.7*33
$GPRMC,021519.000,A,3353.7479,N,09832.0299,W,0.16,327.86,040412,,,D*72
$GPGGA,021520.000,3353.7479,N,09832.0299,W,2,08,1.3,326.7,M,-23.7,M,0.8,0000*47
$GPGSA,A,3,01,11,23,03,07,08,13,19,,,,,2.1,1.3,1.7*33
$GPRMC,021520.000,A,3353.7479,N,09832.0299,W,0.23,30.36,040412,,,D*40
$GPGGA,021521.000,3353.7480,N,09832.0299,W,2,08,1.3,326.4,M,-23.7,M,0.8,0000*43
$GPGSA,A,3,01,11,23,03,07,08,13,19,,,,,2.1,1.3,1.7*33
$GPRMC,021521.000,A,3353.7480,N,09832.0299,W,0.43,43.49,040412,,,D*4D
$GPGGA,021522.000,3353.7480,N,09832.0298,W,2,07,1.5,326.2,M,-23.7,M,1.8,0000*4F
$GPGSA,A,3,01,11,23,07,08,13,19,,,,,,3.0,1.5,2.6*34
$GPRMC,021522.000,A,3353.7480,N,09832.0298,W,0.12,107.59,040412,,,D*7B
$GPGGA,021523.000,3353.7479,N,09832.0298,W,2,07,1.5,326.1,M,-23.7,M,0.8,0000*4A
$GPGSA,A,3,01,11,23,07,08,13,19,,,,,,3.0,1.5,2.6*34
$GPGSV,3,1,12,07,73,047,36,08,48,326,32,19,47,055,37,13,39,183,22*72
$GPGSV,3,2,12,28,33,271,21,11,33,122,28,01,16,136,16,03,13,043,*7E
$GPGSV,3,3,12,23,12,168,35,17,11,208,16,26,10,322,,06,02,040,*7C
$GPRMC,021523.000,A,3353.7479,N,09832.0298,W,0.09,128.34,040412,,,D*70
$GPGGA,021524.000,3353.7479,N,09832.0298,W,2,07,1.5,325.9,M,-23.7,M,0.8,0000*46
$GPGSA,A,3,01,11,23,07,08,13,19,,,,,,3.0,1.5,2.6*34
$GPRMC,021524.000,A,3353.7479,N,09832.0298,W,0.18,79.94,040412,,,D*48
$GPGGA,021525.000,3353.7479,N,09832.0297,W,2,07,1.5,325.6,M,-23.7,M,0.8,0000*47
$GPGSA,A,3,01,11,23,07,08,13,19,,,,,,3.0,1.5,2.6*34
$GPRMC,021525.000,A,3353.7479,N,09832.0297,W,0.50,66.70,040412,,,D*4E
$GPGGA,021526.000,3353.7480,N,09832.0296,W,2,07,1.5,325.6,M,-23.7,M,0.8,0000*43
$GPGSA,A,3,01,11,23,07,08,13,19,,,,,,3.0,1.5,2.6*34
$GPRMC,021526.000,A,3353.7480,N,09832.0296,W,0.22,67.22,040412,,,D*49
$GPGGA,021527.000,3353.7480,N,09832.0296,W,2,07,1.5,325.5,M,-23.7,M,1.8,0000*40
$GPGSA,A,3,01,11,23,07,08,13,19,,,,,,3.0,1.5,2.6*34
$GPRMC,021527.000,A,3353.7480,N,09832.0296,W,0.15,81.20,040412,,,D*46
$GPGGA,021528.000,3353.7480,N,09832.0296,W,2,07,1.5,325.4,M,-23.7,M,2.8,0000*4D
$GPGSA,A,3,01,11,23,07,08,13,19,,,,,,3.0,1.5,2.6*34
$GPGSV,3,1,12,07,73,047,36,08,48,326,32,19,47,055,37,13,39,183,22*72
$GPGSV,3,2,12,28,33,271,21,11,33,122,28,01,16,136,16,03,13,043,*7E
$GPGSV,3,3,12,23,12,168,36,17,11,208,16,26,10,322,,06,02,040,*7F
$GPRMC,021528.000,A,3353.7480,N,09832.0296,W,0.34,66.29,040412,,,D*4A
$GPGGA,021529.000,3353.7481,N,09832.0295,W,2,07,1.5,325.1,M,-23.7,M,3.8,0000*4A
$GPGSA,A,3,01,11,23,07,08,13,19,,,,,,3.0,1.5,2.6*34
$GPRMC,021529.000,A,3353.7481,N,09832.0295,W,0.52,64.45,040412,,,D*41
$GPGGA,021530.000,3353.7480,N,09832.0295,W,2,07,1.5,325.1,M,-23.7,M,0.8,0000*40
$GPGSA,A,3,01,11,23,07,08,13,19,,,,,,3.0,1.5,2.6*34
$GPRMC,021530.000,A,3353.7480,N,09832.0295,W,0.12,87.16,040412,,,D*47
$GPGGA,021531.000,3353.7481,N,09832.0295,W,2,07,1.5,324.9,M,-23.7,M,0.8,0000*49
$GPGSA,A,3,01,11,23,07,08,13,19,,,,,,3.0,1.5,2.6*34
$GPRMC,021531.000,A,3353.7481,N,09832.0295,W,0.30,60.00,040412,,,D*49
$GPGGA,021532.000,3353.7481,N,09832.0295,W,2,07,1.5,324.8,M,-23.7,M,0.8,0000*4B
$GPGSA,A,3,01,11,23,07,08,13,19,,,,,,3.0,1.5,2.6*34
$GPRMC,021532.000,A,3353.7481,N,09832.0295,W,0.19,95.98,040412,,,D*4A
$GPGGA,021533.000,3353.7480,N,09832.0295,W,2,07,1.5,324.8,M,-23.7,M,0.8,0000*4B
$GPGSA,A,3,01,11,23,07,08,13,19,,,,,,3.0,1.5,2.6*34
$GPGSV,3,1,12,07,73,047,36,08,48,326,32,19,47,055,37,13,39,183,21*71
$GPGSV,3,2,12,28,33,271,21,11,33,122,28,01,16,136,16,03,13,043,*7E
$GPGSV,3,3,12,23,12,168,36,17,11,208,17,26,10,322,,06,02,040,*7E
$GPRMC,021533.000,A,3353.7480,N,09832.0295,W,0.14,118.38,040412,,,D*79
$GPGGA,021534.000,3353.7480,N,09832.0295,W,2,07,1.5,324.6,M,-23.7,M,0.8,0000*42
$GPGSA,A,3,01,11,23,07,08,13,19,,,,,,3.0,1.5,2.6*34
$GPRMC,021534.000,A,3353.7480,N,09832.0295,W,0.26,76.02,040412,,,D*4F
$GPGGA,021535.000,3353.7480,N,09832.0294,W,2,07,1.5,324.5,M,-23.7,M,1.8,0000*40
$GPGSA,A,3,01,11,23,07,08,13,19,,,,,,3.0,1.5,2.6*34
$GPRMC,021535.000,A,3353.7480,N,09832.0294,W,0.18,45.21,040412,,,D*43
$GPGGA,021536.000,3353.7480,N,09832.0295,W,2,07,1.5,324.5,M,-23.7,M,0.8,0000*43
$GPGSA,A,3,01,11,23,07,08,13,19,,,,,,3.0,1.5,2.6*34
$GPRMC,021536.000,A,3353.7480,N,09832.0295,W,0.09,356.35,040412,,,D*75
$GPGGA,021537.000,3353.7481,N,09832.0295,W,2,07,1.5,324.4,M,-23.7,M,1.8,0000*43
$GPGSA,A,3,01,11,23,07,08,13,19,,,,,,3.0,1.5,2.6*34
$GPRMC,021537.000,A,3353.7481,N,09832.0295,W,0.16,40.67,040412,,,D*48
$GPGGA,021538.000,3353.7481,N,09832.0295,W,2,07,1.5,324.4,M,-23.7,M,0.8,0000*4D
$GPGSA,A,3,01,11,23,07,08,13,19,,,,,,3.0,1.5,2.6*34
$GPGSV,3,1,12,07,73,047,37,08,48,326,32,19,47,055,37,13,39,183,22*73
$GPGSV,3,2,12,28,33,271,20,11,33,122,29,01,16,136,16,03,13,043,*7E
$GPGSV,3,3,12,23,12,168,36,17,11,208,17,26,10,322,,06,02,040,*7E
$GPRMC,021538.000,A,3353.7481,N,09832.0295,W,0.14,11.59,040412,,,D*4C
$GPGGA,021539.000,3353.7481,N,09832.0295,W,2,07,1.5,324.5,M,-23.7,M,0.8,0000*4D
$GPGSA,A,3,01,11,23,07,08,13,19,,,,,,3.0,1.5,2.6*34
$GPRMC,021539.000,A,3353.7481,N,09832.0295,W,0.09,312.00,040412,,,D*7D
$GPGGA,021540.000,3353.7481,N,09832.0296,W,2,07,1.5,324.4,M,-23.7,M,1.8,0000*40
$GPGSA,A,3,01,11,23,07,08,13,19,,,,,,3.0,1.5,2.6*34
$GPRMC,021540.000,A,3353.7481,N,09832.0296,W,0.20,37.22,040412,,,D*4F
$GPGGA,021541.000,3353.7482,N,09832.0296,W,2,07,1.5,324.3,M,-23.7,M,0.8,0000*44
$GPGSA,A,3,01,11,23,07,08,13,19,,,,,,3.0,1.5,2.6*34
$GPRMC,021541.000,A,3353.7482,N,09832.0296,W,0.26,31.54,040412,,,D*4C
$GPGGA,021542.000,3353.7483,N,09832.0296,W,2,07,1.5,324.2,M,-23.7,M,0.8,0000*47
$GPGSA,A,3,01,11,23,07,08,13,19,,,,,,3.0,1.5,2.6*34
$GPRMC,021542.000,A,3353.7483,N,09832.0296,W,0.24,44.27,040412,,,D*4A
$GPGGA,021543.000,3353.7483,N,09832.0296,W,2,07,1.5,324.3,M,-23.7,M,0.8,0000*47
$GPGSA,A,3,01,11,23,07,08,13,19,,,,,,3.0,1.5,2.6*34
$GPGSV,3,1,12,07,73,047,37,08,48,326,32,19,47,055,37,13,39,183,22*73
$GPGSV,3,2,12,28,33,271,19,11,33,122,29,01,16,136,14,03,13,043,*76
$GPGSV,3,3,12,23,12,168,36,17,11,208,16,26,10,322,,06,02,040,*7F
$GPRMC,021543.000,A,3353.7483,N,09832.0296,W,0.13,256.13,040412,,,D*79
$GPGGA,021544.000,3353.7482,N,09832.0297,W,2,07,1.5,324.4,M,-23.7,M,0.8,0000*47
$GPGSA,A,3,01,11,23,07,08,13,19,,,,,,3.0,1.5,2.6*34
$GPRMC,021544.000,A,3353.7482,N,09832.0297,W,0.15,216.38,040412,,,D*75
$GPGGA,021545.000,3353.7481,N,09832.0297,W,2,07,1.5,324.5,M,-23.7,M,1.8,0000*45
$GPGSA,A,3,01,11,23,07,08,13,19,,,,,,3.0,1.5,2.6*34
$GPRMC,021545.000,A,3353.7481,N,09832.0297,W,0.18,216.37,040412,,,D*75
$GPGGA,021546.000,3353.7481,N,09832.0297,W,2,07,1.5,324.4,M,-23.7,M,2.8,0000*44
$GPGSA,A,3,01,11,23,07,08,13,19,,,,,,3.0,1.5,2.6*34
$GPRMC,021546.000,A,3353.7481,N,09832.0297,W,0.09,72.08,040412,,,D*4A
$GPGGA,021547.000,3353.7481,N,09832.0297,W,2,07,1.5,324.5,M,-23.7,M,3.8,0000*45
$GPGSA,A,3,01,11,23,07,08,13,19,,,,,,3.0,1.5,2.6*34
$GPRMC,021547.000,A,3353.7481,N,09832.0297,W,0.13,199.30,040412,,,D*7F
$GPGGA,021548.000,3353.7480,N,09832.0298,W,2,08,1.3,324.7,M,-23.7,M,0.8,0000*4C
$GPGSA,A,3,01,11,23,03,07,08,13,19,,,,,2.1,1.3,1.6*32
$GPGSV,3,1,12,07,73,047,37,08,48,326,32,19,47,055,37,13,39,183,22*73
$GPGSV,3,2,12,28,33,271,13,11,33,122,30,01,16,136,14,03,13,043,14*71
$GPGSV,3,3,12,23,12,168,37,17,11,208,13,26,10,322,,06,02,040,*7B
$GPRMC,021548.000,A,3353.7480,N,09832.0298,W,0.22,216.06,040412,,,D*7D
$GPGGA,021549.000,3353.7480,N,09832.0298,W,2,08,1.3,324.9,M,-23.7,M,0.8,0000*43
$GPGSA,A,3,01,11,23,03,07,08,13,19,,,,,2.1,1.3,1.6*32
$GPRMC,021549.000,A,3353.7480,N,09832.0298,W,0.11,138.33,040412,,,D*75
$GPGGA,021550.000,3353.7479,N,09832.0298,W,2,08,1.3,325.1,M,-23.7,M,0.8,0000*44
$GPGSA,A,3,01,11,23,03,07,08,13,19,,,,,2.1,1.3,1.6*32
$GPRMC,021550.000,A,3353.7479,N,09832.0298,W,0.26,236.23,040412,,,D*73
$GPGGA,021551.000,3353.7479,N,09832.0298,W,2,08,1.3,325.3,M,-23.7,M,1.8,0000*46
$GPGSA,A,3,01,11,23,03,07,08,13,19,,,,,2.1,1.3,1.6*32
$GPRMC,021551.000,A,3353.7479,N,09832.0298,W,0.09,247.56,040412,,,D*7B
$GPGGA,021552.000,3353.7480,N,09832.0299,W,2,08,1.3,325.3,M,-23.7,M,2.8,0000*41
$GPGSA,A,3,01,11,23,03,07,08,13,19,,,,,2.1,1.3,1.6*32
$GPRMC,021552.000,A,3353.7480,N,09832.0299,W,0.03,279.57,040412,,,D*79
$GPGGA,021553.000,3353.7481,N,09832.0298,W,2,08,1.3,325.1,M,-23.7,M,3.8,0000*43
$GPGSA,A,3,01,11,23,03,07,08,13,19,,,,,2.1,1.3,1.6*32
$GPGSV,3,1,12,07,73,047,37,08,48,326,32,19,47,055,37,13,39,183,21*70
$GPGSV,3,2,12,28,33,271,13,11,33,122,30,01,16,136,17,03,13,043,15*73
$GPGSV,3,3,12,23,12,168,37,17,11,208,,26,10,322,,06,02,040,*79
$GPRMC,021553.000,A,3353.7481,N,09832.0298,W,0.24,47.80,040412,,,D*48
$GPGGA,021554.000,3353.7481,N,09832.0298,W,2,08,1.3,325.0,M,-23.7,M,0.8,0000*46
$GPGSA,A,3,01,11,23,03,07,08,13,19,,,,,2.1,1.3,1.6*32
$GPRMC,021554.000,A,3353.7481,N,09832.0298,W,0.12,49.95,040412,,,D*40
$GPGGA,021555.000,3353.7482,N,09832.0298,W,2,08,1.3,324.9,M,-23.7,M,0.8,0000*4C
$GPGSA,A,3,01,11,23,03,07,08,13,19,,,,,2.1,1.3,1.6*32
$GPRMC,021555.000,A,3353.7482,N,09832.0298,W,0.13,23.56,040412,,,D*40
$GPGGA,021556.000,3353.7482,N,09832.0297,W,2,08,1.3,324.9,M,-23.7,M,0.8,0000*40
$GPGSA,A,3,01,11,23,03,07,08,13,19,,,,,2.1,1.3,1.6*32
$GPRMC,021556.000,A,3353.7482,N,09832.0297,W,0.18,107.23,040412,,,D*72
$GPGGA,021557.000,3353.7482,N,09832.0297,W,2,08,1.3,324.9,M,-23.7,M,1.8,0000*40
$GPGSA,A,3,01,11,23,03,07,08,13,19,,,,,2.1,1.3,1.6*32
$GPRMC,021557.000,A,3353.7482,N,09832.0297,W,0.15,148.91,040412,,,D*7C
$GPGGA,021558.000,3353.7482,N,09832.0296,W,2,08,1.3,324.8,M,-23.7,M,2.8,0000*4C
$GPGSA,A,3,01,11,23,03,07,08,13,19,,,,,2.1,1.3,1.6*32
$GPGSV,3,1,12,07,73,047,37,08,48,326,31,19,47,055,37,13,39,183,20*72
$GPGSV,3,2,12,28,33,271,,11,33,122,29,01,16,136,24,03,13,043,16*7A
$GPGSV,3,3,12,23,12,168,37,17,11,208,,26,10,322,,06,02,040,*79
$GPRMC,021558.000,A,3353.7482,N,09832.0296,W,0.08,99.75,040412,,,D*49
$GPGGA,021559.000,3353.7483,N,09832.0296,W,2,08,1.3,324.6,M,-23.7,M,3.8,0000*43
$GPGSA,A,3,01,11,23,03,07,08,13,19,,,,,2.1,1.3,1.6*32
$GPRMC,021559.000,A,3353.7483,N,09832.0296,W,0.00,64.57,040412,,,D*43
$GPGGA,021600.000,3353.7482,N,09832.0296,W,2,08,1.3,324.6,M,-23.7,M,0.8,0000*4E
$GPGSA,A,3,01,11,23,03,07,08,13,19,,,,,2.1,1.3,1.6*32
$GPRMC,021600.000,A,3353.7482,N,09832.0296,W,0.27,183.22,040412,,,D*72
$GPGGA,021601.000,3353.7482,N,09832.0296,W,2,08,1.3,324.6,M,-23.7,M,0.8,0000*4F
$GPGSA,A,3,01,11,23,03,07,08,13,19,,,,,2.1,1.3,1.6*32
$GPRMC,021601.000,A,3353.7482,N,09832.0296,W,0.15,149.86,040412,,,D*7A
$GPGGA,021602.000,3353.7482,N,09832.0296,W,2,08,1.3,324.6,M,-23.7,M,0.8,0000*4C
$GPGSA,A,3,01,11,23,03,07,08,13,19,,,,,2.1,1.3,1.6*32
$GPRMC,021602.000,A,3353.7482,N,09832.0296,W,0.11,202.14,040412,,,D*7A
$GPGGA,021603.000,3353.7482,N,09832.0296,W,2,08,1.3,324.6,M,-23.7,M,1.8,0000*4C
$GPGSA,A,3,01,11,23,03,07,08,13,19,,,,,2.1,1.3,1.6*32
$GPGSV,3,1,12,07,73,047,37,08,48,326,31,19,47,055,37,13,39,183,19*78
$GPGSV,3,2,12,28,33,271,,11,33,122,29,01,16,136,24,03,13,043,15*79
$GPGSV,3,3,12,23,12,168,37,17,11,208,,26,10,322,,06,02,040,*79
$GPRMC,021603.000,A,3353.7482,N,09832.0296,W,0.12,218.34,040412,,,D*71
$GPGGA,021604.000,3353.7482,N,09832.0296,W,2,07,1.4,324.8,M,-23.7,M,2.8,0000*4E
$GPGSA,A,3,01,11,23,03,07,08,19,,,,,,2.1,1.4,1.7*36
$GPRMC,021604.000,A,3353.7482,N,09832.0296,W,0.25,215.10,040412,,,D*79
$GPGGA,021605.000,3353.7481,N,09832.0297,W,2,07,1.4,324.9,M,-23.7,M,3.8,0000*4D
$GPGSA,A,3,01,11,23,03,07,08,19,,,,,,2.1,1.4,1.7*36
$GPRMC,021605.000,A,3353.7481,N,09832.0297,W,0.29,205.96,040412,,,D*79
$GPGGA,021606.000,3353.7480,N,09832.0297,W,2,07,1.4,325.1,M,-23.7,M,0.8,0000*45
$GPGSA,A,3,01,11,23,03,07,08,19,,,,,,2.1,1.4,1.7*36
$GPRMC,021606.000,A,3353.7480,N,09832.0297,W,0.35,220.96,040412,,,D*71
$GPGGA,021607.000,3353.7480,N,09832.0298,W,2,07,1.4,325.2,M,-23.7,M,0.8,0000*48
$GPGSA,A,3,01,11,23,03,07,08,19,,,,,,2.1,1.4,1.7*36
$GPRMC,021607.000,A,3353.7480,N,09832.0298,W,0.31,213.58,040412,,,D*79
$GPGGA,021608.000,3353.7480,N,09832.0298,W,2,07,1.4,325.1,M,-23.7,M,0.8,0000*44
$GPGSA,A,3,01,11,23,03,07,08,19,,,,,,2.1,1.4,1.7*36
$GPGSV,3,1,12,07,73,047,36,08,48,326,31,19,47,055,37,13,39,183,*71
$GPGSV,3,2,12,28,33,271,,11,33,122,28,01,16,136,24,03,13,043,15*78
$GPGSV,3,3,12,23,12,168,37,17,11,208,,26,10,322,,06,02,040,*79
$GPRMC,021608.000,A,3353.7480,N,09832.0298,W,0.21,146.22,040412,,,D*79
$GPGGA,021609.000,3353.7480,N,09832.0297,W,2,07,1.4,324.9,M,-23.7,M,1.8,0000*42
$GPGSA,A,3,01,11,23,03,07,08,19,,,,,,2.1,1.4,1.7*36
$GPRMC,021609.000,A,3353.7480,N,09832.0297,W,0.21,127.75,040412,,,D*72
$GPGGA,021610.000,3353.7481,N,09832.0296,W,2,07,1.4,324.6,M,-23.7,M,0.8,0000*44
$GPGSA,A,3,01,11,23,03,07,08,19,,,,,,2.1,1.4,1.7*36
$GPRMC,021610.000,A,3353.7481,N,09832.0296,W,0.25,90.41,040412,,,D*44
$GPGGA,021611.000,3353.7482,N,09832.0295,W,2,07,1.4,324.2,M,-23.7,M,1.8,0000*40
$GPGSA,A,3,01,11,23,03,07,08,19,,,,,,2.1,1.4,1.7*36
$GPRMC,021611.000,A,3353.7482,N,09832.0295,W,0.34,91.19,040412,,,D*49
$GPGGA,021612.000,3353.7483,N,09832.0294,W,2,07,1.4,323.8,M,-23.7,M,0.8,0000*4F
$GPGSA,A,3,01,11,23,03,07,08,19,,,,,,2.1,1.4,1.7*36
$GPRMC,021612.000,A,3353.7483,N,09832.0294,W,0.37,69.13,040412,,,D*44
$GPGGA,021613.000,3353.7483,N,09832.0293,W,2,07,1.4,323.6,M,-23.7,M,0.8,0000*47
$GPGSA,A,3,01,11,23,03,07,08,19,,,,,,2.1,1.4,1.7*36
$GPGSV,3,1,12,07,73,047,36,08,48,326,30,19,47,055,36,13,39,183,*71
$GPGSV,3,2,12,28,33,271,,11,33,122,28,01,16,136,23,03,13,043,14*7E
