$GPGGA,101824.000,3353.7422,N,09832.0198,W,2,06,1.8,305.0,M,-23.7,M,0.8,0000*42
$GPGSA,A,3,12,05,02,04,25,10,,,,,,,3.1,1.8,2.6*3B
$GPGSV,3,1,10,05,75,131,29,12,51,212,28,02,49,042,32,25,47,282,30*7E
$GPGSV,3,2,10,10,29,046,34,29,28,312,,04,17,063,24,26,07,148,23*79
$GPGSV,3,3,10,13,02,040,,51,49,195,34*7F
$GPRMC,101824.000,A,3353.7422,N,09832.0198,W,0.11,225.22,030412,,,D*73
$GPGGA,101825.000,3353.7420,N,09832.0195,W,2,06,1.8,305.5,M,-23.7,M,0.8,0000*49
$GPGSA,A,3,12,05,02,04,25,10,,,,,,,3.1,1.8,2.6*3B
$GPRMC,101825.000,A,3353.7420,N,09832.0195,W,0.21,152.60,030412,,,D*7B
$GPGGA,101826.000,3353.7418,N,09832.0191,W,2,06,1.8,306.1,M,-23.7,M,0.8,0000*42
$GPGSA,A,3,12,05,02,04,25,10,,,,,,,3.1,1.8,2.6*3B
$GPRMC,101826.000,A,3353.7418,N,09832.0191,W,0.16,144.26,030412,,,D*76
$GPGGA,101827.000,3353.7416,N,09832.0189,W,2,06,1.8,306.6,M,-23.7,M,0.8,0000*43
$GPGSA,A,3,12,05,02,04,25,10,,,,,,,3.1,1.8,2.6*3B
$GPRMC,101827.000,A,3353.7416,N,09832.0189,W,0.10,130.49,030412,,,D*7C
$GPGGA,101828.000,3353.7415,N,09832.0187,W,2,06,1.8,307.3,M,-23.7,M,1.8,0000*44
$GPGSA,A,3,12,05,02,04,25,10,,,,,,,3.1,1.8,2.6*3B
$GPRMC,101828.000,A,3353.7415,N,09832.0187,W,0.07,117.59,030412,,,D*7C
$GPGGA,101829.000,3353.7415,N,09832.0184,W,2,06,1.8,307.9,M,-23.7,M,2.8,0000*4F
$GPGSA,A,3,12,05,02,04,25,10,,,,,,,3.1,1.8,2.6*3B
$GPGSV,3,1,10,05,75,131,30,12,51,212,29,02,49,042,34,25,47,282,30*71
$GPGSV,3,2,10,10,29,046,36,29,28,312,,04,17,063,26,26,07,148,25*7F
$GPGSV,3,3,10,13,02,040,,51,49,195,34*7F
$GPRMC,101829.000,A,3353.7415,N,09832.0184,W,0.06,55.58,030412,,,D*49
$GPGGA,101830.000,3353.7414,N,09832.0183,W,2,06,1.8,308.4,M,-23.7,M,0.8,0000*41
$GPGSA,A,3,12,05,02,04,25,10,,,,,,,3.1,1.8,2.6*3B
$GPRMC,101830.000,A,3353.7414,N,09832.0183,W,0.09,80.70,030412,,,D*4A
$GPGGA,101831.000,3353.7414,N,09832.0181,W,2,06,1.8,308.8,M,-23.7,M,0.8,0000*4E
$GPGSA,A,3,12,05,02,04,25,10,,,,,,,3.1,1.8,2.6*3B
$GPRMC,101831.000,A,3353.7414,N,09832.0181,W,0.07,71.88,030412,,,D*4E
$GPGGA,101832.000,3353.7413,N,09832.0180,W,2,06,1.8,309.2,M,-23.7,M,0.8,0000*40
$GPGSA,A,3,12,05,02,04,25,10,,,,,,,3.1,1.8,2.5*38
$GPRMC,101832.000,A,3353.7413,N,09832.0180,W,0.04,150.08,030412,,,D*72
$GPGGA,101833.000,3353.7413,N,09832.0179,W,2,06,1.8,309.6,M,-23.7,M,0.8,0000*43
$GPGSA,A,3,12,05,02,04,25,10,,,,,,,3.1,1.8,2.5*38
$GPRMC,101833.000,A,3353.7413,N,09832.0179,W,0.05,175.24,030412,,,D*7D
$GPGGA,101834.000,3353.7412,N,09832.0178,W,2,06,1.8,309.9,M,-23.7,M,0.8,0000*4B
$GPGSA,A,3,12,05,02,04,25,10,,,,,,,3.1,1.8,2.5*38
$GPGSV,3,1,10,05,76,130,30,12,51,212,29,02,49,042,34,25,47,282,30*73
$GPGSV,3,2,10,10,29,046,36,29,28,312,,04,17,063,26,26,07,147,26*73
$GPGSV,3,3,10,13,02,040,,51,49,195,34*7F
$GPRMC,101834.000,A,3353.7412,N,09832.0178,W,0.06,147.84,030412,,,D*72
$GPGGA,101835.000,3353.7411,N,09832.0177,W,2,06,1.8,310.1,M,-23.7,M,1.8,0000*47
$GPGSA,A,3,12,05,02,04,25,10,,,,,,,3.1,1.8,2.5*38
$GPRMC,101835.000,A,3353.7411,N,09832.0177,W,0.06,150.76,030412,,,D*74
$GPGGA,101836.000,3353.7410,N,09832.0176,W,2,06,1.8,310.1,M,-23.7,M,0.8,0000*45
$GPGSA,A,3,12,05,02,04,25,10,,,,,,,3.1,1.8,2.5*38
$GPRMC,101836.000,A,3353.7410,N,09832.0176,W,0.03,225.86,030412,,,D*7C
$GPGGA,101837.000,3353.7410,N,09832.0176,W,2,06,1.8,310.3,M,-23.7,M,0.8,0000*46
$GPGSA,A,3,12,05,02,04,25,10,,,,,,,3.1,1.8,2.5*38
$GPRMC,101837.000,A,3353.7410,N,09832.0176,W,0.13,278.40,030412,,,D*7E
$GPGGA,101838.000,3353.7410,N,09832.0175,W,2,06,1.8,310.5,M,-23.7,M,0.8,0000*4C
$GPGSA,A,3,12,05,02,04,25,10,,,,,,,3.1,1.8,2.5*38
$GPRMC,101838.000,A,3353.7410,N,09832.0175,W,0.23,311.31,030412,,,D*79
$GPGGA,101839.000,3353.7409,N,09832.0175,W,2,06,1.8,310.6,M,-23.7,M,1.8,0000*47
$GPGSA,A,3,12,05,02,04,25,10,,,,,,,3.1,1.8,2.5*38
$GPGSV,3,1,10,05,76,130,31,12,51,212,29,02,49,042,34,25,47,282,31*73
$GPGSV,3,2,10,10,29,046,36,29,28,312,,04,17,063,25,26,07,147,25*73
$GPGSV,3,3,10,13,02,040,,51,49,195,34*7F
$GPRMC,101839.000,A,3353.7409,N,09832.0175,W,0.18,333.35,030412,,,D*7C
$GPGGA,101840.000,3353.7409,N,09832.0174,W,2,06,1.8,310.5,M,-23.7,M,2.8,0000*48
$GPGSA,A,3,12,05,02,04,25,10,,,,,,,3.1,1.8,2.5*38
$GPRMC,101840.000,A,3353.7409,N,09832.0174,W,0.12,50.45,030412,,,D*48
$GPGGA,101841.000,3353.7408,N,09832.0174,W,2,06,1.8,310.4,M,-23.7,M,3.8,0000*48
$GPGSA,A,3,12,05,02,04,25,10,,,,,,,3.1,1.8,2.5*38
$GPRMC,101841.000,A,3353.7408,N,09832.0174,W,0.11,346.03,030412,,,D*7D
$GPGGA,101842.000,3353.7407,N,09832.0173,W,2,06,1.8,310.2,M,-23.7,M,0.8,0000*46
$GPGSA,A,3,12,05,02,04,25,10,,,,,,,3.1,1.8,2.5*38
$GPRMC,101842.000,A,3353.7407,N,09832.0173,W,0.11,80.71,030412,,,D*4A
$GPGGA,101843.000,3353.7407,N,09832.0173,W,2,06,1.8,309.9,M,-23.7,M,0.8,0000*44
$GPGSA,A,3,12,05,02,04,25,10,,,,,,,3.1,1.8,2.5*38
$GPRMC,101843.000,A,3353.7407,N,09832.0173,W,0.12,82.77,030412,,,D*4C
$GPGGA,101844.000,3353.7405,N,09832.0173,W,2,06,1.8,309.5,M,-23.7,M,0.8,0000*4D
$GPGSA,A,3,12,05,02,04,25,10,,,,,,,3.1,1.8,2.5*38
$GPGSV,3,1,10,05,76,130,31,12,51,212,28,02,49,042,35,25,47,282,30*72
$GPGSV,3,2,10,10,29,046,36,29,28,312,,04,17,063,24,26,07,147,25*72
$GPGSV,3,3,10,13,02,040,,51,49,195,34*7F
$GPRMC,101844.000,A,3353.7405,N,09832.0173,W,0.06,204.85,030412,,,D*7D
$GPGGA,101845.000,3353.7404,N,09832.0173,W,2,06,1.8,309.2,M,-23.7,M,1.8,0000*4B
$GPGSA,A,3,12,05,02,04,25,10,,,,,,,3.1,1.8,2.5*38
$GPRMC,101845.000,A,3353.7404,N,09832.0173,W,0.12,203.42,030412,,,D*74
$GPGGA,101846.000,3353.7403,N,09832.0174,W,2,06,1.8,308.8,M,-23.7,M,2.8,0000*40
$GPGSA,A,3,12,05,02,04,25,10,,,,,,,3.1,1.8,2.5*38
$GPRMC,101846.000,A,3353.7403,N,09832.0174,W,0.14,184.73,030412,,,D*7F
$GPGGA,101847.000,3353.7402,N,09832.0174,W,2,06,1.8,308.4,M,-23.7,M,3.8,0000*4D
$GPGSA,A,3,12,05,02,04,25,10,,,,,,,3.1,1.8,2.5*38
$GPRMC,101847.000,A,3353.7402,N,09832.0174,W,0.15,182.27,030412,,,D*79
$GPGGA,101848.000,3353.7400,N,09832.0175,W,2,06,1.8,307.8,M,-23.7,M,0.8,0000*41
$GPGSA,A,3,12,05,02,04,25,10,,,,,,,3.1,1.8,2.5*38
$GPRMC,101848.000,A,3353.7400,N,09832.0175,W,0.21,168.87,030412,,,D*7C
$GPGGA,101849.000,3353.7399,N,09832.0176,W,2,06,1.8,307.4,M,-23.7,M,0.8,0000*48
$GPGSA,A,3,12,05,02,04,25,10,,,,,,,3.1,1.8,2.5*38
$GPGSV,3,1,10,05,76,130,32,12,51,212,28,02,49,042,35,25,47,282,30*71
$GPGSV,3,2,10,10,29,046,37,29,28,312,,04,17,063,23,26,07,147,25*74
$GPGSV,3,3,10,13,02,040,,51,49,195,34*7F
$GPRMC,101849.000,A,3353.7399,N,09832.0176,W,0.17,215.60,030412,,,D*7C
$GPGGA,101850.000,3353.7399,N,09832.0177,W,2,06,1.8,306.9,M,-23.7,M,0.8,0000*4D
$GPGSA,A,3,12,05,02,04,25,10,,,,,,,3.1,1.8,2.5*38
$GPRMC,101850.000,A,3353.7399,N,09832.0177,W,0.12,142.90,030412,,,D*7E
$GPGGA,101851.000,3353.7399,N,09832.0178,W,2,06,1.8,306.5,M,-23.7,M,0.8,0000*4F
$GPGSA,A,3,12,05,02,04,25,10,,,,,,,3.1,1.8,2.5*38
$GPRMC,101851.000,A,3353.7399,N,09832.0178,W,0.13,259.97,030412,,,D*7F
$GPGGA,101852.000,3353.7399,N,09832.0179,W,2,06,1.8,306.3,M,-23.7,M,1.8,0000*4A
$GPGSA,A,3,12,05,02,04,25,10,,,,,,,3.1,1.8,2.5*38
$GPRMC,101852.000,A,3353.7399,N,09832.0179,W,0.24,291.57,030412,,,D*71
$GPGGA,101853.000,3353.7399,N,09832.0180,W,2,06,1.8,306.1,M,-23.7,M,2.8,0000*4C
$GPGSA,A,3,12,05,02,04,25,10,,,,,,,3.1,1.8,2.5*38
$GPRMC,101853.000,A,3353.7399,N,09832.0180,W,0.22,292.50,030412,,,D*74
$GPGGA,101854.000,3353.7399,N,09832.0181,W,2,06,1.8,305.7,M,-23.7,M,0.8,0000*4D
$GPGSA,A,3,12,05,02,04,25,10,,,,,,,3.1,1.8,2.5*38
$GPGSV,3,1,10,05,76,130,32,12,51,212,28,02,49,042,35,25,47,282,29*79
$GPGSV,3,2,10,10,29,046,37,29,28,312,,04,17,063,23,26,07,147,25*74
$GPGSV,3,3,10,13,02,040,,51,49,195,34*7F
$GPRMC,101854.000,A,3353.7399,N,09832.0181,W,0.10,282.07,030412,,,D*70
$GPGGA,101855.000,3353.7399,N,09832.0182,W,2,06,1.8,305.2,M,-23.7,M,0.8,0000*4A
$GPGSA,A,3,12,05,02,04,25,10,,,,,,,3.1,1.8,2.5*38
$GPRMC,101855.000,A,3353.7399,N,09832.0182,W,0.12,125.95,030412,,,D*75
$GPGGA,101856.000,3353.7398,N,09832.0182,W,2,06,1.8,304.6,M,-23.7,M,0.8,0000*4D
$GPGSA,A,3,12,05,02,04,25,10,,,,,,,3.1,1.8,2.5*38
$GPRMC,101856.000,A,3353.7398,N,09832.0182,W,0.22,158.52,030412,,,D*75
$GPGGA,101857.000,3353.7397,N,09832.0183,W,2,06,1.8,304.3,M,-23.7,M,1.8,0000*46
$GPGSA,A,3,12,05,02,04,25,10,,,,,,,3.1,1.8,2.5*38
$GPRMC,101857.000,A,3353.7397,N,09832.0183,W,0.20,228.03,030412,,,D*78
$GPGGA,101858.000,3353.7397,N,09832.0184,W,2,06,1.8,304.1,M,-23.7,M,0.8,0000*4D
$GPGSA,A,3,12,05,02,04,25,10,,,,,,,3.1,1.8,2.5*38
$GPRMC,101858.000,A,3353.7397,N,09832.0184,W,0.24,249.74,030412,,,D*73
$GPGGA,101859.000,3353.7396,N,09832.0185,W,2,06,1.8,303.8,M,-23.7,M,1.8,0000*43
$GPGSA,A,3,12,05,02,04,25,10,,,,,,,3.1,1.8,2.5*38
$GPGSV,3,1,10,05,76,130,33,12,51,212,28,02,49,042,35,25,47,282,30*70
$GPGSV,3,2,10,10,29,046,37,29,28,312,,04,17,063,22,26,07,147,25*75
$GPGSV,3,3,10,13,02,040,,51,49,195,34*7F
$GPRMC,101859.000,A,3353.7396,N,09832.0185,W,0.23,254.07,030412,,,D*7D
$GPGGA,101900.000,3353.7395,N,09832.0186,W,2,06,1.8,303.3,M,-23.7,M,0.8,0000*44
$GPGSA,A,3,12,05,02,04,25,10,,,,,,,3.1,1.8,2.5*38
$GPRMC,101900.000,A,3353.7395,N,09832.0186,W,0.25,153.28,030412,,,D*7F
$GPGGA,101901.000,3353.7395,N,09832.0186,W,2,06,1.8,303.1,M,-23.7,M,0.8,0000*47
$GPGSA,A,3,12,05,02,04,25,10,,,,,,,3.1,1.8,2.5*38
$GPRMC,101901.000,A,3353.7395,N,09832.0186,W,0.17,206.43,030412,,,D*71
$GPGGA,101902.000,3353.7394,N,09832.0186,W,2,06,1.8,302.7,M,-23.7,M,0.8,0000*42
$GPGSA,A,3,12,05,02,04,25,10,,,,,,,3.1,1.8,2.5*38
$GPRMC,101902.000,A,3353.7394,N,09832.0186,W,0.12,173.99,030412,,,D*70
$GPGGA,101903.000,3353.7394,N,09832.0186,W,2,06,1.8,302.3,M,-23.7,M,1.8,0000*46
$GPGSA,A,3,12,05,02,04,25,10,,,,,,,3.1,1.8,2.5*38
$GPRMC,101903.000,A,3353.7394,N,09832.0186,W,0.30,134.77,030412,,,D*72
$GPGGA,101904.000,3353.7393,N,09832.0186,W,2,06,1.8,301.8,M,-23.7,M,2.8,0000*4D
$GPGSA,A,3,12,05,02,04,25,10,,,,,,,3.1,1.8,2.5*38
$GPGSV,3,1,10,05,76,130,33,12,51,212,28,02,49,042,36,25,47,282,29*7B
$GPGSV,3,2,10,10,29,046,37,29,28,312,19,04,17,063,17,26,07,147,25*7B
$GPGSV,3,3,10,13,02,040,,51,49,195,34*7F
$GPRMC,101904.000,A,3353.7393,N,09832.0186,W,0.34,140.68,030412,,,D*7B
$GPGGA,101905.000,3353.7392,N,09832.0185,W,2,06,1.8,301.5,M,-23.7,M,3.8,0000*42
$GPGSA,A,3,12,05,02,04,25,10,,,,,,,3.1,1.8,2.5*38
$GPRMC,101905.000,A,3353.7392,N,09832.0185,W,0.24,151.18,030412,,,D*7E
$GPGGA,101906.000,3353.7392,N,09832.0186,W,2,06,1.8,301.1,M,-23.7,M,0.8,0000*45
$GPGSA,A,3,12,05,02,04,25,10,,,,,,,3.1,1.8,2.5*38
$GPRMC,101906.000,A,3353.7392,N,09832.0186,W,0.22,143.34,030412,,,D*75
$GPGGA,101907.000,3353.7391,N,09832.0186,W,2,06,1.8,300.7,M,-23.7,M,0.8,0000*40
$GPGSA,A,3,12,05,02,04,25,10,,,,,,,3.1,1.8,2.5*38
$GPRMC,101907.000,A,3353.7391,N,09832.0186,W,0.27,144.41,030412,,,D*77
$GPGGA,101908.000,3353.7391,N,09832.0186,W,2,06,1.8,300.3,M,-23.7,M,0.8,0000*4B
$GPGSA,A,3,12,05,02,04,25,10,,,,,,,3.1,1.8,2.5*38
$GPRMC,101908.000,A,3353.7391,N,09832.0186,W,0.34,158.71,030412,,,D*74
$GPGGA,101909.000,3353.7390,N,09832.0186,W,2,06,1.8,299.9,M,-23.7,M,0.8,0000*40
$GPGSA,A,3,12,05,02,04,25,10,,,,,,,3.1,1.8,2.5*38
$GPGSV,3,1,10,05,76,130,33,12,51,212,28,02,49,042,36,25,47,282,29*7B
$GPGSV,3,2,10,10,29,046,37,29,28,312,19,04,17,063,14,26,07,147,24*79
$GPGSV,3,3,10,13,02,040,,51,49,195,34*7F
$GPRMC,101909.000,A,3353.7390,N,09832.0186,W,0.38,159.55,030412,,,D*7F
$GPGGA,101910.000,3353.7389,N,09832.0186,W,2,06,1.8,299.5,M,-23.7,M,1.8,0000*4D
$GPGSA,A,3,12,05,02,04,25,10,,,,,,,3.1,1.8,2.5*38
$GPRMC,101910.000,A,3353.7389,N,09832.0186,W,0.36,165.99,030412,,,D*7E
$GPGGA,101911.000,3353.7388,N,09832.0187,W,2,06,1.8,299.2,M,-23.7,M,2.8,0000*48
$GPGSA,A,3,12,05,02,04,25,10,,,,,,,3.1,1.8,2.5*38
$GPRMC,101911.000,A,3353.7388,N,09832.0187,W,0.32,169.55,030412,,,D*77
$GPGGA,101912.000,3353.7388,N,09832.0187,W,2,06,1.8,298.9,M,-23.7,M,0.8,0000*43
$GPGSA,A,3,12,05,02,04,25,10,,,,,,,3.1,1.8,2.5*38
$GPRMC,101912.000,A,3353.7388,N,09832.0187,W,0.39,156.68,030412,,,D*7D
$GPGGA,101913.000,3353.7387,N,09832.0187,W,2,06,1.8,298.6,M,-23.7,M,0.8,0000*42
$GPGSA,A,3,12,05,02,04,25,10,,,,,,,3.1,1.8,2.5*38
$GPRMC,101913.000,A,3353.7387,N,09832.0187,W,0.41,161.11,030412,,,D*76
$GPGGA,101914.000,3353.7386,N,09832.0186,W,2,06,1.8,298.4,M,-23.7,M,0.8,0000*47
$GPGSA,A,3,12,05,02,04,25,10,,,,,,,3.1,1.8,2.5*38
$GPGSV,3,1,10,05,76,130,33,12,51,212,27,02,49,042,36,25,47,282,28*75
$GPGSV,3,2,10,10,29,046,37,29,28,312,20,04,17,063,12,26,07,147,23*72
$GPGSV,3,3,10,13,02,040,,51,49,195,34*7F
$GPRMC,101914.000,A,3353.7386,N,09832.0186,W,0.36,147.62,030412,,,D*71
$GPGGA,101915.000,3353.7386,N,09832.0186,W,2,06,1.8,298.0,M,-23.7,M,1.8,0000*43
$GPGSA,A,3,12,05,02,04,25,10,,,,,,,3.1,1.8,2.5*38
$GPRMC,101915.000,A,3353.7386,N,09832.0186,W,0.50,151.03,030412,,,D*70
$GPGGA,101916.000,3353.7385,N,09832.0186,W,2,06,1.8,297.7,M,-23.7,M,2.8,0000*48
$GPGSA,A,3,12,05,02,04,25,10,,,,,,,3.1,1.8,2.5*38
$GPRMC,101916.000,A,3353.7385,N,09832.0186,W,0.47,143.22,030412,,,D*76
$GPGGA,101917.000,3353.7384,N,09832.0185,W,2,06,1.8,297.4,M,-23.7,M,0.8,0000*4A
$GPGSA,A,3,12,05,02,04,25,10,,,,,,,3.1,1.8,2.5*38
$GPRMC,101917.000,A,3353.7384,N,09832.0185,W,0.51,142.68,030412,,,D*7D
$GPGGA,101918.000,3353.7386,N,09832.0189,W,2,05,2.1,297.2,M,-23.7,M,0.8,0000*44
$GPGSA,A,3,12,05,02,25,10,,,,,,,,4.4,2.1,3.9*39
$GPRMC,101918.000,A,3353.7386,N,09832.0189,W,0.19,202.38,030412,,,D*72
$GPGGA,101919.000,3353.7386,N,09832.0193,W,2,06,1.8,296.8,M,-23.7,M,0.8,0000*4C
$GPGSA,A,3,12,05,02,04,25,10,,,,,,,3.1,1.8,2.5*38
$GPGSV,3,1,10,05,76,130,33,12,51,212,27,02,49,042,35,25,47,282,27*79
$GPGSV,3,2,10,10,29,046,37,29,28,312,21,04,17,063,12,26,07,147,22*72
$GPGSV,3,3,10,13,02,040,,51,49,195,34*7F
$GPRMC,101919.000,A,3353.7386,N,09832.0193,W,0.19,180.16,030412,,,D*7D
$GPGGA,101920.000,3353.7388,N,09832.0195,W,2,06,1.8,296.7,M,-23.7,M,0.8,0000*41
$GPGSA,A,3,12,05,02,04,25,10,,,,,,,3.1,1.8,2.5*38
$GPRMC,101920.000,A,3353.7388,N,09832.0195,W,0.22,193.42,030412,,,D*74
$GPGGA,101921.000,3353.7391,N,09832.0203,W,2,06,1.8,296.4,M,-23.7,M,0.8,0000*47
$GPGSA,A,3,12,05,02,04,25,10,,,,,,,3.1,1.8,2.5*38
$GPRMC,101921.000,A,3353.7391,N,09832.0203,W,0.46,269.16,030412,,,D*74
$GPGGA,101922.000,3353.7395,N,09832.0209,W,2,06,1.8,296.7,M,-23.7,M,1.8,0000*48
$GPGSA,A,3,12,05,02,04,25,10,,,,,,,3.1,1.8,2.5*38
$GPRMC,101922.000,A,3353.7395,N,09832.0209,W,0.64,284.28,030412,,,D*77
$GPGGA,101923.000,3353.7397,N,09832.0213,W,2,06,1.8,297.1,M,-23.7,M,2.8,0000*44
$GPGSA,A,3,12,05,02,04,25,10,,,,,,,3.1,1.8,2.5*38
$GPRMC,101923.000,A,3353.7397,N,09832.0213,W,0.51,282.56,030412,,,D*76
$GPGGA,101924.000,3353.7397,N,09832.0212,W,2,06,1.8,297.4,M,-23.7,M,0.8,0000*45
$GPGSA,A,3,12,05,02,04,25,10,,,,,,,3.1,1.8,2.5*38
$GPGSV,3,1,10,05,76,130,32,12,51,212,26,02,49,042,35,25,47,282,26*78
$GPGSV,3,2,10,10,29,046,37,29,28,312,21,04,17,063,15,26,07,147,22*75
$GPGSV,3,3,10,13,02,040,,51,49,195,34*7F
$GPRMC,101924.000,A,3353.7397,N,09832.0212,W,0.26,265.13,030412,,,D*78
$GPGGA,101925.000,3353.7401,N,09832.0218,W,2,06,1.8,297.9,M,-23.7,M,0.8,0000*4B
$GPGSA,A,3,12,05,02,04,25,10,,,,,,,3.1,1.8,2.5*38
$GPRMC,101925.000,A,3353.7401,N,09832.0218,W,0.47,289.33,030412,,,D*7C
$GPGGA,101926.000,3353.7406,N,09832.0224,W,2,06,1.8,298.0,M,-23.7,M,0.8,0000*46
$GPGSA,A,3,12,05,02,04,25,10,,,,,,,3.1,1.8,2.5*38
$GPRMC,101926.000,A,3353.7406,N,09832.0224,W,0.19,309.22,030412,,,D*75
$GPGGA,101927.000,3353.7409,N,09832.0229,W,2,06,1.8,298.1,M,-23.7,M,1.8,0000*45
$GPGSA,A,3,12,05,02,04,25,10,,,,,,,3.1,1.8,2.5*38
$GPRMC,101927.000,A,3353.7409,N,09832.0229,W,0.40,117.19,030412,,,D*7F
$GPGGA,101928.000,3353.7409,N,09832.0229,W,2,06,1.8,298.1,M,-23.7,M,0.8,0000*4B
$GPGSA,A,3,12,05,02,04,25,10,,,,,,,3.1,1.8,2.5*38
$GPRMC,101928.000,A,3353.7409,N,09832.0229,W,0.30,125.95,030412,,,D*72
$GPGGA,101929.000,3353.7409,N,09832.0228,W,2,06,1.8,298.4,M,-23.7,M,1.8,0000*4F
$GPGSA,A,3,12,05,02,04,25,10,,,,,,,3.1,1.8,2.5*38
$GPGSV,3,1,10,05,76,130,32,12,51,212,27,02,49,042,35,25,47,282,25*7A
$GPGSV,3,2,10,10,29,046,37,29,28,312,21,04,17,063,21,26,07,147,21*71
$GPGSV,3,3,10,13,02,040,,51,49,195,34*7F
$GPRMC,101929.000,A,3353.7409,N,09832.0228,W,0.07,208.43,030412,,,D*71
$GPGGA,101930.000,3353.7416,N,09832.0235,W,2,06,1.8,300.5,M,-23.7,M,0.8,0000*45
$GPGSA,A,3,12,05,02,04,25,10,,,,,,,3.1,1.8,2.5*38
$GPRMC,101930.000,A,3353.7416,N,09832.0235,W,0.12,322.05,030412,,,D*74
$GPGGA,101931.000,3353.7424,N,09832.0245,W,2,06,1.8,302.5,M,-23.7,M,0.8,0000*40
$GPGSA,A,3,12,05,02,04,25,10,,,,,,,3.1,1.8,2.5*38
$GPRMC,101931.000,A,3353.7424,N,09832.0245,W,0.87,306.96,030412,,,D*73
$GPGGA,101932.000,3353.7426,N,09832.0247,W,2,06,1.8,302.5,M,-23.7,M,0.8,0000*43
$GPGSA,A,3,12,05,02,04,25,10,,,,,,,3.1,1.8,2.5*38
$GPRMC,101932.000,A,3353.7426,N,09832.0247,W,0.03,75.51,030412,,,D*40
$GPGGA,101933.000,3353.7431,N,09832.0253,W,2,06,1.8,304.7,M,-23.7,M,1.8,0000*44
$GPGSA,A,3,12,05,02,04,25,10,,,,,,,3.1,1.8,2.5*38
$GPRMC,101933.000,A,3353.7431,N,09832.0253,W,0.30,307.26,030412,,,D*74
$GPGGA,101934.000,3353.7430,N,09832.0250,W,2,06,1.8,305.0,M,-23.7,M,2.8,0000*44
$GPGSA,A,3,12,05,02,04,25,10,,,,,,,3.1,1.8,2.5*38
$GPGSV,3,1,10,05,76,130,32,12,51,212,28,02,49,042,35,25,47,282,21*71
$GPGSV,3,2,10,10,29,046,37,29,28,312,21,04,17,063,24,26,07,147,20*75
$GPGSV,3,3,10,13,02,040,,51,49,195,34*7F
$GPRMC,101934.000,A,3353.7430,N,09832.0250,W,0.31,122.59,030412,,,D*7D
$GPGGA,101935.000,3353.7434,N,09832.0256,W,2,06,1.8,306.6,M,-23.7,M,3.8,0000*43
$GPGSA,A,3,12,05,02,04,25,10,,,,,,,3.1,1.8,2.5*38
$GPRMC,101935.000,A,3353.7434,N,09832.0256,W,0.32,312.03,030412,,,D*73
$GPGGA,101936.000,3353.7436,N,09832.0258,W,2,06,1.8,307.2,M,-23.7,M,0.8,0000*4A
$GPGSA,A,3,12,05,02,04,25,10,,,,,,,3.1,1.8,2.5*38
$GPRMC,101936.000,A,3353.7436,N,09832.0258,W,0.14,332.23,030412,,,D*78
$GPGGA,101937.000,3353.7434,N,09832.0254,W,2,06,1.8,308.0,M,-23.7,M,0.8,0000*48
$GPGSA,A,3,12,05,02,04,25,10,,,,,,,3.1,1.8,2.5*38
$GPRMC,101937.000,A,3353.7434,N,09832.0254,W,0.35,313.70,030412,,,D*71
$GPGGA,101938.000,3353.7434,N,09832.0252,W,2,06,1.8,308.9,M,-23.7,M,0.8,0000*48
$GPGSA,A,3,12,05,02,04,25,10,,,,,,,3.1,1.8,2.5*38
$GPRMC,101938.000,A,3353.7434,N,09832.0252,W,0.26,94.48,030412,,,D*4D
$GPGGA,101939.000,3353.7433,N,09832.0248,W,2,06,1.8,309.9,M,-23.7,M,0.8,0000*44
$GPGSA,A,3,12,05,02,04,25,10,,,,,,,3.1,1.8,2.5*38
$GPGSV,3,1,10,05,76,130,32,12,51,212,28,02,49,042,35,25,47,282,23*73
$GPGSV,3,2,10,10,29,046,37,29,28,312,21,04,17,063,25,26,07,147,18*7F
$GPGSV,3,3,10,13,02,040,,51,49,195,34*7F
$GPRMC,101939.000,A,3353.7433,N,09832.0248,W,0.23,85.77,030412,,,D*49
$GPGGA,101940.000,3353.7431,N,09832.0243,W,2,06,1.8,311.0,M,-23.7,M,1.8,0000*42
$GPGSA,A,3,12,05,02,04,25,10,,,,,,,3.1,1.8,2.5*38
$GPRMC,101940.000,A,3353.7431,N,09832.0243,W,0.17,73.76,030412,,,D*41
$GPGGA,101941.000,3353.7426,N,09832.0234,W,2,06,1.8,312.1,M,-23.7,M,0.8,0000*46
$GPGSA,A,3,12,05,02,04,25,10,,,,,,,3.1,1.8,2.5*38
$GPRMC,101941.000,A,3353.7426,N,09832.0234,W,0.61,106.46,030412,,,D*77
$GPGGA,101942.000,3353.7421,N,09832.0224,W,2,06,1.8,313.2,M,-23.7,M,0.8,0000*41
$GPGSA,A,3,12,05,02,04,25,10,,,,,,,3.1,1.8,2.5*38
$GPRMC,101942.000,A,3353.7421,N,09832.0224,W,0.57,109.70,030412,,,D*7D
$GPGGA,101943.000,3353.7418,N,09832.0218,W,2,06,1.8,314.2,M,-23.7,M,0.8,0000*42
$GPGSA,A,3,12,05,02,04,25,10,,,,,,,3.1,1.8,2.5*38
$GPRMC,101943.000,A,3353.7418,N,09832.0218,W,0.69,110.14,030412,,,D*7E
$GPGGA,101944.000,3353.7416,N,09832.0214,W,2,06,1.8,315.0,M,-23.7,M,0.8,0000*44
$GPGSA,A,3,12,05,02,04,25,10,,,,,,,3.1,1.8,2.5*38
$GPGSV,3,1,10,05,76,130,32,12,51,212,28,02,49,042,35,25,47,282,24*74
$GPGSV,3,2,10,10,29,046,36,29,28,312,21,04,17,063,26,26,07,147,17*72
$GPGSV,3,3,10,13,02,040,,51,49,195,34*7F
$GPRMC,101944.000,A,3353.7416,N,09832.0214,W,0.15,80.15,030412,,,D*49
$GPGGA,101945.000,3353.7413,N,09832.0208,W,2,06,1.8,315.8,M,-23.7,M,1.8,0000*44
$GPGSA,A,3,12,05,02,04,25,10,,,,,,,3.1,1.8,2.5*38
$GPRMC,101945.000,A,3353.7413,N,09832.0208,W,0.77,115.82,030412,,,D*77
$GPGGA,101946.000,3353.7407,N,09832.0198,W,2,06,1.8,316.6,M,-23.7,M,2.8,0000*46
$GPGSA,A,3,12,05,02,04,25,10,,,,,,,3.1,1.8,2.5*38
$GPRMC,101946.000,A,3353.7407,N,09832.0198,W,0.54,116.74,030412,,,D*70
$GPGGA,101947.000,3353.7408,N,09832.0199,W,2,06,1.8,317.0,M,-23.7,M,0.8,0000*4C
$GPGSA,A,3,12,05,02,04,25,10,,,,,,,3.1,1.8,2.5*38
$GPRMC,101947.000,A,3353.7408,N,09832.0199,W,0.16,66.11,030412,,,D*4C
$GPGGA,101948.000,3353.7410,N,09832.0202,W,2,06,1.8,317.3,M,-23.7,M,0.8,0000*48
$GPGSA,A,3,12,05,02,04,25,10,,,,,,,3.1,1.8,2.5*38
$GPRMC,101948.000,A,3353.7410,N,09832.0202,W,0.34,104.47,030412,,,D*7D
$GPGGA,101949.000,3353.7410,N,09832.0202,W,2,06,1.8,317.7,M,-23.7,M,0.8,0000*4D
$GPGSA,A,3,12,05,02,04,25,10,,,,,,,3.1,1.8,2.5*38
$GPGSV,3,1,10,05,76,130,33,12,51,212,28,02,49,042,35,25,47,282,24*75
$GPGSV,3,2,10,10,29,046,36,29,28,312,22,04,17,063,26,26,07,147,17*71
$GPGSV,3,3,10,13,02,040,,51,49,195,34*7F
$GPRMC,101949.000,A,3353.7410,N,09832.0202,W,0.12,53.82,030412,,,D*42
$GPGGA,101950.000,3353.7408,N,09832.0198,W,2,06,1.8,318.1,M,-23.7,M,0.8,0000*45
$GPGSA,A,3,12,05,02,04,25,10,,,,,,,3.1,1.8,2.5*38
$GPRMC,101950.000,A,3353.7408,N,09832.0198,W,0.38,100.73,030412,,,D*72
$GPGGA,101951.000,3353.7409,N,09832.0199,W,2,06,1.8,318.3,M,-23.7,M,1.8,0000*47
$GPGSA,A,3,12,05,02,04,25,10,,,,,,,3.1,1.8,2.5*38
$GPRMC,101951.000,A,3353.7409,N,09832.0199,W,0.43,328.85,030412,,,D*7E
$GPGGA,101952.000,3353.7410,N,09832.0199,W,2,06,1.8,318.6,M,-23.7,M,2.8,0000*4A
$GPGSA,A,3,12,05,02,04,25,10,,,,,,,3.1,1.8,2.5*38
$GPRMC,101952.000,A,3353.7410,N,09832.0199,W,0.30,339.80,030412,,,D*74
$GPGGA,101953.000,3353.7409,N,09832.0196,W,2,06,1.8,318.8,M,-23.7,M,0.8,0000*40
$GPGSA,A,3,12,05,02,04,25,10,,,,,,,3.1,1.8,2.5*38
$GPRMC,101953.000,A,3353.7409,N,09832.0196,W,0.31,334.16,030412,,,D*71
$GPGGA,101954.000,3353.7410,N,09832.0198,W,2,06,1.8,318.9,M,-23.7,M,0.8,0000*40
$GPGSA,A,3,12,05,02,04,25,10,,,,,,,3.1,1.8,2.5*38
$GPGSV,3,1,10,05,76,130,33,12,51,212,29,02,49,042,35,25,47,282,23*73
$GPGSV,3,2,10,10,29,046,36,29,28,312,21,04,17,063,26,26,07,147,17*72
$GPGSV,3,3,10,13,02,040,,51,49,195,34*7F
$GPRMC,101954.000,A,3353.7410,N,09832.0198,W,0.23,345.19,030412,,,D*7A
$GPGGA,101955.000,3353.7407,N,09832.0192,W,2,06,1.8,319.2,M,-23.7,M,0.8,0000*47
$GPGSA,A,3,12,05,02,04,25,10,,,,,,,3.1,1.8,2.5*38
$GPRMC,101955.000,A,3353.7407,N,09832.0192,W,0.70,116.26,030412,,,D*79
$GPGGA,101956.000,3353.7403,N,09832.0185,W,2,06,1.8,319.5,M,-23.7,M,0.8,0000*41
$GPGSA,A,3,12,05,02,04,25,10,,,,,,,3.1,1.8,2.5*38
$GPRMC,101956.000,A,3353.7403,N,09832.0185,W,0.37,122.90,030412,,,D*71
$GPGGA,101957.000,3353.7401,N,09832.0182,W,2,06,1.8,319.6,M,-23.7,M,1.8,0000*47
$GPGSA,A,3,12,05,02,04,25,10,,,,,,,3.1,1.8,2.5*38
$GPRMC,101957.000,A,3353.7401,N,09832.0182,W,0.63,121.87,030412,,,D*71
$GPGGA,101958.000,3353.7396,N,09832.0174,W,2,06,1.8,320.0,M,-23.7,M,0.8,0000*45
$GPGSA,A,3,12,05,02,04,25,10,,,,,,,3.1,1.8,2.5*38
$GPRMC,101958.000,A,3353.7396,N,09832.0174,W,0.99,126.09,030412,,,D*7A
$GPGGA,101959.000,3353.7395,N,09832.0173,W,2,06,1.8,320.0,M,-23.7,M,1.8,0000*41
$GPGSA,A,3,12,05,02,04,25,10,,,,,,,3.1,1.8,2.5*38
$GPGSV,3,1,10,05,76,130,34,12,51,212,28,02,49,042,35,25,47,282,23*75
$GPGSV,3,2,10,10,29,046,36,29,28,312,21,04,17,063,27,26,07,147,16*72
$GPGSV,3,3,10,13,02,040,,51,49,195,34*7F
$GPRMC,101959.000,A,3353.7395,N,09832.0173,W,0.34,123.56,030412,,,D*77
$GPGGA,102000.000,3353.7395,N,09832.0173,W,2,06,1.8,319.9,M,-23.7,M,0.8,0000*45
$GPGSA,A,3,12,05,02,04,25,10,,,,,,,3.1,1.8,2.5*38
$GPRMC,102000.000,A,3353.7395,N,09832.0173,W,0.07,301.46,030412,,,D*72
$GPGGA,102001.000,3353.7395,N,09832.0173,W,2,06,1.8,319.9,M,-23.7,M,0.8,0000*44
$GPGSA,A,3,12,05,02,04,25,10,,,,,,,3.1,1.8,2.5*38
$GPRMC,102001.000,A,3353.7395,N,09832.0173,W,0.17,108.17,030412,,,D*7D
$GPGGA,102002.000,3353.7394,N,09832.0173,W,2,06,1.8,319.8,M,-23.7,M,0.8,0000*47
$GPGSA,A,3,12,05,02,04,25,10,,,,,,,3.1,1.8,2.5*38
$GPRMC,102002.000,A,3353.7394,N,09832.0173,W,0.26,315.00,030412,,,D*75
$GPGGA,102003.000,3353.7397,N,09832.0177,W,2,06,1.8,319.6,M,-23.7,M,0.8,0000*4F
$GPGSA,A,3,12,05,02,04,25,10,,,,,,,3.1,1.8,2.5*38
$GPRMC,102003.000,A,3353.7397,N,09832.0177,W,0.20,323.38,030412,,,D*7B
$GPGGA,102004.000,3353.7402,N,09832.0185,W,2,06,1.8,319.1,M,-23.7,M,1.8,0000*48
$GPGSA,A,3,12,05,02,04,25,10,,,,,,,3.1,1.8,2.5*38
$GPGSV,3,1,10,05,76,130,34,12,51,212,28,02,49,042,35,25,47,282,22*74
$GPGSV,3,2,10,10,29,046,35,29,28,312,21,04,17,063,27,26,07,147,14*73
$GPGSV,3,3,10,13,02,040,,51,49,195,34*7F
$GPRMC,102004.000,A,3353.7402,N,09832.0185,W,1.01,307.41,030412,,,D*70
$GPGGA,102005.000,3353.7405,N,09832.0190,W,2,06,1.8,318.9,M,-23.7,M,2.8,0000*40
$GPGSA,A,3,12,05,02,04,25,10,,,,,,,3.1,1.8,2.5*38
$GPRMC,102005.000,A,3353.7405,N,09832.0190,W,0.35,311.33,030412,,,D*76
$GPGGA,102006.000,3353.7407,N,09832.0194,W,2,06,1.8,318.6,M,-23.7,M,0.8,0000*48
$GPGSA,A,3,12,05,02,04,25,10,,,,,,,3.1,1.8,2.5*38
$GPRMC,102006.000,A,3353.7407,N,09832.0194,W,0.88,305.37,030412,,,D*74
$GPGGA,102007.000,3353.7409,N,09832.0197,W,2,06,1.8,318.3,M,-23.7,M,0.8,0000*41
$GPGSA,A,3,12,05,02,04,25,10,,,,,,,3.1,1.8,2.5*38
$GPRMC,102007.000,A,3353.7409,N,09832.0197,W,1.08,303.37,030412,,,D*77
$GPGGA,102008.000,3353.7404,N,09832.0191,W,2,06,1.8,318.4,M,-23.7,M,0.8,0000*42
$GPGSA,A,3,12,05,02,04,25,10,,,,,,,3.1,1.8,2.5*38
$GPRMC,102008.000,A,3353.7404,N,09832.0191,W,0.11,274.39,030412,,,D*75
$GPGGA,102009.000,3353.7403,N,09832.0190,W,2,06,1.8,318.2,M,-23.7,M,1.8,0000*42
$GPGSA,A,3,12,05,02,04,25,10,,,,,,,3.1,1.8,2.5*38
$GPGSV,3,1,10,05,76,130,34,12,51,212,27,02,49,042,35,25,47,282,22*7B
$GPGSV,3,2,10,10,29,046,35,29,28,312,21,04,17,063,28,26,07,147,*79
$GPGSV,3,3,10,13,02,040,,51,49,195,34*7F
$GPRMC,102009.000,A,3353.7403,N,09832.0190,W,0.42,293.57,030412,,,D*75
$GPGGA,102010.000,3353.7400,N,09832.0186,W,2,06,1.8,318.2,M,-23.7,M,2.8,0000*4D
$GPGSA,A,3,12,05,02,04,25,10,,,,,,,3.1,1.8,2.5*38
$GPRMC,102010.000,A,3353.7400,N,09832.0186,W,0.47,291.55,030412,,,D*7C
$GPGGA,102011.000,3353.7399,N,09832.0185,W,2,06,1.8,318.1,M,-23.7,M,3.8,0000*4A
$GPGSA,A,3,12,05,02,04,25,10,,,,,,,3.1,1.8,2.5*38
$GPRMC,102011.000,A,3353.7399,N,09832.0185,W,0.10,254.24,030412,,,D*74
$GPGGA,102012.000,3353.7397,N,09832.0182,W,2,06,1.8,318.2,M,-23.7,M,0.8,0000*40
$GPGSA,A,3,12,05,02,04,25,10,,,,,,,3.1,1.8,2.5*38
$GPRMC,102012.000,A,3353.7397,N,09832.0182,W,0.53,131.31,030412,,,D*7D
$GPGGA,102013.000,3353.7396,N,09832.0181,W,2,06,1.8,318.1,M,-23.7,M,0.8,0000*40
$GPGSA,A,3,12,05,02,04,25,10,,,,,,,3.1,1.8,2.5*38
$GPRMC,102013.000,A,3353.7396,N,09832.0181,W,0.14,250.59,030412,,,D*77
$GPGGA,102014.000,3353.7395,N,09832.0180,W,2,06,1.8,318.1,M,-23.7,M,0.8,0000*45
$GPGSA,A,3,12,05,02,04,25,10,,,,,,,3.1,1.8,2.5*38
$GPGSV,3,1,10,05,76,130,34,12,51,212,27,02,49,042,35,25,47,282,22*7B
$GPGSV,3,2,10,10,29,046,35,29,28,312,21,04,17,063,29,26,07,147,*78
$GPGSV,3,3,10,13,02,040,,51,49,195,34*7F
$GPRMC,102014.000,A,3353.7395,N,09832.0180,W,0.04,125.87,030412,,,D*71
$GPGGA,102015.000,3353.7395,N,09832.0179,W,2,06,1.8,318.1,M,-23.7,M,1.8,0000*43
$GPGSA,A,3,12,05,02,04,25,10,,,,,,,3.1,1.8,2.5*38
$GPRMC,102015.000,A,3353.7395,N,09832.0179,W,0.19,116.64,030412,,,D*77
$GPGGA,102016.000,3353.7393,N,09832.0177,W,2,06,1.8,318.2,M,-23.7,M,2.8,0000*48
$GPGSA,A,3,12,05,02,04,25,10,,,,,,,3.1,1.8,2.5*38
$GPRMC,102016.000,A,3353.7393,N,09832.0177,W,0.35,124.80,030412,,,D*79
$GPGGA,102017.000,3353.7390,N,09832.0171,W,2,06,1.8,318.4,M,-23.7,M,3.8,0000*4B
$GPGSA,A,3,12,05,02,04,25,10,,,,,,,3.1,1.8,2.5*38
$GPRMC,102017.000,A,3353.7390,N,09832.0171,W,0.20,130.33,030412,,,D*74
$GPGGA,102018.000,3353.7379,N,09832.0154,W,2,06,1.8,318.9,M,-23.7,M,0.8,0000*4A
$GPGSA,A,3,12,05,02,04,25,10,,,,,,,3.1,1.8,2.5*38
$GPRMC,102018.000,A,3353.7379,N,09832.0154,W,0.33,122.99,030412,,,D*7A
$GPGGA,102019.000,3353.7377,N,09832.0150,W,2,06,1.8,319.0,M,-23.7,M,0.8,0000*49
$GPGSA,A,3,12,05,02,04,25,10,,,,,,,3.1,1.8,2.5*38
$GPGSV,3,1,10,05,76,130,34,12,51,212,27,02,49,042,35,25,47,282,24*7D
$GPGSV,3,2,10,10,29,046,35,29,28,312,22,04,17,063,29,26,07,147,*7B
$GPGSV,3,3,10,13,02,040,,51,49,195,34*7F
$GPRMC,102019.000,A,3353.7377,N,09832.0150,W,0.15,105.17,030412,,,D*76
$GPGGA,102020.000,3353.7375,N,09832.0147,W,2,06,1.8,319.1,M,-23.7,M,0.8,0000*46
$GPGSA,A,3,12,05,02,04,25,10,,,,,,,3.1,1.8,2.5*38
$GPRMC,102020.000,A,3353.7375,N,09832.0147,W,0.27,129.61,030412,,,D*76
$GPGGA,102021.000,3353.7370,N,09832.0140,W,2,06,1.8,319.2,M,-23.7,M,0.8,0000*46
$GPGSA,A,3,12,05,02,04,25,10,,,,,,,3.1,1.8,2.5*38
$GPRMC,102021.000,A,3353.7370,N,09832.0140,W,0.04,222.24,030412,,,D*7D
$GPGGA,102022.000,3353.7363,N,09832.0133,W,2,06,1.8,318.8,M,-23.7,M,1.8,0000*49
$GPGSA,A,3,12,05,02,04,25,10,,,,,,,3.1,1.8,2.5*38
$GPRMC,102022.000,A,3353.7363,N,09832.0133,W,0.13,252.21,030412,,,D*7C
$GPGGA,102023.000,3353.7358,N,09832.0128,W,2,06,1.8,318.8,M,-23.7,M,2.8,0000*49
$GPGSA,A,3,12,05,02,04,25,10,,,,,,,3.1,1.8,2.5*38
$GPRMC,102023.000,A,3353.7358,N,09832.0128,W,0.37,265.97,030412,,,D*70
$GPGGA,102024.000,3353.7355,N,09832.0126,W,2,06,1.8,318.6,M,-23.7,M,0.8,0000*41
$GPGSA,A,3,12,05,02,04,25,10,,,,,,,3.1,1.8,2.5*38
$GPGSV,3,1,10,05,76,130,34,12,51,212,28,02,49,042,35,25,47,282,24*72
$GPGSV,3,2,10,10,29,046,35,29,28,312,21,04,17,063,29,26,07,147,*78
$GPGSV,3,3,10,13,02,040,,51,49,195,34*7F
$GPRMC,102024.000,A,3353.7355,N,09832.0126,W,0.43,135.63,030412,,,D*7A
$GPGGA,102025.000,3353.7352,N,09832.0123,W,2,06,1.8,318.4,M,-23.7,M,0.8,0000*40
$GPGSA,A,3,12,05,02,04,25,10,,,,,,,3.1,1.8,2.5*38
$GPRMC,102025.000,A,3353.7352,N,09832.0123,W,0.86,130.44,030412,,,D*70
$GPGGA,102026.000,3353.7350,N,09832.0120,W,2,06,1.8,318.3,M,-23.7,M,0.8,0000*45
$GPGSA,A,3,12,05,02,04,25,10,,,,,,,3.1,1.8,2.5*38
$GPRMC,102026.000,A,3353.7350,N,09832.0120,W,0.24,130.55,030412,,,D*7A
$GPGGA,102027.000,3353.7355,N,09832.0129,W,2,06,1.8,317.7,M,-23.7,M,0.8,0000*43
$GPGSA,A,3,12,05,02,04,25,10,,,,,,,3.1,1.8,2.5*38
$GPRMC,102027.000,A,3353.7355,N,09832.0129,W,0.47,306.83,030412,,,D*7E
$GPGGA,102028.000,3353.7357,N,09832.0133,W,2,06,1.8,317.3,M,-23.7,M,1.8,0000*40
$GPGSA,A,3,12,05,02,04,25,10,,,,,,,3.1,1.8,2.5*38
$GPRMC,102028.000,A,3353.7357,N,09832.0133,W,0.02,34.11,030412,,,D*40
$GPGGA,102029.000,3353.7357,N,09832.0134,W,2,06,1.8,317.1,M,-23.7,M,2.8,0000*47
$GPGSA,A,3,12,05,02,04,25,10,,,,,,,3.1,1.8,2.5*38
$GPGSV,3,1,10,05,76,130,34,12,51,212,28,02,49,042,35,25,47,282,24*72
$GPGSV,3,2,10,10,29,046,35,29,28,312,21,04,17,063,29,26,07,147,*78
$GPGSV,3,3,10,13,02,040,,51,49,195,34*7F
$GPRMC,102029.000,A,3353.7357,N,09832.0134,W,0.27,304.95,030412,,,D*7D
$GPGGA,102030.000,3353.7360,N,09832.0138,W,2,06,1.8,316.8,M,-23.7,M,0.8,0000*4D
$GPGSA,A,3,12,05,02,04,25,10,,,,,,,3.1,1.8,2.5*38
$GPRMC,102030.000,A,3353.7360,N,09832.0138,W,0.90,304.60,030412,,,D*7B
$GPGGA,102031.000,3353.7364,N,09832.0146,W,2,06,1.8,316.3,M,-23.7,M,0.8,0000*4A
$GPGSA,A,3,12,05,02,04,25,10,,,,,,,3.1,1.8,2.5*38
$GPRMC,102031.000,A,3353.7364,N,09832.0146,W,0.93,305.64,030412,,,D*71
$GPGGA,102032.000,3353.7371,N,09832.0158,W,2,06,1.8,315.6,M,-23.7,M,0.8,0000*44
$GPGSA,A,3,12,05,02,04,25,10,,,,,,,3.1,1.8,2.5*38
$GPRMC,102032.000,A,3353.7371,N,09832.0158,W,0.81,300.39,030412,,,D*77
$GPGGA,102033.000,3353.7378,N,09832.0172,W,2,06,1.8,314.7,M,-23.7,M,1.8,0000*45
$GPGSA,A,3,12,05,02,04,25,10,,,,,,,3.1,1.8,2.5*38
$GPRMC,102033.000,A,3353.7378,N,09832.0172,W,1.10,299.13,030412,,,D*77
$GPGGA,102034.000,3353.7381,N,09832.0177,W,2,06,1.8,314.2,M,-23.7,M,2.8,0000*47
$GPGSA,A,3,12,05,02,04,25,10,,,,,,,3.1,1.8,2.5*38
$GPGSV,3,1,10,05,76,130,34,12,51,212,28,02,49,042,34,25,47,282,23*74
$GPGSV,3,2,10,10,29,046,35,29,28,312,20,04,17,063,29,26,07,147,*79
$GPGSV,3,3,10,13,02,040,,51,49,195,34*7F
$GPRMC,102034.000,A,3353.7381,N,09832.0177,W,0.86,294.77,030412,,,D*72
$GPGGA,102035.000,3353.7383,N,09832.0182,W,2,06,1.8,313.8,M,-23.7,M,0.8,0000*41
$GPGSA,A,3,12,05,02,04,25,10,,,,,,,3.1,1.8,2.5*38
$GPRMC,102035.000,A,3353.7383,N,09832.0182,W,1.06,293.86,030412,,,D*7B
$GPGGA,102036.000,3353.7380,N,09832.0179,W,2,06,1.8,313.7,M,-23.7,M,0.8,0000*4A
$GPGSA,A,3,12,05,02,04,25,10,,,,,,,3.1,1.8,2.5*38
$GPRMC,102036.000,A,3353.7380,N,09832.0179,W,0.23,243.04,030412,,,D*7E
$GPGGA,102037.000,3353.7375,N,09832.0172,W,2,06,1.8,313.9,M,-23.7,M,0.8,0000*44
$GPGSA,A,3,12,05,02,04,25,10,,,,,,,3.1,1.8,2.5*38
$GPRMC,102037.000,A,3353.7375,N,09832.0172,W,0.59,146.02,030412,,,D*73
$GPGGA,102038.000,3353.7375,N,09832.0172,W,2,06,1.8,313.8,M,-23.7,M,0.8,0000*4A
$GPGSA,A,3,12,05,02,04,25,10,,,,,,,3.1,1.8,2.5*38
$GPRMC,102038.000,A,3353.7375,N,09832.0172,W,0.29,284.83,030412,,,D*7F
$GPGGA,102039.000,3353.7373,N,09832.0169,W,2,06,1.8,313.9,M,-23.7,M,1.8,0000*47
$GPGSA,A,3,12,05,02,04,25,10,,,,,,,3.1,1.8,2.5*38
$GPGSV,3,1,10,05,76,130,34,12,51,212,28,02,49,042,34,25,47,282,23*74
$GPGSV,3,2,10,10,29,046,35,29,28,312,20,04,17,063,29,26,07,147,*79
$GPGSV,3,3,10,13,02,040,,51,49,195,34*7F
$GPRMC,102039.000,A,3353.7373,N,09832.0169,W,0.17,163.13,030412,,,D*7C
$GPGGA,102040.000,3353.7374,N,09832.0169,W,2,06,1.8,313.9,M,-23.7,M,2.8,0000*4D
$GPGSA,A,3,12,05,02,04,25,10,,,,,,,3.1,1.8,2.5*38
$GPRMC,102040.000,A,3353.7374,N,09832.0169,W,0.28,134.63,030412,,,D*7C
$GPGGA,102041.000,3353.7370,N,09832.0164,W,2,06,1.8,314.1,M,-23.7,M,0.8,0000*48
$GPGSA,A,3,12,05,02,04,25,10,,,,,,,3.1,1.8,2.5*38
$GPRMC,102041.000,A,3353.7370,N,09832.0164,W,0.17,148.43,030412,,,D*71
$GPGGA,102042.000,3353.7372,N,09832.0167,W,2,06,1.8,313.9,M,-23.7,M,0.8,0000*45
$GPGSA,A,3,12,05,02,04,25,10,,,,,,,3.1,1.8,2.5*38
$GPRMC,102042.000,A,3353.7372,N,09832.0167,W,0.55,298.06,030412,,,D*7A
$GPGGA,102043.000,3353.7372,N,09832.0167,W,2,06,1.8,313.9,M,-23.7,M,0.8,0000*44
$GPGSA,A,3,12,05,02,04,25,10,,,,,,,3.1,1.8,2.5*38
$GPRMC,102043.000,A,3353.7372,N,09832.0167,W,0.49,300.96,030412,,,D*7F
$GPGGA,102044.000,3353.7367,N,09832.0160,W,2,06,1.8,314.2,M,-23.7,M,0.8,0000*4C
$GPGSA,A,3,12,05,02,04,25,10,,,,,,,3.1,1.8,2.5*38
$GPGSV,3,1,10,05,76,130,33,12,51,212,28,02,49,042,35,25,47,282,24*75
$GPGSV,3,2,10,10,29,046,35,29,28,312,20,04,17,063,28,26,07,147,*78
$GPGSV,3,3,10,13,02,040,,51,49,195,33*78
$GPRMC,102044.000,A,3353.7367,N,09832.0160,W,0.21,280.74,030412,,,D*70
$GPGGA,102045.000,3353.7363,N,09832.0155,W,2,06,1.8,314.4,M,-23.7,M,0.8,0000*49
$GPGSA,A,3,12,05,02,04,25,10,,,,,,,3.1,1.8,2.5*38
$GPRMC,102045.000,A,3353.7363,N,09832.0155,W,0.52,134.49,030412,,,D*75
$GPGGA,102046.000,3353.7359,N,09832.0148,W,2,06,1.8,314.6,M,-23.7,M,1.8,0000*4C
$GPGSA,A,3,12,05,02,04,25,10,,,,,,,3.1,1.8,2.5*38
$GPRMC,102046.000,A,3353.7359,N,09832.0148,W,0.78,132.48,030412,,,D*7C
$GPGGA,102047.000,3353.7357,N,09832.0147,W,2,06,1.8,314.5,M,-23.7,M,2.8,0000*4C
$GPGSA,A,3,12,05,02,04,25,10,,,,,,,3.1,1.8,2.5*38
$GPRMC,102047.000,A,3353.7357,N,09832.0147,W,0.33,142.72,030412,,,D*7D
$GPGGA,102048.000,3353.7353,N,09832.0143,W,2,06,1.8,314.6,M,-23.7,M,0.8,0000*42
$GPGSA,A,3,12,05,02,04,25,10,,,,,,,3.1,1.8,2.5*38
$GPRMC,102048.000,A,3353.7353,N,09832.0143,W,0.17,256.41,030412,,,D*72
$GPGGA,102049.000,3353.7351,N,09832.0141,W,2,06,1.8,314.5,M,-23.7,M,0.8,0000*40
$GPGSA,A,3,12,05,02,04,25,10,,,,,,,3.1,1.8,2.5*38
$GPGSV,3,1,10,05,76,130,33,12,51,212,28,02,49,042,35,25,47,282,23*72
$GPGSV,3,2,10,10,29,046,35,29,28,312,20,04,17,063,28,26,07,147,*78
$GPGSV,3,3,10,13,02,040,,51,49,195,34*7F
$GPRMC,102049.000,A,3353.7351,N,09832.0141,W,0.19,148.90,030412,,,D*7D
$GPGGA,102050.000,3353.7349,N,09832.0140,W,2,06,1.8,314.4,M,-23.7,M,0.8,0000*41
$GPGSA,A,3,12,05,02,04,25,10,,,,,,,3.1,1.8,2.5*38
$GPRMC,102050.000,A,3353.7349,N,09832.0140,W,0.42,126.82,030412,,,D*78
$GPGGA,102051.000,3353.7346,N,09832.0136,W,2,06,1.8,314.4,M,-23.7,M,0.8,0000*4E
$GPGSA,A,3,12,05,02,04,25,10,,,,,,,3.1,1.8,2.5*38
$GPRMC,102051.000,A,3353.7346,N,09832.0136,W,0.41,130.15,030412,,,D*7D
$GPGGA,102052.000,3353.7341,N,09832.0129,W,2,06,1.8,314.7,M,-23.7,M,1.8,0000*46
$GPGSA,A,3,12,05,02,04,25,10,,,,,,,3.1,1.8,2.5*38
$GPRMC,102052.000,A,3353.7341,N,09832.0129,W,0.71,129.38,030412,,,D*73
$GPGGA,102053.000,3353.7338,N,09832.0124,W,2,06,1.8,314.7,M,-23.7,M,2.8,0000*47
$GPGSA,A,3,12,05,02,04,25,10,,,,,,,3.1,1.8,2.5*38
$GPRMC,102053.000,A,3353.7338,N,09832.0124,W,0.33,133.52,030412,,,D*70
$GPGGA,102054.000,3353.7337,N,09832.0124,W,2,06,1.8,314.6,M,-23.7,M,0.8,0000*4C
$GPGSA,A,3,12,05,02,04,25,10,,,,,,,3.1,1.8,2.5*38
$GPGSV,3,1,10,05,76,130,32,12,51,212,28,02,49,042,35,25,47,282,23*73
$GPGSV,3,2,10,10,29,046,35,29,28,312,21,04,17,063,27,26,07,147,*76
$GPGSV,3,3,10,13,02,040,,51,49,195,34*7F
$GPRMC,102054.000,A,3353.7337,N,09832.0124,W,0.34,297.41,030412,,,D*70
$GPGGA,102055.000,3353.7335,N,09832.0123,W,2,06,1.8,314.6,M,-23.7,M,0.8,0000*48
$GPGSA,A,3,12,05,02,04,25,10,,,,,,,3.1,1.8,2.5*38
$GPRMC,102055.000,A,3353.7335,N,09832.0123,W,0.42,127.00,030412,,,D*78
$GPGGA,102056.000,3353.7334,N,09832.0123,W,2,06,1.8,314.4,M,-23.7,M,0.8,0000*48
$GPGSA,A,3,12,05,02,04,25,10,,,,,,,3.1,1.8,2.5*38
$GPRMC,102056.000,A,3353.7334,N,09832.0123,W,0.27,286.91,030412,,,D*79
$GPGGA,102057.000,3353.7331,N,09832.0119,W,2,06,1.8,314.4,M,-23.7,M,0.8,0000*45
$GPGSA,A,3,12,05,02,04,25,10,,,,,,,3.1,1.8,2.5*38
$GPRMC,102057.000,A,3353.7331,N,09832.0119,W,0.43,133.54,030412,,,D*72
$GPGGA,102058.000,3353.7327,N,09832.0113,W,2,06,1.8,314.5,M,-23.7,M,1.8,0000*47
$GPGSA,A,3,12,05,02,04,25,10,,,,,,,3.1,1.8,2.5*38
$GPRMC,102058.000,A,3353.7327,N,09832.0113,W,0.79,132.44,030412,,,D*79
$GPGGA,102059.000,3353.7330,N,09832.0120,W,2,06,1.8,314.0,M,-23.7,M,2.8,0000*46
$GPGSA,A,3,12,05,02,04,25,10,,,,,,,3.1,1.8,2.5*38
$GPGSV,3,1,10,05,76,130,32,12,51,212,28,02,49,042,36,25,47,282,22*71
$GPGSV,3,2,10,10,29,046,35,29,28,312,21,04,17,063,26,26,07,147,19*7F
$GPGSV,3,3,10,13,02,040,,51,49,195,33*78
$GPRMC,102059.000,A,3353.7330,N,09832.0120,W,0.20,279.69,030412,,,D*71
$GPGGA,102100.000,3353.7329,N,09832.0119,W,2,06,1.8,313.5,M,-23.7,M,0.8,0000*49
$GPGSA,A,3,12,05,02,04,25,10,,,,,,,3.1,1.8,2.5*38
$GPRMC,102100.000,A,3353.7329,N,09832.0119,W,0.27,287.61,030412,,,D*70
$GPGGA,102101.000,3353.7330,N,09832.0122,W,2,06,1.8,312.8,M,-23.7,M,0.8,0000*44
$GPGSA,A,3,12,05,02,04,25,10,,,,,,,3.1,1.8,2.5*38
$GPRMC,102101.000,A,3353.7330,N,09832.0122,W,0.90,300.92,030412,,,D*7F
$GPGGA,102102.000,3353.7335,N,09832.0131,W,2,06,1.8,312.2,M,-23.7,M,0.8,0000*4A
$GPGSA,A,3,12,05,02,04,25,10,,,,,,,3.1,1.8,2.5*38
$GPRMC,102102.000,A,3353.7335,N,09832.0131,W,1.33,303.92,030412,,,D*70
$GPGGA,102103.000,3353.7337,N,09832.0136,W,2,06,1.8,311.7,M,-23.7,M,1.8,0000*49
$GPGSA,A,3,12,05,02,04,25,10,,,,,,,3.1,1.8,2.5*38
$GPRMC,102103.000,A,3353.7337,N,09832.0136,W,1.29,300.76,030412,,,D*76
$GPGGA,102104.000,3353.7339,N,09832.0140,W,2,06,1.8,311.3,M,-23.7,M,2.8,0000*46
$GPGSA,A,3,12,05,02,04,25,10,,,,,,,3.1,1.8,2.5*38
$GPGSV,3,1,10,05,76,130,33,12,51,212,29,02,49,042,36,25,47,282,15*75
$GPGSV,3,2,10,10,29,046,35,29,28,312,20,04,17,063,24,26,07,147,20*76
$GPGSV,3,3,10,13,02,040,,51,49,195,34*7F
$GPRMC,102104.000,A,3353.7339,N,09832.0140,W,1.21,303.95,030412,,,D*78
$GPGGA,102105.000,3353.7344,N,09832.0148,W,2,06,1.8,310.8,M,-23.7,M,3.8,0000*4E
$GPGSA,A,3,12,05,02,04,25,10,,,,,,,3.1,1.8,2.5*38
$GPRMC,102105.000,A,3353.7344,N,09832.0148,W,1.71,301.96,030412,,,D*7F
$GPGGA,102106.000,3353.7347,N,09832.0154,W,2,05,4.1,310.6,M,-23.7,M,0.8,0000*41
$GPGSA,A,3,12,05,02,04,10,,,,,,,,4.9,4.1,2.8*31
$GPRMC,102106.000,A,3353.7347,N,09832.0154,W,1.57,304.23,030412,,,D*7D
$GPGGA,102107.000,3353.7344,N,09832.0150,W,2,06,1.8,310.3,M,-23.7,M,0.8,0000*4D
$GPGSA,A,3,12,05,02,04,25,10,,,,,,,3.1,1.8,2.5*38
$GPRMC,102107.000,A,3353.7344,N,09832.0150,W,0.33,290.91,030412,,,D*7D
$GPGGA,102108.000,3353.7345,N,09832.0151,W,2,05,4.1,309.9,M,-23.7,M,0.8,0000*4F
$GPGSA,A,3,12,05,02,04,10,,,,,,,,4.9,4.1,2.8*31
$GPRMC,102108.000,A,3353.7345,N,09832.0151,W,0.14,214.34,030412,,,D*74
$GPGGA,102109.000,3353.7342,N,09832.0148,W,2,06,1.8,309.2,M,-23.7,M,1.8,0000*44
$GPGSA,A,3,12,05,02,04,25,10,,,,,,,3.1,1.8,2.5*38
$GPGSV,3,1,10,05,76,130,33,12,51,212,29,02,49,042,36,25,47,282,18*78
$GPGSV,3,2,10,10,29,046,35,29,28,312,20,04,17,063,22,26,07,147,21*71
$GPGSV,3,3,10,13,02,040,,51,49,195,34*7F
$GPRMC,102109.000,A,3353.7342,N,09832.0148,W,0.87,127.43,030412,,,D*73
$GPGGA,102110.000,3353.7345,N,09832.0152,W,2,06,1.8,308.7,M,-23.7,M,2.8,0000*47
$GPGSA,A,3,12,05,02,04,25,10,,,,,,,3.1,1.8,2.5*38
$GPRMC,102110.000,A,3353.7345,N,09832.0152,W,0.60,132.06,030412,,,D*7B
$GPGGA,102111.000,3353.7345,N,09832.0154,W,2,06,1.8,307.7,M,-23.7,M,3.8,0000*4E
$GPGSA,A,3,12,05,02,04,25,10,,,,,,,3.1,1.8,2.5*38
$GPRMC,102111.000,A,3353.7345,N,09832.0154,W,0.22,257.58,030412,,,D*71
$GPGGA,102112.000,3353.7349,N,09832.0160,W,2,06,1.8,307.1,M,-23.7,M,0.8,0000*43
$GPGSA,A,3,12,05,02,04,25,10,,,,,,,3.1,1.8,2.5*38
$GPRMC,102112.000,A,3353.7349,N,09832.0160,W,0.54,296.06,030412,,,D*7E
$GPGGA,102113.000,3353.7353,N,09832.0167,W,2,06,1.8,306.5,M,-23.7,M,0.8,0000*4B
$GPGSA,A,3,12,05,02,04,25,10,,,,,,,3.1,1.8,2.5*38
$GPRMC,102113.000,A,3353.7353,N,09832.0167,W,0.19,150.32,030412,,,D*74
$GPGGA,102114.000,3353.7357,N,09832.0174,W,2,06,1.8,306.7,M,-23.7,M,0.8,0000*48
$GPGSA,A,3,12,05,02,04,25,10,,,,,,,3.1,1.8,2.5*38
$GPGSV,3,1,11,05,76,125,33,12,50,211,30,02,48,044,36,25,47,280,18*72
$GPGSV,3,2,11,29,29,313,19,10,28,045,35,04,16,064,22,26,08,147,22*72
$GPGSV,3,3,11,13,02,039,,21,00,259,,51,49,195,33*4A
$GPRMC,102114.000,A,3353.7357,N,09832.0174,W,0.14,228.48,030412,,,D*79
$GPGGA,102115.000,3353.7355,N,09832.0171,W,2,06,1.8,306.6,M,-23.7,M,1.8,0000*4E
$GPGSA,A,3,12,05,02,04,25,10,,,,,,,3.0,1.8,2.5*39
$GPRMC,102115.000,A,3353.7355,N,09832.0171,W,0.18,255.03,030412,,,D*76
$GPGGA,102116.000,3353.7353,N,09832.0168,W,2,06,1.8,306.2,M,-23.7,M,0.8,0000*46
$GPGSA,A,3,12,05,02,04,25,10,,,,,,,3.0,1.8,2.5*39
$GPRMC,102116.000,A,3353.7353,N,09832.0168,W,0.62,132.79,030412,,,D*79
$GPGGA,102117.000,3353.7358,N,09832.0175,W,2,06,1.8,305.8,M,-23.7,M,1.8,0000*48
$GPGSA,A,3,12,05,02,04,25,10,,,,,,,3.0,1.8,2.5*39
$GPRMC,102117.000,A,3353.7358,N,09832.0175,W,0.93,295.28,030412,,,D*7B
$GPGGA,102118.000,3353.7364,N,09832.0185,W,2,06,1.8,305.6,M,-23.7,M,0.8,0000*48
$GPGSA,A,3,12,05,02,04,25,10,,,,,,,3.0,1.8,2.5*39
$GPRMC,102118.000,A,3353.7364,N,09832.0185,W,1.75,303.73,030412,,,D*7D
$GPGGA,102119.000,3353.7363,N,09832.0182,W,2,06,1.8,306.3,M,-23.7,M,0.8,0000*4F
$GPGSA,A,3,12,05,02,04,25,10,,,,,,,3.0,1.8,2.4*38
$GPGSV,3,1,11,05,76,125,33,12,50,211,30,02,48,044,36,25,47,280,19*73
$GPGSV,3,2,11,29,29,313,18,10,28,045,35,04,16,064,22,26,08,147,23*72
$GPGSV,3,3,11,13,02,039,,21,00,259,,51,49,195,34*4D
$GPRMC,102119.000,A,3353.7363,N,09832.0182,W,1.30,299.59,030412,,,D*77
$GPGGA,102120.000,3353.7362,N,09832.0180,W,2,06,1.8,306.9,M,-23.7,M,0.8,0000*4C
$GPGSA,A,3,12,05,02,04,25,10,,,,,,,3.0,1.8,2.4*38
$GPRMC,102120.000,A,3353.7362,N,09832.0180,W,0.02,275.16,030412,,,D*77
$GPGGA,102121.000,3353.7363,N,09832.0181,W,2,06,1.8,307.0,M,-23.7,M,1.8,0000*44
$GPGSA,A,3,12,05,02,04,25,10,,,,,,,3.0,1.8,2.4*38
$GPRMC,102121.000,A,3353.7363,N,09832.0181,W,0.49,299.27,030412,,,D*79
$GPGGA,102122.000,3353.7364,N,09832.0182,W,2,06,1.8,307.1,M,-23.7,M,2.8,0000*41
$GPGSA,A,3,12,05,02,04,25,10,,,,,,,3.0,1.8,2.4*38
$GPRMC,102122.000,A,3353.7364,N,09832.0182,W,1.13,302.38,030412,,,D*7D
$GPGGA,102123.000,3353.7363,N,09832.0179,W,2,06,1.8,307.4,M,-23.7,M,3.8,0000*47
$GPGSA,A,3,12,05,02,04,25,10,,,,,,,3.0,1.8,2.4*38
$GPRMC,102123.000,A,3353.7363,N,09832.0179,W,0.14,313.58,030412,,,D*7F
$GPGGA,102124.000,3353.7361,N,09832.0176,W,2,06,1.8,307.0,M,-23.7,M,0.8,0000*4A
$GPGSA,A,3,12,05,02,04,25,10,,,,,,,3.0,1.8,2.4*38
$GPGSV,3,1,11,05,76,125,33,12,50,211,30,02,48,044,36,25,47,280,20*79
$GPGSV,3,2,11,29,29,313,17,10,28,045,35,04,16,064,22,26,08,147,23*7D
$GPGSV,3,3,11,13,02,039,,21,00,259,,51,49,195,34*4D
$GPRMC,102124.000,A,3353.7361,N,09832.0176,W,0.44,124.15,030412,,,D*7F
$GPGGA,102125.000,3353.7357,N,09832.0169,W,2,06,1.8,307.7,M,-23.7,M,0.8,0000*47
$GPGSA,A,3,12,05,02,04,25,10,,,,,,,3.0,1.8,2.4*38
$GPRMC,102125.000,A,3353.7357,N,09832.0169,W,0.17,157.89,030412,,,D*72
$GPGGA,102126.000,3353.7352,N,09832.0161,W,2,06,1.8,308.3,M,-23.7,M,0.8,0000*42
$GPGSA,A,3,12,05,02,04,25,10,,,,,,,3.0,1.8,2.4*38
$GPRMC,102126.000,A,3353.7352,N,09832.0161,W,0.15,182.12,030412,,,D*74
$GPGGA,102127.000,3353.7355,N,09832.0165,W,2,06,1.8,308.9,M,-23.7,M,1.8,0000*4B
$GPGSA,A,3,12,05,02,04,25,10,,,,,,,3.0,1.8,2.4*38
$GPRMC,102127.000,A,3353.7355,N,09832.0165,W,0.29,285.70,030412,,,D*79
$GPGGA,102128.000,3353.7354,N,09832.0163,W,2,06,1.8,309.3,M,-23.7,M,2.8,0000*4B
$GPGSA,A,3,12,05,02,04,25,10,,,,,,,3.0,1.8,2.4*38
$GPRMC,102128.000,A,3353.7354,N,09832.0163,W,0.45,127.31,030412,,,D*75
$GPGGA,102129.000,3353.7352,N,09832.0160,W,2,06,1.8,309.7,M,-23.7,M,0.8,0000*49
$GPGSA,A,3,12,05,02,04,25,10,,,,,,,3.0,1.8,2.4*38
$GPGSV,3,1,11,05,76,125,33,12,50,211,30,02,48,044,36,25,47,280,20*79
$GPGSV,3,2,11,29,29,313,16,10,28,045,34,04,16,064,21,26,08,147,22*7F
$GPGSV,3,3,11,13,02,039,,21,00,259,,51,49,195,34*4D
$GPRMC,102129.000,A,3353.7352,N,09832.0160,W,0.25,125.19,030412,,,D*7F
$GPGGA,102130.000,3353.7352,N,09832.0160,W,2,06,1.8,309.9,M,-23.7,M,0.8,0000*4F
$GPGSA,A,3,12,05,02,04,25,10,,,,,,,3.0,1.8,2.4*38
$GPRMC,102130.000,A,3353.7352,N,09832.0160,W,0.37,300.97,030412,,,D*77
$GPGGA,102131.000,3353.7354,N,09832.0162,W,2,06,1.8,309.4,M,-23.7,M,0.8,0000*47
$GPGSA,A,3,12,05,02,04,25,10,,,,,,,3.0,1.8,2.4*38
$GPRMC,102131.000,A,3353.7354,N,09832.0162,W,0.27,297.62,030412,,,D*76
$GPGGA,102132.000,3353.7357,N,09832.0168,W,2,06,1.8,308.9,M,-23.7,M,0.8,0000*41
$GPGSA,A,3,12,05,02,04,25,10,,,,,,,3.0,1.8,2.4*38
$GPRMC,102132.000,A,3353.7357,N,09832.0168,W,0.18,301.80,030412,,,D*72
$GPGGA,102133.000,3353.7360,N,09832.0173,W,2,06,1.8,308.4,M,-23.7,M,0.8,0000*43
$GPGSA,A,3,12,05,02,04,25,10,,,,,,,3.0,1.8,2.4*38
$GPRMC,102133.000,A,3353.7360,N,09832.0173,W,0.52,301.23,030412,,,D*7A
$GPGGA,102134.000,3353.7361,N,09832.0173,W,2,06,1.8,308.9,M,-23.7,M,0.8,0000*48
$GPGSA,A,3,12,05,02,04,25,10,,,,,,,3.0,1.8,2.4*38
$GPGSV,3,1,11,05,76,125,34,12,50,211,30,02,48,044,36,25,47,280,21*7F
$GPGSV,3,2,11,29,29,313,15,10,28,045,34,04,16,064,21,26,08,147,23*7D
$GPGSV,3,3,11,13,02,039,,21,00,259,,51,49,195,34*4D
$GPRMC,102134.000,A,3353.7361,N,09832.0173,W,0.05,65.47,030412,,,D*4D
$GPGGA,102135.000,3353.7363,N,09832.0177,W,2,06,1.8,308.2,M,-23.7,M,0.8,0000*44
$GPGSA,A,3,12,05,02,04,25,10,,,,,,,3.0,1.8,2.4*38
$GPRMC,102135.000,A,3353.7363,N,09832.0177,W,0.23,307.60,030412,,,D*7C
$GPGGA,102136.000,3353.7366,N,09832.0181,W,2,06,1.8,308.4,M,-23.7,M,0.8,0000*4D
$GPGSA,A,3,12,05,02,04,25,10,,,,,,,3.0,1.8,2.4*38
$GPRMC,102136.000,A,3353.7366,N,09832.0181,W,0.39,304.17,030412,,,D*7B
$GPGGA,102137.000,3353.7372,N,09832.0190,W,2,06,1.8,307.5,M,-23.7,M,0.8,0000*47
$GPGSA,A,3,12,05,02,04,25,10,,,,,,,3.0,1.8,2.4*38
$GPRMC,102137.000,A,3353.7372,N,09832.0190,W,0.67,307.43,030412,,,D*76
$GPGGA,102138.000,3353.7371,N,09832.0188,W,2,06,1.8,307.7,M,-23.7,M,0.8,0000*40
$GPGSA,A,3,12,05,02,04,25,10,,,,,,,3.0,1.8,2.4*38
$GPRMC,102138.000,A,3353.7371,N,09832.0188,W,0.10,256.51,030412,,,D*75
$GPGGA,102139.000,3353.7374,N,09832.0193,W,2,06,1.8,307.2,M,-23.7,M,1.8,0000*4A
$GPGSA,A,3,12,05,02,04,25,10,,,,,,,3.0,1.8,2.4*38
$GPGSV,3,1,11,05,76,125,34,12,50,211,30,02,48,044,36,25,47,280,21*7F
$GPGSV,3,2,11,29,29,313,14,10,28,045,34,04,16,064,22,26,08,147,23*7F
$GPGSV,3,3,11,13,02,039,,21,00,259,,51,49,195,34*4D
$GPRMC,102139.000,A,3353.7374,N,09832.0193,W,0.50,294.84,030412,,,D*79
$GPGGA,102140.000,3353.7372,N,09832.0190,W,2,06,1.8,307.7,M,-23.7,M,2.8,0000*47
$GPGSA,A,3,12,05,02,04,25,10,,,,,,,3.0,1.8,2.4*38
$GPRMC,102140.000,A,3353.7372,N,09832.0190,W,0.55,129.78,030412,,,D*71
$GPGGA,102141.000,3353.7369,N,09832.0186,W,2,06,1.8,307.4,M,-23.7,M,3.8,0000*49
$GPGSA,A,3,12,05,02,04,25,10,,,,,,,3.0,1.8,2.4*38
$GPRMC,102141.000,A,3353.7369,N,09832.0186,W,0.21,163.51,030412,,,D*7B
$GPGGA,102142.000,3353.7373,N,09832.0192,W,2,06,1.8,307.5,M,-23.7,M,0.8,0000*46
$GPGSA,A,3,12,05,02,04,25,10,,,,,,,3.0,1.8,2.4*38
$GPRMC,102142.000,A,3353.7373,N,09832.0192,W,0.61,299.99,030412,,,D*70
$GPGGA,102143.000,3353.7380,N,09832.0202,W,2,06,1.8,308.1,M,-23.7,M,0.8,0000*4A
$GPGSA,A,3,12,05,02,04,25,10,,,,,,,3.0,1.8,2.4*38
$GPRMC,102143.000,A,3353.7380,N,09832.0202,W,0.63,302.28,030412,,,D*7C
$GPGGA,102144.000,3353.7384,N,09832.0207,W,2,06,1.8,308.4,M,-23.7,M,0.8,0000*49
$GPGSA,A,3,12,05,02,04,25,10,,,,,,,3.0,1.8,2.4*38
$GPGSV,3,1,11,05,76,125,35,12,50,211,30,02,48,044,37,25,47,280,21*7F
$GPGSV,3,2,11,29,29,313,,10,28,045,34,04,16,064,23,26,08,147,24*7C
$GPGSV,3,3,11,13,02,039,,21,00,259,,51,49,195,34*4D
$GPRMC,102144.000,A,3353.7384,N,09832.0207,W,0.57,300.92,030412,,,D*7E
$GPGGA,102145.000,3353.7382,N,09832.0204,W,2,06,1.8,309.1,M,-23.7,M,0.8,0000*49
$GPGSA,A,3,12,05,02,04,25,10,,,,,,,3.0,1.8,2.4*38
$GPRMC,102145.000,A,3353.7382,N,09832.0204,W,0.11,138.79,030412,,,D*74
$GPGGA,102146.000,3353.7386,N,09832.0209,W,2,06,1.8,309.3,M,-23.7,M,1.8,0000*40
$GPGSA,A,3,12,05,02,04,25,10,,,,,,,3.0,1.8,2.4*38
$GPRMC,102146.000,A,3353.7386,N,09832.0209,W,0.04,273.31,030412,,,D*7A
$GPGGA,102147.000,3353.7390,N,09832.0215,W,2,06,1.8,309.1,M,-23.7,M,2.8,0000*4A
$GPGSA,A,3,12,05,02,04,25,10,,,,,,,3.0,1.8,2.4*38
$GPRMC,102147.000,A,3353.7390,N,09832.0215,W,0.94,305.85,030412,,,D*77
$GPGGA,102148.000,3353.7390,N,09832.0214,W,2,06,1.8,309.3,M,-23.7,M,0.8,0000*44
$GPGSA,A,3,12,05,02,04,25,10,,,,,,,3.0,1.8,2.4*38
$GPRMC,102148.000,A,3353.7390,N,09832.0214,W,0.16,315.81,030412,,,D*76
$GPGGA,102149.000,3353.7388,N,09832.0211,W,2,06,1.8,309.5,M,-23.7,M,0.8,0000*4F
$GPGSA,A,3,12,05,02,04,25,10,,,,,,,3.0,1.8,2.4*38
$GPGSV,3,1,11,05,76,125,35,12,50,211,31,02,48,044,37,25,47,280,21*7E
$GPGSV,3,2,11,29,29,313,,10,28,045,34,04,16,064,23,26,08,147,24*7C
$GPGSV,3,3,11,13,02,039,,21,00,259,,51,49,195,33*4A
$GPRMC,102149.000,A,3353.7388,N,09832.0211,W,0.75,123.51,030412,,,D*74
$GPGGA,102150.000,3353.7387,N,09832.0209,W,2,06,1.8,310.0,M,-23.7,M,0.8,0000*4C
$GPGSA,A,3,12,05,02,04,25,10,,,,,,,3.0,1.8,2.4*38
$GPRMC,102150.000,A,3353.7387,N,09832.0209,W,0.23,289.57,030412,,,D*7C
$GPGGA,102151.000,3353.7385,N,09832.0205,W,2,06,1.8,310.7,M,-23.7,M,1.8,0000*45
$GPGSA,A,3,12,05,02,04,25,10,,,,,,,3.0,1.8,2.4*38
$GPRMC,102151.000,A,3353.7385,N,09832.0205,W,0.62,301.81,030412,,,D*7C
$GPGGA,102152.000,3353.7385,N,09832.0204,W,2,06,1.8,311.3,M,-23.7,M,2.8,0000*41
$GPGSA,A,3,12,05,02,04,25,10,,,,,,,3.0,1.8,2.4*38
$GPRMC,102152.000,A,3353.7385,N,09832.0204,W,0.06,306.96,030412,,,D*7D
$GPGGA,102153.000,3353.7383,N,09832.0200,W,2,06,1.8,312.1,M,-23.7,M,3.8,0000*42
$GPGSA,A,3,12,05,02,04,25,10,,,,,,,3.0,1.8,2.4*38
$GPRMC,102153.000,A,3353.7383,N,09832.0200,W,0.48,124.20,030412,,,D*7B
$GPGGA,102154.000,3353.7380,N,09832.0193,W,2,06,1.8,312.4,M,-23.7,M,0.8,0000*49
$GPGSA,A,3,12,05,02,04,25,10,,,,,,,3.0,1.8,2.4*38
$GPGSV,3,1,11,05,76,125,35,12,50,211,31,02,48,044,37,25,47,280,21*7E
$GPGSV,3,2,11,29,29,313,,10,28,045,33,04,16,064,23,26,08,147,24*7B
$GPGSV,3,3,11,13,02,039,,21,00,259,,51,49,195,33*4A
$GPRMC,102154.000,A,3353.7380,N,09832.0193,W,0.77,124.52,030412,,,D*7F
$GPGGA,102155.000,3353.7376,N,09832.0187,W,2,06,1.8,312.9,M,-23.7,M,0.8,0000*49
$GPGSA,A,3,12,05,02,04,25,10,,,,,,,3.0,1.8,2.4*38
$GPRMC,102155.000,A,3353.7376,N,09832.0187,W,0.86,120.46,030412,,,D*7D
$GPGGA,102156.000,3353.7370,N,09832.0176,W,2,06,1.8,313.2,M,-23.7,M,0.8,0000*48
$GPGSA,A,3,12,05,02,04,25,10,,,,,,,3.0,1.8,2.4*38
$GPRMC,102156.000,A,3353.7370,N,09832.0176,W,0.72,116.83,030412,,,D*71
$GPGGA,102157.000,3353.7368,N,09832.0172,W,2,06,1.8,313.5,M,-23.7,M,1.8,0000*42
$GPGSA,A,3,12,05,02,04,25,10,,,,,,,3.0,1.8,2.4*38
$GPRMC,102157.000,A,3353.7368,N,09832.0172,W,0.09,317.98,030412,,,D*78
$GPGGA,102158.000,3353.7364,N,09832.0166,W,2,06,1.8,313.4,M,-23.7,M,2.8,0000*46
$GPGSA,A,3,12,05,02,04,25,10,,,,,,,3.0,1.8,2.4*38
$GPRMC,102158.000,A,3353.7364,N,09832.0166,W,0.47,302.33,030412,,,D*71
$GPGGA,102159.000,3353.7360,N,09832.0159,W,2,06,1.8,313.5,M,-23.7,M,3.8,0000*4F
$GPGSA,A,3,12,05,02,04,25,10,,,,,,,3.0,1.8,2.4*38
$GPGSV,3,1,11,05,76,125,36,12,50,211,31,02,48,044,37,25,47,280,22*7E
$GPGSV,3,2,11,29,29,313,,10,28,045,33,04,16,064,23,26,08,147,24*7B
$GPGSV,3,3,11,13,02,039,,21,00,259,,51,49,195,34*4D
$GPRMC,102159.000,A,3353.7360,N,09832.0159,W,0.27,113.94,030412,,,D*71
$GPGGA,102200.000,3353.7356,N,09832.0151,W,2,06,1.8,313.9,M,-23.7,M,0.8,0000*42
$GPGSA,A,3,12,05,02,04,25,10,,,,,,,3.0,1.8,2.4*38
$GPRMC,102200.000,A,3353.7356,N,09832.0151,W,0.06,145.90,030412,,,D*77
$GPGGA,102201.000,3353.7353,N,09832.0147,W,2,06,1.8,313.4,M,-23.7,M,0.8,0000*4C
$GPGSA,A,3,12,05,02,04,25,10,,,,,,,3.0,1.8,2.4*38
$GPRMC,102201.000,A,3353.7353,N,09832.0147,W,0.63,118.54,030412,,,D*77
$GPGGA,102202.000,3353.7355,N,09832.0150,W,2,05,4.1,313.9,M,-23.7,M,0.8,0000*4D
$GPGSA,A,3,12,05,02,04,10,,,,,,,,4.9,4.1,2.7*3E
$GPRMC,102202.000,A,3353.7355,N,09832.0150,W,0.03,276.83,030412,,,D*73
$GPGGA,102203.000,3353.7359,N,09832.0155,W,2,05,4.1,314.5,M,-23.7,M,1.8,0000*4F
$GPGSA,A,3,12,05,02,04,10,,,,,,,,4.9,4.1,2.7*3E
$GPRMC,102203.000,A,3353.7359,N,09832.0155,W,0.78,306.62,030412,,,D*7E
$GPGGA,102204.000,3353.7362,N,09832.0160,W,2,05,4.1,314.6,M,-23.7,M,2.8,0000*46
$GPGSA,A,3,12,05,02,04,10,,,,,,,,4.9,4.1,2.7*3E
$GPGSV,3,1,11,05,76,125,36,12,50,211,31,02,48,044,37,25,47,280,*7E
$GPGSV,3,2,11,29,29,313,,10,28,045,33,04,16,064,23,26,08,147,25*7A
$GPGSV,3,3,11,13,02,039,,21,00,259,,51,49,195,34*4D
$GPRMC,102204.000,A,3353.7362,N,09832.0160,W,0.57,313.37,030412,,,D*7E
$GPGGA,102205.000,3353.7365,N,09832.0165,W,2,05,4.1,314.6,M,-23.7,M,0.8,0000*47
$GPGSA,A,3,12,05,02,04,10,,,,,,,,4.9,4.1,2.7*3E
$GPRMC,102205.000,A,3353.7365,N,09832.0165,W,0.59,312.73,030412,,,D*72
$GPGGA,102206.000,3353.7371,N,09832.0173,W,2,05,4.1,314.8,M,-23.7,M,0.8,0000*48
$GPGSA,A,3,12,05,02,04,10,,,,,,,,4.9,4.1,2.7*3E
$GPRMC,102206.000,A,3353.7371,N,09832.0173,W,0.81,309.11,030412,,,D*78
$GPGGA,102207.000,3353.7377,N,09832.0183,W,2,05,4.1,314.8,M,-23.7,M,0.8,0000*40
$GPGSA,A,3,12,05,02,04,10,,,,,,,,4.9,4.1,2.7*3E
$GPRMC,102207.000,A,3353.7377,N,09832.0183,W,1.57,304.94,030412,,,D*7A
$GPGGA,102208.000,3353.7385,N,09832.0195,W,2,05,4.1,315.2,M,-23.7,M,0.8,0000*4E
$GPGSA,A,3,12,05,02,04,10,,,,,,,,4.9,4.1,2.7*3E
$GPRMC,102208.000,A,3353.7385,N,09832.0195,W,1.87,305.87,030412,,,D*71
$GPGGA,102209.000,3353.7392,N,09832.0205,W,2,05,4.1,315.4,M,-23.7,M,1.8,0000*44
$GPGSA,A,3,12,05,02,04,10,,,,,,,,4.9,4.1,2.7*3E
$GPGSV,3,1,11,05,76,125,36,12,50,211,31,02,48,044,37,25,47,280,*7E
$GPGSV,3,2,11,29,29,313,,10,28,045,33,04,16,064,23,26,08,147,25*7A
$GPGSV,3,3,11,13,02,039,,21,00,259,,51,49,195,34*4D
$GPRMC,102209.000,A,3353.7392,N,09832.0205,W,1.36,308.84,030412,,,D*78
$GPGGA,102210.000,3353.7396,N,09832.0212,W,2,05,4.1,315.2,M,-23.7,M,2.8,0000*4B
$GPGSA,A,3,12,05,02,04,10,,,,,,,,4.9,4.1,2.7*3E
$GPRMC,102210.000,A,3353.7396,N,09832.0212,W,1.27,305.95,030412,,,D*7F
$GPGGA,102211.000,3353.7399,N,09832.0217,W,2,05,4.1,314.8,M,-23.7,M,3.8,0000*4A
$GPGSA,A,3,12,05,02,04,10,,,,,,,,4.9,4.1,2.7*3E
$GPRMC,102211.000,A,3353.7399,N,09832.0217,W,0.54,313.48,030412,,,D*76
$GPGGA,102212.000,3353.7403,N,09832.0223,W,2,05,4.1,314.7,M,-23.7,M,0.8,0000*46
$GPGSA,A,3,12,05,02,04,10,,,,,,,,4.9,4.1,2.7*3E
$GPRMC,102212.000,A,3353.7403,N,09832.0223,W,0.15,324.77,030412,,,D*7B
$GPGGA,102213.000,3353.7403,N,09832.0222,W,2,05,4.1,314.0,M,-23.7,M,0.8,0000*41
$GPGSA,A,3,12,05,02,04,10,,,,,,,,4.9,4.1,2.7*3E
$GPRMC,102213.000,A,3353.7403,N,09832.0222,W,0.68,123.52,030412,,,D*73
$GPGGA,102214.000,3353.7403,N,09832.0223,W,2,05,4.1,313.5,M,-23.7,M,0.8,0000*45
$GPGSA,A,3,12,05,02,04,10,,,,,,,,4.9,4.1,2.7*3E
$GPGSV,3,1,11,05,76,125,36,12,50,211,31,02,48,044,37,25,47,280,*7E
$GPGSV,3,2,11,29,29,313,,10,28,045,33,04,16,064,23,26,08,147,26*79
$GPGSV,3,3,11,13,02,039,,21,00,259,,51,49,195,34*4D
$GPRMC,102214.000,A,3353.7403,N,09832.0223,W,1.11,125.83,030412,,,D*70
$GPGGA,102215.000,3353.7406,N,09832.0227,W,2,05,4.1,313.3,M,-23.7,M,1.8,0000*42
$GPGSA,A,3,12,05,02,04,10,,,,,,,,4.9,4.1,2.7*3E
$GPRMC,102215.000,A,3353.7406,N,09832.0227,W,0.75,131.06,030412,,,D*7B
$GPGGA,102216.000,3353.7411,N,09832.0235,W,2,05,4.1,313.2,M,-23.7,M,0.8,0000*44
$GPGSA,A,3,12,05,02,04,10,,,,,,,,4.9,4.1,2.7*3E
$GPRMC,102216.000,A,3353.7411,N,09832.0235,W,0.73,129.25,030412,,,D*73
$GPGGA,102217.000,3353.7414,N,09832.0240,W,2,05,4.1,313.1,M,-23.7,M,0.8,0000*41
$GPGSA,A,3,12,05,02,04,10,,,,,,,,4.9,4.1,2.7*3E
$GPRMC,102217.000,A,3353.7414,N,09832.0240,W,0.94,128.84,030412,,,D*76
$GPGGA,102218.000,3353.7415,N,09832.0242,W,2,05,4.1,312.7,M,-23.7,M,0.8,0000*4A
$GPGSA,A,3,12,05,02,04,10,,,,,,,,4.9,4.1,2.7*3E
$GPRMC,102218.000,A,3353.7415,N,09832.0242,W,0.85,131.69,030412,,,D*71
$GPGGA,102219.000,3353.7414,N,09832.0241,W,2,05,4.1,312.0,M,-23.7,M,0.8,0000*4E
$GPGSA,A,3,12,05,02,04,10,,,,,,,,4.9,4.1,2.7*3E
$GPGSV,3,1,11,05,76,125,37,12,50,211,31,02,48,044,37,25,47,280,*7F
$GPGSV,3,2,11,29,29,313,,10,28,045,34,04,16,064,22,26,08,147,27*7E
$GPGSV,3,3,11,13,02,039,,21,00,259,,51,49,195,34*4D
$GPRMC,102219.000,A,3353.7414,N,09832.0241,W,0.33,160.68,030412,,,D*7A
$GPGGA,102220.000,3353.7415,N,09832.0243,W,2,05,4.1,311.7,M,-23.7,M,0.8,0000*43
$GPGSA,A,3,12,05,02,04,10,,,,,,,,4.9,4.1,2.7*3E
$GPRMC,102220.000,A,3353.7415,N,09832.0243,W,0.47,285.49,030412,,,D*7B
$GPGGA,102221.000,3353.7417,N,09832.0246,W,2,05,4.1,311.3,M,-23.7,M,0.8,0000*41
$GPGSA,A,3,12,05,02,04,10,,,,,,,,4.9,4.1,2.7*3E
$GPRMC,102221.000,A,3353.7417,N,09832.0246,W,0.22,282.34,030412,,,D*73
$GPGGA,102222.000,3353.7418,N,09832.0248,W,2,05,4.1,311.0,M,-23.7,M,1.8,0000*41
$GPGSA,A,3,12,05,02,04,10,,,,,,,,4.9,4.1,2.7*3E
$GPRMC,102222.000,A,3353.7418,N,09832.0248,W,0.72,295.25,030412,,,D*72
$GPGGA,102223.000,3353.7418,N,09832.0248,W,2,05,4.1,310.5,M,-23.7,M,2.8,0000*47
$GPGSA,A,3,12,05,02,04,10,,,,,,,,4.9,4.1,2.7*3E
$GPRMC,102223.000,A,3353.7418,N,09832.0248,W,0.06,165.13,030412,,,D*79
$GPGGA,102224.000,3353.7419,N,09832.0249,W,2,05,4.1,310.2,M,-23.7,M,0.8,0000*45
$GPGSA,A,3,12,05,02,04,10,,,,,,,,4.9,4.1,2.7*3E
$GPGSV,3,1,11,05,76,125,37,12,50,211,31,02,48,044,37,25,47,280,*7F
$GPGSV,3,2,11,29,29,313,,10,28,045,34,04,16,064,20,26,08,147,27*7C
$GPGSV,3,3,11,13,02,039,,21,00,259,,51,49,195,34*4D
$GPRMC,102224.000,A,3353.7419,N,09832.0249,W,0.77,126.56,030412,,,D*7E
$GPGGA,102225.000,3353.7422,N,09832.0254,W,2,05,4.1,310.2,M,-23.7,M,0.8,0000*40
$GPGSA,A,3,12,05,02,04,10,,,,,,,,4.9,4.1,2.7*3E
$GPRMC,102225.000,A,3353.7422,N,09832.0254,W,0.39,139.55,030412,,,D*7C
$GPGGA,102226.000,3353.7426,N,09832.0260,W,2,05,4.1,310.3,M,-23.7,M,0.8,0000*41
$GPGSA,A,3,12,05,02,04,10,,,,,,,,4.9,4.1,2.7*3E
$GPRMC,102226.000,A,3353.7426,N,09832.0260,W,0.16,181.19,030412,,,D*7A
$GPGGA,102227.000,3353.7429,N,09832.0264,W,2,05,4.1,310.2,M,-23.7,M,0.8,0000*4A
$GPGSA,A,3,12,05,02,04,10,,,,,,,,4.9,4.1,2.7*3E
$GPRMC,102227.000,A,3353.7429,N,09832.0264,W,0.59,129.86,030412,,,D*7F
$GPGGA,102228.000,3353.7436,N,09832.0275,W,2,05,4.1,310.7,M,-23.7,M,1.8,0000*4F
$GPGSA,A,3,12,05,02,04,10,,,,,,,,4.9,4.1,2.7*3E
$GPRMC,102228.000,A,3353.7436,N,09832.0275,W,0.30,141.36,030412,,,D*74
$GPGGA,102229.000,3353.7435,N,09832.0274,W,2,05,4.1,310.3,M,-23.7,M,2.8,0000*4B
$GPGSA,A,3,12,05,02,04,10,,,,,,,,4.9,4.1,2.7*3E
$GPGSV,3,1,11,05,76,125,37,12,50,211,30,02,48,044,38,25,47,280,*71
$GPGSV,3,2,11,29,29,313,,10,28,045,34,04,16,064,19,26,08,147,27*76
$GPGSV,3,3,11,13,02,039,,21,00,259,,51,49,195,34*4D
$GPRMC,102229.000,A,3353.7435,N,09832.0274,W,0.57,134.23,030412,,,D*70
$GPGGA,102230.000,3353.7433,N,09832.0272,W,2,05,4.1,310.0,M,-23.7,M,0.8,0000*42
$GPGSA,A,3,12,05,02,04,10,,,,,,,,4.9,4.1,2.7*3E
$GPRMC,102230.000,A,3353.7433,N,09832.0272,W,0.86,131.31,030412,,,D*72
$GPGGA,102231.000,3353.7436,N,09832.0276,W,2,05,4.1,310.0,M,-23.7,M,0.8,0000*42
$GPGSA,A,3,12,05,02,04,10,,,,,,,,4.9,4.1,2.7*3E
$GPRMC,102231.000,A,3353.7436,N,09832.0276,W,0.53,140.18,030412,,,D*77
$GPGGA,102232.000,3353.7434,N,09832.0274,W,2,05,4.1,309.7,M,-23.7,M,0.8,0000*4E
$GPGSA,A,3,12,05,02,04,10,,,,,,,,4.9,4.1,2.7*3E
$GPRMC,102232.000,A,3353.7434,N,09832.0274,W,0.14,194.32,030412,,,D*76
