$GPGGA,065113.000,3353.7435,N,09832.0228,W,1,06,1.7,318.0,M,-23.7,M,,0000*64
$GPGSA,A,3,02,28,20,04,10,17,,,,,,,2.6,1.7,2.0*3B
$GPRMC,065113.000,A,3353.7435,N,09832.0228,W,0.16,101.21,020412,,,A*76
$GPGGA,065114.000,3353.7436,N,09832.0227,W,1,06,1.7,318.0,M,-23.7,M,,0000*6F
$GPGSA,A,3,02,28,20,04,10,17,,,,,,,2.6,1.7,2.0*3B
$GPRMC,065114.000,A,3353.7436,N,09832.0227,W,0.19,76.98,020412,,,A*41
$GPGGA,065115.000,3353.7436,N,09832.0226,W,1,06,1.7,318.0,M,-23.7,M,,0000*6F
$GPGSA,A,3,02,28,20,04,10,17,,,,,,,2.6,1.7,2.0*3B
$GPRMC,065115.000,A,3353.7436,N,09832.0226,W,0.07,24.37,020412,,,A*4C
$GPGGA,065116.000,3353.7436,N,09832.0226,W,1,07,1.1,318.0,M,-23.7,M,,0000*6B
$GPGSA,A,3,02,28,20,09,04,10,17,,,,,,2.0,1.1,1.7*36
$GPRMC,065116.000,A,3353.7436,N,09832.0226,W,0.10,12.34,020412,,,A*4F
$GPGGA,065117.000,3353.7436,N,09832.0225,W,1,07,1.1,318.1,M,-23.7,M,,0000*68
$GPGSA,A,3,02,28,20,09,04,10,17,,,,,,2.0,1.1,1.7*36
$GPGSV,3,1,11,04,70,194,34,17,50,039,38,28,45,112,34,27,43,274,*7C
$GPGSV,3,2,11,02,36,213,25,09,35,295,18,20,15,058,18,10,15,152,30*72
$GPGSV,3,3,11,12,12,312,,08,01,165,28,32,01,037,*4C
$GPRMC,065117.000,A,3353.7436,N,09832.0225,W,0.11,100.74,020412,,,A*7A
$GPGGA,065118.000,3353.7436,N,09832.0224,W,1,07,1.1,318.2,M,-23.7,M,,0000*65
$GPGSA,A,3,02,28,20,09,04,10,17,,,,,,2.0,1.1,1.7*36
$GPRMC,065118.000,A,3353.7436,N,09832.0224,W,0.13,68.13,020412,,,A*48
$GPGGA,065119.000,3353.7436,N,09832.0223,W,1,07,1.1,318.2,M,-23.7,M,,0000*63
$GPGSA,A,3,02,28,20,09,04,10,17,,,,,,2.0,1.1,1.7*36
$GPRMC,065119.000,A,3353.7436,N,09832.0223,W,0.14,83.14,020412,,,A*4B
$GPGGA,065120.000,3353.7436,N,09832.0222,W,1,07,1.1,318.2,M,-23.7,M,,0000*68
$GPGSA,A,3,02,28,20,09,04,10,17,,,,,,2.0,1.1,1.7*36
$GPRMC,065120.000,A,3353.7436,N,09832.0222,W,0.17,345.43,020412,,,A*78
$GPGGA,065121.000,3353.7436,N,09832.0223,W,1,08,1.0,318.0,M,-23.7,M,,0000*64
$GPGSA,A,3,02,28,20,09,04,10,17,27,,,,,2.0,1.0,1.7*32
$GPRMC,065121.000,A,3353.7436,N,09832.0223,W,0.25,269.29,020412,,,A*7A
$GPGGA,065122.000,3353.7436,N,09832.0225,W,1,08,1.0,317.8,M,-23.7,M,,0000*66
$GPGSA,A,3,02,28,20,09,04,10,17,27,,,,,2.0,1.0,1.7*32
$GPGSV,3,1,11,04,70,194,34,17,50,039,38,28,45,112,33,27,43,274,18*72
$GPGSV,3,2,11,02,36,213,24,09,35,295,20,20,15,058,18,10,15,152,29*70
$GPGSV,3,3,11,12,12,312,,08,01,165,27,32,01,037,*43
$GPRMC,065122.000,A,3353.7436,N,09832.0225,W,0.54,268.16,020412,,,A*74
$GPGGA,065123.000,3353.7436,N,09832.0226,W,1,08,1.0,317.6,M,-23.7,M,,0000*6A
$GPGSA,A,3,02,28,20,09,04,10,17,27,,,,,2.0,1.0,1.7*32
$GPRMC,065123.000,A,3353.7436,N,09832.0226,W,0.06,77.73,020412,,,A*4E
$GPGGA,065124.000,3353.7437,N,09832.0225,W,1,08,1.0,317.4,M,-23.7,M,,0000*6D
$GPGSA,A,3,02,28,20,09,04,10,17,27,,,,,2.0,1.0,1.7*32
$GPRMC,065124.000,A,3353.7437,N,09832.0225,W,0.34,50.78,020412,,,A*44
$GPGGA,065125.000,3353.7437,N,09832.0226,W,1,08,1.0,317.2,M,-23.7,M,,0000*69
$GPGSA,A,3,02,28,20,09,04,10,17,27,,,,,2.0,1.0,1.7*32
$GPRMC,065125.000,A,3353.7437,N,09832.0226,W,0.12,357.93,020412,,,A*73
$GPGGA,065126.000,3353.7438,N,09832.0228,W,1,08,1.0,316.8,M,-23.7,M,,0000*60
$GPGSA,A,3,02,28,20,09,04,10,17,27,,,,,2.0,1.0,1.7*32
$GPRMC,065126.000,A,3353.7438,N,09832.0228,W,0.59,298.58,020412,,,A*7B
$GPGGA,065127.000,3353.7438,N,09832.0231,W,1,08,1.0,316.3,M,-23.7,M,,0000*62
$GPGSA,A,3,02,28,20,09,04,10,17,27,,,,,2.0,1.0,1.7*32
$GPGSV,3,1,11,04,70,194,34,17,50,039,38,28,45,112,33,27,43,274,19*73
$GPGSV,3,2,11,02,36,213,24,09,35,295,21,20,15,058,18,10,15,152,29*71
$GPGSV,3,3,11,12,12,312,,08,01,165,28,32,01,037,*4C
$GPRMC,065127.000,A,3353.7438,N,09832.0231,W,0.47,284.43,020412,,,A*7A
$GPGGA,065128.000,3353.7438,N,09832.0232,W,1,08,1.0,315.9,M,-23.7,M,,0000*67
$GPGSA,A,3,02,28,20,09,04,10,17,27,,,,,2.0,1.0,1.7*32
$GPRMC,065128.000,A,3353.7438,N,09832.0232,W,0.28,53.67,020412,,,A*41
$GPGGA,065129.000,3353.7438,N,09832.0231,W,1,08,1.0,315.5,M,-23.7,M,,0000*69
$GPGSA,A,3,02,28,20,09,04,10,17,27,,,,,2.0,1.0,1.7*32
$GPRMC,065129.000,A,3353.7438,N,09832.0231,W,0.44,85.73,020412,,,A*47
$GPGGA,065130.000,3353.7438,N,09832.0230,W,1,08,1.0,315.4,M,-23.7,M,,0000*61
$GPGSA,A,3,02,28,20,09,04,10,17,27,,,,,2.0,1.0,1.7*32
$GPRMC,065130.000,A,3353.7438,N,09832.0230,W,0.61,96.35,020412,,,A*49
$GPGGA,065131.000,3353.7438,N,09832.0229,W,1,08,1.0,315.2,M,-23.7,M,,0000*6E
$GPGSA,A,3,02,28,20,09,04,10,17,27,,,,,2.0,1.0,1.7*32
$GPRMC,065131.000,A,3353.7438,N,09832.0229,W,0.43,55.95,020412,,,A*45
$GPGGA,065132.000,3353.7438,N,09832.0231,W,1,08,1.0,315.0,M,-23.7,M,,0000*66
$GPGSA,A,3,02,28,20,09,04,10,17,27,,,,,2.0,1.0,1.7*32
$GPGSV,3,1,11,04,70,194,34,17,50,039,38,28,45,112,33,27,43,274,20*79
$GPGSV,3,2,11,02,36,213,24,09,35,295,21,20,15,058,20,10,15,152,29*7A
$GPGSV,3,3,11,12,12,312,,08,01,165,28,32,01,037,17*4A
$GPRMC,065132.000,A,3353.7438,N,09832.0231,W,0.36,265.48,020412,,,A*7C
$GPGGA,065133.000,3353.7438,N,09832.0232,W,1,08,1.0,314.9,M,-23.7,M,,0000*6C
$GPGSA,A,3,02,28,20,09,04,10,17,27,,,,,2.0,1.0,1.7*32
$GPRMC,065133.000,A,3353.7438,N,09832.0232,W,0.16,226.42,020412,,,A*71
$GPGGA,065134.000,3353.7437,N,09832.0232,W,1,08,1.0,314.8,M,-23.7,M,,0000*65
$GPGSA,A,3,02,28,20,09,04,10,17,27,,,,,2.0,1.0,1.7*32
$GPRMC,065134.000,A,3353.7437,N,09832.0232,W,0.27,76.87,020412,,,A*45
$GPGGA,065135.000,3353.7437,N,09832.0233,W,1,08,1.0,314.6,M,-23.7,M,,0000*6B
$GPGSA,A,3,02,28,20,09,04,10,17,27,,,,,2.0,1.0,1.7*32
$GPRMC,065135.000,A,3353.7437,N,09832.0233,W,0.09,169.28,020412,,,A*73
$GPGGA,065136.000,3353.7437,N,09832.0233,W,1,08,1.0,314.5,M,-23.7,M,,0000*6B
$GPGSA,A,3,02,28,20,09,04,10,17,27,,,,,2.0,1.0,1.7*32
$GPRMC,065136.000,A,3353.7437,N,09832.0233,W,0.11,113.37,020412,,,A*7A
$GPGGA,065137.000,3353.7436,N,09832.0234,W,1,08,1.0,314.3,M,-23.7,M,,0000*6A
$GPGSA,A,3,02,28,20,09,04,10,17,27,,,,,2.0,1.0,1.7*32
$GPGSV,3,1,12,04,70,194,34,17,50,039,38,28,45,112,33,27,43,274,21*7B
$GPGSV,3,2,12,02,36,213,24,09,35,295,22,20,15,058,21,10,15,152,29*7B
$GPGSV,3,3,12,12,12,312,,08,01,165,28,32,01,037,18,48,36,230,28*74
$GPRMC,065137.000,A,3353.7436,N,09832.0234,W,0.12,77.11,020412,,,A*49
$GPGGA,065138.000,3353.7436,N,09832.0235,W,1,08,1.0,314.0,M,-23.7,M,,0000*67
$GPGSA,A,3,02,28,20,09,04,10,17,27,,,,,2.0,1.0,1.7*32
$GPRMC,065138.000,A,3353.7436,N,09832.0235,W,0.16,84.31,020412,,,A*4D
$GPGGA,065139.000,3353.7436,N,09832.0236,W,1,08,1.0,313.7,M,-23.7,M,,0000*65
$GPGSA,A,3,02,28,20,09,04,10,17,27,,,,,2.0,1.0,1.7*32
$GPRMC,065139.000,A,3353.7436,N,09832.0236,W,0.27,346.26,020412,,,A*76
$GPGGA,065140.000,3353.7436,N,09832.0237,W,1,08,1.0,313.5,M,-23.7,M,,0000*68
$GPGSA,A,3,02,28,20,09,04,10,17,27,,,,,2.0,1.0,1.7*32
$GPRMC,065140.000,A,3353.7436,N,09832.0237,W,0.23,117.09,020412,,,A*76
$GPGGA,065141.000,3353.7435,N,09832.0238,W,1,08,1.0,313.3,M,-23.7,M,,0000*63
$GPGSA,A,3,02,28,20,09,04,10,17,27,,,,,2.0,1.0,1.7*32
$GPRMC,065141.000,A,3353.7435,N,09832.0238,W,0.14,152.53,020412,,,A*71
$GPGGA,065142.000,3353.7435,N,09832.0239,W,1,08,1.0,313.2,M,-23.7,M,,0000*60
$GPGSA,A,3,02,28,20,09,04,10,17,27,,,,,2.0,1.0,1.7*32
$GPGSV,3,1,12,04,70,194,34,17,50,039,38,28,45,112,34,27,43,274,23*7E
$GPGSV,3,2,12,02,36,213,25,09,35,295,22,20,15,058,20,10,15,152,29*7B
$GPGSV,3,3,12,12,12,312,,08,01,165,28,32,01,037,17,48,36,230,27*74
$GPRMC,065142.000,A,3353.7435,N,09832.0239,W,0.16,257.76,020412,,,A*70
$GPGGA,065143.000,3353.7434,N,09832.0241,W,1,08,1.0,313.1,M,-23.7,M,,0000*6C
$GPGSA,A,3,02,28,20,09,04,10,17,27,,,,,2.0,1.0,1.7*32
$GPRMC,065143.000,A,3353.7434,N,09832.0241,W,0.30,270.15,020412,,,A*7B
$GPGGA,065144.000,3353.7435,N,09832.0243,W,1,08,1.0,313.1,M,-23.7,M,,0000*68
$GPGSA,A,3,02,28,20,09,04,10,17,27,,,,,2.0,1.0,1.7*32
$GPRMC,065144.000,A,3353.7435,N,09832.0243,W,0.18,316.20,020412,,,A*72
$GPGGA,065145.000,3353.7435,N,09832.0244,W,1,08,1.0,313.0,M,-23.7,M,,0000*6F
$GPGSA,A,3,02,28,20,09,04,10,17,27,,,,,2.0,1.0,1.7*32
$GPRMC,065145.000,A,3353.7435,N,09832.0244,W,0.16,308.67,020412,,,A*76
$GPGGA,065146.000,3353.7435,N,09832.0244,W,1,08,1.0,312.9,M,-23.7,M,,0000*64
$GPGSA,A,3,02,28,20,09,04,10,17,27,,,,,2.0,1.0,1.7*32
$GPRMC,065146.000,A,3353.7435,N,09832.0244,W,0.15,3.04,020412,,,A*7B
$GPGGA,065147.000,3353.7435,N,09832.0246,W,1,08,1.0,312.8,M,-23.7,M,,0000*66
$GPGSA,A,3,02,28,20,09,04,10,17,27,,,,,2.0,1.0,1.7*32
$GPGSV,3,1,12,04,70,194,34,17,50,039,37,28,45,112,34,27,43,274,24*76
$GPGSV,3,2,12,02,36,213,26,09,35,295,14,20,15,058,20,10,15,152,29*7D
$GPGSV,3,3,12,12,12,312,,08,01,165,28,32,01,037,17,48,36,230,27*74
$GPRMC,065147.000,A,3353.7435,N,09832.0246,W,0.26,295.12,020412,,,A*72
$GPGGA,065148.000,3353.7435,N,09832.0248,W,1,08,1.0,312.8,M,-23.7,M,,0000*67
$GPGSA,A,3,02,28,20,09,04,10,17,27,,,,,2.0,1.0,1.7*32
$GPRMC,065148.000,A,3353.7435,N,09832.0248,W,0.40,281.19,020412,,,A*7D
$GPGGA,065149.000,3353.7434,N,09832.0248,W,1,08,1.0,312.8,M,-23.7,M,,0000*67
$GPGSA,A,3,02,28,20,09,04,10,17,27,,,,,2.0,1.0,1.7*32
$GPRMC,065149.000,A,3353.7434,N,09832.0248,W,0.12,218.15,020412,,,A*76
$GPGGA,065150.000,3353.7434,N,09832.0248,W,1,08,1.0,312.8,M,-23.7,M,,0000*6F
$GPGSA,A,3,02,28,20,09,04,10,17,27,,,,,2.0,1.0,1.7*32
$GPRMC,065150.000,A,3353.7434,N,09832.0248,W,0.05,75.31,020412,,,A*47
$GPGGA,065151.000,3353.7434,N,09832.0248,W,1,08,1.0,312.8,M,-23.7,M,,0000*6E
$GPGSA,A,3,02,28,20,09,04,10,17,27,,,,,2.0,1.0,1.7*32
$GPRMC,065151.000,A,3353.7434,N,09832.0248,W,0.20,43.70,020412,,,A*41
$GPGGA,065152.000,3353.7434,N,09832.0248,W,1,08,1.0,312.8,M,-23.7,M,,0000*6D
$GPGSA,A,3,02,28,20,09,04,10,17,27,,,,,2.0,1.0,1.7*32
$GPGSV,3,1,11,04,70,194,34,17,50,039,37,28,45,112,34,27,43,274,24*75
$GPGSV,3,2,11,02,36,213,26,09,35,295,20,20,15,058,20,10,15,152,29*79
$GPGSV,3,3,11,12,12,312,,08,01,165,28,32,01,037,16*4B
$GPRMC,065152.000,A,3353.7434,N,09832.0248,W,0.09,111.84,020412,,,A*74
$GPGGA,065153.000,3353.7434,N,09832.0249,W,1,08,1.0,312.8,M,-23.7,M,,0000*6D
$GPGSA,A,3,02,28,20,09,04,10,17,27,,,,,2.0,1.0,1.7*32
$GPRMC,065153.000,A,3353.7434,N,09832.0249,W,0.18,329.18,020412,,,A*78
$GPGGA,065154.000,3353.7434,N,09832.0249,W,1,08,1.0,312.8,M,-23.7,M,,0000*6A
$GPGSA,A,3,02,28,20,09,04,10,17,27,,,,,2.0,1.0,1.7*32
$GPRMC,065154.000,A,3353.7434,N,09832.0249,W,0.18,254.53,020412,,,A*7B
$GPGGA,065155.000,3353.7433,N,09832.0248,W,1,08,1.0,312.9,M,-23.7,M,,0000*6C
$GPGSA,A,3,02,28,20,09,04,10,17,27,,,,,2.0,1.0,1.7*32
$GPRMC,065155.000,A,3353.7433,N,09832.0248,W,0.30,108.15,020412,,,A*7E
$GPGGA,065156.000,3353.7433,N,09832.0247,W,1,08,1.0,313.0,M,-23.7,M,,0000*68
$GPGSA,A,3,02,28,20,09,04,10,17,27,,,,,2.0,1.0,1.7*32
$GPRMC,065156.000,A,3353.7433,N,09832.0247,W,0.47,100.71,020412,,,A*78
$GPGGA,065157.000,3353.7432,N,09832.0247,W,1,08,1.0,313.1,M,-23.7,M,,0000*69
$GPGSA,A,3,02,28,20,09,04,10,17,27,,,,,2.0,1.0,1.7*32
$GPGSV,3,1,11,04,70,194,34,17,50,039,37,28,45,112,34,27,43,274,24*75
$GPGSV,3,2,11,02,36,213,27,09,35,295,18,20,15,058,19,10,15,152,29*79
$GPGSV,3,3,11,12,12,312,,08,01,165,28,32,01,037,16*4B
$GPRMC,065157.000,A,3353.7432,N,09832.0247,W,0.09,226.26,020412,,,A*77
$GPGGA,065158.000,3353.7432,N,09832.0247,W,1,08,1.0,313.2,M,-23.7,M,,0000*65
$GPGSA,A,3,02,28,20,09,04,10,17,27,,,,,2.0,1.0,1.7*32
$GPRMC,065158.000,A,3353.7432,N,09832.0247,W,0.11,338.12,020412,,,A*78
$GPGGA,065159.000,3353.7433,N,09832.0247,W,1,08,1.0,313.2,M,-23.7,M,,0000*65
$GPGSA,A,3,02,28,20,09,04,10,17,27,,,,,2.0,1.0,1.7*32
$GPRMC,065159.000,A,3353.7433,N,09832.0247,W,0.22,331.91,020412,,,A*7A
$GPGGA,065200.000,3353.7433,N,09832.0248,W,1,08,1.0,313.2,M,-23.7,M,,0000*65
$GPGSA,A,3,02,28,20,09,04,10,17,27,,,,,2.0,1.0,1.7*32
$GPRMC,065200.000,A,3353.7433,N,09832.0248,W,0.26,331.10,020412,,,A*77
$GPGGA,065201.000,3353.7433,N,09832.0247,W,1,07,1.2,313.2,M,-23.7,M,,0000*66
$GPGSA,A,3,02,28,20,04,10,17,27,,,,,,2.2,1.2,1.8*34
$GPRMC,065201.000,A,3353.7433,N,09832.0247,W,0.18,357.14,020412,,,A*70
$GPGGA,065202.000,3353.7433,N,09832.0248,W,1,08,1.0,313.2,M,-23.7,M,,0000*67
$GPGSA,A,3,02,28,20,09,04,10,17,27,,,,,2.0,1.0,1.7*32
$GPGSV,3,1,11,04,70,194,34,17,50,039,36,28,45,112,33,27,43,274,24*73
$GPGSV,3,2,11,02,36,213,28,09,35,295,12,20,15,058,18,10,15,152,29*7D
$GPGSV,3,3,11,12,12,312,,08,01,165,29,32,01,037,16*4A
$GPRMC,065202.000,A,3353.7433,N,09832.0248,W,0.16,280.93,020412,,,A*76
$GPGGA,065203.000,3353.7433,N,09832.0248,W,1,08,1.0,313.2,M,-23.7,M,,0000*66
$GPGSA,A,3,02,28,20,09,04,10,17,27,,,,,2.0,1.0,1.7*32
$GPRMC,065203.000,A,3353.7433,N,09832.0248,W,0.19,350.02,020412,,,A*7C
$GPGGA,065204.000,3353.7434,N,09832.0248,W,1,08,1.0,313.1,M,-23.7,M,,0000*65
$GPGSA,A,3,02,28,20,09,04,10,17,27,,,,,2.0,1.0,1.7*32
$GPRMC,065204.000,A,3353.7434,N,09832.0248,W,0.36,328.47,020412,,,A*7F
$GPGGA,065205.000,3353.7434,N,09832.0249,W,1,08,1.0,313.0,M,-23.7,M,,0000*64
$GPGSA,A,3,02,28,20,09,04,10,17,27,,,,,2.0,1.0,1.7*32
$GPRMC,065205.000,A,3353.7434,N,09832.0249,W,0.37,297.86,020412,,,A*76
$GPGGA,065206.000,3353.7434,N,09832.0249,W,1,08,1.0,313.0,M,-23.7,M,,0000*67
$GPGSA,A,3,02,28,20,09,04,10,17,27,,,,,2.0,1.0,1.7*32
$GPRMC,065206.000,A,3353.7434,N,09832.0249,W,0.34,299.16,020412,,,A*71
$GPGGA,065207.000,3353.7434,N,09832.0250,W,1,08,1.0,313.0,M,-23.7,M,,0000*6E
$GPGSA,A,3,02,28,20,09,04,10,17,27,,,,,2.0,1.0,1.7*32
$GPGSV,3,1,11,04,70,194,34,17,50,039,36,28,45,112,34,27,43,274,25*75
$GPGSV,3,2,11,02,36,213,29,09,35,295,15,20,15,058,18,10,15,152,30*73
$GPGSV,3,3,11,12,12,312,,08,01,165,29,32,01,037,18*44
$GPRMC,065207.000,A,3353.7434,N,09832.0250,W,0.32,287.11,020412,,,A*76
$GPGGA,065208.000,3353.7434,N,09832.0250,W,1,08,1.0,313.1,M,-23.7,M,,0000*60
$GPGSA,A,3,02,28,20,09,04,10,17,27,,,,,2.0,1.0,1.7*32
$GPRMC,065208.000,A,3353.7434,N,09832.0250,W,0.18,270.82,020412,,,A*73
$GPGGA,065209.000,3353.7434,N,09832.0250,W,1,08,1.0,313.2,M,-23.7,M,,0000*62
$GPGSA,A,3,02,28,20,09,04,10,17,27,,,,,2.0,1.0,1.7*32
$GPRMC,065209.000,A,3353.7434,N,09832.0250,W,0.11,219.98,020412,,,A*7F
$GPGGA,065210.000,3353.7433,N,09832.0249,W,1,08,1.0,313.4,M,-23.7,M,,0000*63
$GPGSA,A,3,02,28,20,09,04,10,17,27,,,,,2.0,1.0,1.7*32
$GPRMC,065210.000,A,3353.7433,N,09832.0249,W,0.13,172.71,020412,,,A*73
$GPGGA,065211.000,3353.7432,N,09832.0248,W,1,08,1.0,313.6,M,-23.7,M,,0000*60
$GPGSA,A,3,02,28,20,09,04,10,17,27,,,,,2.0,1.0,1.7*32
$GPRMC,065211.000,A,3353.7432,N,09832.0248,W,0.17,195.11,020412,,,A*79
$GPGGA,065212.000,3353.7432,N,09832.0248,W,1,08,1.0,313.9,M,-23.7,M,,0000*6C
$GPGSA,A,3,02,28,20,09,04,10,17,27,,,,,2.0,1.0,1.7*32
$GPGSV,3,1,11,04,70,194,33,17,50,039,36,28,45,112,34,27,43,274,25*72
$GPGSV,3,2,11,02,36,213,29,09,35,295,15,20,15,058,16,10,15,152,30*7D
$GPGSV,3,3,11,12,12,312,,08,01,165,29,32,01,037,19*45
$GPRMC,065212.000,A,3353.7432,N,09832.0248,W,0.19,244.38,020412,,,A*70
$GPGGA,065213.000,3353.7431,N,09832.0248,W,1,08,1.0,314.2,M,-23.7,M,,0000*62
$GPGSA,A,3,02,28,20,09,04,10,17,27,,,,,2.0,1.0,1.7*32
$GPRMC,065213.000,A,3353.7431,N,09832.0248,W,0.21,232.02,020412,,,A*71
$GPGGA,065214.000,3353.7430,N,09832.0248,W,1,08,1.0,314.5,M,-23.7,M,,0000*63
$GPGSA,A,3,02,28,20,09,04,10,17,27,,,,,2.0,1.0,1.7*32
$GPRMC,065214.000,A,3353.7430,N,09832.0248,W,0.14,245.70,020412,,,A*74
$GPGGA,065215.000,3353.7430,N,09832.0248,W,1,08,1.0,314.8,M,-23.7,M,,0000*6F
$GPGSA,A,3,02,28,20,09,04,10,17,27,,,,,2.0,1.0,1.7*32
$GPRMC,065215.000,A,3353.7430,N,09832.0248,W,0.03,329.46,020412,,,A*7D
$GPGGA,065216.000,3353.7430,N,09832.0247,W,1,08,1.0,315.0,M,-23.7,M,,0000*6A
$GPGSA,A,3,02,28,20,09,04,10,17,27,,,,,2.0,1.0,1.7*32
$GPRMC,065216.000,A,3353.7430,N,09832.0247,W,0.08,18.63,020412,,,A*4C
$GPGGA,065217.000,3353.7430,N,09832.0247,W,1,08,1.0,315.2,M,-23.7,M,,0000*69
$GPGSA,A,3,02,28,20,09,04,10,17,27,,,,,2.0,1.0,1.7*32
$GPGSV,3,1,11,04,70,194,33,17,50,039,35,28,45,112,34,27,43,274,26*72
$GPGSV,3,2,11,02,36,213,29,09,35,295,14,20,15,058,15,10,15,152,30*7F
$GPGSV,3,3,11,12,12,312,,08,01,165,28,32,01,037,18*45
$GPRMC,065217.000,A,3353.7430,N,09832.0247,W,0.11,283.75,020412,,,A*72
$GPGGA,065218.000,3353.7430,N,09832.0246,W,1,07,1.2,315.4,M,-23.7,M,,0000*6C
$GPGSA,A,3,02,28,20,04,10,17,27,,,,,,2.2,1.2,1.8*34
$GPRMC,065218.000,A,3353.7430,N,09832.0246,W,0.16,42.52,020412,,,A*41
$GPGGA,065219.000,3353.7430,N,09832.0245,W,1,07,1.2,315.5,M,-23.7,M,,0000*6F
$GPGSA,A,3,02,28,20,04,10,17,27,,,,,,2.2,1.2,1.8*34
$GPRMC,065219.000,A,3353.7430,N,09832.0245,W,0.23,40.05,020412,,,A*45
$GPGGA,065220.000,3353.7430,N,09832.0243,W,1,07,1.2,315.7,M,-23.7,M,,0000*61
$GPGSA,A,3,02,28,20,04,10,17,27,,,,,,2.2,1.2,1.8*34
$GPRMC,065220.000,A,3353.7430,N,09832.0243,W,0.26,39.31,020412,,,A*45
$GPGGA,065221.000,3353.7430,N,09832.0242,W,1,07,1.2,315.7,M,-23.7,M,,0000*61
$GPGSA,A,3,02,28,20,04,10,17,27,,,,,,2.2,1.2,1.8*34
$GPRMC,065221.000,A,3353.7430,N,09832.0242,W,0.26,41.51,020412,,,A*4C
$GPGGA,065222.000,3353.7431,N,09832.0241,W,1,07,1.2,315.7,M,-23.7,M,,0000*60
$GPGSA,A,3,02,28,20,04,10,17,27,,,,,,2.2,1.2,1.8*34
$GPGSV,3,1,11,04,70,194,33,17,50,039,35,28,45,112,35,27,43,274,26*73
$GPGSV,3,2,11,02,36,213,29,09,35,295,,20,15,058,17,10,15,152,31*79
$GPGSV,3,3,11,12,12,312,,08,01,165,25,32,01,037,17*47
$GPRMC,065222.000,A,3353.7431,N,09832.0241,W,0.27,28.85,020412,,,A*4A
$GPGGA,065223.000,3353.7431,N,09832.0241,W,1,07,1.2,315.7,M,-23.7,M,,0000*61
$GPGSA,A,3,02,28,20,04,10,17,27,,,,,,2.2,1.2,1.8*34
$GPRMC,065223.000,A,3353.7431,N,09832.0241,W,0.28,30.79,020412,,,A*4E
$GPGGA,065224.000,3353.7431,N,09832.0240,W,1,07,1.2,315.7,M,-23.7,M,,0000*67
$GPGSA,A,3,02,28,20,04,10,17,27,,,,,,2.2,1.2,1.8*34
$GPRMC,065224.000,A,3353.7431,N,09832.0240,W,0.25,27.30,020412,,,A*4E
$GPGGA,065225.000,3353.7432,N,09832.0239,W,1,07,1.2,315.7,M,-23.7,M,,0000*6B
$GPGSA,A,3,02,28,20,04,10,17,27,,,,,,2.2,1.2,1.8*34
$GPRMC,065225.000,A,3353.7432,N,09832.0239,W,0.12,4.67,020412,,,A*75
$GPGGA,065226.000,3353.7432,N,09832.0239,W,1,07,1.2,315.6,M,-23.7,M,,0000*69
$GPGSA,A,3,02,28,20,04,10,17,27,,,,,,2.2,1.2,1.8*34
$GPRMC,065226.000,A,3353.7432,N,09832.0239,W,0.19,33.40,020412,,,A*4C
$GPGGA,065227.000,3353.7432,N,09832.0238,W,1,07,1.2,315.6,M,-23.7,M,,0000*69
$GPGSA,A,3,02,28,20,04,10,17,27,,,,,,2.2,1.2,1.8*34
$GPGSV,3,1,11,04,70,194,33,17,50,039,34,28,45,112,35,27,43,274,25*71
$GPGSV,3,2,11,02,36,213,28,09,35,295,,20,15,058,16,10,15,152,31*79
$GPGSV,3,3,11,12,12,312,,08,01,165,25,32,01,037,16*46
$GPRMC,065227.000,A,3353.7432,N,09832.0238,W,0.27,40.47,020412,,,A*42
$GPGGA,065228.000,3353.7432,N,09832.0237,W,1,07,1.2,315.5,M,-23.7,M,,0000*6A
$GPGSA,A,3,02,28,20,04,10,17,27,,,,,,2.2,1.2,1.8*34
$GPRMC,065228.000,A,3353.7432,N,09832.0237,W,0.30,44.74,020412,,,A*40
$GPGGA,065229.000,3353.7432,N,09832.0236,W,1,07,1.2,315.3,M,-23.7,M,,0000*6C
$GPGSA,A,3,02,28,20,04,10,17,27,,,,,,2.2,1.2,1.8*34
$GPRMC,065229.000,A,3353.7432,N,09832.0236,W,0.34,46.38,020412,,,A*4E
$GPGGA,065230.000,3353.7433,N,09832.0235,W,1,07,1.2,315.2,M,-23.7,M,,0000*67
$GPGSA,A,3,02,28,20,04,10,17,27,,,,,,2.2,1.2,1.8*34
$GPRMC,065230.000,A,3353.7433,N,09832.0235,W,0.32,33.55,020412,,,A*4B
$GPGGA,065231.000,3353.7433,N,09832.0235,W,1,07,1.2,315.1,M,-23.7,M,,0000*65
$GPGSA,A,3,02,28,20,04,10,17,27,,,,,,2.2,1.2,1.8*34
$GPRMC,065231.000,A,3353.7433,N,09832.0235,W,0.15,329.48,020412,,,A*7B
$GPGGA,065232.000,3353.7432,N,09832.0235,W,1,07,1.2,315.0,M,-23.7,M,,0000*66
$GPGSA,A,3,02,28,20,04,10,17,27,,,,,,2.2,1.2,1.8*34
$GPGSV,3,1,11,04,70,194,33,17,50,039,33,28,45,112,35,27,43,274,25*76
$GPGSV,3,2,11,02,36,213,29,09,35,295,,20,15,058,15,10,15,152,31*7B
$GPGSV,3,3,11,12,12,312,,08,01,165,25,32,01,037,*41
$GPRMC,065232.000,A,3353.7432,N,09832.0235,W,0.05,200.88,020412,,,A*7E
$GPGGA,065233.000,3353.7432,N,09832.0235,W,1,07,1.2,315.0,M,-23.7,M,,0000*67
$GPGSA,A,3,02,28,20,04,10,17,27,,,,,,2.2,1.2,1.8*34
$GPRMC,065233.000,A,3353.7432,N,09832.0235,W,0.07,270.64,020412,,,A*78
$GPGGA,065234.000,3353.7432,N,09832.0235,W,1,07,1.2,314.9,M,-23.7,M,,0000*68
$GPGSA,A,3,02,28,20,04,10,17,27,,,,,,2.2,1.2,1.8*34
$GPRMC,065234.000,A,3353.7432,N,09832.0235,W,0.30,327.23,020412,,,A*7B
$GPGGA,065235.000,3353.7432,N,09832.0235,W,1,08,1.0,314.8,M,-23.7,M,,0000*65
$GPGSA,A,3,02,28,20,09,04,10,17,27,,,,,2.0,1.0,1.7*32
$GPRMC,065235.000,A,3353.7432,N,09832.0235,W,0.19,15.11,020412,,,A*42
$GPGGA,065236.000,3353.7432,N,09832.0235,W,1,08,1.0,314.8,M,-23.7,M,,0000*66
$GPGSA,A,3,02,28,20,09,04,10,17,27,,,,,2.0,1.0,1.7*32
$GPRMC,065236.000,A,3353.7432,N,09832.0235,W,0.25,303.55,020412,,,A*7A
$GPGGA,065237.000,3353.7432,N,09832.0236,W,1,08,1.0,314.8,M,-23.7,M,,0000*64
$GPGSA,A,3,02,28,20,09,04,10,17,27,,,,,2.0,1.0,1.7*32
$GPGSV,3,1,11,04,70,194,32,17,50,039,32,28,45,112,36,27,43,274,24*74
$GPGSV,3,2,11,02,36,213,29,09,35,295,19,20,15,058,16,10,15,152,30*71
$GPGSV,3,3,11,12,12,312,,08,01,165,25,32,01,037,*41
$GPRMC,065237.000,A,3353.7432,N,09832.0236,W,0.11,276.44,020412,,,A*7C
$GPGGA,065238.000,3353.7433,N,09832.0236,W,1,08,1.0,314.7,M,-23.7,M,,0000*65
$GPGSA,A,3,02,28,20,09,04,10,17,27,,,,,2.0,1.0,1.7*32
$GPRMC,065238.000,A,3353.7433,N,09832.0236,W,0.35,337.72,020412,,,A*75
$GPGGA,065239.000,3353.7433,N,09832.0236,W,1,08,1.0,314.7,M,-23.7,M,,0000*64
$GPGSA,A,3,02,28,20,09,04,10,17,27,,,,,2.0,1.0,1.7*32
$GPRMC,065239.000,A,3353.7433,N,09832.0236,W,0.35,10.31,020412,,,A*45
$GPGGA,065240.000,3353.7433,N,09832.0236,W,1,08,1.0,314.6,M,-23.7,M,,0000*6B
$GPGSA,A,3,02,28,20,09,04,10,17,27,,,,,2.0,1.0,1.7*32
$GPRMC,065240.000,A,3353.7433,N,09832.0236,W,0.21,304.83,020412,,,A*71
$GPGGA,065241.000,3353.7433,N,09832.0237,W,1,08,1.0,314.6,M,-23.7,M,,0000*6B
$GPGSA,A,3,02,28,20,09,04,10,17,27,,,,,2.0,1.0,1.7*32
$GPRMC,065241.000,A,3353.7433,N,09832.0237,W,0.34,285.01,020412,,,A*77
$GPGGA,065242.000,3353.7432,N,09832.0237,W,1,08,1.0,314.6,M,-23.7,M,,0000*69
$GPGSA,A,3,02,28,20,09,04,10,17,27,,,,,2.0,1.0,1.7*32
$GPGSV,3,1,11,04,70,194,32,17,50,039,31,28,45,112,36,27,43,274,24*77
$GPGSV,3,2,11,02,36,213,30,09,35,295,20,20,15,058,17,10,15,152,30*72
$GPGSV,3,3,11,12,12,312,,08,01,165,24,32,01,037,*40
$GPRMC,065242.000,A,3353.7432,N,09832.0237,W,0.13,141.70,020412,,,A*7D
$GPGGA,065243.000,3353.7432,N,09832.0237,W,1,08,1.0,314.6,M,-23.7,M,,0000*68
$GPGSA,A,3,02,28,20,09,04,10,17,27,,,,,2.0,1.0,1.7*32
$GPRMC,065243.000,A,3353.7432,N,09832.0237,W,0.15,7.83,020412,,,A*75
$GPGGA,065244.000,3353.7432,N,09832.0236,W,1,08,1.0,314.6,M,-23.7,M,,0000*6E
$GPGSA,A,3,02,28,20,09,04,10,17,27,,,,,2.0,1.0,1.7*32
$GPRMC,065244.000,A,3353.7432,N,09832.0236,W,0.19,89.58,020412,,,A*4F
$GPGGA,065245.000,3353.7431,N,09832.0236,W,1,08,1.0,314.6,M,-23.7,M,,0000*6C
$GPGSA,A,3,02,28,20,09,04,10,17,27,,,,,2.0,1.0,1.7*32
$GPRMC,065245.000,A,3353.7431,N,09832.0236,W,0.09,228.80,020412,,,A*70
$GPGGA,065246.000,3353.7430,N,09832.0236,W,1,08,1.0,314.7,M,-23.7,M,,0000*6F
$GPGSA,A,3,02,28,20,09,04,10,17,27,,,,,2.0,1.0,1.7*32
$GPRMC,065246.000,A,3353.7430,N,09832.0236,W,0.16,215.36,020412,,,A*7F
$GPGGA,065247.000,3353.7429,N,09832.0236,W,1,08,1.0,314.8,M,-23.7,M,,0000*69
$GPGSA,A,3,02,28,20,09,04,10,17,27,,,,,2.0,1.0,1.7*32
$GPGSV,3,1,11,04,70,194,32,17,50,039,30,28,45,112,35,27,43,274,24*75
$GPGSV,3,2,11,02,36,213,29,09,35,295,21,20,15,058,18,10,15,152,29*7C
$GPGSV,3,3,11,12,12,312,,08,01,165,24,32,01,037,*40
$GPRMC,065247.000,A,3353.7429,N,09832.0236,W,0.17,174.16,020412,,,A*71
$GPGGA,065248.000,3353.7429,N,09832.0236,W,1,08,1.0,314.9,M,-23.7,M,,0000*67
$GPGSA,A,3,02,28,20,09,04,10,17,27,,,,,2.0,1.0,1.7*32
$GPRMC,065248.000,A,3353.7429,N,09832.0236,W,0.25,271.36,020412,,,A*7B
$GPGGA,065249.000,3353.7428,N,09832.0235,W,1,08,1.0,315.0,M,-23.7,M,,0000*6C
$GPGSA,A,3,02,28,20,09,04,10,17,27,,,,,2.0,1.0,1.7*32
$GPRMC,065249.000,A,3353.7428,N,09832.0235,W,0.22,113.48,020412,,,A*71
$GPGGA,065250.000,3353.7428,N,09832.0234,W,1,08,1.0,315.1,M,-23.7,M,,0000*64
$GPGSA,A,3,02,28,20,09,04,10,17,27,,,,,2.0,1.0,1.7*32
$GPRMC,065250.000,A,3353.7428,N,09832.0234,W,0.38,27.09,020412,,,A*40
$GPGGA,065251.000,3353.7428,N,09832.0234,W,1,08,1.0,315.3,M,-23.7,M,,0000*67
$GPGSA,A,3,02,28,20,09,04,10,17,27,,,,,2.0,1.0,1.7*32
$GPRMC,065251.000,A,3353.7428,N,09832.0234,W,0.15,326.20,020412,,,A*77
$GPGGA,065252.000,3353.7427,N,09832.0233,W,1,08,1.0,315.6,M,-23.7,M,,0000*69
$GPGSA,A,3,02,28,20,09,04,10,17,27,,,,,2.0,1.0,1.7*32
$GPGSV,3,1,11,04,70,194,32,17,50,039,24,28,45,112,31,27,43,274,18*7B
$GPGSV,3,2,11,02,36,213,29,09,35,295,27,20,15,058,24,10,15,152,29*75
$GPGSV,3,3,11,12,12,312,,08,01,165,23,32,01,037,*47
$GPRMC,065252.000,A,3353.7427,N,09832.0233,W,0.20,74.90,020412,,,A*45
$GPGGA,065253.000,3353.7426,N,09832.0232,W,1,08,1.0,315.8,M,-23.7,M,,0000*66
$GPGSA,A,3,02,28,20,09,04,10,17,27,,,,,2.0,1.0,1.7*32
$GPRMC,065253.000,A,3353.7426,N,09832.0232,W,0.19,89.31,020412,,,A*47
$GPGGA,065254.000,3353.7425,N,09832.0231,W,1,08,1.0,316.2,M,-23.7,M,,0000*68
$GPGSA,A,3,02,28,20,09,04,10,17,27,,,,,2.0,1.0,1.7*32
$GPRMC,065254.000,A,3353.7425,N,09832.0231,W,0.20,168.70,020412,,,A*71
$GPGGA,065255.000,3353.7424,N,09832.0230,W,1,08,1.0,316.5,M,-23.7,M,,0000*6E
$GPGSA,A,3,02,28,20,09,04,10,17,27,,,,,2.0,1.0,1.7*32
$GPRMC,065255.000,A,3353.7424,N,09832.0230,W,0.14,96.52,020412,,,A*47
$GPGGA,065256.000,3353.7422,N,09832.0229,W,1,08,1.0,316.8,M,-23.7,M,,0000*6E
$GPGSA,A,3,02,28,20,09,04,10,17,27,,,,,2.0,1.0,1.7*32
$GPRMC,065256.000,A,3353.7422,N,09832.0229,W,0.25,179.36,020412,,,A*7A
$GPGGA,065257.000,3353.7421,N,09832.0227,W,1,08,1.0,317.1,M,-23.7,M,,0000*6A
$GPGSA,A,3,02,28,20,09,04,10,17,27,,,,,2.0,1.0,1.7*32
$GPGSV,3,1,11,04,70,194,32,17,50,039,24,28,45,112,32,27,43,274,18*78
$GPGSV,3,2,11,02,36,213,29,09,35,295,27,20,15,058,25,10,15,152,29*74
$GPGSV,3,3,11,12,12,312,,08,01,165,24,32,01,037,*40
$GPRMC,065257.000,A,3353.7421,N,09832.0227,W,0.26,86.61,020412,,,A*46
$GPGGA,065258.000,3353.7421,N,09832.0227,W,1,08,1.0,317.4,M,-23.7,M,,0000*60
$GPGSA,A,3,02,28,20,09,04,10,17,27,,,,,2.0,1.0,1.7*32
$GPRMC,065258.000,A,3353.7421,N,09832.0227,W,0.06,296.47,020412,,,A*7C
$GPGGA,065259.000,3353.7420,N,09832.0227,W,1,08,1.0,317.6,M,-23.7,M,,0000*62
$GPGSA,A,3,02,28,20,09,04,10,17,27,,,,,2.0,1.0,1.7*32
$GPRMC,065259.000,A,3353.7420,N,09832.0227,W,0.25,269.34,020412,,,A*79
$GPGGA,065300.000,3353.7420,N,09832.0227,W,1,08,1.0,317.9,M,-23.7,M,,0000*60
$GPGSA,A,3,02,28,20,09,04,10,17,27,,,,,2.0,1.0,1.7*32
$GPRMC,065300.000,A,3353.7420,N,09832.0227,W,0.29,335.70,020412,,,A*70
$GPGGA,065301.000,3353.7420,N,09832.0227,W,1,08,1.0,318.0,M,-23.7,M,,0000*67
$GPGSA,A,3,02,28,20,09,04,10,17,27,,,,,2.0,1.0,1.7*32
$GPRMC,065301.000,A,3353.7420,N,09832.0227,W,0.36,333.57,020412,,,A*7C
$GPGGA,065302.000,3353.7420,N,09832.0227,W,1,08,1.0,318.1,M,-23.7,M,,0000*65
$GPGSA,A,3,02,28,20,09,04,10,17,27,,,,,2.0,1.0,1.7*32
$GPGSV,3,1,11,04,70,194,32,17,50,039,23,28,45,112,34,27,43,274,18*79
$GPGSV,3,2,11,02,36,213,28,09,35,295,27,20,15,058,25,10,15,152,30*7D
$GPGSV,3,3,11,12,12,312,,08,01,165,24,32,01,037,*40
$GPRMC,065302.000,A,3353.7420,N,09832.0227,W,0.32,317.68,020412,,,A*71
$GPGGA,065303.000,3353.7421,N,09832.0227,W,1,08,1.0,318.4,M,-23.7,M,,0000*60
$GPGSA,A,3,02,28,20,09,04,10,17,27,,,,,2.0,1.0,1.7*32
$GPRMC,065303.000,A,3353.7421,N,09832.0227,W,0.32,10.54,020412,,,A*4A
$GPGGA,065304.000,3353.7421,N,09832.0228,W,1,08,1.0,318.5,M,-23.7,M,,0000*69
$GPGSA,A,3,02,28,20,09,04,10,17,27,,,,,2.0,1.0,1.7*32
$GPRMC,065304.000,A,3353.7421,N,09832.0228,W,0.25,315.14,020412,,,A*76
$GPGGA,065305.000,3353.7421,N,09832.0228,W,1,08,1.0,318.5,M,-23.7,M,,0000*68
$GPGSA,A,3,02,28,20,09,04,10,17,27,,,,,2.0,1.0,1.7*32
$GPRMC,065305.000,A,3353.7421,N,09832.0228,W,0.04,194.87,020412,,,A*75
$GPGGA,065306.000,3353.7421,N,09832.0229,W,1,08,1.0,318.6,M,-23.7,M,,0000*69
$GPGSA,A,3,02,28,20,09,04,10,17,27,,,,,2.0,1.0,1.7*32
$GPRMC,065306.000,A,3353.7421,N,09832.0229,W,0.07,269.49,020412,,,A*77
$GPGGA,065307.000,3353.7422,N,09832.0231,W,1,08,1.0,318.6,M,-23.7,M,,0000*62
$GPGSA,A,3,02,28,20,09,04,10,17,27,,,,,2.0,1.0,1.7*32
$GPGSV,3,1,11,04,71,194,32,17,50,041,23,28,44,114,34,27,43,272,19*77
$GPGSV,3,2,11,02,38,214,27,09,36,293,24,10,16,152,30,20,15,057,25*71
$GPGSV,3,3,11,12,13,313,,32,00,036,,08,00,165,23*46
$GPRMC,065307.000,A,3353.7422,N,09832.0231,W,0.19,267.05,020412,,,A*75
$GPGGA,065308.000,3353.7422,N,09832.0232,W,1,08,1.0,318.6,M,-23.7,M,,0000*6E
$GPGSA,A,3,02,28,20,09,04,10,17,27,,,,,2.0,1.0,1.7*32
$GPRMC,065308.000,A,3353.7422,N,09832.0232,W,0.13,209.12,020412,,,A*7D
$GPGGA,065309.000,3353.7422,N,09832.0233,W,1,08,1.0,318.5,M,-23.7,M,,0000*6D
$GPGSA,A,3,02,28,20,09,04,10,17,27,,,,,2.0,1.0,1.7*32
$GPRMC,065309.000,A,3353.7422,N,09832.0233,W,0.17,324.51,020412,,,A*70
$GPGGA,065310.000,3353.7422,N,09832.0235,W,1,08,1.0,318.3,M,-23.7,M,,0000*65
$GPGSA,A,3,02,28,20,09,04,10,17,27,,,,,2.0,1.0,1.7*32
$GPRMC,065310.000,A,3353.7422,N,09832.0235,W,0.27,224.88,020412,,,A*78
$GPGGA,065311.000,3353.7423,N,09832.0236,W,1,08,1.0,318.0,M,-23.7,M,,0000*65
$GPGSA,A,3,02,28,20,09,04,10,17,27,,,,,2.0,1.0,1.7*32
$GPRMC,065311.000,A,3353.7423,N,09832.0236,W,0.20,28.71,020412,,,A*44
$GPGGA,065312.000,3353.7425,N,09832.0238,W,1,08,1.0,317.6,M,-23.7,M,,0000*67
$GPGSA,A,3,02,28,20,09,04,10,17,27,,,,,2.0,1.0,1.7*32
$GPGSV,3,1,11,04,71,194,32,17,50,041,24,28,44,114,34,27,43,272,20*7A
$GPGSV,3,2,11,02,38,214,26,09,36,293,25,10,16,152,31,20,15,057,21*74
$GPGSV,3,3,11,12,13,313,,32,00,036,,08,00,165,23*46
$GPRMC,065312.000,A,3353.7425,N,09832.0238,W,0.26,325.52,020412,,,A*76
$GPGGA,065313.000,3353.7427,N,09832.0240,W,1,08,1.0,317.0,M,-23.7,M,,0000*6D
$GPGSA,A,3,02,28,20,09,04,10,17,27,,,,,2.0,1.0,1.7*32
$GPRMC,065313.000,A,3353.7427,N,09832.0240,W,0.67,347.00,020412,,,A*7C
$GPGGA,065314.000,3353.7430,N,09832.0243,W,1,08,1.0,316.3,M,-23.7,M,,0000*6D
$GPGSA,A,3,02,28,20,09,04,10,17,27,,,,,2.0,1.0,1.7*32
$GPRMC,065314.000,A,3353.7430,N,09832.0243,W,0.58,325.08,020412,,,A*7E
$GPGGA,065315.000,3353.7432,N,09832.0245,W,1,08,1.0,315.7,M,-23.7,M,,0000*6F
$GPGSA,A,3,02,28,20,09,04,10,17,27,,,,,2.0,1.0,1.7*32
$GPRMC,065315.000,A,3353.7432,N,09832.0245,W,0.38,315.94,020412,,,A*7B
$GPGGA,065316.000,3353.7434,N,09832.0247,W,1,08,1.0,315.1,M,-23.7,M,,0000*6E
$GPGSA,A,3,02,28,20,09,04,10,17,27,,,,,2.0,1.0,1.7*32
$GPRMC,065316.000,A,3353.7434,N,09832.0247,W,0.25,311.23,020412,,,A*78
$GPGGA,065317.000,3353.7436,N,09832.0248,W,1,08,1.0,314.6,M,-23.7,M,,0000*64
$GPGSA,A,3,02,28,20,09,04,10,17,27,,,,,2.0,1.0,1.7*32
$GPGSV,3,1,11,04,71,194,31,17,50,041,25,28,44,114,35,27,43,272,20*79
$GPGSV,3,2,11,02,38,214,26,09,36,293,25,10,16,152,32,20,15,057,22*74
$GPGSV,3,3,11,12,13,313,,32,00,036,,08,00,165,23*46
$GPRMC,065317.000,A,3353.7436,N,09832.0248,W,0.12,344.54,020412,,,A*70
$GPGGA,065318.000,3353.7440,N,09832.0248,W,1,08,1.0,314.1,M,-23.7,M,,0000*6D
$GPGSA,A,3,02,28,20,09,04,10,17,27,,,,,2.0,1.0,1.7*32
$GPRMC,065318.000,A,3353.7440,N,09832.0248,W,0.47,12.30,020412,,,A*4C
$GPGGA,065319.000,3353.7442,N,09832.0249,W,1,08,1.0,313.6,M,-23.7,M,,0000*6F
$GPGSA,A,3,02,28,20,09,04,10,17,27,,,,,2.0,1.0,1.7*32
$GPRMC,065319.000,A,3353.7442,N,09832.0249,W,0.30,310.75,020412,,,A*7E
$GPGGA,065320.000,3353.7445,N,09832.0250,W,1,08,1.0,313.2,M,-23.7,M,,0000*6E
$GPGSA,A,3,02,28,20,09,04,10,17,27,,,,,2.0,1.0,1.7*32
$GPRMC,065320.000,A,3353.7445,N,09832.0250,W,0.27,304.26,020412,,,A*7E
$GPGGA,065321.000,3353.7447,N,09832.0251,W,1,08,1.0,312.8,M,-23.7,M,,0000*67
$GPGSA,A,3,02,28,20,09,04,10,17,27,,,,,2.0,1.0,1.7*32
$GPRMC,065321.000,A,3353.7447,N,09832.0251,W,0.19,293.46,020412,,,A*78
$GPGGA,065322.000,3353.7450,N,09832.0251,W,1,08,1.0,312.5,M,-23.7,M,,0000*6F
$GPGSA,A,3,02,28,20,09,04,10,17,27,,,,,2.0,1.0,1.7*32
$GPGSV,3,1,11,04,71,194,31,17,50,041,26,28,44,114,35,27,43,272,21*7B
$GPGSV,3,2,11,02,38,214,26,09,36,293,25,10,16,152,31,20,15,057,23*76
$GPGSV,3,3,11,12,13,313,,32,00,036,,08,00,165,23*46
$GPRMC,065322.000,A,3353.7450,N,09832.0251,W,0.13,359.50,020412,,,A*77
$GPGGA,065323.000,3353.7452,N,09832.0251,W,1,08,1.0,312.3,M,-23.7,M,,0000*6A
$GPGSA,A,3,02,28,20,09,04,10,17,27,,,,,2.0,1.0,1.7*32
$GPRMC,065323.000,A,3353.7452,N,09832.0251,W,0.06,347.19,020412,,,A*72
$GPGGA,065324.000,3353.7455,N,09832.0250,W,1,08,1.0,312.0,M,-23.7,M,,0000*68
$GPGSA,A,3,02,28,20,09,04,10,17,27,,,,,2.0,1.0,1.7*32
$GPRMC,065324.000,A,3353.7455,N,09832.0250,W,0.22,26.36,020412,,,A*4C
$GPGGA,065325.000,3353.7457,N,09832.0249,W,1,08,1.0,311.8,M,-23.7,M,,0000*68
$GPGSA,A,3,02,28,20,09,04,10,17,27,,,,,2.0,1.0,1.7*32
$GPRMC,065325.000,A,3353.7457,N,09832.0249,W,0.37,46.75,020412,,,A*42
$GPGGA,065326.000,3353.7460,N,09832.0249,W,1,08,1.0,311.5,M,-23.7,M,,0000*62
$GPGSA,A,3,02,28,20,09,04,10,17,27,,,,,2.0,1.0,1.7*32
$GPRMC,065326.000,A,3353.7460,N,09832.0249,W,0.06,357.64,020412,,,A*74
$GPGGA,065327.000,3353.7461,N,09832.0248,W,1,08,1.0,311.5,M,-23.7,M,,0000*63
$GPGSA,A,3,02,28,20,09,04,10,17,27,,,,,2.0,1.0,1.7*32
$GPGSV,3,1,11,04,71,194,31,17,50,041,28,28,44,114,36,27,43,272,22*75
$GPGSV,3,2,11,02,38,214,26,09,36,293,26,10,16,152,31,20,15,057,24*72
$GPGSV,3,3,11,12,13,313,,32,00,036,,08,00,165,24*41
$GPRMC,065327.000,A,3353.7461,N,09832.0248,W,0.03,182.44,020412,,,A*78
$GPGGA,065328.000,3353.7463,N,09832.0248,W,1,08,1.0,311.5,M,-23.7,M,,0000*6E
$GPGSA,A,3,02,28,20,09,04,10,17,27,,,,,2.0,1.0,1.7*32
$GPRMC,065328.000,A,3353.7463,N,09832.0248,W,0.11,139.39,020412,,,A*7C
$GPGGA,065329.000,3353.7464,N,09832.0246,W,1,08,1.0,311.5,M,-23.7,M,,0000*66
$GPGSA,A,3,02,28,20,09,04,10,17,27,,,,,2.0,1.0,1.8*3D
$GPRMC,065329.000,A,3353.7464,N,09832.0246,W,0.20,55.70,020412,,,A*40
$GPGGA,065330.000,3353.7466,N,09832.0245,W,1,08,1.0,311.5,M,-23.7,M,,0000*6F
$GPGSA,A,3,02,28,20,09,04,10,17,27,,,,,2.0,1.0,1.8*3D
$GPRMC,065330.000,A,3353.7466,N,09832.0245,W,0.08,76.49,020412,,,A*48
$GPGGA,065331.000,3353.7468,N,09832.0245,W,1,08,1.0,311.5,M,-23.7,M,,0000*60
$GPGSA,A,3,02,28,20,09,04,10,17,27,,,,,2.0,1.0,1.8*3D
$GPRMC,065331.000,A,3353.7468,N,09832.0245,W,0.12,353.27,020412,,,A*70
$GPGGA,065332.000,3353.7469,N,09832.0244,W,1,08,1.0,311.5,M,-23.7,M,,0000*63
$GPGSA,A,3,02,28,20,09,04,10,17,27,,,,,2.0,1.0,1.8*3D
$GPGSV,3,1,12,04,71,194,31,17,50,041,33,28,44,114,36,27,43,272,22*7C
$GPGSV,3,2,12,02,38,214,25,09,36,293,26,10,16,152,28,20,15,057,24*7A
$GPGSV,3,3,12,12,13,313,,32,00,036,,08,00,165,23,51,49,195,25*76
$GPRMC,065332.000,A,3353.7469,N,09832.0244,W,0.06,99.19,020412,,,A*4E
$GPGGA,065333.000,3353.7470,N,09832.0243,W,1,08,1.0,311.6,M,-23.7,M,,0000*6E
$GPGSA,A,3,02,28,20,09,04,10,17,27,,,,,2.0,1.0,1.8*3D
$GPRMC,065333.000,A,3353.7470,N,09832.0243,W,0.14,47.14,020412,,,A*4D
$GPGGA,065334.000,3353.7472,N,09832.0242,W,1,08,1.0,311.6,M,-23.7,M,,0000*6A
$GPGSA,A,3,02,28,20,09,04,10,17,27,,,,,2.0,1.0,1.8*3D
$GPRMC,065334.000,A,3353.7472,N,09832.0242,W,0.08,79.19,020412,,,A*44
$GPGGA,065335.000,3353.7473,N,09832.0241,W,1,08,1.0,311.7,M,-23.7,M,,0000*68
$GPGSA,A,3,02,28,20,09,04,10,17,27,,,,,2.0,1.0,1.8*3D
$GPRMC,065335.000,A,3353.7473,N,09832.0241,W,0.17,12.71,020412,,,A*4A
$GPGGA,065336.000,3353.7475,N,09832.0239,W,1,08,1.0,311.8,M,-23.7,M,,0000*6D
$GPGSA,A,3,02,28,20,09,04,10,17,27,,,,,2.0,1.0,1.8*3D
$GPRMC,065336.000,A,3353.7475,N,09832.0239,W,0.37,19.12,020412,,,A*4C
$GPGGA,065337.000,3353.7476,N,09832.0239,W,1,08,1.0,311.9,M,-23.7,M,,0000*6E
$GPGSA,A,3,02,28,20,09,04,10,17,27,,,,,2.0,1.0,1.8*3D
$GPGSV,3,1,11,04,71,194,31,17,50,041,33,28,44,114,36,27,43,272,21*7C
$GPGSV,3,2,11,02,38,214,17,09,36,293,26,10,16,152,28,20,15,057,24*78
$GPGSV,3,3,11,12,13,313,,32,00,036,,08,00,165,17*41
$GPRMC,065337.000,A,3353.7476,N,09832.0239,W,0.18,8.59,020412,,,A*7C
$GPGGA,065338.000,3353.7477,N,09832.0238,W,1,08,1.0,312.0,M,-23.7,M,,0000*6B
$GPGSA,A,3,02,28,20,09,04,10,17,27,,,,,2.0,1.0,1.8*3D
$GPRMC,065338.000,A,3353.7477,N,09832.0238,W,0.18,3.15,020412,,,A*70
$GPGGA,065339.000,3353.7478,N,09832.0237,W,1,08,1.0,312.1,M,-23.7,M,,0000*6B
$GPGSA,A,3,02,28,20,09,04,10,17,27,,,,,2.0,1.0,1.8*3D
$GPRMC,065339.000,A,3353.7478,N,09832.0237,W,0.19,265.09,020412,,,A*7F
$GPGGA,065340.000,3353.7479,N,09832.0237,W,1,08,1.0,312.2,M,-23.7,M,,0000*67
$GPGSA,A,3,02,28,20,09,04,10,17,27,,,,,2.0,1.0,1.8*3D
$GPRMC,065340.000,A,3353.7479,N,09832.0237,W,0.12,295.53,020412,,,A*7B
$GPGGA,065341.000,3353.7479,N,09832.0237,W,1,08,1.0,312.3,M,-23.7,M,,0000*67
$GPGSA,A,3,02,28,20,09,04,10,17,27,,,,,2.0,1.0,1.8*3D
$GPRMC,065341.000,A,3353.7479,N,09832.0237,W,0.35,243.61,020412,,,A*75
$GPGGA,065342.000,3353.7479,N,09832.0237,W,1,08,1.0,312.4,M,-23.7,M,,0000*63
$GPGSA,A,3,02,28,20,09,04,10,17,27,,,,,2.0,1.0,1.8*3D
$GPGSV,3,1,11,04,71,194,31,17,50,041,33,28,44,114,36,27,43,272,22*7F
$GPGSV,3,2,11,02,38,214,22,09,36,293,27,10,16,152,28,20,15,057,24*7F
$GPGSV,3,3,11,12,13,313,,32,00,036,,08,00,165,18*4E
$GPRMC,065342.000,A,3353.7479,N,09832.0237,W,0.31,248.61,020412,,,A*79
$GPGGA,065343.000,3353.7480,N,09832.0237,W,1,08,1.0,312.5,M,-23.7,M,,0000*65
$GPGSA,A,3,02,28,20,09,04,10,17,27,,,,,2.0,1.0,1.8*3D
$GPRMC,065343.000,A,3353.7480,N,09832.0237,W,0.22,344.63,020412,,,A*73
$GPGGA,065344.000,3353.7480,N,09832.0235,W,1,08,1.0,312.6,M,-23.7,M,,0000*63
$GPGSA,A,3,02,28,20,09,04,10,17,27,,,,,2.0,1.0,1.8*3D
$GPRMC,065344.000,A,3353.7480,N,09832.0235,W,0.17,72.04,020412,,,A*47
$GPGGA,065345.000,3353.7480,N,09832.0234,W,1,08,1.0,312.6,M,-23.7,M,,0000*63
$GPGSA,A,3,02,28,20,09,04,10,17,27,,,,,2.0,1.0,1.8*3D
$GPRMC,065345.000,A,3353.7480,N,09832.0234,W,0.17,71.81,020412,,,A*49
$GPGGA,065346.000,3353.7481,N,09832.0233,W,1,08,1.0,312.6,M,-23.7,M,,0000*66
$GPGSA,A,3,02,28,20,09,04,10,17,27,,,,,2.0,1.0,1.8*3D
$GPRMC,065346.000,A,3353.7481,N,09832.0233,W,0.32,56.68,020412,,,A*49
$GPGGA,065347.000,3353.7481,N,09832.0232,W,1,08,1.0,312.7,M,-23.7,M,,0000*67
$GPGSA,A,3,02,28,20,09,04,10,17,27,,,,,2.0,1.0,1.8*3D
$GPGSV,3,1,11,04,71,194,30,17,50,041,33,28,44,114,36,27,43,272,21*7D
$GPGSV,3,2,11,02,38,214,21,09,36,293,27,10,16,152,27,20,15,057,24*73
$GPGSV,3,3,11,12,13,313,,32,00,036,,08,00,165,18*4E
$GPRMC,065347.000,A,3353.7481,N,09832.0232,W,0.07,288.78,020412,,,A*7F
$GPGGA,065348.000,3353.7482,N,09832.0231,W,1,08,1.0,312.8,M,-23.7,M,,0000*67
$GPGSA,A,3,02,28,20,09,04,10,17,27,,,,,2.0,1.0,1.8*3D
$GPRMC,065348.000,A,3353.7482,N,09832.0231,W,0.18,22.59,020412,,,A*4F
$GPGGA,065349.000,3353.7482,N,09832.0230,W,1,08,1.0,312.9,M,-23.7,M,,0000*66
$GPGSA,A,3,02,28,20,09,04,10,17,27,,,,,2.0,1.0,1.8*3D
$GPRMC,065349.000,A,3353.7482,N,09832.0230,W,0.24,85.51,020412,,,A*45
$GPGGA,065350.000,3353.7482,N,09832.0228,W,1,08,1.0,312.9,M,-23.7,M,,0000*67
$GPGSA,A,3,02,28,20,09,04,10,17,27,,,,,2.0,1.0,1.8*3D
$GPRMC,065350.000,A,3353.7482,N,09832.0228,W,0.29,136.10,020412,,,A*75
$GPGGA,065351.000,3353.7481,N,09832.0228,W,1,08,1.0,312.9,M,-23.7,M,,0000*65
$GPGSA,A,3,02,28,20,09,04,10,17,27,,,,,2.0,1.0,1.8*3D
$GPRMC,065351.000,A,3353.7481,N,09832.0228,W,0.17,210.75,020412,,,A*7E
$GPGGA,065352.000,3353.7481,N,09832.0228,W,1,08,1.0,313.0,M,-23.7,M,,0000*6E
$GPGSA,A,3,02,28,20,09,04,10,17,27,,,,,2.0,1.0,1.8*3D
$GPGSV,3,1,12,04,71,194,30,17,50,041,33,28,44,114,35,27,43,272,17*78
$GPGSV,3,2,12,02,38,214,21,09,36,293,27,10,16,152,26,20,15,057,23*76
$GPGSV,3,3,12,12,13,313,,32,00,036,,08,00,165,18,48,36,230,31*77
$GPRMC,065352.000,A,3353.7481,N,09832.0228,W,0.17,277.77,020412,,,A*7E
$GPGGA,065353.000,3353.7481,N,09832.0228,W,1,08,1.0,313.0,M,-23.7,M,,0000*6F
$GPGSA,A,3,02,28,20,09,04,10,17,27,,,,,2.0,1.0,1.8*3D
$GPRMC,065353.000,A,3353.7481,N,09832.0228,W,0.32,264.99,020412,,,A*7A
$GPGGA,065354.000,3353.7481,N,09832.0228,W,1,08,1.0,313.1,M,-23.7,M,,0000*69
$GPGSA,A,3,02,28,20,09,04,10,17,27,,,,,2.0,1.0,1.8*3D
$GPRMC,065354.000,A,3353.7481,N,09832.0228,W,0.21,296.60,020412,,,A*74
$GPGGA,065355.000,3353.7481,N,09832.0229,W,1,08,1.0,313.1,M,-23.7,M,,0000*69
$GPGSA,A,3,02,28,20,09,04,10,17,27,,,,,2.0,1.0,1.8*3D
$GPRMC,065355.000,A,3353.7481,N,09832.0229,W,0.30,274.96,020412,,,A*71
$GPGGA,065356.000,3353.7482,N,09832.0228,W,1,08,1.0,313.2,M,-23.7,M,,0000*6B
$GPGSA,A,3,02,28,20,09,04,10,17,27,,,,,2.0,1.0,1.8*3D
$GPRMC,065356.000,A,3353.7482,N,09832.0228,W,0.28,358.23,020412,,,A*78
$GPGGA,065357.000,3353.7483,N,09832.0227,W,1,08,1.0,313.1,M,-23.7,M,,0000*67
$GPGSA,A,3,02,28,20,09,04,10,17,27,,,,,2.0,1.0,1.8*3D
$GPGSV,3,1,12,04,71,194,30,17,50,041,34,28,44,114,36,27,43,272,18*73
$GPGSV,3,2,12,02,38,214,21,09,36,293,27,10,16,152,26,20,15,057,19*7F
$GPGSV,3,3,12,12,13,313,,32,00,036,,08,00,165,20,48,36,230,28*74
$GPRMC,065357.000,A,3353.7483,N,09832.0227,W,0.36,36.19,020412,,,A*4A
$GPGGA,065358.000,3353.7482,N,09832.0226,W,1,08,1.0,313.2,M,-23.7,M,,0000*6B
$GPGSA,A,3,02,28,20,09,04,10,17,27,,,,,2.0,1.0,1.8*3D
$GPRMC,065358.000,A,3353.7482,N,09832.0226,W,0.12,114.71,020412,,,A*7C
$GPGGA,065359.000,3353.7482,N,09832.0225,W,1,08,1.0,313.2,M,-23.7,M,,0000*69
$GPGSA,A,3,02,28,20,09,04,10,17,27,,,,,2.0,1.0,1.8*3D
$GPRMC,065359.000,A,3353.7482,N,09832.0225,W,0.12,122.37,020412,,,A*79
$GPGGA,065400.000,3353.7482,N,09832.0225,W,1,08,1.0,313.3,M,-23.7,M,,0000*63
$GPGSA,A,3,02,28,20,09,04,10,17,27,,,,,2.0,1.0,1.8*3D
$GPRMC,065400.000,A,3353.7482,N,09832.0225,W,0.08,284.35,020412,,,A*74
$GPGGA,065401.000,3353.7482,N,09832.0224,W,1,08,1.0,313.4,M,-23.7,M,,0000*64
$GPGSA,A,3,02,28,20,09,04,10,17,27,,,,,2.0,1.0,1.8*3D
$GPRMC,065401.000,A,3353.7482,N,09832.0224,W,0.15,80.27,020412,,,A*4D
$GPGGA,065402.000,3353.7482,N,09832.0223,W,1,08,1.0,313.5,M,-23.7,M,,0000*61
$GPGSA,A,3,02,28,20,09,04,10,17,27,,,,,2.0,1.0,1.8*3D
$GPGSV,3,1,11,04,71,194,30,17,50,041,35,28,44,114,36,27,43,272,18*71
$GPGSV,3,2,11,02,38,214,21,09,36,293,27,10,16,152,26,20,15,057,19*7C
$GPGSV,3,3,11,12,13,313,,32,00,036,,08,00,165,26*43
$GPRMC,065402.000,A,3353.7482,N,09832.0223,W,0.33,24.51,020412,,,A*42
$GPGGA,065403.000,3353.7482,N,09832.0222,W,1,08,1.0,313.5,M,-23.7,M,,0000*61
$GPGSA,A,3,02,28,20,09,04,10,17,27,,,,,2.0,1.0,1.8*3D
$GPRMC,065403.000,A,3353.7482,N,09832.0222,W,0.09,343.66,020412,,,A*7D
$GPGGA,065404.000,3353.7482,N,09832.0222,W,1,08,1.0,313.6,M,-23.7,M,,0000*65
$GPGSA,A,3,02,28,20,09,04,10,17,27,,,,,2.0,1.0,1.8*3D
$GPRMC,065404.000,A,3353.7482,N,09832.0222,W,0.04,262.72,020412,,,A*70
$GPGGA,065405.000,3353.7482,N,09832.0222,W,1,08,1.0,313.7,M,-23.7,M,,0000*65
$GPGSA,A,3,02,28,20,09,04,10,17,27,,,,,2.0,1.0,1.8*3D
$GPRMC,065405.000,A,3353.7482,N,09832.0222,W,0.09,279.28,020412,,,A*79
$GPGGA,065406.000,3353.7482,N,09832.0223,W,1,08,1.0,313.9,M,-23.7,M,,0000*69
$GPGSA,A,3,02,28,20,09,04,10,17,27,,,,,2.0,1.0,1.8*3D
$GPRMC,065406.000,A,3353.7482,N,09832.0223,W,0.37,269.04,020412,,,A*79
$GPGGA,065407.000,3353.7481,N,09832.0223,W,1,08,1.0,313.9,M,-23.7,M,,0000*6B
$GPGSA,A,3,02,28,20,09,04,10,17,27,,,,,2.0,1.0,1.8*3D
$GPGSV,3,1,11,04,71,194,31,17,50,041,36,28,44,114,35,27,43,272,17*7F
$GPGSV,3,2,11,02,38,214,21,09,36,293,27,10,16,152,22,20,15,057,20*72
$GPGSV,3,3,11,12,13,313,,32,00,036,,08,00,165,25*40
$GPRMC,065407.000,A,3353.7481,N,09832.0223,W,0.23,269.34,020412,,,A*7D
$GPGGA,065408.000,3353.7481,N,09832.0223,W,1,08,1.0,313.9,M,-23.7,M,,0000*64
$GPGSA,A,3,02,28,20,09,04,10,17,27,,,,,2.0,1.0,1.8*3D
$GPRMC,065408.000,A,3353.7481,N,09832.0223,W,0.11,84.69,020412,,,A*4A
$GPGGA,065409.000,3353.7481,N,09832.0221,W,1,08,1.0,313.8,M,-23.7,M,,0000*66
$GPGSA,A,3,02,28,20,09,04,10,17,27,,,,,2.0,1.0,1.8*3D
$GPRMC,065409.000,A,3353.7481,N,09832.0221,W,0.42,67.99,020412,,,A*4D
$GPGGA,065410.000,3353.7482,N,09832.0219,W,1,08,1.0,313.6,M,-23.7,M,,0000*68
$GPGSA,A,3,02,28,20,09,04,10,17,27,,,,,2.0,1.0,1.8*3D
$GPRMC,065410.000,A,3353.7482,N,09832.0219,W,0.61,57.58,020412,,,A*42
$GPGGA,065411.000,3353.7482,N,09832.0217,W,1,08,1.0,313.3,M,-23.7,M,,0000*62
$GPGSA,A,3,02,28,20,09,04,10,17,27,,,,,2.0,1.0,1.8*3D
$GPRMC,065411.000,A,3353.7482,N,09832.0217,W,0.76,78.56,020412,,,A*48
$GPGGA,065412.000,3353.7482,N,09832.0216,W,1,07,1.2,313.0,M,-23.7,M,,0000*6E
$GPGSA,A,3,02,28,20,04,10,17,27,,,,,,2.2,1.2,1.9*35
$GPGSV,3,1,11,04,71,194,31,17,50,041,36,28,44,114,35,27,43,272,17*7F
$GPGSV,3,2,11,02,38,214,19,09,36,293,16,10,16,152,23,20,15,057,20*7A
$GPGSV,3,3,11,12,13,313,,32,00,036,,08,00,165,19*4F
$GPRMC,065412.000,A,3353.7482,N,09832.0216,W,0.08,73.26,020412,,,A*4F
$GPGGA,065413.000,3353.7480,N,09832.0217,W,1,07,1.2,312.6,M,-23.7,M,,0000*6B
$GPGSA,A,3,02,28,20,04,10,17,27,,,,,,2.2,1.2,1.9*35
$GPRMC,065413.000,A,3353.7480,N,09832.0217,W,0.49,235.85,020412,,,A*71
$GPGGA,065414.000,3353.7480,N,09832.0218,W,1,08,1.0,312.2,M,-23.7,M,,0000*6A
$GPGSA,A,3,02,28,20,09,04,10,17,27,,,,,2.0,1.0,1.8*3D
$GPRMC,065414.000,A,3353.7480,N,09832.0218,W,0.10,149.66,020412,,,A*70
$GPGGA,065415.000,3353.7480,N,09832.0219,W,1,08,1.0,311.6,M,-23.7,M,,0000*6D
$GPGSA,A,3,02,28,20,09,04,10,17,27,,,,,2.0,1.0,1.8*3D
$GPRMC,065415.000,A,3353.7480,N,09832.0219,W,0.41,300.38,020412,,,A*70
$GPGGA,065416.000,3353.7481,N,09832.0222,W,1,08,1.0,311.0,M,-23.7,M,,0000*61
$GPGSA,A,3,02,28,20,09,04,10,17,27,,,,,2.0,1.0,1.8*3D
$GPRMC,065416.000,A,3353.7481,N,09832.0222,W,0.55,309.61,020412,,,A*7A
$GPGGA,065417.000,3353.7480,N,09832.0224,W,1,08,1.0,310.2,M,-23.7,M,,0000*64
$GPGSA,A,3,02,28,20,09,04,10,17,27,,,,,2.0,1.0,1.8*3D
$GPGSV,3,1,11,04,71,194,31,17,50,041,37,28,44,114,34,27,43,272,19*71
$GPGSV,3,2,11,02,38,214,21,09,36,293,24,10,16,152,23,20,15,057,20*70
$GPGSV,3,3,11,12,13,313,,32,00,036,,08,00,165,12*44
$GPRMC,065417.000,A,3353.7480,N,09832.0224,W,0.26,214.23,020412,,,A*73
$GPGGA,065418.000,3353.7480,N,09832.0226,W,1,08,1.0,309.1,M,-23.7,M,,0000*62
$GPGSA,A,3,02,28,20,09,04,10,17,27,,,,,2.0,1.0,1.8*3D
$GPRMC,065418.000,A,3353.7480,N,09832.0226,W,0.32,248.93,020412,,,A*79
$GPGGA,065419.000,3353.7480,N,09832.0228,W,1,08,1.0,308.0,M,-23.7,M,,0000*6D
$GPGSA,A,3,02,28,20,09,04,10,17,27,,,,,2.0,1.0,1.8*3D
$GPRMC,065419.000,A,3353.7480,N,09832.0228,W,0.28,263.22,020412,,,A*7E
$GPGGA,065420.000,3353.7480,N,09832.0230,W,1,08,1.0,306.8,M,-23.7,M,,0000*68
$GPGSA,A,3,02,28,20,09,04,10,17,27,,,,,2.0,1.0,1.8*3D
$GPRMC,065420.000,A,3353.7480,N,09832.0230,W,0.21,324.21,020412,,,A*75
$GPGGA,065421.000,3353.7480,N,09832.0231,W,1,08,1.0,305.6,M,-23.7,M,,0000*65
$GPGSA,A,3,02,28,20,09,04,10,17,27,,,,,2.0,1.0,1.8*3D
$GPRMC,065421.000,A,3353.7480,N,09832.0231,W,0.32,79.07,020412,,,A*48
$GPGGA,065422.000,3353.7479,N,09832.0231,W,1,08,1.0,304.5,M,-23.7,M,,0000*62
$GPGSA,A,3,02,28,20,09,04,10,17,27,,,,,2.0,1.0,1.8*3D
$GPGSV,3,1,11,04,71,194,30,17,50,041,38,28,44,114,35,27,43,272,20*74
$GPGSV,3,2,11,02,38,214,22,09,36,293,23,10,16,152,24,20,15,057,19*79
$GPGSV,3,3,11,12,13,313,,32,00,036,,08,00,165,*47
$GPRMC,065422.000,A,3353.7479,N,09832.0231,W,0.33,126.70,020412,,,A*77
$GPGGA,065423.000,3353.7479,N,09832.0232,W,1,08,1.0,303.4,M,-23.7,M,,0000*66
$GPGSA,A,3,02,28,20,09,04,10,17,27,,,,,2.0,1.0,1.8*3D
$GPRMC,065423.000,A,3353.7479,N,09832.0232,W,0.15,62.40,020412,,,A*43
$GPGGA,065424.000,3353.7479,N,09832.0235,W,1,08,1.0,302.1,M,-23.7,M,,0000*62
$GPGSA,A,3,02,28,20,09,04,10,17,27,,,,,2.0,1.0,1.8*3D
$GPRMC,065424.000,A,3353.7479,N,09832.0235,W,0.57,335.68,020412,,,A*7E
$GPGGA,065425.000,3353.7479,N,09832.0236,W,1,08,1.0,300.8,M,-23.7,M,,0000*6B
$GPGSA,A,3,02,28,20,09,04,10,17,27,,,,,2.0,1.0,1.8*3D
$GPRMC,065425.000,A,3353.7479,N,09832.0236,W,0.30,24.39,020412,,,A*4A
$GPGGA,065426.000,3353.7478,N,09832.0237,W,1,08,1.0,299.7,M,-23.7,M,,0000*66
$GPGSA,A,3,02,28,20,09,04,10,17,27,,,,,2.0,1.0,1.8*3D
$GPRMC,065426.000,A,3353.7478,N,09832.0237,W,0.38,49.05,020412,,,A*45
$GPGGA,065427.000,3353.7478,N,09832.0237,W,1,08,1.0,298.6,M,-23.7,M,,0000*67
$GPGSA,A,3,02,28,20,09,04,10,17,27,,,,,2.0,1.0,1.8*3D
$GPGSV,3,1,11,04,71,194,27,17,50,041,38,28,44,114,35,27,43,272,20*72
$GPGSV,3,2,11,02,38,214,22,09,36,293,23,10,16,152,24,20,15,057,19*79
$GPGSV,3,3,11,12,13,313,,32,00,036,,08,00,165,*47
$GPRMC,065427.000,A,3353.7478,N,09832.0237,W,0.48,29.67,020412,,,A*41
$GPGGA,065428.000,3353.7478,N,09832.0237,W,1,08,1.0,297.6,M,-23.7,M,,0000*67
$GPGSA,A,3,02,28,20,09,04,10,17,27,,,,,2.0,1.0,1.8*3D
$GPRMC,065428.000,A,3353.7478,N,09832.0237,W,0.23,40.10,020412,,,A*4C
$GPGGA,065429.000,3353.7477,N,09832.0238,W,1,08,1.0,296.7,M,-23.7,M,,0000*66
$GPGSA,A,3,02,28,20,09,04,10,17,27,,,,,2.0,1.0,1.8*3D
$GPRMC,065429.000,A,3353.7477,N,09832.0238,W,0.23,345.75,020412,,,A*78
$GPGGA,065430.000,3353.7476,N,09832.0240,W,1,08,1.0,295.9,M,-23.7,M,,0000*6D
$GPGSA,A,3,02,28,20,09,04,10,17,27,,,,,2.0,1.0,1.8*3D
$GPRMC,065430.000,A,3353.7476,N,09832.0240,W,0.33,260.96,020412,,,A*74
$GPGGA,065431.000,3353.7473,N,09832.0241,W,1,08,1.0,295.3,M,-23.7,M,,0000*62
$GPGSA,A,3,02,28,20,09,04,10,17,27,,,,,2.0,1.0,1.8*3D
$GPRMC,065431.000,A,3353.7473,N,09832.0241,W,0.43,210.55,020412,,,A*7E
$GPGGA,065432.000,3353.7471,N,09832.0244,W,1,08,1.0,294.7,M,-23.7,M,,0000*63
$GPGSA,A,3,02,28,20,09,04,10,17,27,,,,,2.0,1.0,1.8*3D
$GPGSV,3,1,11,04,71,194,27,17,50,041,38,28,44,114,35,27,43,272,20*72
$GPGSV,3,2,11,02,38,214,23,09,36,293,23,10,16,152,24,20,15,057,19*78
$GPGSV,3,3,11,12,13,313,,32,00,036,,08,00,165,*47
$GPRMC,065432.000,A,3353.7471,N,09832.0244,W,0.61,246.32,020412,,,A*78
$GPGGA,065433.000,3353.7470,N,09832.0246,W,1,07,1.2,294.1,M,-23.7,M,,0000*6A
$GPGSA,A,3,02,28,09,04,10,17,27,,,,,,2.6,1.2,2.3*33
$GPRMC,065433.000,A,3353.7470,N,09832.0246,W,0.18,264.25,020412,,,A*72
$GPGGA,065434.000,3353.7469,N,09832.0247,W,1,07,1.2,293.4,M,-23.7,M,,0000*66
$GPGSA,A,3,02,28,09,04,10,17,27,,,,,,2.6,1.2,2.3*33
$GPRMC,065434.000,A,3353.7469,N,09832.0247,W,0.08,325.08,020412,,,A*76
$GPGGA,065435.000,3353.7468,N,09832.0246,W,1,07,1.2,293.0,M,-23.7,M,,0000*63
$GPGSA,A,3,02,28,09,04,10,17,27,,,,,,2.6,1.2,2.3*33
$GPRMC,065435.000,A,3353.7468,N,09832.0246,W,0.48,87.60,020412,,,A*46
$GPGGA,065436.000,3353.7467,N,09832.0245,W,1,07,1.2,292.7,M,-23.7,M,,0000*6A
$GPGSA,A,3,02,28,09,04,10,17,27,,,,,,2.6,1.2,2.3*33
$GPRMC,065436.000,A,3353.7467,N,09832.0245,W,0.40,132.60,020412,,,A*7E
$GPGGA,065437.000,3353.7465,N,09832.0247,W,1,07,1.2,292.4,M,-23.7,M,,0000*68
$GPGSA,A,3,02,28,09,04,10,17,27,,,,,,2.6,1.2,2.3*33
$GPGSV,3,1,11,04,71,194,26,17,50,041,39,28,44,114,34,27,43,272,21*72
$GPGSV,3,2,11,02,38,214,21,09,36,293,22,10,16,152,24,20,15,057,*73
$GPGSV,3,3,11,12,13,313,,32,00,036,,08,00,165,*47
$GPRMC,065437.000,A,3353.7465,N,09832.0247,W,0.21,237.77,020412,,,A*78
$GPGGA,065438.000,3353.7464,N,09832.0246,W,1,07,1.2,292.1,M,-23.7,M,,0000*62
$GPGSA,A,3,02,28,09,04,10,17,27,,,,,,2.6,1.2,2.3*33
$GPRMC,065438.000,A,3353.7464,N,09832.0246,W,0.26,112.50,020412,,,A*71
$GPGGA,065439.000,3353.7463,N,09832.0245,W,1,07,1.2,291.8,M,-23.7,M,,0000*6D
$GPGSA,A,3,02,28,09,04,10,17,27,,,,,,2.6,1.2,2.3*33
$GPRMC,065439.000,A,3353.7463,N,09832.0245,W,0.24,136.73,020412,,,A*71
$GPGGA,065440.000,3353.7463,N,09832.0246,W,1,07,1.2,291.6,M,-23.7,M,,0000*6E
$GPGSA,A,3,02,28,09,04,10,17,27,,,,,,2.6,1.2,2.3*33
$GPRMC,065440.000,A,3353.7463,N,09832.0246,W,0.18,279.41,020412,,,A*7A
$GPGGA,065441.000,3353.7463,N,09832.0244,W,1,07,1.2,291.7,M,-23.7,M,,0000*6C
$GPGSA,A,3,02,28,09,04,10,17,27,,,,,,2.6,1.2,2.3*33
$GPRMC,065441.000,A,3353.7463,N,09832.0244,W,0.17,52.42,020412,,,A*4E
$GPGGA,065442.000,3353.7463,N,09832.0242,W,1,07,1.2,292.0,M,-23.7,M,,0000*6D
$GPGSA,A,3,02,28,09,04,10,17,27,,,,,,2.6,1.2,2.3*33
$GPGSV,3,1,11,04,71,194,25,17,50,041,39,28,44,114,34,27,43,272,17*74
$GPGSV,3,2,11,02,38,214,26,09,36,293,22,10,16,152,23,20,15,057,*73
$GPGSV,3,3,11,12,13,313,,32,00,036,,08,00,165,12*44
$GPRMC,065442.000,A,3353.7463,N,09832.0242,W,0.47,90.42,020412,,,A*40
$GPGGA,065443.000,3353.7462,N,09832.0238,W,1,07,1.2,292.4,M,-23.7,M,,0000*64
$GPGSA,A,3,02,28,09,04,10,17,27,,,,,,2.6,1.2,2.3*33
$GPRMC,065443.000,A,3353.7462,N,09832.0238,W,0.75,109.40,020412,,,A*7F
$GPGGA,065444.000,3353.7462,N,09832.0235,W,1,07,1.2,292.7,M,-23.7,M,,0000*6D
$GPGSA,A,3,02,28,09,04,10,17,27,,,,,,2.6,1.2,2.3*33
$GPRMC,065444.000,A,3353.7462,N,09832.0235,W,0.61,110.83,020412,,,A*77
$GPGGA,065445.000,3353.7462,N,09832.0232,W,1,08,1.0,292.9,M,-23.7,M,,0000*68
$GPGSA,A,3,02,28,20,09,04,10,17,27,,,,,2.0,1.0,1.8*3D
$GPRMC,065445.000,A,3353.7462,N,09832.0232,W,0.60,86.83,020412,,,A*4E
$GPGGA,065446.000,3353.7461,N,09832.0229,W,1,08,1.0,292.9,M,-23.7,M,,0000*62
$GPGSA,A,3,02,28,20,09,04,10,17,27,,,,,2.0,1.0,1.8*3D
$GPRMC,065446.000,A,3353.7461,N,09832.0229,W,0.45,109.70,020412,,,A*79
$GPGGA,065447.000,3353.7461,N,09832.0226,W,1,08,1.0,292.8,M,-23.7,M,,0000*6D
$GPGSA,A,3,02,28,20,09,04,10,17,27,,,,,2.0,1.0,1.8*3D
$GPGSV,3,1,11,04,71,194,22,17,50,041,39,28,44,114,35,27,43,272,17*72
$GPGSV,3,2,11,02,38,214,27,09,36,293,22,10,16,152,23,20,15,057,20*70
$GPGSV,3,3,11,12,13,313,,32,00,036,,08,00,165,*47
$GPRMC,065447.000,A,3353.7461,N,09832.0226,W,0.31,91.56,020412,,,A*40
$GPGGA,065448.000,3353.7462,N,09832.0224,W,1,08,1.0,292.7,M,-23.7,M,,0000*6C
$GPGSA,A,3,02,28,20,09,04,10,17,27,,,,,2.0,1.0,1.8*3D
$GPRMC,065448.000,A,3353.7462,N,09832.0224,W,0.14,312.78,020412,,,A*7D
$GPGGA,065449.000,3353.7462,N,09832.0224,W,1,08,1.0,292.5,M,-23.7,M,,0000*6F
$GPGSA,A,3,02,28,20,09,04,10,17,27,,,,,2.0,1.0,1.8*3D
$GPRMC,065449.000,A,3353.7462,N,09832.0224,W,0.51,256.54,020412,,,A*72
$GPGGA,065450.000,3353.7462,N,09832.0222,W,1,08,1.0,292.3,M,-23.7,M,,0000*67
$GPGSA,A,3,02,28,20,09,04,10,17,27,,,,,2.0,1.0,1.8*3D
$GPRMC,065450.000,A,3353.7462,N,09832.0222,W,0.02,290.85,020412,,,A*7C
$GPGGA,065451.000,3353.7462,N,09832.0220,W,1,08,1.0,292.0,M,-23.7,M,,0000*67
$GPGSA,A,3,02,28,20,09,04,10,17,27,,,,,2.0,1.0,1.8*3D
$GPRMC,065451.000,A,3353.7462,N,09832.0220,W,0.13,26.22,020412,,,A*4D
$GPGGA,065452.000,3353.7463,N,09832.0217,W,1,08,1.0,291.8,M,-23.7,M,,0000*6A
$GPGSA,A,3,02,28,20,09,04,10,17,27,,,,,2.0,1.0,1.8*3D
$GPGSV,3,1,11,04,71,194,17,17,50,041,39,28,44,114,36,27,43,272,17*77
$GPGSV,3,2,11,02,38,214,27,09,36,293,22,10,16,152,24,20,15,057,20*77
$GPGSV,3,3,11,12,13,313,,32,00,036,,08,00,165,15*43
$GPRMC,065452.000,A,3353.7463,N,09832.0217,W,0.38,62.10,020412,,,A*43
$GPGGA,065453.000,3353.7463,N,09832.0215,W,1,08,1.0,291.5,M,-23.7,M,,0000*64
$GPGSA,A,3,02,28,20,09,04,10,17,27,,,,,2.0,1.0,1.8*3D
$GPRMC,065453.000,A,3353.7463,N,09832.0215,W,0.25,80.42,020412,,,A*47
$GPGGA,065454.000,3353.7464,N,09832.0214,W,1,08,1.0,291.1,M,-23.7,M,,0000*61
$GPGSA,A,3,02,28,20,09,04,10,17,27,,,,,2.0,1.0,1.8*3D
$GPRMC,065454.000,A,3353.7464,N,09832.0214,W,0.19,326.27,020412,,,A*75
$GPGGA,065455.000,3353.7464,N,09832.0212,W,1,08,1.0,290.7,M,-23.7,M,,0000*61
$GPGSA,A,3,02,28,20,09,04,10,17,27,,,,,2.0,1.0,1.8*3D
$GPRMC,065455.000,A,3353.7464,N,09832.0212,W,0.11,118.89,020412,,,A*71
$GPGGA,065456.000,3353.7463,N,09832.0211,W,1,08,1.0,290.3,M,-23.7,M,,0000*62
$GPGSA,A,3,02,28,20,09,04,10,17,27,,,,,2.0,1.0,1.8*3D
$GPRMC,065456.000,A,3353.7463,N,09832.0211,W,0.24,233.23,020412,,,A*7A
$GPGGA,065457.000,3353.7463,N,09832.0211,W,1,08,1.0,289.9,M,-23.7,M,,0000*61
$GPGSA,A,3,02,28,20,09,04,10,17,27,,,,,2.0,1.0,1.8*3D
$GPGSV,3,1,11,04,71,194,19,17,50,041,40,28,44,114,36,27,43,272,16*76
$GPGSV,3,2,11,02,38,214,27,09,36,293,21,10,16,152,24,20,15,057,19*7E
$GPGSV,3,3,11,12,13,313,,32,00,036,,08,00,165,14*42
$GPRMC,065457.000,A,3353.7463,N,09832.0211,W,0.30,234.30,020412,,,A*7B
$GPGGA,065458.000,3353.7462,N,09832.0212,W,1,08,1.0,289.7,M,-23.7,M,,0000*62
$GPGSA,A,3,02,28,20,09,04,10,17,27,,,,,2.0,1.0,1.8*3D
$GPRMC,065458.000,A,3353.7462,N,09832.0212,W,0.36,256.68,020412,,,A*79
$GPGGA,065459.000,3353.7461,N,09832.0213,W,1,08,1.0,289.6,M,-23.7,M,,0000*60
$GPGSA,A,3,02,28,20,09,04,10,17,27,,,,,2.0,1.0,1.8*3D
$GPRMC,065459.000,A,3353.7461,N,09832.0213,W,0.43,236.91,020412,,,A*78
$GPGGA,065500.000,3353.7461,N,09832.0213,W,1,07,1.2,289.4,M,-23.7,M,,0000*62
$GPGSA,A,3,02,28,20,04,10,17,27,,,,,,2.2,1.2,1.9*35
$GPRMC,065500.000,A,3353.7461,N,09832.0213,W,0.16,166.08,020412,,,A*73
$GPGGA,065501.000,3353.7460,N,09832.0212,W,1,07,1.2,289.3,M,-23.7,M,,0000*64
$GPGSA,A,3,02,28,20,04,10,17,27,,,,,,2.2,1.2,1.9*35
$GPRMC,065501.000,A,3353.7460,N,09832.0212,W,0.23,119.49,020412,,,A*79
$GPGGA,065502.000,3353.7459,N,09832.0212,W,1,07,1.2,289.4,M,-23.7,M,,0000*6A
$GPGSA,A,3,02,28,20,04,10,17,27,,,,,,2.2,1.2,1.9*35
$GPGSV,3,1,11,04,71,194,20,17,50,041,40,28,44,114,36,27,43,272,15*7F
$GPGSV,3,2,11,02,38,214,27,09,36,293,,10,16,152,24,20,15,057,18*7C
$GPGSV,3,3,11,12,13,313,,32,00,036,,08,00,165,13*45
$GPRMC,065502.000,A,3353.7459,N,09832.0212,W,0.26,156.71,020412,,,A*75
$GPGGA,065503.000,3353.7458,N,09832.0213,W,1,07,1.2,289.4,M,-23.7,M,,0000*6B
$GPGSA,A,3,02,28,20,04,10,17,27,,,,,,2.2,1.2,1.9*35
$GPRMC,065503.000,A,3353.7458,N,09832.0213,W,0.07,194.36,020412,,,A*7A
$GPGGA,065504.000,3353.7458,N,09832.0213,W,1,07,1.2,289.3,M,-23.7,M,,0000*6B
$GPGSA,A,3,02,28,20,04,10,17,27,,,,,,2.2,1.2,1.9*35
$GPRMC,065504.000,A,3353.7458,N,09832.0213,W,0.08,26.29,020412,,,A*44
$GPGGA,065505.000,3353.7458,N,09832.0214,W,1,07,1.2,289.2,M,-23.7,M,,0000*6C
$GPGSA,A,3,02,28,20,04,10,17,27,,,,,,2.2,1.2,1.9*35
$GPRMC,065505.000,A,3353.7458,N,09832.0214,W,0.08,55.40,020412,,,A*49
$GPGGA,065506.000,3353.7457,N,09832.0215,W,1,07,1.2,289.1,M,-23.7,M,,0000*62
$GPGSA,A,3,02,28,20,04,10,17,27,,,,,,2.2,1.2,1.9*35
$GPRMC,065506.000,A,3353.7457,N,09832.0215,W,0.09,58.54,020412,,,A*4D
$GPGGA,065507.000,3353.7457,N,09832.0216,W,1,07,1.2,288.9,M,-23.7,M,,0000*69
$GPGSA,A,3,02,28,20,04,10,17,27,,,,,,2.2,1.2,1.9*35
$GPGSV,3,1,11,04,71,194,21,17,50,041,40,28,44,114,36,27,43,272,15*7E
$GPGSV,3,2,11,02,38,214,27,09,36,293,,10,16,152,24,20,15,057,18*7C
$GPGSV,3,3,11,12,13,313,,32,00,036,,08,00,165,12*44
$GPRMC,065507.000,A,3353.7457,N,09832.0216,W,0.19,105.68,020412,,,A*78
$GPGGA,065508.000,3353.7456,N,09832.0215,W,1,07,1.2,288.5,M,-23.7,M,,0000*68
$GPGSA,A,3,02,28,20,04,10,17,27,,,,,,2.2,1.2,1.9*35
$GPRMC,065508.000,A,3353.7456,N,09832.0215,W,0.51,95.49,020412,,,A*42
$GPGGA,065509.000,3353.7456,N,09832.0217,W,1,07,1.2,288.2,M,-23.7,M,,0000*6C
$GPGSA,A,3,02,28,20,04,10,17,27,,,,,,2.2,1.2,1.9*35
$GPRMC,065509.000,A,3353.7456,N,09832.0217,W,0.03,97.19,020412,,,A*41
$GPGGA,065510.000,3353.7456,N,09832.0219,W,1,07,1.2,287.8,M,-23.7,M,,0000*6F
$GPGSA,A,3,02,28,20,04,10,17,27,,,,,,2.2,1.2,1.9*35
$GPRMC,065510.000,A,3353.7456,N,09832.0219,W,0.19,287.28,020412,,,A*7D
$GPGGA,065511.000,3353.7455,N,09832.0221,W,1,07,1.2,287.3,M,-23.7,M,,0000*6D
$GPGSA,A,3,02,28,20,04,10,17,27,,,,,,2.2,1.2,1.9*35
$GPRMC,065511.000,A,3353.7455,N,09832.0221,W,0.34,264.40,020412,,,A*78
$GPGGA,065512.000,3353.7455,N,09832.0224,W,1,07,1.2,286.9,M,-23.7,M,,0000*60
$GPGSA,A,3,02,28,20,04,10,17,27,,,,,,2.2,1.2,1.9*35
$GPGSV,3,1,11,04,71,194,22,17,50,041,40,28,44,114,36,27,43,272,15*7D
$GPGSV,3,2,11,02,38,214,27,09,36,293,,10,16,152,23,20,15,057,18*7B
$GPGSV,3,3,11,12,13,313,,32,00,036,,08,00,165,12*44
$GPRMC,065512.000,A,3353.7455,N,09832.0224,W,0.34,311.89,020412,,,A*78
$GPGGA,065513.000,3353.7456,N,09832.0227,W,1,07,1.2,286.6,M,-23.7,M,,0000*6E
$GPGSA,A,3,02,28,20,04,10,17,27,,,,,,2.2,1.2,1.9*35
$GPRMC,065513.000,A,3353.7456,N,09832.0227,W,0.53,293.66,020412,,,A*72
$GPGGA,065514.000,3353.7456,N,09832.0230,W,1,07,1.2,286.3,M,-23.7,M,,0000*6A
$GPGSA,A,3,02,28,20,04,10,17,27,,,,,,2.2,1.2,1.9*35
$GPRMC,065514.000,A,3353.7456,N,09832.0230,W,0.51,291.89,020412,,,A*72
$GPGGA,065515.000,3353.7456,N,09832.0231,W,1,07,1.2,285.7,M,-23.7,M,,0000*6D
$GPGSA,A,3,02,28,20,04,10,17,27,,,,,,2.2,1.2,1.9*35
$GPRMC,065515.000,A,3353.7456,N,09832.0231,W,0.08,75.88,020412,,,A*47
$GPGGA,065516.000,3353.7456,N,09832.0232,W,1,07,1.2,285.1,M,-23.7,M,,0000*6B
$GPGSA,A,3,02,28,20,04,10,17,27,,,,,,2.2,1.2,1.9*35
$GPRMC,065516.000,A,3353.7456,N,09832.0232,W,0.24,3.85,020412,,,A*75
$GPGGA,065517.000,3353.7457,N,09832.0234,W,1,07,1.2,284.7,M,-23.7,M,,0000*6A
$GPGSA,A,3,02,28,20,04,10,17,27,,,,,,2.2,1.2,1.9*35
$GPGSV,3,1,11,04,71,194,23,17,50,041,40,28,44,114,36,27,43,272,13*7A
$GPGSV,3,2,11,02,38,214,27,09,36,293,,10,16,152,23,20,15,057,19*7A
$GPGSV,3,3,11,12,13,313,,32,00,036,,08,00,165,12*44
$GPRMC,065517.000,A,3353.7457,N,09832.0234,W,0.29,314.46,020412,,,A*74
$GPGGA,065518.000,3353.7457,N,09832.0236,W,1,07,1.2,284.4,M,-23.7,M,,0000*64
$GPGSA,A,3,02,28,20,04,10,17,27,,,,,,2.2,1.2,1.9*35
$GPRMC,065518.000,A,3353.7457,N,09832.0236,W,0.36,298.65,020412,,,A*73
$GPGGA,065519.000,3353.7458,N,09832.0239,W,1,07,1.2,284.3,M,-23.7,M,,0000*62
$GPGSA,A,3,02,28,20,04,10,17,27,,,,,,2.2,1.2,1.9*35
$GPRMC,065519.000,A,3353.7458,N,09832.0239,W,0.47,294.71,020412,,,A*7D
