$GPGGA,123657.000,3353.7596,N,09832.0276,W,2,06,1.5,317.6,M,-23.7,M,,0000*6B
$GPGSA,A,3,15,05,29,26,25,02,,,,,,,2.3,1.5,1.7*3A
$GPRMC,123657.000,A,3353.7596,N,09832.0276,W,0.11,26.69,010412,,,D*48
$GPGGA,123658.000,3353.7596,N,09832.0270,W,2,06,1.5,319.0,M,-23.7,M,,0000*6A
$GPGSA,A,3,15,05,29,26,25,02,,,,,,,2.3,1.5,1.7*3A
$GPGSV,3,1,11,29,81,258,34,26,44,089,27,15,44,153,36,21,34,301,*71
$GPGSV,3,2,11,05,32,045,36,18,31,241,26,25,16,215,22,02,11,094,23*78
$GPGSV,3,3,11,30,09,303,,16,01,326,,51,49,195,38*4D
$GPRMC,123658.000,A,3353.7596,N,09832.0270,W,0.20,126.23,010412,,,D*7C
$GPGGA,123659.000,3353.7595,N,09832.0262,W,2,06,1.5,320.1,M,-23.7,M,,0000*60
$GPGSA,A,3,15,05,29,26,25,02,,,,,,,2.3,1.5,1.7*3A
$GPRMC,123659.000,A,3353.7595,N,09832.0262,W,0.44,99.31,010412,,,D*49
$GPGGA,123700.000,3353.7595,N,09832.0258,W,2,06,1.5,320.4,M,-23.7,M,1.8,0000*46
$GPGSA,A,3,15,05,29,26,25,02,,,,,,,2.3,1.5,1.7*3A
$GPRMC,123700.000,A,3353.7595,N,09832.0258,W,0.48,94.03,010412,,,D*4D
$GPGGA,123701.000,3353.7595,N,09832.0257,W,2,06,1.5,320.0,M,-23.7,M,,0000*6B
$GPGSA,A,3,15,05,29,26,25,02,,,,,,,2.3,1.5,1.7*3A
$GPRMC,123701.000,A,3353.7595,N,09832.0257,W,0.21,116.63,010412,,,D*71
$GPGGA,123702.000,3353.7594,N,09832.0253,W,2,06,1.5,320.3,M,-23.7,M,1.8,0000*49
$GPGSA,A,3,15,05,29,26,25,02,,,,,,,2.3,1.5,1.7*3A
$GPRMC,123702.000,A,3353.7594,N,09832.0253,W,0.18,66.08,010412,,,D*46
$GPGGA,123703.000,3353.7594,N,09832.0254,W,2,06,1.5,319.2,M,-23.7,M,,0000*63
$GPGSA,A,3,15,05,29,26,25,02,,,,,,,2.3,1.5,1.7*3A
$GPGSV,3,1,11,29,81,258,33,26,44,089,26,15,44,153,35,21,34,301,*74
$GPGSV,3,2,11,05,32,045,36,18,31,241,26,25,16,215,21,02,11,094,24*7C
$GPGSV,3,3,11,30,09,303,,16,01,326,,51,49,195,37*42
$GPRMC,123703.000,A,3353.7594,N,09832.0254,W,0.02,107.54,010412,,,D*74
$GPGGA,123704.000,3353.7593,N,09832.0256,W,2,06,1.5,318.2,M,-23.7,M,,0000*60
$GPGSA,A,3,15,05,29,26,25,02,,,,,,,2.3,1.5,1.7*3A
$GPRMC,123704.000,A,3353.7593,N,09832.0256,W,0.28,273.63,010412,,,D*7A
$GPGGA,123705.000,3353.7593,N,09832.0255,W,2,06,1.5,318.3,M,-23.7,M,,0000*63
$GPGSA,A,3,15,05,29,26,25,02,,,,,,,2.3,1.5,1.7*3A
$GPRMC,123705.000,A,3353.7593,N,09832.0255,W,0.18,323.90,010412,,,D*73
$GPGGA,123706.000,3353.7593,N,09832.0253,W,2,06,1.5,318.5,M,-23.7,M,1.8,0000*47
$GPGSA,A,3,15,05,29,26,25,02,,,,,,,2.3,1.5,1.7*3A
$GPRMC,123706.000,A,3353.7593,N,09832.0253,W,0.14,75.83,010412,,,D*48
$GPGGA,123707.000,3353.7593,N,09832.0248,W,2,06,1.5,319.3,M,-23.7,M,2.8,0000*48
$GPGSA,A,3,15,05,29,26,25,02,,,,,,,2.3,1.5,1.7*3A
$GPRMC,123707.000,A,3353.7593,N,09832.0248,W,0.09,67.05,010412,,,D*42
$GPGGA,123708.000,3353.7593,N,09832.0246,W,2,06,1.5,319.7,M,-23.7,M,,0000*69
$GPGSA,A,3,15,05,29,26,25,02,,,,,,,2.3,1.5,1.7*3A
$GPGSV,3,1,11,29,81,258,33,26,44,089,26,15,44,153,35,21,34,301,*74
$GPGSV,3,2,11,05,32,045,36,18,31,241,27,25,16,215,21,02,11,094,24*7D
$GPGSV,3,3,11,30,09,303,,16,01,326,,51,49,195,37*42
$GPRMC,123708.000,A,3353.7593,N,09832.0246,W,0.25,63.42,010412,,,D*4A
$GPGGA,123709.000,3353.7592,N,09832.0244,W,2,06,1.5,320.0,M,-23.7,M,,0000*66
$GPGSA,A,3,15,05,29,26,25,02,,,,,,,2.3,1.5,1.7*3A
$GPRMC,123709.000,A,3353.7592,N,09832.0244,W,0.04,157.98,010412,,,D*7A
$GPGGA,123710.000,3353.7592,N,09832.0241,W,2,06,1.5,320.4,M,-23.7,M,,0000*6F
$GPGSA,A,3,15,05,29,26,25,02,,,,,,,2.3,1.5,1.7*3A
$GPRMC,123710.000,A,3353.7592,N,09832.0241,W,0.26,92.57,010412,,,D*4C
$GPGGA,123711.000,3353.7591,N,09832.0236,W,2,06,1.5,321.2,M,-23.7,M,,0000*6A
$GPGSA,A,3,15,05,29,26,25,02,,,,,,,2.3,1.5,1.7*3A
$GPRMC,123711.000,A,3353.7591,N,09832.0236,W,0.11,94.26,010412,,,D*4A
$GPGGA,123712.000,3353.7591,N,09832.0232,W,2,06,1.5,322.1,M,-23.7,M,1.8,0000*4A
$GPGSA,A,3,15,05,29,26,25,02,,,,,,,2.3,1.5,1.7*3A
$GPRMC,123712.000,A,3353.7591,N,09832.0232,W,0.39,76.62,010412,,,D*4B
$GPGGA,123713.000,3353.7591,N,09832.0229,W,2,06,1.5,322.5,M,-23.7,M,,0000*62
$GPGSA,A,3,15,05,29,26,25,02,,,,,,,2.3,1.5,1.7*3A
$GPGSV,3,1,11,29,81,258,33,26,44,089,26,15,44,153,35,21,34,301,*74
$GPGSV,3,2,11,05,32,045,36,18,31,241,27,25,16,215,23,02,11,094,25*7E
$GPGSV,3,3,11,30,09,303,,16,01,326,,51,49,195,37*42
$GPRMC,123713.000,A,3353.7591,N,09832.0229,W,0.21,105.75,010412,,,D*7A
$GPGGA,123714.000,3353.7590,N,09832.0228,W,2,06,1.5,322.3,M,-23.7,M,,0000*63
$GPGSA,A,3,15,05,29,26,25,02,,,,,,,2.3,1.5,1.7*3A
$GPRMC,123714.000,A,3353.7590,N,09832.0228,W,0.08,132.59,010412,,,D*7C
$GPGGA,123715.000,3353.7590,N,09832.0227,W,2,06,1.5,322.5,M,-23.7,M,,0000*6B
$GPGSA,A,3,15,05,29,26,25,02,,,,,,,2.3,1.5,1.7*3A
$GPRMC,123715.000,A,3353.7590,N,09832.0227,W,0.11,42.42,010412,,,D*46
$GPGGA,123716.000,3353.7590,N,09832.0228,W,2,06,1.5,322.1,M,-23.7,M,,0000*63
$GPGSA,A,3,15,05,29,26,25,02,,,,,,,2.3,1.5,1.7*3A
$GPRMC,123716.000,A,3353.7590,N,09832.0228,W,0.14,44.78,010412,,,D*40
$GPGGA,123717.000,3353.7590,N,09832.0226,W,2,06,1.5,322.7,M,-23.7,M,,0000*6A
$GPGSA,A,3,15,05,29,26,25,02,,,,,,,2.3,1.5,1.7*3A
$GPRMC,123717.000,A,3353.7590,N,09832.0226,W,0.10,238.85,010412,,,D*70
$GPGGA,123718.000,3353.7590,N,09832.0227,W,2,06,1.5,322.5,M,-23.7,M,,0000*66
$GPGSA,A,3,15,05,29,26,25,02,,,,,,,2.3,1.5,1.7*3A
$GPGSV,3,1,11,29,81,256,33,26,44,088,27,15,44,153,35,21,34,301,*7A
$GPGSV,3,2,11,18,32,241,27,05,31,045,37,25,16,215,23,02,11,094,25*7F
$GPGSV,3,3,11,30,10,302,,16,01,326,,51,49,195,37*4B
$GPRMC,123718.000,A,3353.7590,N,09832.0227,W,0.18,267.25,010412,,,D*76
$GPGGA,123719.000,3353.7590,N,09832.0229,W,2,06,1.5,322.1,M,-23.7,M,1.8,0000*4A
$GPGSA,A,3,15,05,29,26,25,02,,,,,,,2.3,1.5,1.7*3A
$GPRMC,123719.000,A,3353.7590,N,09832.0229,W,0.32,254.10,010412,,,D*77
$GPGGA,123720.000,3353.7590,N,09832.0231,W,2,06,1.5,321.7,M,-23.7,M,2.8,0000*4F
$GPGSA,A,3,15,05,29,26,25,02,,,,,,,2.3,1.5,1.7*3A
$GPRMC,123720.000,A,3353.7590,N,09832.0231,W,0.36,265.41,010412,,,D*76
$GPGGA,123721.000,3353.7590,N,09832.0230,W,2,06,1.5,321.9,M,-23.7,M,,0000*65
$GPGSA,A,3,15,05,29,26,25,02,,,,,,,2.3,1.5,1.7*3A
$GPRMC,123721.000,A,3353.7590,N,09832.0230,W,0.07,288.65,010412,,,D*71
$GPGGA,123722.000,3353.7589,N,09832.0229,W,2,06,1.5,322.2,M,-23.7,M,,0000*6E
$GPGSA,A,3,15,05,29,26,25,02,,,,,,,2.3,1.5,1.7*3A
$GPRMC,123722.000,A,3353.7589,N,09832.0229,W,0.07,210.72,010412,,,D*75
$GPGGA,123723.000,3353.7589,N,09832.0229,W,2,06,1.5,322.0,M,-23.7,M,,0000*6D
$GPGSA,A,3,15,05,29,26,25,02,,,,,,,2.3,1.5,1.7*3A
$GPGSV,3,1,11,29,81,256,33,26,44,088,28,15,44,153,35,21,34,301,*75
$GPGSV,3,2,11,18,32,241,26,05,31,045,37,25,16,215,24,02,11,094,25*79
$GPGSV,3,3,11,30,10,302,,16,01,326,,51,49,195,37*4B
$GPRMC,123723.000,A,3353.7589,N,09832.0229,W,0.12,258.74,010412,,,D*7A
$GPGGA,123724.000,3353.7589,N,09832.0228,W,2,06,1.5,322.2,M,-23.7,M,1.8,0000*4E
$GPGSA,A,3,15,05,29,26,25,02,,,,,,,2.3,1.5,1.7*3A
$GPRMC,123724.000,A,3353.7589,N,09832.0228,W,0.25,252.66,010412,,,D*71
$GPGGA,123725.000,3353.7589,N,09832.0224,W,2,06,1.5,323.0,M,-23.7,M,,0000*67
$GPGSA,A,3,15,05,29,26,25,02,,,,,,,2.3,1.5,1.7*3A
$GPRMC,123725.000,A,3353.7589,N,09832.0224,W,0.25,54.21,010412,,,D*4B
$GPGGA,123726.000,3353.7589,N,09832.0221,W,2,05,1.6,323.7,M,-23.7,M,1.8,0000*41
$GPGSA,A,3,15,05,29,25,02,,,,,,,,2.4,1.6,1.8*35
$GPRMC,123726.000,A,3353.7589,N,09832.0221,W,0.25,74.67,010412,,,D*4D
$GPGGA,123727.000,3353.7590,N,09832.0219,W,2,05,1.6,324.2,M,-23.7,M,,0000*66
$GPGSA,A,3,15,05,29,25,02,,,,,,,,2.4,1.6,1.8*35
$GPRMC,123727.000,A,3353.7590,N,09832.0219,W,0.11,62.04,010412,,,D*4A
$GPGGA,123728.000,3353.7590,N,09832.0218,W,2,06,1.5,324.5,M,-23.7,M,,0000*6F
$GPGSA,A,3,15,05,29,26,25,02,,,,,,,2.3,1.5,1.7*3A
$GPGSV,3,1,11,29,81,256,34,26,44,088,32,15,44,153,34,21,34,301,*78
$GPGSV,3,2,11,18,32,241,25,05,31,045,37,25,16,215,24,02,11,094,26*79
$GPGSV,3,3,11,30,10,302,,16,01,326,,51,49,195,37*4B
$GPRMC,123728.000,A,3353.7590,N,09832.0218,W,0.11,288.25,010412,,,D*71
$GPGGA,123729.000,3353.7591,N,09832.0220,W,2,06,1.5,324.5,M,-23.7,M,,0000*64
$GPGSA,A,3,15,05,29,26,25,02,,,,,,,2.3,1.5,1.7*3A
$GPRMC,123729.000,A,3353.7591,N,09832.0220,W,0.06,344.92,010412,,,D*71
$GPGGA,123730.000,3353.7592,N,09832.0221,W,2,06,1.5,324.6,M,-23.7,M,,0000*6D
$GPGSA,A,3,15,05,29,26,25,02,,,,,,,2.3,1.5,1.7*3A
$GPRMC,123730.000,A,3353.7592,N,09832.0221,W,0.19,278.91,010412,,,D*78
$GPGGA,123731.000,3353.7593,N,09832.0222,W,2,06,1.5,324.9,M,-23.7,M,1.8,0000*46
$GPGSA,A,3,15,05,29,26,25,02,,,,,,,2.3,1.5,1.7*3A
$GPRMC,123731.000,A,3353.7593,N,09832.0222,W,0.05,317.99,010412,,,D*76
$GPGGA,123732.000,3353.7593,N,09832.0223,W,2,06,1.5,324.8,M,-23.7,M,2.8,0000*46
$GPGSA,A,3,15,05,29,26,25,02,,,,,,,2.3,1.5,1.7*3A
$GPRMC,123732.000,A,3353.7593,N,09832.0223,W,0.07,286.50,010412,,,D*7A
$GPGGA,123733.000,3353.7593,N,09832.0227,W,2,06,1.5,324.1,M,-23.7,M,,0000*6E
$GPGSA,A,3,15,05,29,26,25,02,,,,,,,2.3,1.5,1.7*3A
$GPGSV,3,1,11,29,81,256,35,26,44,088,32,15,44,153,34,21,34,301,*79
$GPGSV,3,2,11,18,32,241,19,05,31,045,38,25,16,215,24,02,11,094,26*79
$GPGSV,3,3,11,30,10,302,,16,01,326,,51,49,195,37*4B
$GPRMC,123733.000,A,3353.7593,N,09832.0227,W,0.23,258.24,010412,,,D*79
$GPGGA,123734.000,3353.7593,N,09832.0228,W,2,06,1.5,323.8,M,-23.7,M,,0000*68
$GPGSA,A,3,15,05,29,26,25,02,,,,,,,2.3,1.5,1.7*3A
$GPRMC,123734.000,A,3353.7593,N,09832.0228,W,0.01,151.93,010412,,,D*77
$GPGGA,123735.000,3353.7592,N,09832.0229,W,2,06,1.5,323.2,M,-23.7,M,,0000*63
$GPGSA,A,3,15,05,29,26,25,02,,,,,,,2.3,1.5,1.7*3A
$GPRMC,123735.000,A,3353.7592,N,09832.0229,W,0.06,35.34,010412,,,D*4F
$GPGGA,123736.000,3353.7592,N,09832.0229,W,2,06,1.5,323.1,M,-23.7,M,1.8,0000*44
$GPGSA,A,3,15,05,29,26,25,02,,,,,,,2.3,1.5,1.7*3A
$GPRMC,123736.000,A,3353.7592,N,09832.0229,W,0.24,46.17,010412,,,D*49
$GPGGA,123737.000,3353.7592,N,09832.0227,W,2,06,1.5,323.5,M,-23.7,M,2.8,0000*4C
$GPGSA,A,3,15,05,29,26,25,02,,,,,,,2.3,1.5,1.7*3A
$GPRMC,123737.000,A,3353.7592,N,09832.0227,W,0.33,59.00,010412,,,D*48
$GPGGA,123738.000,3353.7593,N,09832.0230,W,2,06,1.5,322.8,M,-23.7,M,,0000*6C
$GPGSA,A,3,15,05,29,26,25,02,,,,,,,2.3,1.5,1.7*3A
$GPGSV,3,1,11,29,81,256,35,26,44,088,31,15,44,153,34,21,34,301,*7A
$GPGSV,3,2,11,18,32,241,19,05,31,045,38,25,16,215,18,02,11,094,26*76
$GPGSV,3,3,11,30,10,302,,16,01,326,,51,49,195,37*4B
$GPRMC,123738.000,A,3353.7593,N,09832.0230,W,0.30,54.29,010412,,,D*45
$GPGGA,123739.000,3353.7593,N,09832.0232,W,2,06,1.5,322.2,M,-23.7,M,,0000*65
$GPGSA,A,3,15,05,29,26,25,02,,,,,,,2.3,1.5,1.7*3A
$GPRMC,123739.000,A,3353.7593,N,09832.0232,W,0.23,273.10,010412,,,D*79
$GPGGA,123740.000,3353.7593,N,09832.0238,W,2,06,1.5,320.8,M,-23.7,M,,0000*69
$GPGSA,A,3,15,05,29,26,25,02,,,,,,,2.3,1.5,1.7*3A
$GPRMC,123740.000,A,3353.7593,N,09832.0238,W,0.35,265.06,010412,,,D*7A
$GPGGA,123741.000,3353.7593,N,09832.0239,W,2,06,1.5,320.5,M,-23.7,M,,0000*64
$GPGSA,A,3,15,05,29,26,25,02,,,,,,,2.3,1.5,1.7*3A
$GPRMC,123741.000,A,3353.7593,N,09832.0239,W,0.33,266.96,010412,,,D*76
$GPGGA,123742.000,3353.7593,N,09832.0240,W,2,05,2.9,320.1,M,-23.7,M,1.8,0000*46
$GPGSA,A,3,15,05,29,26,02,,,,,,,,4.9,2.9,3.9*32
$GPRMC,123742.000,A,3353.7593,N,09832.0240,W,0.30,281.02,010412,,,D*7C
$GPGGA,123743.000,3353.7593,N,09832.0241,W,2,05,2.9,319.9,M,-23.7,M,2.8,0000*47
$GPGSA,A,3,15,05,29,26,02,,,,,,,,4.9,2.9,3.9*32
$GPGSV,3,1,11,29,81,256,35,26,44,088,32,15,44,153,34,21,34,301,*79
$GPGSV,3,2,11,18,32,241,19,05,31,045,38,25,16,215,,02,11,094,25*7C
$GPGSV,3,3,11,30,10,302,,16,01,326,,51,49,195,37*4B
$GPRMC,123743.000,A,3353.7593,N,09832.0241,W,0.26,289.12,010412,,,D*72
$GPGGA,123744.000,3353.7593,N,09832.0242,W,2,05,2.9,319.6,M,-23.7,M,3.8,0000*4D
$GPGSA,A,3,15,05,29,26,02,,,,,,,,4.9,2.9,3.9*32
$GPRMC,123744.000,A,3353.7593,N,09832.0242,W,0.25,272.31,010412,,,D*70
$GPGGA,123745.000,3353.7592,N,09832.0242,W,2,05,2.9,319.3,M,-23.7,M,,0000*6D
$GPGSA,A,3,15,05,29,26,02,,,,,,,,4.9,2.9,3.9*32
$GPRMC,123745.000,A,3353.7592,N,09832.0242,W,0.15,265.53,010412,,,D*71
$GPGGA,123746.000,3353.7592,N,09832.0243,W,2,05,2.9,319.0,M,-23.7,M,,0000*6C
$GPGSA,A,3,15,05,29,26,02,,,,,,,,4.9,2.9,3.9*32
$GPRMC,123746.000,A,3353.7592,N,09832.0243,W,0.24,258.87,010412,,,D*76
$GPGGA,123747.000,3353.7592,N,09832.0244,W,2,05,2.9,318.7,M,-23.7,M,,0000*6C
$GPGSA,A,3,15,05,29,26,02,,,,,,,,4.9,2.9,3.9*32
$GPRMC,123747.000,A,3353.7592,N,09832.0244,W,0.24,278.59,010412,,,D*71
$GPGGA,123748.000,3353.7592,N,09832.0246,W,2,05,2.9,318.3,M,-23.7,M,1.8,0000*42
$GPGSA,A,3,15,05,29,26,02,,,,,,,,4.9,2.9,3.9*32
$GPGSV,3,1,11,29,81,255,35,26,44,088,32,15,44,153,34,21,34,301,*7A
$GPGSV,3,2,11,18,32,241,21,05,31,045,38,25,16,215,,02,11,094,25*77
$GPGSV,3,3,11,30,10,302,,16,01,326,,51,49,195,37*4B
$GPRMC,123748.000,A,3353.7592,N,09832.0246,W,0.25,280.36,010412,,,D*73
$GPGGA,123749.000,3353.7592,N,09832.0247,W,2,05,2.9,317.8,M,-23.7,M,,0000*61
$GPGSA,A,3,15,05,29,26,02,,,,,,,,4.9,2.9,3.9*32
$GPRMC,123749.000,A,3353.7592,N,09832.0247,W,0.24,282.88,010412,,,D*75
$GPGGA,123750.000,3353.7592,N,09832.0249,W,2,05,2.9,317.4,M,-23.7,M,1.8,0000*4C
$GPGSA,A,3,15,05,29,26,02,,,,,,,,4.9,2.9,3.9*32
$GPRMC,123750.000,A,3353.7592,N,09832.0249,W,0.29,276.25,010412,,,D*72
$GPGGA,123751.000,3353.7592,N,09832.0251,W,2,05,2.9,316.8,M,-23.7,M,,0000*6E
$GPGSA,A,3,15,05,29,26,02,,,,,,,,4.9,2.9,3.9*32
$GPRMC,123751.000,A,3353.7592,N,09832.0251,W,0.36,287.14,010412,,,D*78
$GPGGA,123752.000,3353.7593,N,09832.0253,W,2,05,2.9,316.3,M,-23.7,M,,0000*65
$GPGSA,A,3,15,05,29,26,02,,,,,,,,4.9,2.9,3.9*32
$GPRMC,123752.000,A,3353.7593,N,09832.0253,W,0.42,285.96,010412,,,D*73
$GPGGA,123753.000,3353.7593,N,09832.0254,W,2,05,2.9,316.1,M,-23.7,M,,0000*61
$GPGSA,A,3,15,05,29,26,02,,,,,,,,4.9,2.9,3.9*32
$GPGSV,3,1,11,29,81,255,35,26,44,088,32,15,44,153,34,21,34,301,*7A
$GPGSV,3,2,11,18,32,241,22,05,31,045,38,25,16,215,17,02,11,094,26*71
$GPGSV,3,3,11,30,10,302,,16,01,326,,51,49,195,37*4B
$GPRMC,123753.000,A,3353.7593,N,09832.0254,W,0.28,294.63,010412,,,D*73
$GPGGA,123754.000,3353.7593,N,09832.0254,W,2,05,2.9,316.2,M,-23.7,M,1.8,0000*42
$GPGSA,A,3,15,05,29,26,02,,,,,,,,4.9,2.9,3.9*32
$GPRMC,123754.000,A,3353.7593,N,09832.0254,W,0.24,312.28,010412,,,D*78
$GPGGA,123755.000,3353.7593,N,09832.0253,W,2,05,2.9,316.4,M,-23.7,M,,0000*65
$GPGSA,A,3,15,05,29,26,02,,,,,,,,4.9,2.9,3.9*32
$GPRMC,123755.000,A,3353.7593,N,09832.0253,W,0.18,346.43,010412,,,D*7D
$GPGGA,123756.000,3353.7594,N,09832.0253,W,2,05,2.9,316.6,M,-23.7,M,1.8,0000*44
$GPGSA,A,3,15,05,29,26,02,,,,,,,,4.9,2.9,3.9*32
$GPRMC,123756.000,A,3353.7594,N,09832.0253,W,0.18,13.76,010412,,,D*4C
$GPGGA,123757.000,3353.7594,N,09832.0253,W,2,05,2.9,316.5,M,-23.7,M,,0000*61
$GPGSA,A,3,15,05,29,26,02,,,,,,,,4.9,2.9,3.9*32
$GPRMC,123757.000,A,3353.7594,N,09832.0253,W,0.08,286.92,010412,,,D*78
$GPGGA,123758.000,3353.7593,N,09832.0253,W,2,05,2.9,316.6,M,-23.7,M,,0000*6A
$GPGSA,A,3,15,05,29,26,02,,,,,,,,4.9,2.9,3.9*32
$GPGSV,3,1,11,29,81,255,35,26,44,088,32,15,44,153,34,21,34,301,*7A
$GPGSV,3,2,11,18,32,241,22,05,31,045,38,25,16,215,18,02,11,094,27*7F
$GPGSV,3,3,11,30,10,302,,16,01,326,,51,49,195,37*4B
$GPRMC,123758.000,A,3353.7593,N,09832.0253,W,0.13,177.35,010412,,,D*7A
$GPGGA,123759.000,3353.7593,N,09832.0255,W,2,05,2.9,316.3,M,-23.7,M,,0000*68
$GPGSA,A,3,15,05,29,26,02,,,,,,,,4.9,2.9,3.9*32
$GPRMC,123759.000,A,3353.7593,N,09832.0255,W,0.33,261.34,010412,,,D*7A
$GPGGA,123800.000,3353.7593,N,09832.0257,W,2,05,2.9,316.0,M,-23.7,M,1.8,0000*4D
$GPGSA,A,3,15,05,29,26,02,,,,,,,,4.9,2.9,3.9*32
$GPRMC,123800.000,A,3353.7593,N,09832.0257,W,0.28,268.67,010412,,,D*7E
$GPGGA,123801.000,3353.7593,N,09832.0258,W,2,05,2.9,315.5,M,-23.7,M,,0000*62
$GPGSA,A,3,15,05,29,26,02,,,,,,,,4.9,2.9,3.9*32
$GPRMC,123801.000,A,3353.7593,N,09832.0258,W,0.33,256.01,010412,,,D*77
$GPGGA,123802.000,3353.7592,N,09832.0260,W,2,05,2.9,315.1,M,-23.7,M,1.8,0000*48
$GPGSA,A,3,15,05,29,26,02,,,,,,,,4.9,2.9,3.9*32
$GPRMC,123802.000,A,3353.7592,N,09832.0260,W,0.38,258.26,010412,,,D*7E
$GPGGA,123803.000,3353.7592,N,09832.0260,W,2,05,2.9,315.0,M,-23.7,M,,0000*6F
$GPGSA,A,3,15,05,29,26,02,,,,,,,,4.9,2.9,3.9*32
$GPGSV,3,1,11,29,81,255,35,26,44,088,32,15,44,153,33,21,34,301,*7D
$GPGSV,3,2,11,18,32,241,22,05,31,045,38,25,16,215,19,02,11,094,27*7E
$GPGSV,3,3,11,30,10,302,,16,01,326,,51,49,195,37*4B
$GPRMC,123803.000,A,3353.7592,N,09832.0260,W,0.17,344.38,010412,,,D*71
$GPGGA,123804.000,3353.7593,N,09832.0260,W,2,05,2.9,315.0,M,-23.7,M,,0000*69
$GPGSA,A,3,15,05,29,26,02,,,,,,,,4.9,2.9,3.9*32
$GPRMC,123804.000,A,3353.7593,N,09832.0260,W,0.24,28.56,010412,,,D*46
$GPGGA,123805.000,3353.7593,N,09832.0259,W,2,05,2.9,315.0,M,-23.7,M,,0000*62
$GPGSA,A,3,15,05,29,26,02,,,,,,,,4.9,2.9,3.9*32
$GPRMC,123805.000,A,3353.7593,N,09832.0259,W,0.18,25.58,010412,,,D*41
$GPGGA,123806.000,3353.7593,N,09832.0260,W,2,05,2.9,314.6,M,-23.7,M,1.8,0000*4B
$GPGSA,A,3,15,05,29,26,02,,,,,,,,4.9,2.9,3.9*32
$GPRMC,123806.000,A,3353.7593,N,09832.0260,W,0.22,267.18,010412,,,D*71
$GPGGA,123807.000,3353.7593,N,09832.0260,W,2,05,2.9,314.6,M,-23.7,M,2.8,0000*49
$GPGSA,A,3,15,05,29,26,02,,,,,,,,4.9,2.9,3.9*32
$GPRMC,123807.000,A,3353.7593,N,09832.0260,W,0.14,31.47,010412,,,D*4E
$GPGGA,123808.000,3353.7593,N,09832.0259,W,2,05,2.9,314.6,M,-23.7,M,3.8,0000*4D
$GPGSA,A,3,15,05,29,26,02,,,,,,,,4.9,2.9,3.9*32
$GPGSV,3,1,11,29,81,255,35,26,44,088,31,15,44,153,33,21,34,301,*7E
$GPGSV,3,2,11,18,32,241,21,05,31,045,38,25,16,215,18,02,11,094,26*7D
$GPGSV,3,3,11,30,10,302,,16,01,326,,51,49,195,37*4B
$GPRMC,123808.000,A,3353.7593,N,09832.0259,W,0.19,36.77,010412,,,D*42
$GPGGA,123809.000,3353.7593,N,09832.0249,W,2,06,1.6,317.2,M,-23.7,M,,0000*60
$GPGSA,A,3,15,05,29,26,25,02,,,,,,,2.3,1.6,1.6*38
$GPRMC,123809.000,A,3353.7593,N,09832.0249,W,0.41,76.39,010412,,,D*41
$GPGGA,123810.000,3353.7593,N,09832.0242,W,2,06,1.6,318.8,M,-23.7,M,,0000*66
$GPGSA,A,3,15,05,29,26,25,02,,,,,,,2.3,1.6,1.6*38
$GPRMC,123810.000,A,3353.7593,N,09832.0242,W,0.55,79.60,010412,,,D*44
$GPGGA,123811.000,3353.7593,N,09832.0240,W,2,06,1.6,319.1,M,-23.7,M,,0000*6D
$GPGSA,A,3,15,05,29,26,25,02,,,,,,,2.3,1.6,1.6*38
$GPRMC,123811.000,A,3353.7593,N,09832.0240,W,0.50,86.23,010412,,,D*45
$GPGGA,123812.000,3353.7593,N,09832.0241,W,2,06,1.6,318.4,M,-23.7,M,1.8,0000*4C
$GPGSA,A,3,15,05,29,26,25,02,,,,,,,2.3,1.6,1.6*38
$GPRMC,123812.000,A,3353.7593,N,09832.0241,W,0.16,118.07,010412,,,D*75
$GPGGA,123813.000,3353.7592,N,09832.0240,W,2,06,1.6,318.6,M,-23.7,M,2.8,0000*4C
$GPGSA,A,3,15,05,29,26,25,02,,,,,,,2.3,1.6,1.6*38
$GPGSV,3,1,11,29,81,255,35,26,44,088,31,15,44,153,33,21,34,301,*7E
$GPGSV,3,2,11,18,32,241,20,05,31,045,38,25,16,215,18,02,11,094,26*7C
$GPGSV,3,3,11,30,10,302,,16,01,326,,51,49,195,37*4B
$GPRMC,123813.000,A,3353.7592,N,09832.0240,W,0.15,110.42,010412,,,D*7E
$GPGGA,123814.000,3353.7592,N,09832.0242,W,2,06,1.6,317.9,M,-23.7,M,3.8,0000*48
$GPGSA,A,3,15,05,29,26,25,02,,,,,,,2.3,1.6,1.6*38
$GPRMC,123814.000,A,3353.7592,N,09832.0242,W,0.09,183.53,010412,,,D*7C
$GPGGA,123815.000,3353.7592,N,09832.0242,W,2,06,1.6,318.0,M,-23.7,M,,0000*6A
$GPGSA,A,3,15,05,29,26,25,02,,,,,,,2.3,1.6,1.6*38
$GPRMC,123815.000,A,3353.7592,N,09832.0242,W,0.05,77.41,010412,,,D*48
$GPGGA,123816.000,3353.7592,N,09832.0240,W,2,06,1.6,318.3,M,-23.7,M,,0000*68
$GPGSA,A,3,15,05,29,26,25,02,,,,,,,2.3,1.6,1.6*38
$GPRMC,123816.000,A,3353.7592,N,09832.0240,W,0.07,353.82,010412,,,D*71
$GPGGA,123817.000,3353.7592,N,09832.0239,W,2,06,1.6,318.5,M,-23.7,M,,0000*61
$GPGSA,A,3,15,05,29,26,25,02,,,,,,,2.3,1.6,1.6*38
$GPRMC,123817.000,A,3353.7592,N,09832.0239,W,0.14,37.55,010412,,,D*47
$GPGGA,123818.000,3353.7592,N,09832.0236,W,2,06,1.6,319.3,M,-23.7,M,,0000*66
$GPGSA,A,3,15,05,29,26,25,02,,,,,,,2.3,1.6,1.6*38
$GPGSV,3,1,11,29,81,253,35,15,44,153,33,26,44,088,31,21,34,302,*7B
$GPGSV,3,2,11,18,32,241,18,05,31,045,38,25,16,215,20,02,10,094,26*7D
$GPGSV,3,3,11,30,10,302,,16,01,326,,51,49,195,37*4B
$GPRMC,123818.000,A,3353.7592,N,09832.0236,W,0.23,53.17,010412,,,D*47
$GPGGA,123819.000,3353.7592,N,09832.0235,W,2,06,1.6,319.5,M,-23.7,M,1.8,0000*45
$GPGSA,A,3,15,05,29,26,25,02,,,,,,,2.3,1.6,1.6*38
$GPRMC,123819.000,A,3353.7592,N,09832.0235,W,0.05,18.28,010412,,,D*42
$GPGGA,123820.000,3353.7593,N,09832.0235,W,2,06,1.6,319.6,M,-23.7,M,,0000*6A
$GPGSA,A,3,15,05,29,26,25,02,,,,,,,2.3,1.6,1.6*38
$GPRMC,123820.000,A,3353.7593,N,09832.0235,W,0.20,262.23,010412,,,D*7A
$GPGGA,123821.000,3353.7592,N,09832.0233,W,2,06,1.6,320.3,M,-23.7,M,,0000*63
$GPGSA,A,3,15,05,29,26,25,02,,,,,,,2.3,1.6,1.6*38
$GPRMC,123821.000,A,3353.7592,N,09832.0233,W,0.11,247.91,010412,,,D*70
$GPGGA,123822.000,3353.7592,N,09832.0229,W,2,06,1.6,321.2,M,-23.7,M,,0000*6B
$GPGSA,A,3,15,05,29,26,25,02,,,,,,,2.3,1.6,1.6*38
$GPRMC,123822.000,A,3353.7592,N,09832.0229,W,0.17,89.40,010412,,,D*42
$GPGGA,123823.000,3353.7592,N,09832.0228,W,2,06,1.6,321.4,M,-23.7,M,,0000*6D
$GPGSA,A,3,15,05,29,26,25,02,,,,,,,2.3,1.6,1.6*38
$GPGSV,3,1,11,29,81,253,35,15,44,153,33,26,44,087,31,21,34,302,*74
$GPGSV,3,2,11,18,32,241,17,05,31,045,38,25,16,215,21,02,10,094,26*73
$GPGSV,3,3,11,30,10,302,,16,01,326,,51,49,195,37*4B
$GPRMC,123823.000,A,3353.7592,N,09832.0228,W,0.08,198.91,010412,,,D*71
$GPGGA,123824.000,3353.7592,N,09832.0227,W,2,06,1.6,321.6,M,-23.7,M,,0000*67
$GPGSA,A,3,15,05,29,26,25,02,,,,,,,2.3,1.6,1.6*38
$GPRMC,123824.000,A,3353.7592,N,09832.0227,W,0.10,212.06,010412,,,D*7F
$GPGGA,123825.000,3353.7592,N,09832.0225,W,2,06,1.6,321.9,M,-23.7,M,1.8,0000*4C
$GPGSA,A,3,15,05,29,26,25,02,,,,,,,2.3,1.6,1.6*38
$GPRMC,123825.000,A,3353.7592,N,09832.0225,W,0.15,80.99,010412,,,D*46
$GPGGA,123826.000,3353.7591,N,09832.0223,W,2,06,1.6,322.3,M,-23.7,M,2.8,0000*40
$GPGSA,A,3,15,05,29,26,25,02,,,,,,,2.3,1.6,1.6*38
$GPRMC,123826.000,A,3353.7591,N,09832.0223,W,0.23,86.93,010412,,,D*49
$GPGGA,123827.000,3353.7592,N,09832.0221,W,2,06,1.6,322.8,M,-23.7,M,,0000*6F
$GPGSA,A,3,15,05,29,26,25,02,,,,,,,2.3,1.6,1.6*38
$GPRMC,123827.000,A,3353.7592,N,09832.0221,W,0.07,344.44,010412,,,D*78
$GPGGA,123828.000,3353.7592,N,09832.0219,W,2,06,1.6,323.4,M,-23.7,M,,0000*66
$GPGSA,A,3,15,05,29,26,25,02,,,,,,,2.3,1.6,1.6*38
$GPGSV,3,1,11,29,81,253,35,15,44,153,33,26,44,087,32,21,34,302,*77
$GPGSV,3,2,11,18,32,241,,05,31,045,38,25,16,215,22,02,10,094,26*76
$GPGSV,3,3,11,30,10,302,,16,01,326,,51,49,195,37*4B
$GPRMC,123828.000,A,3353.7592,N,09832.0219,W,0.15,47.40,010412,,,D*4B
$GPGGA,123829.000,3353.7592,N,09832.0218,W,2,06,1.6,323.8,M,-23.7,M,,0000*6A
$GPGSA,A,3,15,05,29,26,25,02,,,,,,,2.3,1.6,1.6*38
$GPRMC,123829.000,A,3353.7592,N,09832.0218,W,0.08,235.64,010412,,,D*76
$GPGGA,123830.000,3353.7592,N,09832.0215,W,2,06,1.6,324.7,M,-23.7,M,1.8,0000*40
$GPGSA,A,3,15,05,29,26,25,02,,,,,,,2.3,1.6,1.6*38
$GPRMC,123830.000,A,3353.7592,N,09832.0215,W,0.22,95.42,010412,,,D*47
$GPGGA,123831.000,3353.7592,N,09832.0214,W,2,06,1.6,325.2,M,-23.7,M,2.8,0000*47
$GPGSA,A,3,15,05,29,26,25,02,,,,,,,2.3,1.6,1.6*38
$GPRMC,123831.000,A,3353.7592,N,09832.0214,W,0.13,189.74,010412,,,D*7C
$GPGGA,123832.000,3353.7592,N,09832.0212,W,2,06,1.6,325.9,M,-23.7,M,3.8,0000*48
$GPGSA,A,3,15,05,29,26,25,02,,,,,,,2.3,1.6,1.6*38
$GPRMC,123832.000,A,3353.7592,N,09832.0212,W,0.13,275.99,010412,,,D*7A
$GPGGA,123833.000,3353.7592,N,09832.0209,W,2,06,1.6,326.7,M,-23.7,M,,0000*6B
$GPGSA,A,3,15,05,29,26,25,02,,,,,,,2.3,1.6,1.6*38
$GPGSV,3,1,11,29,81,253,35,15,44,153,34,26,44,087,31,21,34,302,*73
$GPGSV,3,2,11,18,32,241,,05,31,045,38,25,16,215,23,02,10,094,26*77
$GPGSV,3,3,11,30,10,302,,16,01,326,,51,49,195,37*4B
$GPRMC,123833.000,A,3353.7592,N,09832.0209,W,0.28,48.95,010412,,,D*49
$GPGGA,123834.000,3353.7592,N,09832.0205,W,2,06,1.6,327.9,M,-23.7,M,,0000*6F
$GPGSA,A,3,15,05,29,26,25,02,,,,,,,2.3,1.6,1.6*38
$GPRMC,123834.000,A,3353.7592,N,09832.0205,W,0.36,91.77,010412,,,D*45
$GPGGA,123835.000,3353.7591,N,09832.0203,W,2,06,1.6,328.2,M,-23.7,M,,0000*6F
$GPGSA,A,3,15,05,29,26,25,02,,,,,,,2.3,1.6,1.6*38
$GPRMC,123835.000,A,3353.7591,N,09832.0203,W,0.23,144.99,010412,,,D*7C
$GPGGA,123836.000,3353.7590,N,09832.0203,W,2,06,1.6,328.5,M,-23.7,M,1.8,0000*4D
$GPGSA,A,3,15,05,29,26,25,02,,,,,,,2.3,1.6,1.6*38
$GPRMC,123836.000,A,3353.7590,N,09832.0203,W,0.28,180.42,010412,,,D*7B
$GPGGA,123837.000,3353.7589,N,09832.0202,W,2,06,1.6,328.7,M,-23.7,M,,0000*60
$GPGSA,A,3,15,05,29,26,25,02,,,,,,,2.3,1.6,1.6*38
$GPRMC,123837.000,A,3353.7589,N,09832.0202,W,0.09,235.62,010412,,,D*7F
$GPGGA,123838.000,3353.7589,N,09832.0199,W,2,06,1.6,329.6,M,-23.7,M,1.8,0000*49
$GPGSA,A,3,15,05,29,26,25,02,,,,,,,2.3,1.6,1.6*38
$GPGSV,3,1,11,29,81,253,35,15,44,153,34,26,44,087,32,21,34,302,*70
$GPGSV,3,2,11,18,32,241,,05,31,045,39,25,16,215,22,02,10,094,26*77
$GPGSV,3,3,11,30,10,302,,16,01,326,,51,49,195,37*4B
$GPRMC,123838.000,A,3353.7589,N,09832.0199,W,0.32,73.24,010412,,,D*4B
$GPGGA,123839.000,3353.7589,N,09832.0196,W,2,06,1.6,330.5,M,-23.7,M,,0000*6B
$GPGSA,A,3,15,05,29,26,25,02,,,,,,,2.3,1.6,1.6*38
$GPRMC,123839.000,A,3353.7589,N,09832.0196,W,0.32,70.62,010412,,,D*44
$GPGGA,123840.000,3353.7589,N,09832.0192,W,2,06,1.6,331.5,M,-23.7,M,,0000*60
$GPGSA,A,3,15,05,29,26,25,02,,,,,,,2.3,1.6,1.6*38
$GPRMC,123840.000,A,3353.7589,N,09832.0192,W,0.15,49.25,010412,,,D*42
$GPGGA,123841.000,3353.7589,N,09832.0189,W,2,06,1.6,332.6,M,-23.7,M,,0000*6B
$GPGSA,A,3,15,05,29,26,25,02,,,,,,,2.3,1.6,1.6*38
$GPRMC,123841.000,A,3353.7589,N,09832.0189,W,0.07,163.26,010412,,,D*70
$GPGGA,123842.000,3353.7589,N,09832.0186,W,2,06,1.6,333.6,M,-23.7,M,1.8,0000*41
$GPGSA,A,3,15,05,29,26,25,02,,,,,,,2.3,1.6,1.6*38
$GPRMC,123842.000,A,3353.7589,N,09832.0186,W,0.46,77.09,010412,,,D*40
$GPGGA,123843.000,3353.7589,N,09832.0183,W,2,06,1.6,334.3,M,-23.7,M,,0000*60
$GPGSA,A,3,15,05,29,26,25,02,,,,,,,2.3,1.6,1.6*38
$GPGSV,3,1,11,29,81,253,35,15,44,153,34,26,44,087,32,21,34,302,*70
$GPGSV,3,2,11,18,32,241,,05,31,045,39,25,16,215,22,02,10,094,27*76
$GPGSV,3,3,11,30,10,302,,16,01,326,,51,49,195,37*4B
$GPRMC,123843.000,A,3353.7589,N,09832.0183,W,0.35,82.35,010412,,,D*45
$GPGGA,123844.000,3353.7589,N,09832.0181,W,2,06,1.6,335.1,M,-23.7,M,1.8,0000*41
$GPGSA,A,3,15,05,29,26,25,02,,,,,,,2.3,1.6,1.6*38
$GPRMC,123844.000,A,3353.7589,N,09832.0181,W,0.19,96.68,010412,,,D*43
$GPGGA,123845.000,3353.7588,N,09832.0179,W,2,06,1.6,335.7,M,-23.7,M,,0000*67
$GPGSA,A,3,15,05,29,26,25,02,,,,,,,2.3,1.6,1.6*38
$GPRMC,123845.000,A,3353.7588,N,09832.0179,W,0.27,105.83,010412,,,D*77
$GPGGA,123846.000,3353.7588,N,09832.0180,W,2,06,1.6,335.5,M,-23.7,M,,0000*60
$GPGSA,A,3,15,05,29,26,25,02,,,,,,,2.3,1.6,1.6*38
$GPRMC,123846.000,A,3353.7588,N,09832.0180,W,0.17,113.07,010412,,,D*7A
$GPGGA,123847.000,3353.7587,N,09832.0180,W,2,06,1.6,335.5,M,-23.7,M,,0000*6E
$GPGSA,A,3,15,05,29,26,25,02,,,,,,,2.3,1.6,1.6*38
$GPRMC,123847.000,A,3353.7587,N,09832.0180,W,0.09,127.83,010412,,,D*70
$GPGGA,123848.000,3353.7587,N,09832.0178,W,2,06,1.6,336.0,M,-23.7,M,,0000*60
$GPGSA,A,3,15,05,29,26,25,02,,,,,,,2.3,1.6,1.6*38
$GPGSV,3,1,11,29,81,251,35,15,45,153,34,26,44,087,32,21,34,302,21*70
$GPGSV,3,2,11,18,32,242,,05,31,045,39,25,15,215,22,02,10,094,27*76
$GPGSV,3,3,11,30,10,302,,16,01,326,,51,49,195,37*4B
$GPRMC,123848.000,A,3353.7587,N,09832.0178,W,0.36,73.09,010412,,,D*46
$GPGGA,123849.000,3353.7587,N,09832.0176,W,2,06,1.6,336.6,M,-23.7,M,,0000*69
$GPGSA,A,3,15,05,29,26,25,02,,,,,,,2.3,1.6,1.6*38
$GPRMC,123849.000,A,3353.7587,N,09832.0176,W,0.31,79.69,010412,,,D*42
$GPGGA,123850.000,3353.7587,N,09832.0172,W,2,06,1.6,337.5,M,-23.7,M,,0000*67
$GPGSA,A,3,15,05,29,26,25,02,,,,,,,2.3,1.6,1.6*38
$GPRMC,123850.000,A,3353.7587,N,09832.0172,W,0.27,85.71,010412,,,D*43
$GPGGA,123851.000,3353.7587,N,09832.0170,W,2,06,1.6,338.1,M,-23.7,M,,0000*6F
$GPGSA,A,3,15,05,29,26,25,02,,,,,,,2.3,1.6,1.6*38
$GPRMC,123851.000,A,3353.7587,N,09832.0170,W,0.14,71.64,010412,,,D*4F
$GPGGA,123852.000,3353.7587,N,09832.0170,W,2,06,1.6,338.4,M,-23.7,M,,0000*69
$GPGSA,A,3,15,05,29,26,25,02,,,,,,,2.3,1.6,1.6*38
$GPRMC,123852.000,A,3353.7587,N,09832.0170,W,0.07,16.56,010412,,,D*4E
$GPGGA,123853.000,3353.7587,N,09832.0170,W,2,06,1.6,338.6,M,-23.7,M,,0000*6A
$GPGSA,A,3,15,05,29,26,25,02,,,,,,,2.3,1.6,1.6*38
$GPGSV,3,1,11,29,81,251,35,15,45,153,34,26,44,087,33,21,34,302,22*72
$GPGSV,3,2,11,18,32,242,,05,31,045,39,25,15,215,22,02,10,094,27*76
$GPGSV,3,3,11,30,10,302,,16,01,326,,51,49,195,37*4B
$GPRMC,123853.000,A,3353.7587,N,09832.0170,W,0.05,243.24,010412,,,D*7A
$GPGGA,123854.000,3353.7587,N,09832.0171,W,2,06,1.6,338.5,M,-23.7,M,1.8,0000*48
$GPGSA,A,3,15,05,29,26,25,02,,,,,,,2.3,1.6,1.6*38
$GPRMC,123854.000,A,3353.7587,N,09832.0171,W,0.06,242.97,010412,,,D*76
$GPGGA,123855.000,3353.7587,N,09832.0172,W,2,06,1.6,338.6,M,-23.7,M,2.8,0000*4A
$GPGSA,A,3,15,05,29,26,25,02,,,,,,,2.3,1.6,1.6*38
$GPRMC,123855.000,A,3353.7587,N,09832.0172,W,0.17,49.30,010412,,,D*40
$GPGGA,123856.000,3353.7587,N,09832.0174,W,2,06,1.6,338.0,M,-23.7,M,3.8,0000*48
$GPGSA,A,3,15,05,29,26,25,02,,,,,,,2.3,1.6,1.6*38
$GPRMC,123856.000,A,3353.7587,N,09832.0174,W,0.09,263.80,010412,,,D*7B
$GPGGA,123857.000,3353.7587,N,09832.0176,W,2,06,1.6,337.5,M,-23.7,M,,0000*64
$GPGSA,A,3,15,05,29,26,25,02,,,,,,,2.3,1.6,1.6*38
$GPRMC,123857.000,A,3353.7587,N,09832.0176,W,0.05,260.60,010412,,,D*79
$GPGGA,123858.000,3353.7586,N,09832.0178,W,2,06,1.6,337.1,M,-23.7,M,,0000*60
$GPGSA,A,3,15,05,29,26,25,02,,,,,,,2.3,1.6,1.6*38
$GPGSV,3,1,11,29,81,251,35,15,45,153,33,26,44,087,33,21,34,302,22*75
$GPGSV,3,2,11,18,32,242,,05,31,045,39,25,15,215,23,02,10,094,26*76
$GPGSV,3,3,11,30,10,302,,16,01,326,,51,49,195,37*4B
$GPRMC,123858.000,A,3353.7586,N,09832.0178,W,0.04,199.93,010412,,,D*71
$GPGGA,123859.000,3353.7586,N,09832.0180,W,2,06,1.6,336.6,M,-23.7,M,,0000*60
$GPGSA,A,3,15,05,29,26,25,02,,,,,,,2.3,1.6,1.6*38
$GPRMC,123859.000,A,3353.7586,N,09832.0180,W,0.17,264.59,010412,,,D*72
$GPGGA,123900.000,3353.7586,N,09832.0179,W,2,06,1.6,336.6,M,-23.7,M,1.8,0000*4C
$GPGSA,A,3,15,05,29,26,25,02,,,,,,,2.3,1.6,1.6*38
$GPRMC,123900.000,A,3353.7586,N,09832.0179,W,0.13,51.57,010412,,,D*47
$GPGGA,123901.000,3353.7586,N,09832.0179,W,2,06,1.6,336.2,M,-23.7,M,2.8,0000*4A
$GPGSA,A,3,15,05,29,26,25,02,,,,,,,2.3,1.6,1.6*38
$GPRMC,123901.000,A,3353.7586,N,09832.0179,W,0.05,298.85,010412,,,D*79
$GPGGA,123902.000,3353.7586,N,09832.0181,W,2,06,1.6,335.6,M,-23.7,M,3.8,0000*48
$GPGSA,A,3,15,05,29,26,25,02,,,,,,,2.3,1.6,1.6*38
$GPRMC,123902.000,A,3353.7586,N,09832.0181,W,0.07,320.49,010412,,,D*7D
$GPGGA,123903.000,3353.7585,N,09832.0181,W,2,06,1.6,335.0,M,-23.7,M,,0000*69
$GPGSA,A,3,15,05,29,26,25,02,,,,,,,2.3,1.6,1.6*38
$GPGSV,3,1,11,29,81,251,35,15,45,153,33,26,44,087,34,21,34,302,22*72
$GPGSV,3,2,11,18,32,242,,05,31,045,39,25,15,215,23,02,10,094,25*75
$GPGSV,3,3,11,30,10,302,,16,01,326,,51,49,195,37*4B
$GPRMC,123903.000,A,3353.7585,N,09832.0181,W,0.16,87.79,010412,,,D*42
$GPGGA,123904.000,3353.7586,N,09832.0181,W,2,06,1.6,334.6,M,-23.7,M,,0000*6A
$GPGSA,A,3,15,05,29,26,25,02,,,,,,,2.3,1.6,1.6*38
$GPRMC,123904.000,A,3353.7586,N,09832.0181,W,0.19,16.76,010412,,,D*4E
$GPGGA,123905.000,3353.7586,N,09832.0181,W,2,06,1.6,334.4,M,-23.7,M,,0000*69
$GPGSA,A,3,15,05,29,26,25,02,,,,,,,2.3,1.6,1.6*38
$GPRMC,123905.000,A,3353.7586,N,09832.0181,W,0.14,28.34,010412,,,D*49
$GPGGA,123906.000,3353.7586,N,09832.0181,W,2,06,1.6,334.4,M,-23.7,M,1.8,0000*4D
$GPGSA,A,3,15,05,29,26,25,02,,,,,,,2.3,1.6,1.6*38
$GPRMC,123906.000,A,3353.7586,N,09832.0181,W,0.06,300.31,010412,,,D*75
$GPGGA,123907.000,3353.7586,N,09832.0182,W,2,06,1.6,334.1,M,-23.7,M,2.8,0000*49
$GPGSA,A,3,15,05,29,26,25,02,,,,,,,2.3,1.6,1.6*38
$GPRMC,123907.000,A,3353.7586,N,09832.0182,W,0.14,279.60,010412,,,D*7F
$GPGGA,123908.000,3353.7586,N,09832.0182,W,2,06,1.6,334.1,M,-23.7,M,,0000*62
$GPGSA,A,3,15,05,29,26,25,02,,,,,,,2.3,1.6,1.6*38
$GPGSV,3,1,11,29,81,251,35,15,45,153,33,26,44,087,34,21,34,302,23*73
$GPGSV,3,2,11,18,32,242,,05,31,045,39,25,15,215,25,02,10,094,25*73
$GPGSV,3,3,11,30,10,302,,16,01,326,,51,49,195,37*4B
$GPRMC,123908.000,A,3353.7586,N,09832.0182,W,0.10,293.90,010412,,,D*7F
$GPGGA,123909.000,3353.7586,N,09832.0183,W,2,06,1.6,334.1,M,-23.7,M,,0000*62
$GPGSA,A,3,15,05,29,26,25,02,,,,,,,2.3,1.6,1.6*38
$GPRMC,123909.000,A,3353.7586,N,09832.0183,W,0.04,228.26,010412,,,D*77
$GPGGA,123910.000,3353.7586,N,09832.0184,W,2,06,1.6,334.1,M,-23.7,M,,0000*6D
$GPGSA,A,3,15,05,29,26,25,02,,,,,,,2.3,1.6,1.6*38
$GPRMC,123910.000,A,3353.7586,N,09832.0184,W,0.05,246.58,010412,,,D*78
$GPGGA,123911.000,3353.7586,N,09832.0185,W,2,06,1.6,334.1,M,-23.7,M,,0000*6D
$GPGSA,A,3,15,05,29,26,25,02,,,,,,,2.3,1.6,1.6*38
$GPRMC,123911.000,A,3353.7586,N,09832.0185,W,0.03,16.98,010412,,,D*45
$GPGGA,123912.000,3353.7586,N,09832.0185,W,2,06,1.6,334.1,M,-23.7,M,1.8,0000*49
$GPGSA,A,3,15,05,29,26,25,02,,,,,,,2.3,1.6,1.6*38
$GPRMC,123912.000,A,3353.7586,N,09832.0185,W,0.03,350.03,010412,,,D*75
$GPGGA,123913.000,3353.7587,N,09832.0186,W,2,06,1.6,334.0,M,-23.7,M,2.8,0000*48
$GPGSA,A,3,15,05,29,26,25,02,,,,,,,2.3,1.6,1.6*38
$GPGSV,3,1,11,29,81,251,35,15,45,153,34,26,44,087,34,21,34,302,23*74
$GPGSV,3,2,11,18,32,242,17,05,31,045,39,25,15,215,25,02,10,094,25*75
$GPGSV,3,3,11,30,10,302,,16,01,326,,51,49,195,37*4B
$GPRMC,123913.000,A,3353.7587,N,09832.0186,W,0.08,328.86,010412,,,D*7F
$GPGGA,123914.000,3353.7587,N,09832.0187,W,2,06,1.6,334.0,M,-23.7,M,3.8,0000*4F
$GPGSA,A,3,15,05,29,26,25,02,,,,,,,2.3,1.6,1.6*38
$GPRMC,123914.000,A,3353.7587,N,09832.0187,W,0.07,323.72,010412,,,D*76
$GPGGA,123915.000,3353.7587,N,09832.0188,W,2,06,1.6,333.9,M,-23.7,M,,0000*6A
$GPGSA,A,3,15,05,29,26,25,02,,,,,,,2.3,1.6,1.6*38
$GPRMC,123915.000,A,3353.7587,N,09832.0188,W,0.11,337.23,010412,,,D*7E
$GPGGA,123916.000,3353.7588,N,09832.0189,W,2,06,1.6,333.8,M,-23.7,M,,0000*66
$GPGSA,A,3,15,05,29,26,25,02,,,,,,,2.3,1.6,1.6*38
$GPRMC,123916.000,A,3353.7588,N,09832.0189,W,0.20,326.00,010412,,,D*70
$GPGGA,123917.000,3353.7589,N,09832.0190,W,2,06,1.6,333.8,M,-23.7,M,,0000*6E
$GPGSA,A,3,15,05,29,26,25,02,,,,,,,2.3,1.6,1.6*38
$GPRMC,123917.000,A,3353.7589,N,09832.0190,W,0.15,295.35,010412,,,D*71
$GPGGA,123918.000,3353.7589,N,09832.0191,W,2,06,1.6,333.9,M,-23.7,M,1.8,0000*46
$GPGSA,A,3,15,05,29,26,25,02,,,,,,,2.3,1.6,1.6*38
$GPGSV,3,1,11,29,81,251,35,15,45,153,34,26,44,087,35,21,34,302,23*75
$GPGSV,3,2,11,18,32,242,18,05,31,045,39,25,15,215,25,02,10,094,25*7A
$GPGSV,3,3,11,30,10,302,,16,01,326,,51,49,195,37*4B
$GPRMC,123918.000,A,3353.7589,N,09832.0191,W,0.12,303.51,010412,,,D*74
$GPGGA,123919.000,3353.7589,N,09832.0191,W,2,06,1.6,333.8,M,-23.7,M,2.8,0000*45
$GPGSA,A,3,15,05,29,26,25,02,,,,,,,2.3,1.6,1.6*38
$GPRMC,123919.000,A,3353.7589,N,09832.0191,W,0.11,291.32,010412,,,D*79
$GPGGA,123920.000,3353.7589,N,09832.0192,W,2,06,1.6,333.7,M,-23.7,M,3.8,0000*42
$GPGSA,A,3,15,05,29,26,25,02,,,,,,,2.3,1.6,1.6*38
$GPRMC,123920.000,A,3353.7589,N,09832.0192,W,0.09,307.70,010412,,,D*71
$GPGGA,123921.000,3353.7589,N,09832.0192,W,2,06,1.6,333.7,M,-23.7,M,,0000*66
$GPGSA,A,3,15,05,29,26,25,02,,,,,,,2.3,1.6,1.6*38
$GPRMC,123921.000,A,3353.7589,N,09832.0192,W,0.06,240.83,010412,,,D*71
$GPGGA,123922.000,3353.7589,N,09832.0192,W,2,06,1.6,333.6,M,-23.7,M,,0000*64
$GPGSA,A,3,15,05,29,26,25,02,,,,,,,2.3,1.6,1.6*38
$GPRMC,123922.000,A,3353.7589,N,09832.0192,W,0.04,166.31,010412,,,D*7E
$GPGGA,123923.000,3353.7589,N,09832.0193,W,2,06,1.6,333.3,M,-23.7,M,,0000*61
$GPGSA,A,3,15,05,29,26,25,02,,,,,,,2.3,1.6,1.6*38
$GPGSV,3,1,11,29,81,251,35,15,45,153,35,26,44,087,34,21,34,302,24*72
$GPGSV,3,2,11,18,32,242,19,05,31,045,39,25,15,215,25,02,10,094,26*78
$GPGSV,3,3,11,30,10,302,,16,01,326,,51,49,195,37*4B
$GPRMC,123923.000,A,3353.7589,N,09832.0193,W,0.03,340.06,010412,,,D*7B
$GPGGA,123924.000,3353.7589,N,09832.0192,W,2,06,1.6,333.4,M,-23.7,M,,0000*60
$GPGSA,A,3,15,05,29,26,25,02,,,,,,,2.3,1.6,1.6*38
$GPRMC,123924.000,A,3353.7589,N,09832.0192,W,0.17,54.74,010412,,,D*4B
$GPGGA,123925.000,3353.7589,N,09832.0192,W,2,06,1.6,333.3,M,-23.7,M,,0000*66
$GPGSA,A,3,15,05,29,26,25,02,,,,,,,2.3,1.6,1.6*38
$GPRMC,123925.000,A,3353.7589,N,09832.0192,W,0.14,63.63,010412,,,D*4B
$GPGGA,123926.000,3353.7589,N,09832.0191,W,2,06,1.6,333.5,M,-23.7,M,1.8,0000*47
$GPGSA,A,3,15,05,29,26,25,02,,,,,,,2.3,1.6,1.6*38
$GPRMC,123926.000,A,3353.7589,N,09832.0191,W,0.02,33.47,010412,,,D*4F
$GPGGA,123927.000,3353.7590,N,09832.0191,W,2,06,1.6,333.4,M,-23.7,M,,0000*68
$GPGSA,A,3,15,05,29,26,25,02,,,,,,,2.3,1.6,1.6*38
$GPRMC,123927.000,A,3353.7590,N,09832.0191,W,0.10,346.26,010412,,,D*73
$GPGGA,123928.000,3353.7590,N,09832.0191,W,2,06,1.6,333.6,M,-23.7,M,,0000*65
$GPGSA,A,3,15,05,29,26,25,02,,,,,,,2.3,1.6,1.6*38
$GPGSV,3,1,11,29,81,251,36,15,45,153,35,26,44,087,34,21,34,302,25*70
$GPGSV,3,2,11,18,32,242,19,05,31,045,39,25,15,215,19,02,10,094,26*77
$GPGSV,3,3,11,30,10,302,,16,01,326,,51,49,195,37*4B
$GPRMC,123928.000,A,3353.7590,N,09832.0191,W,0.22,284.55,010412,,,D*76
$GPGGA,123929.000,3353.7590,N,09832.0190,W,2,06,1.6,334.1,M,-23.7,M,,0000*65
$GPGSA,A,3,15,05,29,26,25,02,,,,,,,2.3,1.6,1.6*38
$GPRMC,123929.000,A,3353.7590,N,09832.0190,W,0.29,262.58,010412,,,D*78
$GPGGA,123930.000,3353.7591,N,09832.0189,W,2,06,1.6,334.6,M,-23.7,M,1.8,0000*44
$GPGSA,A,3,15,05,29,26,25,02,,,,,,,2.3,1.6,1.6*38
$GPRMC,123930.000,A,3353.7591,N,09832.0189,W,0.23,263.46,010412,,,D*7D
$GPGGA,123931.000,3353.7591,N,09832.0190,W,2,05,2.9,334.4,M,-23.7,M,,0000*67
$GPGSA,A,3,15,05,29,26,02,,,,,,,,4.9,2.9,3.9*32
$GPRMC,123931.000,A,3353.7591,N,09832.0190,W,0.13,353.97,010412,,,D*79
$GPGGA,123932.000,3353.7591,N,09832.0190,W,2,05,2.9,334.4,M,-23.7,M,1.8,0000*43
$GPGSA,A,3,15,05,29,26,02,,,,,,,,4.9,2.9,3.9*32
$GPRMC,123932.000,A,3353.7591,N,09832.0190,W,0.15,28.02,010412,,,D*4F
$GPGGA,123933.000,3353.7591,N,09832.0190,W,2,05,2.9,334.4,M,-23.7,M,,0000*65
$GPGSA,A,3,15,05,29,26,02,,,,,,,,4.9,2.9,3.9*32
$GPGSV,3,1,11,29,81,251,36,15,45,153,35,26,44,087,33,21,34,302,25*77
$GPGSV,3,2,11,18,32,242,,05,31,045,40,25,15,215,17,02,10,094,26*7F
$GPGSV,3,3,11,30,10,302,,16,01,326,,51,49,195,37*4B
$GPRMC,123933.000,A,3353.7591,N,09832.0190,W,0.21,77.61,010412,,,D*46
$GPGGA,123934.000,3353.7591,N,09832.0188,W,2,06,1.6,334.9,M,-23.7,M,,0000*69
$GPGSA,A,3,15,05,29,26,25,02,,,,,,,2.3,1.6,1.6*38
$GPRMC,123934.000,A,3353.7591,N,09832.0188,W,0.31,80.45,010412,,,D*47
$GPGGA,123935.000,3353.7591,N,09832.0185,W,2,06,1.6,335.4,M,-23.7,M,,0000*69
$GPGSA,A,3,15,05,29,26,25,02,,,,,,,2.2,1.6,1.6*39
$GPRMC,123935.000,A,3353.7591,N,09832.0185,W,0.40,80.23,010412,,,D*4D
$GPGGA,123936.000,3353.7591,N,09832.0185,W,2,05,2.9,335.4,M,-23.7,M,1.8,0000*42
$GPGSA,A,3,15,05,29,26,02,,,,,,,,4.9,2.9,3.9*32
$GPRMC,123936.000,A,3353.7591,N,09832.0185,W,0.38,77.55,010412,,,D*48
$GPGGA,123937.000,3353.7591,N,09832.0184,W,2,05,2.9,335.2,M,-23.7,M,,0000*63
$GPGSA,A,3,15,05,29,26,02,,,,,,,,4.9,2.9,3.9*32
$GPRMC,123937.000,A,3353.7591,N,09832.0184,W,0.47,81.14,010412,,,D*4C
$GPGGA,123938.000,3353.7591,N,09832.0185,W,2,05,2.9,334.8,M,-23.7,M,1.8,0000*41
$GPGSA,A,3,15,05,29,26,02,,,,,,,,4.9,2.9,3.9*32
$GPGSV,3,1,11,29,81,251,36,15,45,153,35,26,44,087,33,21,34,302,26*74
$GPGSV,3,2,11,18,32,242,,05,31,045,40,25,15,215,,02,10,094,25*7A
$GPGSV,3,3,11,30,10,302,,16,01,326,,51,49,195,43*48
$GPRMC,123938.000,A,3353.7591,N,09832.0185,W,0.21,81.42,010412,,,D*41
$GPGGA,123939.000,3353.7591,N,09832.0187,W,2,05,2.9,334.3,M,-23.7,M,,0000*6E
$GPGSA,A,3,15,05,29,26,02,,,,,,,,4.9,2.9,3.9*32
$GPRMC,123939.000,A,3353.7591,N,09832.0187,W,0.14,42.86,010412,,,D*43
$GPGGA,123940.000,3353.7591,N,09832.0189,W,2,05,2.9,333.8,M,-23.7,M,,0000*62
$GPGSA,A,3,15,05,29,26,02,,,,,,,,4.9,2.9,3.9*32
$GPRMC,123940.000,A,3353.7591,N,09832.0189,W,0.11,358.71,010412,,,D*76
$GPGGA,123941.000,3353.7591,N,09832.0192,W,2,05,2.9,333.3,M,-23.7,M,,0000*62
$GPGSA,A,3,15,05,29,26,02,,,,,,,,4.9,2.9,3.9*32
$GPRMC,123941.000,A,3353.7591,N,09832.0192,W,0.13,278.80,010412,,,D*72
$GPGGA,123942.000,3353.7591,N,09832.0195,W,2,05,2.9,332.7,M,-23.7,M,,0000*63
$GPGSA,A,3,15,05,29,26,02,,,,,,,,4.9,2.9,3.9*32
$GPRMC,123942.000,A,3353.7591,N,09832.0195,W,0.21,281.63,010412,,,D*7C
$GPGGA,123943.000,3353.7591,N,09832.0198,W,2,05,2.9,332.1,M,-23.7,M,1.8,0000*4E
$GPGSA,A,3,15,05,29,26,02,,,,,,,,4.9,2.9,3.9*32
$GPGSV,3,1,11,29,81,251,36,15,45,153,36,26,44,087,33,21,34,302,26*77
$GPGSV,3,2,11,18,32,242,,05,31,045,41,25,15,215,,02,10,094,25*7B
$GPGSV,3,3,11,30,10,302,,16,01,326,,51,49,195,37*4B
$GPRMC,123943.000,A,3353.7591,N,09832.0198,W,0.25,277.84,010412,,,D*74
$GPGGA,123944.000,3353.7591,N,09832.0201,W,2,05,2.9,331.6,M,-23.7,M,2.8,0000*4D
$GPGSA,A,3,15,05,29,26,02,,,,,,,,4.9,2.9,3.9*32
$GPRMC,123944.000,A,3353.7591,N,09832.0201,W,0.30,275.44,010412,,,D*7A
$GPGGA,123945.000,3353.7591,N,09832.0204,W,2,05,2.9,331.1,M,-23.7,M,,0000*6A
$GPGSA,A,3,15,05,29,26,02,,,,,,,,4.9,2.9,3.9*32
$GPRMC,123945.000,A,3353.7591,N,09832.0204,W,0.27,259.42,010412,,,D*70
$GPGGA,123946.000,3353.7591,N,09832.0207,W,2,06,1.6,330.4,M,-23.7,M,,0000*61
$GPGSA,A,3,15,05,29,26,25,02,,,,,,,2.2,1.6,1.6*39
$GPRMC,123946.000,A,3353.7591,N,09832.0207,W,0.23,258.69,010412,,,D*7C
$GPGGA,123947.000,3353.7591,N,09832.0211,W,2,06,1.6,329.5,M,-23.7,M,,0000*6E
$GPGSA,A,3,15,05,29,26,25,02,,,,,,,2.2,1.6,1.6*39
$GPRMC,123947.000,A,3353.7591,N,09832.0211,W,0.43,268.62,010412,,,D*74
$GPGGA,123948.000,3353.7590,N,09832.0217,W,2,06,1.6,328.0,M,-23.7,M,1.8,0000*45
$GPGSA,A,3,15,05,29,26,25,02,,,,,,,2.2,1.6,1.6*39
$GPGSV,3,1,11,29,81,251,36,15,45,153,35,26,44,087,33,21,34,302,26*74
$GPGSV,3,2,11,18,32,242,,05,31,045,41,25,15,215,20,02,10,094,26*7A
$GPGSV,3,3,11,30,10,302,,16,01,326,,51,49,195,37*4B
$GPRMC,123948.000,A,3353.7590,N,09832.0217,W,0.27,279.01,010412,,,D*7B
$GPGGA,123949.000,3353.7590,N,09832.0218,W,2,06,1.6,327.8,M,-23.7,M,2.8,0000*4F
$GPGSA,A,3,15,05,29,26,25,02,,,,,,,2.2,1.6,1.6*39
$GPRMC,123949.000,A,3353.7590,N,09832.0218,W,0.16,294.86,010412,,,D*7B
$GPGGA,123950.000,3353.7590,N,09832.0221,W,2,06,1.6,327.2,M,-23.7,M,3.8,0000*46
$GPGSA,A,3,15,05,29,26,25,02,,,,,,,2.2,1.6,1.6*39
$GPRMC,123950.000,A,3353.7590,N,09832.0221,W,0.46,268.78,010412,,,D*7E
$GPGGA,123951.000,3353.7590,N,09832.0224,W,2,06,1.6,326.5,M,-23.7,M,,0000*61
$GPGSA,A,3,15,05,29,26,25,02,,,,,,,2.2,1.6,1.6*39
$GPRMC,123951.000,A,3353.7590,N,09832.0224,W,0.58,275.59,010412,,,D*7A
$GPGGA,123952.000,3353.7590,N,09832.0228,W,2,06,1.6,325.7,M,-23.7,M,,0000*6F
$GPGSA,A,3,15,05,29,26,25,02,,,,,,,2.2,1.6,1.6*39
$GPRMC,123952.000,A,3353.7590,N,09832.0228,W,0.51,282.44,010412,,,D*78
$GPGGA,123953.000,3353.7591,N,09832.0230,W,2,06,1.6,325.5,M,-23.7,M,,0000*64
$GPGSA,A,3,15,05,29,26,25,02,,,,,,,2.2,1.6,1.6*39
$GPGSV,3,1,11,29,81,251,35,15,45,153,35,26,44,087,34,21,34,302,26*70
$GPGSV,3,2,11,18,32,242,,05,31,045,41,25,15,215,21,02,10,094,25*78
$GPGSV,3,3,11,30,10,302,,16,01,326,,51,49,195,37*4B
$GPRMC,123953.000,A,3353.7591,N,09832.0230,W,0.68,273.33,010412,,,D*75
$GPGGA,123954.000,3353.7591,N,09832.0233,W,2,06,1.6,324.9,M,-23.7,M,1.8,0000*4A
$GPGSA,A,3,15,05,29,26,25,02,,,,,,,2.2,1.6,1.6*39
$GPRMC,123954.000,A,3353.7591,N,09832.0233,W,0.44,278.58,010412,,,D*79
$GPGGA,123955.000,3353.7591,N,09832.0235,W,2,06,1.6,324.6,M,-23.7,M,2.8,0000*41
$GPGSA,A,3,15,05,29,26,25,02,,,,,,,2.2,1.6,1.6*39
$GPRMC,123955.000,A,3353.7591,N,09832.0235,W,0.35,284.88,010412,,,D*76
$GPGGA,123956.000,3353.7591,N,09832.0239,W,2,06,1.6,323.5,M,-23.7,M,3.8,0000*4B
$GPGSA,A,3,15,05,29,26,25,02,,,,,,,2.2,1.6,1.6*39
$GPRMC,123956.000,A,3353.7591,N,09832.0239,W,0.55,275.91,010412,,,D*79
$GPGGA,123957.000,3353.7591,N,09832.0242,W,2,06,1.6,323.0,M,-23.7,M,,0000*66
$GPGSA,A,3,15,05,29,26,25,02,,,,,,,2.2,1.6,1.6*39
$GPRMC,123957.000,A,3353.7591,N,09832.0242,W,0.25,266.45,010412,,,D*78
$GPGGA,123958.000,3353.7590,N,09832.0244,W,2,06,1.6,322.4,M,-23.7,M,,0000*6B
$GPGSA,A,3,15,05,29,26,25,02,,,,,,,2.2,1.6,1.6*39
$GPGSV,3,1,11,29,81,251,35,15,45,153,35,26,44,087,34,21,34,302,25*73
$GPGSV,3,2,11,18,32,242,,05,31,045,41,25,15,215,21,02,10,094,25*78
$GPGSV,3,3,11,30,10,302,,16,01,326,,51,49,195,37*4B
$GPRMC,123958.000,A,3353.7590,N,09832.0244,W,0.58,267.38,010412,,,D*71
$GPGGA,123959.000,3353.7590,N,09832.0244,W,2,06,1.6,322.2,M,-23.7,M,,0000*6C
$GPGSA,A,3,15,05,29,26,25,02,,,,,,,2.2,1.6,1.6*39
$GPRMC,123959.000,A,3353.7590,N,09832.0244,W,0.67,274.91,010412,,,D*7D
$GPGGA,124000.000,3353.7590,N,09832.0242,W,2,06,1.6,322.5,M,-23.7,M,1.8,0000*48
$GPGSA,A,3,15,05,29,26,25,02,,,,,,,2.2,1.6,1.6*39
$GPRMC,124000.000,A,3353.7590,N,09832.0242,W,0.06,224.16,010412,,,D*74
$GPGGA,124001.000,3353.7589,N,09832.0239,W,2,06,1.6,322.6,M,-23.7,M,,0000*69
$GPGSA,A,3,15,05,29,26,25,02,,,,,,,2.2,1.6,1.6*39
$GPRMC,124001.000,A,3353.7589,N,09832.0239,W,0.17,169.55,010412,,,D*7C
$GPGGA,124002.000,3353.7589,N,09832.0237,W,2,06,1.6,322.9,M,-23.7,M,1.8,0000*4C
$GPGSA,A,3,15,05,29,26,25,02,,,,,,,2.2,1.6,1.6*39
$GPRMC,124002.000,A,3353.7589,N,09832.0237,W,0.07,338.21,010412,,,D*75
$GPGGA,124003.000,3353.7589,N,09832.0235,W,2,06,1.6,323.2,M,-23.7,M,,0000*62
$GPGSA,A,3,15,05,29,26,25,02,,,,,,,2.2,1.6,1.6*39
$GPGSV,3,1,11,29,81,251,35,15,45,153,35,26,44,087,34,21,34,302,25*73
$GPGSV,3,2,11,18,32,242,,05,31,045,41,25,15,215,21,02,10,094,24*79
$GPGSV,3,3,11,30,10,302,,16,01,326,,51,49,195,37*4B
$GPRMC,124003.000,A,3353.7589,N,09832.0235,W,0.22,92.90,010412,,,D*48
$GPGGA,124004.000,3353.7588,N,09832.0233,W,2,06,1.6,323.1,M,-23.7,M,,0000*61
$GPGSA,A,3,15,05,29,26,25,02,,,,,,,2.2,1.6,1.6*39
$GPRMC,124004.000,A,3353.7588,N,09832.0233,W,0.35,100.52,010412,,,D*7A
$GPGGA,124005.000,3353.7588,N,09832.0230,W,2,06,1.6,323.6,M,-23.7,M,,0000*64
$GPGSA,A,3,15,05,29,26,25,02,,,,,,,2.2,1.6,1.6*39
$GPRMC,124005.000,A,3353.7588,N,09832.0230,W,0.32,96.63,010412,,,D*43
$GPGGA,124006.000,3353.7588,N,09832.0226,W,2,06,1.6,324.5,M,-23.7,M,,0000*64
$GPGSA,A,3,15,05,29,26,25,02,,,,,,,2.2,1.6,1.6*39
$GPRMC,124006.000,A,3353.7588,N,09832.0226,W,0.40,89.18,010412,,,D*40
$GPGGA,124007.000,3353.7589,N,09832.0224,W,2,06,1.6,325.1,M,-23.7,M,1.8,0000*44
$GPGSA,A,3,15,05,29,26,25,02,,,,,,,2.2,1.6,1.6*39
$GPRMC,124007.000,A,3353.7589,N,09832.0224,W,0.17,297.74,010412,,,D*77
$GPGGA,124008.000,3353.7589,N,09832.0227,W,2,06,1.6,324.5,M,-23.7,M,2.8,0000*4E
$GPGSA,A,3,15,05,29,26,25,02,,,,,,,2.2,1.6,1.6*39
$GPGSV,3,1,11,29,81,251,35,15,45,153,35,26,44,087,35,21,34,302,24*73
$GPGSV,3,2,11,18,32,242,19,05,31,045,41,25,15,215,19,02,10,094,24*7A
$GPGSV,3,3,11,30,10,302,,16,01,326,,51,49,195,37*4B
$GPRMC,124008.000,A,3353.7589,N,09832.0227,W,0.12,270.56,010412,,,D*77
$GPGGA,124009.000,3353.7589,N,09832.0228,W,2,05,2.9,324.4,M,-23.7,M,,0000*6A
$GPGSA,A,3,15,05,29,26,02,,,,,,,,4.9,2.9,3.9*32
$GPRMC,124009.000,A,3353.7589,N,09832.0228,W,0.24,282.22,010412,,,D*72
$GPGGA,124010.000,3353.7589,N,09832.0229,W,2,05,2.9,324.4,M,-23.7,M,,0000*63
$GPGSA,A,3,15,05,29,26,02,,,,,,,,4.9,2.9,3.9*32
$GPRMC,124010.000,A,3353.7589,N,09832.0229,W,0.22,274.68,010412,,,D*7A
$GPGGA,124011.000,3353.7589,N,09832.0230,W,2,05,2.9,324.3,M,-23.7,M,,0000*6D
$GPGSA,A,3,15,05,29,26,02,,,,,,,,4.9,2.9,3.9*32
$GPRMC,124011.000,A,3353.7589,N,09832.0230,W,0.18,299.41,010412,,,D*72
$GPGGA,124012.000,3353.7589,N,09832.0235,W,2,06,1.6,323.2,M,-23.7,M,,0000*62
$GPGSA,A,3,15,05,29,26,25,02,,,,,,,2.2,1.6,1.6*39
$GPRMC,124012.000,A,3353.7589,N,09832.0235,W,0.26,283.42,010412,,,D*71
$GPGGA,124013.000,3353.7588,N,09832.0243,W,2,06,1.6,321.4,M,-23.7,M,,0000*67
$GPGSA,A,3,15,05,29,26,25,02,,,,,,,2.2,1.6,1.6*39
$GPGSV,3,1,11,29,81,251,35,15,45,153,36,26,44,087,35,21,34,302,23*77
$GPGSV,3,2,11,18,32,242,18,05,31,045,41,25,15,215,12,02,10,094,25*71
$GPGSV,3,3,11,30,10,302,,16,01,326,,51,49,195,37*4B
$GPRMC,124013.000,A,3353.7588,N,09832.0243,W,0.55,271.49,010412,,,D*72
$GPGGA,124014.000,3353.7588,N,09832.0249,W,2,06,1.6,319.9,M,-23.7,M,1.8,0000*4B
$GPGSA,A,3,15,05,29,26,25,02,,,,,,,2.2,1.6,1.6*39
$GPRMC,124014.000,A,3353.7588,N,09832.0249,W,0.72,269.97,010412,,,D*70
$GPGGA,124015.000,3353.7588,N,09832.0256,W,2,06,1.6,318.3,M,-23.7,M,,0000*68
$GPGSA,A,3,15,05,29,26,25,02,,,,,,,2.2,1.6,1.6*39
$GPRMC,124015.000,A,3353.7588,N,09832.0256,W,0.92,272.39,010412,,,D*7F
$GPGGA,124016.000,3353.7588,N,09832.0260,W,2,06,1.6,317.5,M,-23.7,M,,0000*67
$GPGSA,A,3,15,05,29,26,25,02,,,,,,,2.2,1.6,1.6*39
$GPRMC,124016.000,A,3353.7588,N,09832.0260,W,0.91,273.45,010412,,,D*70
$GPGGA,124017.000,3353.7588,N,09832.0264,W,2,06,1.6,316.4,M,-23.7,M,,0000*62
$GPGSA,A,3,15,05,29,26,25,02,,,,,,,2.2,1.6,1.6*39
$GPRMC,124017.000,A,3353.7588,N,09832.0264,W,0.76,269.31,010412,,,D*74
$GPGGA,124018.000,3353.7588,N,09832.0263,W,2,06,1.6,316.9,M,-23.7,M,1.8,0000*40
$GPGSA,A,3,15,05,29,26,25,02,,,,,,,2.2,1.6,1.6*39
$GPGSV,3,1,11,29,81,251,35,15,45,153,36,26,44,087,35,21,34,302,*76
$GPGSV,3,2,11,18,32,242,17,05,31,045,40,25,15,215,16,02,10,094,25*7B
$GPGSV,3,3,11,30,10,302,,16,01,326,,51,49,195,37*4B
$GPRMC,124018.000,A,3353.7588,N,09832.0263,W,0.43,272.57,010412,,,D*70
$GPGGA,124019.000,3353.7588,N,09832.0263,W,2,06,1.6,316.8,M,-23.7,M,,0000*67
$GPGSA,A,3,15,05,29,26,25,02,,,,,,,2.2,1.6,1.6*39
$GPRMC,124019.000,A,3353.7588,N,09832.0263,W,0.28,273.91,010412,,,D*77
$GPGGA,124020.000,3353.7588,N,09832.0263,W,2,06,1.6,316.8,M,-23.7,M,1.8,0000*4A
$GPGSA,A,3,15,05,29,26,25,02,,,,,,,2.2,1.6,1.6*39
$GPRMC,124020.000,A,3353.7588,N,09832.0263,W,0.19,284.40,010412,,,D*7B
$GPGGA,124021.000,3353.7588,N,09832.0260,W,2,06,1.6,317.4,M,-23.7,M,,0000*62
$GPGSA,A,3,15,05,29,26,25,02,,,,,,,2.2,1.6,1.6*39
$GPRMC,124021.000,A,3353.7588,N,09832.0260,W,0.32,246.60,010412,,,D*7C
$GPGGA,124022.000,3353.7587,N,09832.0259,W,2,06,1.6,317.7,M,-23.7,M,,0000*67
$GPGSA,A,3,15,05,29,26,25,02,,,,,,,2.2,1.6,1.6*39
$GPRMC,124022.000,A,3353.7587,N,09832.0259,W,0.47,257.32,010412,,,D*7F
$GPGGA,124023.000,3353.7587,N,09832.0256,W,2,06,1.6,318.5,M,-23.7,M,,0000*64
$GPGSA,A,3,15,05,29,26,25,02,,,,,,,2.2,1.6,1.6*39
$GPGSV,3,1,11,29,81,251,35,15,45,153,36,26,44,087,35,21,34,302,*76
$GPGSV,3,2,11,18,32,242,15,05,31,045,40,25,15,215,19,02,10,094,26*75
$GPGSV,3,3,11,30,10,302,,16,01,326,,51,49,195,37*4B
$GPRMC,124023.000,A,3353.7587,N,09832.0256,W,0.36,262.69,010412,,,D*7F
$GPGGA,124024.000,3353.7587,N,09832.0256,W,2,06,1.6,318.8,M,-23.7,M,1.8,0000*49
$GPGSA,A,3,15,05,29,26,25,02,,,,,,,2.2,1.6,1.6*39
$GPRMC,124024.000,A,3353.7587,N,09832.0256,W,0.42,262.08,010412,,,D*7C
$GPGGA,124025.000,3353.7588,N,09832.0251,W,2,06,1.6,320.1,M,-23.7,M,2.8,0000*41
$GPGSA,A,3,15,05,29,26,25,02,,,,,,,2.2,1.6,1.6*39
$GPRMC,124025.000,A,3353.7588,N,09832.0251,W,0.13,276.32,010412,,,D*7D
$GPGGA,124026.000,3353.7588,N,09832.0247,W,2,06,1.6,321.1,M,-23.7,M,,0000*60
$GPGSA,A,3,15,05,29,26,25,02,,,,,,,2.2,1.6,1.6*39
$GPRMC,124026.000,A,3353.7588,N,09832.0247,W,0.03,46.05,010412,,,D*4D
$GPGGA,124027.000,3353.7588,N,09832.0244,W,2,06,1.6,322.0,M,-23.7,M,,0000*60
$GPGSA,A,3,15,05,29,26,25,02,,,,,,,2.2,1.6,1.6*39
$GPRMC,124027.000,A,3353.7588,N,09832.0244,W,0.16,290.44,010412,,,D*77
$GPGGA,124028.000,3353.7589,N,09832.0241,W,2,06,1.6,322.8,M,-23.7,M,,0000*63
$GPGSA,A,3,15,05,29,26,25,02,,,,,,,2.2,1.6,1.6*39
$GPGSV,3,1,11,29,81,251,36,15,45,153,36,26,44,087,35,21,34,302,*75
$GPGSV,3,2,11,18,32,242,14,05,31,045,40,25,15,215,24,02,10,094,26*7A
$GPGSV,3,3,11,30,10,302,,16,01,326,,51,49,195,37*4B
$GPRMC,124028.000,A,3353.7589,N,09832.0241,W,0.22,55.62,010412,,,D*44
$GPGGA,124029.000,3353.7589,N,09832.0236,W,2,06,1.6,324.1,M,-23.7,M,,0000*6D
$GPGSA,A,3,15,05,29,26,25,02,,,,,,,2.2,1.6,1.6*39
$GPRMC,124029.000,A,3353.7589,N,09832.0236,W,0.42,67.65,010412,,,D*45
$GPGGA,124030.000,3353.7590,N,09832.0233,W,2,06,1.6,324.8,M,-23.7,M,1.8,0000*46
$GPGSA,A,3,15,05,29,26,25,02,,,,,,,2.2,1.6,1.6*39
$GPRMC,124030.000,A,3353.7590,N,09832.0233,W,0.16,71.45,010412,,,D*44
$GPGGA,124031.000,3353.7590,N,09832.0232,W,2,06,1.6,325.3,M,-23.7,M,,0000*6B
$GPGSA,A,3,15,05,29,26,25,02,,,,,,,2.2,1.6,1.6*39
$GPRMC,124031.000,A,3353.7590,N,09832.0232,W,0.05,20.85,010412,,,D*4E
$GPGGA,124032.000,3353.7590,N,09832.0230,W,2,06,1.6,326.0,M,-23.7,M,1.8,0000*4D
$GPGSA,A,3,15,05,29,26,25,02,,,,,,,2.2,1.6,1.6*39
$GPRMC,124032.000,A,3353.7590,N,09832.0230,W,0.20,57.64,010412,,,D*47
$GPGGA,124033.000,3353.7590,N,09832.0230,W,2,06,1.6,325.9,M,-23.7,M,,0000*61
$GPGSA,A,3,15,05,29,26,25,02,,,,,,,2.2,1.6,1.6*39
$GPGSV,3,1,11,29,81,251,35,15,45,153,36,26,44,087,35,21,34,302,*76
$GPGSV,3,2,11,18,32,242,14,05,31,045,40,25,15,215,24,02,10,094,26*7A
$GPGSV,3,3,11,30,10,302,,16,01,326,,51,49,195,37*4B
$GPRMC,124033.000,A,3353.7590,N,09832.0230,W,0.14,101.61,010412,,,D*76
$GPGGA,124034.000,3353.7590,N,09832.0230,W,2,06,1.6,325.9,M,-23.7,M,,0000*66
$GPGSA,A,3,15,05,29,26,25,02,,,,,,,2.2,1.6,1.6*39
$GPRMC,124034.000,A,3353.7590,N,09832.0230,W,0.18,76.26,010412,,,D*4F
$GPGGA,124035.000,3353.7590,N,09832.0231,W,2,06,1.6,325.7,M,-23.7,M,,0000*68
$GPGSA,A,3,15,05,29,26,25,02,,,,,,,2.2,1.6,1.6*39
$GPRMC,124035.000,A,3353.7590,N,09832.0231,W,0.18,86.41,010412,,,D*41
$GPGGA,124036.000,3353.7590,N,09832.0231,W,2,06,1.6,325.7,M,-23.7,M,1.8,0000*4C
$GPGSA,A,3,15,05,29,26,25,02,,,,,,,2.2,1.6,1.6*39
$GPRMC,124036.000,A,3353.7590,N,09832.0231,W,0.10,101.20,010412,,,D*73
$GPGGA,124037.000,3353.7589,N,09832.0234,W,2,06,1.6,324.8,M,-23.7,M,2.8,0000*4D
$GPGSA,A,3,15,05,29,26,25,02,,,,,,,2.2,1.6,1.6*39
$GPRMC,124037.000,A,3353.7589,N,09832.0234,W,0.20,249.59,010412,,,D*7D
$GPGGA,124038.000,3353.7589,N,09832.0235,W,2,06,1.6,324.6,M,-23.7,M,3.8,0000*4C
$GPGSA,A,3,15,05,29,26,25,02,,,,,,,2.2,1.6,1.6*39
$GPGSV,3,1,11,29,81,251,35,15,45,153,36,26,44,087,35,21,34,302,22*76
$GPGSV,3,2,11,18,32,242,,05,31,045,40,25,15,215,23,02,10,094,27*79
$GPGSV,3,3,11,30,10,302,,16,01,326,,51,49,195,37*4B
$GPRMC,124038.000,A,3353.7589,N,09832.0235,W,0.04,83.78,010412,,,D*42
$GPGGA,124039.000,3353.7589,N,09832.0234,W,2,06,1.6,325.1,M,-23.7,M,,0000*6F
$GPGSA,A,3,15,05,29,26,25,02,,,,,,,2.2,1.6,1.6*39
$GPRMC,124039.000,A,3353.7589,N,09832.0234,W,0.11,45.57,010412,,,D*41
$GPGGA,124040.000,3353.7589,N,09832.0236,W,2,06,1.6,324.5,M,-23.7,M,,0000*66
$GPGSA,A,3,15,05,29,26,25,02,,,,,,,2.2,1.6,1.6*39
$GPRMC,124040.000,A,3353.7589,N,09832.0236,W,0.15,274.05,010412,,,D*7E
$GPGGA,124041.000,3353.7589,N,09832.0238,W,2,06,1.6,324.1,M,-23.7,M,,0000*6D
$GPGSA,A,3,15,05,29,26,25,02,,,,,,,2.2,1.6,1.6*39
$GPRMC,124041.000,A,3353.7589,N,09832.0238,W,0.15,9.18,010412,,,D*75
$GPGGA,124042.000,3353.7590,N,09832.0238,W,2,06,1.6,324.1,M,-23.7,M,,0000*66
$GPGSA,A,3,15,05,29,26,25,02,,,,,,,2.2,1.6,1.6*39
$GPRMC,124042.000,A,3353.7590,N,09832.0238,W,0.14,12.49,010412,,,D*41
$GPGGA,124043.000,3353.7590,N,09832.0238,W,2,06,1.6,324.0,M,-23.7,M,,0000*66
$GPGSA,A,3,15,05,29,26,25,02,,,,,,,2.2,1.6,1.6*39
$GPGSV,3,1,11,29,81,251,35,15,45,153,36,26,44,087,34,21,34,302,22*77
$GPGSV,3,2,11,18,32,242,,05,31,045,40,25,15,215,23,02,10,094,26*78
$GPGSV,3,3,11,30,10,302,,16,01,326,,51,49,195,37*4B
$GPRMC,124043.000,A,3353.7590,N,09832.0238,W,0.14,348.37,010412,,,D*75
$GPGGA,124044.000,3353.7591,N,09832.0239,W,2,06,1.6,323.8,M,-23.7,M,1.8,0000*49
$GPGSA,A,3,15,05,29,26,25,02,,,,,,,2.2,1.6,1.6*39
$GPRMC,124044.000,A,3353.7591,N,09832.0239,W,0.22,288.63,010412,,,D*7B
$GPGGA,124045.000,3353.7591,N,09832.0241,W,2,06,1.6,323.3,M,-23.7,M,,0000*6B
$GPGSA,A,3,15,05,29,26,25,02,,,,,,,2.2,1.6,1.6*39
$GPRMC,124045.000,A,3353.7591,N,09832.0241,W,0.08,331.94,010412,,,D*76
$GPGGA,124046.000,3353.7591,N,09832.0240,W,2,06,1.6,323.5,M,-23.7,M,,0000*6F
$GPGSA,A,3,15,05,29,26,25,02,,,,,,,2.2,1.6,1.6*39
$GPRMC,124046.000,A,3353.7591,N,09832.0240,W,0.08,288.47,010412,,,D*79
$GPGGA,124047.000,3353.7591,N,09832.0240,W,2,06,1.6,323.5,M,-23.7,M,,0000*6E
$GPGSA,A,3,15,05,29,26,25,02,,,,,,,2.2,1.6,1.6*39
$GPRMC,124047.000,A,3353.7591,N,09832.0240,W,0.26,253.03,010412,,,D*72
$GPGGA,124048.000,3353.7590,N,09832.0240,W,2,06,1.6,323.1,M,-23.7,M,1.8,0000*43
$GPGSA,A,3,15,05,29,26,25,02,,,,,,,2.2,1.6,1.6*39
$GPGSV,3,1,11,29,80,245,35,15,45,152,36,26,44,086,34,21,35,302,23*73
$GPGSV,3,2,11,18,33,242,20,05,30,046,40,25,15,214,24,02,10,095,26*7E
$GPGSV,3,3,11,30,10,301,,16,02,325,,51,49,195,37*48
$GPRMC,124048.000,A,3353.7590,N,09832.0240,W,0.01,215.42,010412,,,D*7E
$GPGGA,124049.000,3353.7590,N,09832.0238,W,2,06,1.6,323.2,M,-23.7,M,2.8,0000*4D
$GPGSA,A,3,15,05,29,26,25,02,,,,,,,2.2,1.6,1.6*39
$GPRMC,124049.000,A,3353.7590,N,09832.0238,W,0.10,95.79,010412,,,D*42
$GPGGA,124050.000,3353.7589,N,09832.0236,W,2,06,1.6,323.5,M,-23.7,M,3.8,0000*45
$GPGSA,A,3,15,05,29,26,25,02,,,,,,,2.2,1.6,1.6*39
$GPRMC,124050.000,A,3353.7589,N,09832.0236,W,0.16,241.59,010412,,,D*73
$GPGGA,124051.000,3353.7589,N,09832.0235,W,2,06,1.6,323.7,M,-23.7,M,,0000*60
$GPGSA,A,3,15,05,29,26,25,02,,,,,,,2.2,1.6,1.6*39
$GPRMC,124051.000,A,3353.7589,N,09832.0235,W,0.19,264.33,010412,,,D*75
$GPGGA,124052.000,3353.7589,N,09832.0235,W,2,06,1.6,323.6,M,-23.7,M,,0000*62
$GPGSA,A,3,15,05,29,26,25,02,,,,,,,2.2,1.6,1.6*39
$GPRMC,124052.000,A,3353.7589,N,09832.0235,W,0.05,266.15,010412,,,D*7D
$GPGGA,124053.000,3353.7589,N,09832.0235,W,2,06,1.6,323.6,M,-23.7,M,,0000*63
$GPGSA,A,3,15,05,29,26,25,02,,,,,,,2.2,1.6,1.6*39
$GPGSV,3,1,11,29,80,245,35,15,45,152,36,26,44,086,33,21,35,302,23*74
$GPGSV,3,2,11,18,33,242,21,05,30,046,40,25,15,214,24,02,10,095,25*7C
$GPGSV,3,3,11,30,10,301,,16,02,325,,51,49,195,37*48
$GPRMC,124053.000,A,3353.7589,N,09832.0235,W,0.13,36.39,010412,,,D*42
$GPGGA,124054.000,3353.7589,N,09832.0236,W,2,06,1.6,323.2,M,-23.7,M,1.8,0000*44
$GPGSA,A,3,15,05,29,26,25,02,,,,,,,2.2,1.6,1.6*39
$GPRMC,124054.000,A,3353.7589,N,09832.0236,W,0.24,303.13,010412,,,D*7F
$GPGGA,124055.000,3353.7590,N,09832.0236,W,2,06,1.6,323.1,M,-23.7,M,2.8,0000*4D
$GPGSA,A,3,15,05,29,26,25,02,,,,,,,2.2,1.6,1.6*39
$GPRMC,124055.000,A,3353.7590,N,09832.0236,W,0.23,337.12,010412,,,D*77
$GPGGA,124056.000,3353.7590,N,09832.0238,W,2,06,1.6,322.6,M,-23.7,M,3.8,0000*47
$GPGSA,A,3,15,05,29,26,25,02,,,,,,,2.2,1.6,1.6*39
$GPRMC,124056.000,A,3353.7590,N,09832.0238,W,0.28,287.81,010412,,,D*71
$GPGGA,124057.000,3353.7590,N,09832.0238,W,2,06,1.6,322.3,M,-23.7,M,,0000*66
$GPGSA,A,3,15,05,29,26,25,02,,,,,,,2.2,1.6,1.6*39
$GPRMC,124057.000,A,3353.7590,N,09832.0238,W,0.19,89.89,010412,,,D*46
$GPGGA,124058.000,3353.7590,N,09832.0237,W,2,06,1.6,322.5,M,-23.7,M,,0000*60
$GPGSA,A,3,15,05,29,26,25,02,,,,,,,2.2,1.6,1.6*39
$GPGSV,3,1,11,29,80,245,35,15,45,152,36,26,44,086,34,21,35,302,22*72
$GPGSV,3,2,11,18,33,242,22,05,30,046,39,25,15,214,24,02,10,095,21*75
$GPGSV,3,3,11,30,10,301,,16,02,325,,51,49,195,37*48
$GPRMC,124058.000,A,3353.7590,N,09832.0237,W,0.19,41.90,010412,,,D*4A
$GPGGA,124059.000,3353.7591,N,09832.0237,W,2,06,1.6,322.8,M,-23.7,M,,0000*6D
$GPGSA,A,3,15,05,29,26,25,02,,,,,,,2.2,1.6,1.6*39
$GPRMC,124059.000,A,3353.7591,N,09832.0237,W,0.37,281.73,010412,,,D*75
$GPGGA,124100.000,3353.7591,N,09832.0238,W,2,06,1.6,322.7,M,-23.7,M,,0000*60
$GPGSA,A,3,15,05,29,26,25,02,,,,,,,2.2,1.6,1.6*39
$GPRMC,124100.000,A,3353.7591,N,09832.0238,W,0.40,291.46,010412,,,D*70
$GPGGA,124101.000,3353.7591,N,09832.0240,W,2,06,1.6,322.5,M,-23.7,M,,0000*6C
$GPGSA,A,3,15,05,29,26,25,02,,,,,,,2.2,1.6,1.6*39
$GPRMC,124101.000,A,3353.7591,N,09832.0240,W,0.07,336.14,010412,,,D*76
$GPGGA,124102.000,3353.7591,N,09832.0241,W,2,06,1.6,322.2,M,-23.7,M,1.8,0000*4E
$GPGSA,A,3,15,05,29,26,25,02,,,,,,,2.2,1.6,1.6*39
$GPRMC,124102.000,A,3353.7591,N,09832.0241,W,0.04,160.79,010412,,,D*7D
$GPGGA,124103.000,3353.7590,N,09832.0243,W,2,06,1.6,321.5,M,-23.7,M,,0000*6F
$GPGSA,A,3,15,05,29,26,25,02,,,,,,,2.2,1.6,1.6*39
$GPGSV,3,1,11,29,80,245,35,15,45,152,36,26,44,086,34,21,35,302,22*72
$GPGSV,3,2,11,18,33,242,23,05,30,046,39,25,15,214,23,02,10,095,21*73
$GPGSV,3,3,11,30,10,301,,16,02,325,,51,49,195,37*48
$GPRMC,124103.000,A,3353.7590,N,09832.0243,W,0.07,192.86,010412,,,D*71
$GPGGA,124104.000,3353.7590,N,09832.0246,W,2,06,1.6,320.6,M,-23.7,M,,0000*6F
$GPGSA,A,3,15,05,29,26,25,02,,,,,,,2.2,1.6,1.6*39
$GPRMC,124104.000,A,3353.7590,N,09832.0246,W,0.28,244.62,010412,,,D*7C
$GPGGA,124105.000,3353.7590,N,09832.0247,W,2,06,1.6,320.3,M,-23.7,M,,0000*6A
$GPGSA,A,3,15,05,29,26,25,02,,,,,,,2.2,1.6,1.6*39
$GPRMC,124105.000,A,3353.7590,N,09832.0247,W,0.33,310.03,010412,,,D*71
$GPGGA,124106.000,3353.7591,N,09832.0248,W,2,06,1.6,320.3,M,-23.7,M,,0000*67
$GPGSA,A,3,15,05,29,26,25,02,,,,,,,2.2,1.6,1.6*39
$GPRMC,124106.000,A,3353.7591,N,09832.0248,W,0.21,354.80,010412,,,D*74
$GPGGA,124107.000,3353.7591,N,09832.0250,W,2,06,1.6,319.7,M,-23.7,M,1.8,0000*46
