$GPGGA,043441.000,3353.7431,N,09832.0213,W,2,07,1.1,319.7,M,-23.7,M,3.8,0000*49
$GPGSA,A,3,17,01,26,28,08,11,07,,,,,,2.2,1.1,1.9*3C
$GPRMC,043441.000,A,3353.7431,N,09832.0213,W,0.07,254.22,030412,,,D*78
$GPGGA,043442.000,3353.7431,N,09832.0210,W,2,07,1.1,320.1,M,-23.7,M,0.8,0000*46
$GPGSA,A,3,17,01,26,28,08,11,07,,,,,,2.2,1.1,1.9*3C
$GPRMC,043442.000,A,3353.7431,N,09832.0210,W,0.30,119.27,030412,,,D*73
$GPGGA,043443.000,3353.7431,N,09832.0206,W,2,07,1.1,320.6,M,-23.7,M,0.8,0000*47
$GPGSA,A,3,17,01,26,28,08,11,07,,,,,,2.2,1.1,1.9*3C
$GPRMC,043443.000,A,3353.7431,N,09832.0206,W,0.41,102.17,030412,,,D*7A
$GPGGA,043444.000,3353.7431,N,09832.0204,W,2,07,1.1,320.8,M,-23.7,M,0.8,0000*4C
$GPGSA,A,3,17,01,26,28,08,11,07,,,,,,2.2,1.1,1.9*3C
$GPRMC,043444.000,A,3353.7431,N,09832.0204,W,0.04,142.03,030412,,,D*7F
$GPGGA,043445.000,3353.7431,N,09832.0202,W,2,07,1.1,321.0,M,-23.7,M,1.8,0000*43
$GPGSA,A,3,17,01,26,28,08,11,07,,,,,,2.2,1.1,1.9*3C
$GPGSV,3,1,12,17,66,260,28,08,64,152,40,28,61,356,32,01,39,066,25*78
$GPGSV,3,2,12,26,28,263,23,11,26,051,32,07,25,149,32,27,11,321,*7A
$GPGSV,3,3,12,15,09,306,,04,07,192,18,20,01,113,,51,49,195,37*72
$GPRMC,043445.000,A,3353.7431,N,09832.0202,W,0.05,111.65,030412,,,D*7F
$GPGGA,043446.000,3353.7432,N,09832.0200,W,2,07,1.1,321.3,M,-23.7,M,2.8,0000*41
$GPGSA,A,3,17,01,26,28,08,11,07,,,,,,2.2,1.1,1.9*3C
$GPRMC,043446.000,A,3353.7432,N,09832.0200,W,0.15,96.41,030412,,,D*44
$GPGGA,043447.000,3353.7432,N,09832.0198,W,2,07,1.1,321.6,M,-23.7,M,3.8,0000*46
$GPGSA,A,3,17,01,26,28,08,11,07,,,,,,2.2,1.1,1.9*3C
$GPRMC,043447.000,A,3353.7432,N,09832.0198,W,0.09,108.83,030412,,,D*72
$GPGGA,043448.000,3353.7432,N,09832.0196,W,2,07,1.1,321.9,M,-23.7,M,0.8,0000*4B
$GPGSA,A,3,17,01,26,28,08,11,07,,,,,,2.2,1.1,1.9*3C
$GPRMC,043448.000,A,3353.7432,N,09832.0196,W,0.04,95.60,030412,,,D*46
$GPGGA,043449.000,3353.7433,N,09832.0193,W,2,07,1.1,322.1,M,-23.7,M,0.8,0000*45
$GPGSA,A,3,17,01,26,28,08,11,07,,,,,,2.2,1.1,1.9*3C
$GPRMC,043449.000,A,3353.7433,N,09832.0193,W,0.05,199.30,030412,,,D*7A
$GPGGA,043450.000,3353.7433,N,09832.0192,W,2,07,1.1,322.4,M,-23.7,M,0.8,0000*49
$GPGSA,A,3,17,01,26,28,08,11,07,,,,,,2.2,1.1,1.9*3C
$GPGSV,3,1,12,17,66,260,29,08,64,152,40,28,61,356,32,01,39,066,25*79
$GPGSV,3,2,12,26,28,263,24,11,26,051,32,07,25,149,32,27,11,321,*7D
$GPGSV,3,3,12,15,09,306,,04,07,192,16,20,01,113,,51,49,195,37*7C
$GPRMC,043450.000,A,3353.7433,N,09832.0192,W,0.20,257.22,030412,,,D*76
$GPGGA,043451.000,3353.7433,N,09832.0189,W,2,07,1.1,322.9,M,-23.7,M,0.8,0000*4F
$GPGSA,A,3,17,01,26,28,08,11,07,,,,,,2.2,1.1,1.9*3C
$GPRMC,043451.000,A,3353.7433,N,09832.0189,W,0.24,120.12,030412,,,D*79
$GPGGA,043452.000,3353.7433,N,09832.0187,W,2,07,1.1,323.3,M,-23.7,M,0.8,0000*49
$GPGSA,A,3,17,01,26,28,08,11,07,,,,,,2.2,1.1,1.9*3C
$GPRMC,043452.000,A,3353.7433,N,09832.0187,W,0.07,205.42,030412,,,D*74
$GPGGA,043453.000,3353.7433,N,09832.0185,W,2,07,1.1,323.6,M,-23.7,M,1.8,0000*4E
$GPGSA,A,3,17,01,26,28,08,11,07,,,,,,2.2,1.1,1.9*3C
$GPRMC,043453.000,A,3353.7433,N,09832.0185,W,0.14,238.61,030412,,,D*7A
$GPGGA,043454.000,3353.7433,N,09832.0183,W,2,07,1.1,324.0,M,-23.7,M,0.8,0000*4F
$GPGSA,A,3,17,01,26,28,08,11,07,,,,,,2.2,1.1,1.9*3C
$GPRMC,043454.000,A,3353.7433,N,09832.0183,W,0.18,123.03,030412,,,D*7A
$GPGGA,043455.000,3353.7433,N,09832.0180,W,2,07,1.1,324.6,M,-23.7,M,0.8,0000*4B
$GPGSA,A,3,17,01,26,28,08,11,07,,,,,,2.2,1.1,1.9*3C
$GPGSV,3,1,12,17,66,260,28,08,64,152,40,28,61,356,32,01,39,066,26*7B
$GPGSV,3,2,12,26,28,263,18,11,26,051,32,07,25,149,31,27,11,321,*71
$GPGSV,3,3,12,15,09,306,,04,07,192,17,20,01,113,,51,49,195,37*7D
$GPRMC,043455.000,A,3353.7433,N,09832.0180,W,0.45,105.41,030412,,,D*72
$GPGGA,043456.000,3353.7433,N,09832.0176,W,2,07,1.1,325.2,M,-23.7,M,0.8,0000*44
$GPGSA,A,3,17,01,26,28,08,11,07,,,,,,2.2,1.1,1.9*3C
$GPRMC,043456.000,A,3353.7433,N,09832.0176,W,0.57,95.14,030412,,,D*43
$GPGGA,043457.000,3353.7433,N,09832.0172,W,2,07,1.1,325.7,M,-23.7,M,1.8,0000*45
$GPGSA,A,3,17,01,26,28,08,11,07,,,,,,2.2,1.1,1.9*3C
$GPRMC,043457.000,A,3353.7433,N,09832.0172,W,0.74,94.20,030412,,,D*41
$GPGGA,043458.000,3353.7434,N,09832.0168,W,2,07,1.1,326.3,M,-23.7,M,2.8,0000*42
$GPGSA,A,3,17,01,26,28,08,11,07,,,,,,2.2,1.1,1.9*3C
$GPRMC,043458.000,A,3353.7434,N,09832.0168,W,0.82,93.42,030412,,,D*48
$GPGGA,043459.000,3353.7434,N,09832.0165,W,2,07,1.1,326.9,M,-23.7,M,0.8,0000*46
$GPGSA,A,3,17,01,26,28,08,11,07,,,,,,2.2,1.1,1.9*3C
$GPRMC,043459.000,A,3353.7434,N,09832.0165,W,0.65,93.11,030412,,,D*4B
$GPGGA,043500.000,3353.7434,N,09832.0160,W,2,07,1.1,327.6,M,-23.7,M,0.8,0000*40
$GPGSA,A,3,17,01,26,28,08,11,07,,,,,,2.2,1.1,1.9*3C
$GPGSV,3,1,12,17,66,260,28,08,64,152,40,28,61,356,32,01,39,066,28*75
$GPGSV,3,2,12,26,28,263,14,11,26,051,32,07,25,149,31,27,11,321,*7D
$GPGSV,3,3,12,15,09,306,,04,07,192,18,20,01,113,19,51,49,195,37*7A
$GPRMC,043500.000,A,3353.7434,N,09832.0160,W,0.70,91.05,030412,,,D*40
$GPGGA,043501.000,3353.7435,N,09832.0155,W,2,07,1.1,328.3,M,-23.7,M,0.8,0000*4C
$GPGSA,A,3,17,01,26,28,08,11,07,,,,,,2.2,1.1,1.9*3C
$GPRMC,043501.000,A,3353.7435,N,09832.0155,W,0.75,93.83,030412,,,D*4F
$GPGGA,043502.000,3353.7435,N,09832.0152,W,2,07,1.1,329.1,M,-23.7,M,0.8,0000*4B
$GPGSA,A,3,17,01,26,28,08,11,07,,,,,,2.2,1.1,1.9*3C
$GPRMC,043502.000,A,3353.7435,N,09832.0152,W,0.61,98.92,030412,,,D*45
$GPGGA,043503.000,3353.7435,N,09832.0149,W,2,07,1.1,329.8,M,-23.7,M,1.8,0000*48
$GPGSA,A,3,17,01,26,28,08,11,07,,,,,,2.2,1.1,1.9*3C
$GPRMC,043503.000,A,3353.7435,N,09832.0149,W,0.65,98.58,030412,,,D*4C
$GPGGA,043504.000,3353.7435,N,09832.0153,W,2,07,1.1,330.0,M,-23.7,M,2.8,0000*47
$GPGSA,A,3,17,01,26,28,08,11,07,,,,,,2.2,1.1,1.9*3C
$GPRMC,043504.000,A,3353.7435,N,09832.0153,W,0.51,101.00,030412,,,D*7B
$GPGGA,043505.000,3353.7435,N,09832.0156,W,2,07,1.1,330.3,M,-23.7,M,3.8,0000*41
$GPGSA,A,3,17,01,26,28,08,11,07,,,,,,2.2,1.1,1.9*3C
$GPGSV,3,1,12,17,66,260,27,08,64,152,41,28,61,356,32,01,39,066,28*7B
$GPGSV,3,2,12,26,28,263,13,11,26,051,31,07,25,149,31,27,11,321,*79
$GPGSV,3,3,12,15,09,306,,04,07,192,18,20,01,113,19,51,49,195,36*7B
$GPRMC,043505.000,A,3353.7435,N,09832.0156,W,0.52,99.50,030412,,,D*49
$GPGGA,043506.000,3353.7435,N,09832.0158,W,2,07,1.1,330.5,M,-23.7,M,0.8,0000*49
$GPGSA,A,3,17,01,26,28,08,11,07,,,,,,2.2,1.1,1.9*3C
$GPRMC,043506.000,A,3353.7435,N,09832.0158,W,0.56,97.93,030412,,,D*41
$GPGGA,043507.000,3353.7435,N,09832.0155,W,2,07,1.1,331.1,M,-23.7,M,0.8,0000*40
$GPGSA,A,3,17,01,26,28,08,11,07,,,,,,2.2,1.1,1.9*3C
$GPRMC,043507.000,A,3353.7435,N,09832.0155,W,0.80,98.54,030412,,,D*42
$GPGGA,043508.000,3353.7436,N,09832.0151,W,2,07,1.1,331.8,M,-23.7,M,0.8,0000*41
$GPGSA,A,3,17,01,26,28,08,11,07,,,,,,2.2,1.1,1.9*3C
$GPRMC,043508.000,A,3353.7436,N,09832.0151,W,0.74,93.80,030412,,,D*43
$GPGGA,043509.000,3353.7436,N,09832.0148,W,2,07,1.1,332.4,M,-23.7,M,0.8,0000*47
$GPGSA,A,3,17,01,26,28,08,11,07,,,,,,2.2,1.1,1.9*3C
$GPRMC,043509.000,A,3353.7436,N,09832.0148,W,0.92,96.94,030412,,,D*42
$GPGGA,043510.000,3353.7436,N,09832.0140,W,2,07,1.1,333.4,M,-23.7,M,1.8,0000*47
$GPGSA,A,3,17,01,26,28,08,11,07,,,,,,2.2,1.1,1.9*3C
$GPGSV,3,1,12,17,66,260,24,08,64,152,41,28,61,356,31,01,39,066,29*7A
$GPGSV,3,2,12,26,28,263,15,11,26,051,31,07,25,149,31,27,11,321,*7F
$GPGSV,3,3,12,15,09,306,,04,07,192,18,20,01,113,19,51,49,195,36*7B
$GPRMC,043510.000,A,3353.7436,N,09832.0140,W,1.06,96.08,030412,,,D*4B
$GPGGA,043511.000,3353.7436,N,09832.0134,W,2,07,1.1,334.1,M,-23.7,M,2.8,0000*44
$GPGSA,A,3,17,01,26,28,08,11,07,,,,,,2.2,1.1,1.9*3C
$GPRMC,043511.000,A,3353.7436,N,09832.0134,W,0.94,96.34,030412,,,D*4C
$GPGGA,043512.000,3353.7435,N,09832.0127,W,2,07,1.1,334.8,M,-23.7,M,0.8,0000*4D
$GPGSA,A,3,17,01,26,28,08,11,07,,,,,,2.2,1.1,1.9*3C
$GPRMC,043512.000,A,3353.7435,N,09832.0127,W,0.87,95.92,030412,,,D*43
$GPGGA,043513.000,3353.7435,N,09832.0123,W,2,07,1.1,335.4,M,-23.7,M,0.8,0000*45
$GPGSA,A,3,17,01,26,28,08,11,07,,,,,,2.2,1.1,1.9*3C
$GPRMC,043513.000,A,3353.7435,N,09832.0123,W,0.78,97.48,030412,,,D*43
$GPGGA,043514.000,3353.7435,N,09832.0117,W,2,07,1.1,336.0,M,-23.7,M,0.8,0000*42
$GPGSA,A,3,17,01,26,28,08,11,07,,,,,,2.2,1.1,1.9*3C
$GPRMC,043514.000,A,3353.7435,N,09832.0117,W,0.90,96.30,030412,,,D*4B
$GPGGA,043515.000,3353.7435,N,09832.0114,W,2,07,1.1,336.4,M,-23.7,M,0.8,0000*44
$GPGSA,A,3,17,01,26,28,08,11,07,,,,,,2.2,1.1,1.9*3C
$GPGSV,3,1,12,17,66,260,23,08,64,152,41,28,61,356,32,01,39,066,29*7E
$GPGSV,3,2,12,26,28,263,17,11,26,051,30,07,25,149,31,27,11,321,*7C
$GPGSV,3,3,12,15,09,306,,04,07,192,17,20,01,113,19,51,49,195,36*74
$GPRMC,043515.000,A,3353.7435,N,09832.0114,W,0.52,89.78,030412,,,D*45
$GPGGA,043516.000,3353.7436,N,09832.0119,W,2,07,1.1,336.2,M,-23.7,M,1.8,0000*4E
$GPGSA,A,3,17,01,26,28,08,11,07,,,,,,2.2,1.1,1.9*3C
$GPRMC,043516.000,A,3353.7436,N,09832.0119,W,0.09,47.39,030412,,,D*41
$GPGGA,043517.000,3353.7436,N,09832.0124,W,2,07,1.1,335.8,M,-23.7,M,2.8,0000*4B
$GPGSA,A,3,17,01,26,28,08,11,07,,,,,,2.2,1.1,1.9*3C
$GPRMC,043517.000,A,3353.7436,N,09832.0124,W,0.08,316.54,030412,,,D*73
$GPGGA,043518.000,3353.7437,N,09832.0132,W,2,06,2.0,335.3,M,-23.7,M,0.8,0000*48
$GPGSA,A,3,17,01,28,08,11,07,,,,,,,4.0,2.0,3.4*31
$GPRMC,043518.000,A,3353.7437,N,09832.0132,W,0.42,287.48,030412,,,D*70
$GPGGA,043519.000,3353.7437,N,09832.0135,W,2,07,1.1,335.1,M,-23.7,M,0.8,0000*4F
$GPGSA,A,3,17,01,26,28,08,11,07,,,,,,2.2,1.1,1.9*3C
$GPRMC,043519.000,A,3353.7437,N,09832.0135,W,0.10,297.82,030412,,,D*76
$GPGGA,043520.000,3353.7437,N,09832.0137,W,2,07,1.1,335.0,M,-23.7,M,0.8,0000*46
$GPGSA,A,3,17,01,26,28,08,11,07,,,,,,2.2,1.1,1.9*3C
$GPGSV,3,1,12,17,66,260,20,08,64,152,41,28,61,356,32,01,39,066,29*7D
$GPGSV,3,2,12,26,28,263,18,11,26,051,30,07,25,149,31,27,11,321,*73
$GPGSV,3,3,12,15,09,306,,04,07,192,17,20,01,113,19,51,49,195,36*74
$GPRMC,043520.000,A,3353.7437,N,09832.0137,W,0.32,110.72,030412,,,D*7D
$GPGGA,043521.000,3353.7437,N,09832.0136,W,2,06,2.0,335.1,M,-23.7,M,0.8,0000*44
$GPGSA,A,3,17,01,28,08,11,07,,,,,,,4.0,2.0,3.4*31
$GPRMC,043521.000,A,3353.7437,N,09832.0136,W,0.49,109.25,030412,,,D*7B
$GPGGA,043522.000,3353.7437,N,09832.0135,W,2,07,1.1,335.2,M,-23.7,M,1.8,0000*45
$GPGSA,A,3,17,01,26,28,08,11,07,,,,,,2.2,1.1,1.9*3C
$GPRMC,043522.000,A,3353.7437,N,09832.0135,W,0.61,105.81,030412,,,D*73
$GPGGA,043523.000,3353.7437,N,09832.0136,W,2,07,1.1,335.2,M,-23.7,M,0.8,0000*46
$GPGSA,A,3,17,01,26,28,08,11,07,,,,,,2.2,1.1,1.9*3C
$GPRMC,043523.000,A,3353.7437,N,09832.0136,W,0.57,105.55,030412,,,D*7D
$GPGGA,043524.000,3353.7437,N,09832.0133,W,2,07,1.1,335.4,M,-23.7,M,0.8,0000*42
$GPGSA,A,3,17,01,26,28,08,11,07,,,,,,2.2,1.1,1.9*3C
$GPRMC,043524.000,A,3353.7437,N,09832.0133,W,0.47,104.06,030412,,,D*79
$GPGGA,043525.000,3353.7437,N,09832.0132,W,2,05,2.8,335.6,M,-23.7,M,0.8,0000*48
$GPGSA,A,3,01,28,08,11,07,,,,,,,,4.7,2.8,3.7*3B
$GPGSV,3,1,12,17,66,260,19,08,64,152,41,28,61,356,32,01,39,066,29*77
$GPGSV,3,2,12,26,28,263,19,11,26,051,29,07,25,149,29,27,11,321,*73
$GPGSV,3,3,12,15,09,306,,04,07,192,17,20,01,113,18,51,49,195,37*74
$GPRMC,043525.000,A,3353.7437,N,09832.0132,W,0.62,104.85,030412,,,D*75
$GPGGA,043526.000,3353.7437,N,09832.0136,W,2,07,1.1,334.7,M,-23.7,M,0.8,0000*47
$GPGSA,A,3,17,01,26,28,08,11,07,,,,,,2.2,1.1,1.9*3C
$GPRMC,043526.000,A,3353.7437,N,09832.0136,W,0.36,103.08,030412,,,D*71
$GPGGA,043527.000,3353.7437,N,09832.0139,W,2,06,1.2,334.0,M,-23.7,M,1.8,0000*4D
$GPGSA,A,3,01,26,28,08,11,07,,,,,,,2.4,1.2,2.1*34
$GPRMC,043527.000,A,3353.7437,N,09832.0139,W,0.37,104.61,030412,,,D*76
$GPGGA,043528.000,3353.7437,N,09832.0143,W,2,07,1.1,333.3,M,-23.7,M,2.8,0000*4A
$GPGSA,A,3,17,01,26,28,08,11,07,,,,,,2.2,1.1,1.9*3C
$GPRMC,043528.000,A,3353.7437,N,09832.0143,W,0.19,99.47,030412,,,D*49
$GPGGA,043529.000,3353.7437,N,09832.0141,W,2,07,1.1,333.7,M,-23.7,M,3.8,0000*4C
$GPGSA,A,3,17,01,26,28,08,11,07,,,,,,2.2,1.1,1.9*3C
$GPRMC,043529.000,A,3353.7437,N,09832.0141,W,0.29,100.95,030412,,,D*77
$GPGGA,043530.000,3353.7436,N,09832.0135,W,2,07,1.1,334.4,M,-23.7,M,0.8,0000*41
$GPGSA,A,3,17,01,26,28,08,11,07,,,,,,2.2,1.1,1.9*3C
$GPGSV,3,1,12,17,66,260,19,08,64,152,41,28,61,356,33,01,39,066,29*76
$GPGSV,3,2,12,26,28,263,19,11,26,051,29,07,25,149,25,27,11,321,*7F
$GPGSV,3,3,12,15,09,306,,04,07,192,17,20,01,113,18,51,49,195,36*75
$GPRMC,043530.000,A,3353.7436,N,09832.0135,W,0.10,122.62,030412,,,D*7F
$GPGGA,043531.000,3353.7435,N,09832.0134,W,2,07,1.1,334.2,M,-23.7,M,0.8,0000*44
$GPGSA,A,3,17,01,26,28,08,11,07,,,,,,2.2,1.1,1.9*3C
$GPRMC,043531.000,A,3353.7435,N,09832.0134,W,0.08,317.96,030412,,,D*7A
$GPGGA,043532.000,3353.7435,N,09832.0135,W,2,07,1.1,334.3,M,-23.7,M,0.8,0000*47
$GPGSA,A,3,17,01,26,28,08,11,07,,,,,,2.2,1.1,1.9*3C
$GPRMC,043532.000,A,3353.7435,N,09832.0135,W,0.12,121.52,030412,,,D*7C
$GPGGA,043533.000,3353.7435,N,09832.0136,W,2,07,1.1,334.4,M,-23.7,M,1.8,0000*43
$GPGSA,A,3,17,01,26,28,08,11,07,,,,,,2.2,1.1,1.9*3C
$GPRMC,043533.000,A,3353.7435,N,09832.0136,W,0.10,112.07,030412,,,D*7C
$GPGGA,043534.000,3353.7434,N,09832.0130,W,2,07,1.1,335.4,M,-23.7,M,2.8,0000*41
$GPGSA,A,3,17,01,26,28,08,11,07,,,,,,2.2,1.1,1.9*3C
$GPRMC,043534.000,A,3353.7434,N,09832.0130,W,0.35,102.87,030412,,,D*72
$GPGGA,043535.000,3353.7434,N,09832.0133,W,2,07,1.1,335.5,M,-23.7,M,3.8,0000*43
$GPGSA,A,3,17,01,26,28,08,11,07,,,,,,2.2,1.1,1.9*3C
$GPGSV,3,1,12,17,66,260,20,08,64,152,41,28,61,356,33,01,39,066,29*7C
$GPGSV,3,2,12,26,28,263,19,11,26,051,28,07,25,149,25,27,11,321,*7E
$GPGSV,3,3,12,15,09,306,,04,07,192,18,20,01,113,18,51,49,195,36*7A
$GPRMC,043535.000,A,3353.7434,N,09832.0133,W,0.03,156.22,030412,,,D*7B
$GPGGA,043536.000,3353.7434,N,09832.0137,W,2,07,1.1,335.4,M,-23.7,M,0.8,0000*46
$GPGSA,A,3,17,01,26,28,08,11,07,,,,,,2.2,1.1,1.9*3C
$GPRMC,043536.000,A,3353.7434,N,09832.0137,W,0.19,262.68,030412,,,D*7D
$GPGGA,043537.000,3353.7433,N,09832.0142,W,2,07,1.1,334.0,M,-23.7,M,0.8,0000*47
$GPGSA,A,3,17,01,26,28,08,11,07,,,,,,2.2,1.1,1.9*3C
$GPRMC,043537.000,A,3353.7433,N,09832.0142,W,0.33,241.65,030412,,,D*7D
$GPGGA,043538.000,3353.7433,N,09832.0146,W,2,07,1.1,333.8,M,-23.7,M,0.8,0000*43
$GPGSA,A,3,17,01,26,28,08,11,07,,,,,,2.2,1.1,1.9*3C
$GPRMC,043538.000,A,3353.7433,N,09832.0146,W,0.06,179.97,030412,,,D*75
$GPGGA,043539.000,3353.7432,N,09832.0149,W,2,07,1.1,333.3,M,-23.7,M,1.8,0000*46
$GPGSA,A,3,17,01,26,28,08,11,07,,,,,,2.2,1.1,1.9*3C
$GPRMC,043539.000,A,3353.7432,N,09832.0149,W,0.07,148.59,030412,,,D*7B
$GPGGA,043540.000,3353.7430,N,09832.0151,W,2,06,2.0,332.3,M,-23.7,M,0.8,0000*40
$GPGSA,A,3,17,01,28,08,11,07,,,,,,,4.0,2.0,3.4*31
$GPGSV,3,1,12,17,66,260,19,08,64,152,41,28,61,356,32,01,39,066,29*77
$GPGSV,3,2,12,26,28,263,19,11,26,051,28,07,25,149,25,27,11,321,*7E
$GPGSV,3,3,12,15,09,306,,04,07,192,18,20,01,113,18,51,49,195,36*7A
$GPRMC,043540.000,A,3353.7430,N,09832.0151,W,0.47,269.63,030412,,,D*73
$GPGGA,043541.000,3353.7429,N,09832.0153,W,2,07,1.1,331.2,M,-23.7,M,1.8,0000*4B
$GPGSA,A,3,17,01,26,28,08,11,07,,,,,,2.2,1.1,1.9*3C
$GPRMC,043541.000,A,3353.7429,N,09832.0153,W,0.75,273.46,030412,,,D*75
$GPGGA,043542.000,3353.7429,N,09832.0152,W,2,07,1.1,330.5,M,-23.7,M,0.8,0000*4E
$GPGSA,A,3,17,01,26,28,08,11,07,,,,,,2.2,1.1,1.9*3C
$GPRMC,043542.000,A,3353.7429,N,09832.0152,W,0.28,131.39,030412,,,D*72
$GPGGA,043543.000,3353.7428,N,09832.0155,W,2,07,1.1,329.6,M,-23.7,M,0.8,0000*42
$GPGSA,A,3,17,01,26,28,08,11,07,,,,,,2.2,1.1,1.9*3C
$GPRMC,043543.000,A,3353.7428,N,09832.0155,W,0.20,129.69,030412,,,D*71
$GPGGA,043544.000,3353.7428,N,09832.0156,W,2,07,1.1,329.0,M,-23.7,M,0.8,0000*40
$GPGSA,A,3,17,01,26,28,08,11,07,,,,,,2.2,1.1,1.9*3C
$GPRMC,043544.000,A,3353.7428,N,09832.0156,W,0.29,154.46,030412,,,D*7B
$GPGGA,043545.000,3353.7428,N,09832.0161,W,2,07,1.1,328.0,M,-23.7,M,1.8,0000*45
$GPGSA,A,3,17,01,26,28,08,11,07,,,,,,2.2,1.1,1.9*3C
$GPGSV,3,1,12,17,66,260,19,08,64,152,41,28,61,356,32,01,39,066,29*77
$GPGSV,3,2,12,26,28,263,19,11,26,051,28,07,25,149,25,27,11,321,*7E
$GPGSV,3,3,12,15,09,306,,04,07,192,19,20,01,113,18,51,49,195,36*7B
$GPRMC,043545.000,A,3353.7428,N,09832.0161,W,0.30,219.89,030412,,,D*7F
$GPGGA,043546.000,3353.7428,N,09832.0161,W,2,05,2.8,327.8,M,-23.7,M,0.8,0000*48
$GPGSA,A,3,01,28,08,11,07,,,,,,,,4.7,2.8,3.7*3B
$GPRMC,043546.000,A,3353.7428,N,09832.0161,W,0.21,180.51,030412,,,D*7A
$GPGGA,043547.000,3353.7428,N,09832.0163,W,2,06,1.2,327.5,M,-23.7,M,1.8,0000*4D
$GPGSA,A,3,01,26,28,08,11,07,,,,,,,2.4,1.2,2.1*34
$GPRMC,043547.000,A,3353.7428,N,09832.0163,W,0.45,129.88,030412,,,D*7C
$GPGGA,043548.000,3353.7428,N,09832.0164,W,2,07,1.1,327.6,M,-23.7,M,0.8,0000*45
$GPGSA,A,3,17,01,26,28,08,11,07,,,,,,2.2,1.1,1.9*3C
$GPRMC,043548.000,A,3353.7428,N,09832.0164,W,0.18,225.40,030412,,,D*77
$GPGGA,043549.000,3353.7429,N,09832.0167,W,2,07,1.1,327.4,M,-23.7,M,0.8,0000*44
$GPGSA,A,3,17,01,26,28,08,11,07,,,,,,2.2,1.1,1.9*3C
$GPRMC,043549.000,A,3353.7429,N,09832.0167,W,0.21,227.26,030412,,,D*7C
$GPGGA,043550.000,3353.7433,N,09832.0169,W,2,07,1.1,328.3,M,-23.7,M,0.8,0000*41
$GPGSA,A,3,17,01,26,28,08,11,07,,,,,,2.2,1.1,1.9*3C
$GPGSV,3,1,12,17,66,261,19,08,63,153,41,28,61,357,32,01,39,066,29*71
$GPGSV,3,2,12,26,27,262,14,11,26,051,28,07,24,149,25,27,12,320,*7E
$GPGSV,3,3,12,15,09,306,,04,08,192,19,20,01,112,18,51,49,195,36*75
$GPRMC,043550.000,A,3353.7433,N,09832.0169,W,0.08,354.36,030412,,,D*7E
$GPGGA,043551.000,3353.7437,N,09832.0170,W,2,07,1.1,329.5,M,-23.7,M,1.8,0000*4A
$GPGSA,A,3,17,01,26,28,08,11,07,,,,,,2.2,1.1,1.9*3C
$GPRMC,043551.000,A,3353.7437,N,09832.0170,W,0.46,92.46,030412,,,D*47
$GPGGA,043552.000,3353.7442,N,09832.0170,W,2,07,1.1,331.4,M,-23.7,M,2.8,0000*40
$GPGSA,A,3,17,01,26,28,08,11,07,,,,,,2.2,1.1,1.9*3C
$GPRMC,043552.000,A,3353.7442,N,09832.0170,W,0.89,92.69,030412,,,D*48
$GPGGA,043553.000,3353.7448,N,09832.0166,W,2,07,1.1,333.4,M,-23.7,M,0.8,0000*4C
$GPGSA,A,3,17,01,26,28,08,11,07,,,,,,2.2,1.1,1.9*3C
$GPRMC,043553.000,A,3353.7448,N,09832.0166,W,0.89,86.76,030412,,,D*4F
$GPGGA,043554.000,3353.7450,N,09832.0165,W,2,06,1.2,334.0,M,-23.7,M,0.8,0000*40
$GPGSA,A,3,01,26,28,08,11,07,,,,,,,2.4,1.2,2.1*34
$GPRMC,043554.000,A,3353.7450,N,09832.0165,W,0.77,85.12,030412,,,D*42
$GPGGA,043555.000,3353.7451,N,09832.0162,W,2,07,1.1,335.1,M,-23.7,M,0.8,0000*45
$GPGSA,A,3,17,01,26,28,08,11,07,,,,,,2.2,1.1,1.9*3C
$GPGSV,3,1,12,17,66,261,18,08,63,153,40,28,61,357,32,01,39,066,29*71
$GPGSV,3,2,12,26,27,262,15,11,26,051,28,07,24,149,24,27,12,320,*7E
$GPGSV,3,3,12,15,09,306,,04,08,192,19,20,01,112,19,51,49,195,38*7A
$GPRMC,043555.000,A,3353.7451,N,09832.0162,W,0.73,74.46,030412,,,D*4E
$GPGGA,043556.000,3353.7457,N,09832.0161,W,2,06,1.2,336.7,M,-23.7,M,0.8,0000*44
$GPGSA,A,3,01,26,28,08,11,07,,,,,,,2.4,1.2,2.1*34
$GPRMC,043556.000,A,3353.7457,N,09832.0161,W,0.67,81.56,030412,,,D*46
$GPGGA,043557.000,3353.7459,N,09832.0162,W,2,06,1.2,337.3,M,-23.7,M,1.8,0000*4C
$GPGSA,A,3,01,26,28,08,11,07,,,,,,,2.4,1.2,2.1*34
$GPRMC,043557.000,A,3353.7459,N,09832.0162,W,0.57,91.63,030412,,,D*4E
$GPGGA,043558.000,3353.7461,N,09832.0161,W,2,07,1.1,338.1,M,-23.7,M,0.8,0000*45
$GPGSA,A,3,17,01,26,28,08,11,07,,,,,,2.2,1.1,1.9*3C
$GPRMC,043558.000,A,3353.7461,N,09832.0161,W,0.16,50.73,030412,,,D*40
$GPGGA,043559.000,3353.7461,N,09832.0166,W,2,07,1.1,337.8,M,-23.7,M,1.8,0000*44
$GPGSA,A,3,17,01,26,28,08,11,07,,,,,,2.2,1.1,1.9*3C
$GPRMC,043559.000,A,3353.7461,N,09832.0166,W,0.43,292.91,030412,,,D*76
$GPGGA,043600.000,3353.7461,N,09832.0166,W,2,07,1.1,338.1,M,-23.7,M,0.8,0000*4C
$GPGSA,A,3,17,01,26,28,08,11,07,,,,,,2.2,1.1,1.9*3C
$GPGSV,3,1,12,17,66,261,18,08,63,153,40,28,61,357,32,01,39,066,29*71
$GPGSV,3,2,12,26,27,262,19,11,26,051,28,07,24,149,15,27,12,320,*70
$GPGSV,3,3,12,15,09,306,,04,08,192,19,20,01,112,20,51,49,195,37*7F
$GPRMC,043600.000,A,3353.7461,N,09832.0166,W,0.21,284.71,030412,,,D*74
$GPGGA,043601.000,3353.7461,N,09832.0162,W,2,07,1.1,339.2,M,-23.7,M,0.8,0000*4B
$GPGSA,A,3,17,01,26,28,08,11,07,,,,,,2.2,1.1,1.9*3C
$GPRMC,043601.000,A,3353.7461,N,09832.0162,W,0.20,110.71,030412,,,D*7E
$GPGGA,043602.000,3353.7460,N,09832.0163,W,2,07,1.1,339.3,M,-23.7,M,0.8,0000*49
$GPGSA,A,3,17,01,26,28,08,11,07,,,,,,2.2,1.1,1.9*3C
$GPRMC,043602.000,A,3353.7460,N,09832.0163,W,0.15,63.75,030412,,,D*4A
$GPGGA,043603.000,3353.7461,N,09832.0158,W,2,07,1.1,339.9,M,-23.7,M,0.8,0000*4B
$GPGSA,A,3,17,01,26,28,08,11,07,,,,,,2.2,1.1,1.9*3C
$GPRMC,043603.000,A,3353.7461,N,09832.0158,W,0.94,94.05,030412,,,D*44
$GPGGA,043604.000,3353.7463,N,09832.0152,W,2,07,1.1,340.6,M,-23.7,M,1.8,0000*44
$GPGSA,A,3,17,01,26,28,08,11,07,,,,,,2.2,1.1,1.9*3C
$GPRMC,043604.000,A,3353.7463,N,09832.0152,W,1.14,91.17,030412,,,D*44
$GPGGA,043605.000,3353.7464,N,09832.0146,W,2,07,1.1,341.4,M,-23.7,M,2.8,0000*47
$GPGSA,A,3,17,01,26,28,08,11,07,,,,,,2.2,1.1,1.9*3C
$GPGSV,3,1,12,17,66,261,20,08,63,153,40,28,61,357,32,01,39,066,28*7B
$GPGSV,3,2,12,26,27,262,21,11,26,051,28,07,24,149,14,27,12,320,*7A
$GPGSV,3,3,12,15,09,306,,04,08,192,19,20,01,112,19,51,49,195,36*74
$GPRMC,043605.000,A,3353.7464,N,09832.0146,W,0.89,89.74,030412,,,D*4E
$GPGGA,043606.000,3353.7463,N,09832.0146,W,2,07,1.1,340.9,M,-23.7,M,0.8,0000*4D
$GPGSA,A,3,17,01,26,28,08,11,07,,,,,,2.2,1.1,1.9*3C
$GPRMC,043606.000,A,3353.7463,N,09832.0146,W,0.39,85.12,030412,,,D*4D
$GPGGA,043607.000,3353.7463,N,09832.0147,W,2,07,1.1,340.4,M,-23.7,M,0.8,0000*40
$GPGSA,A,3,17,01,26,28,08,11,07,,,,,,2.2,1.1,1.9*3C
$GPRMC,043607.000,A,3353.7463,N,09832.0147,W,0.19,81.65,030412,,,D*4B
$GPGGA,043608.000,3353.7462,N,09832.0146,W,2,07,1.1,339.6,M,-23.7,M,0.8,0000*43
$GPGSA,A,3,17,01,26,28,08,11,07,,,,,,2.2,1.1,1.9*3C
$GPRMC,043608.000,A,3353.7462,N,09832.0146,W,0.19,131.39,030412,,,D*77
$GPGGA,043609.000,3353.7461,N,09832.0146,W,2,07,1.1,339.5,M,-23.7,M,1.8,0000*43
$GPGSA,A,3,17,01,26,28,08,11,07,,,,,,2.2,1.1,1.9*3C
$GPRMC,043609.000,A,3353.7461,N,09832.0146,W,0.64,114.49,030412,,,D*7F
$GPGGA,043610.000,3353.7460,N,09832.0144,W,2,07,1.1,338.7,M,-23.7,M,2.8,0000*48
$GPGSA,A,3,17,01,26,28,08,11,07,,,,,,2.2,1.1,1.9*3C
$GPGSV,3,1,12,17,66,261,21,08,63,153,40,28,61,357,33,01,39,066,28*7B
$GPGSV,3,2,12,26,27,262,20,11,26,051,29,07,24,149,15,27,12,320,*7B
$GPGSV,3,3,12,15,09,306,,04,08,192,19,20,01,112,18,51,49,195,37*74
$GPRMC,043610.000,A,3353.7460,N,09832.0144,W,0.93,117.80,030412,,,D*7A
$GPGGA,043611.000,3353.7457,N,09832.0140,W,2,07,1.1,338.4,M,-23.7,M,3.8,0000*4B
$GPGSA,A,3,17,01,26,28,08,11,07,,,,,,2.2,1.1,1.9*3C
$GPRMC,043611.000,A,3353.7457,N,09832.0140,W,1.07,116.41,030412,,,D*7B
$GPGGA,043612.000,3353.7456,N,09832.0141,W,2,07,1.1,337.6,M,-23.7,M,0.8,0000*46
$GPGSA,A,3,17,01,26,28,08,11,07,,,,,,2.2,1.1,1.9*3C
$GPRMC,043612.000,A,3353.7456,N,09832.0141,W,0.38,148.70,030412,,,D*7C
$GPGGA,043613.000,3353.7454,N,09832.0138,W,2,07,1.1,337.1,M,-23.7,M,0.8,0000*4C
$GPGSA,A,3,17,01,26,28,08,11,07,,,,,,2.2,1.1,1.9*3C
$GPRMC,043613.000,A,3353.7454,N,09832.0138,W,0.58,126.46,030412,,,D*7A
$GPGGA,043614.000,3353.7454,N,09832.0135,W,2,05,2.8,337.3,M,-23.7,M,0.8,0000*4C
$GPGSA,A,3,17,01,28,08,11,,,,,,,,6.4,2.8,5.8*32
$GPRMC,043614.000,A,3353.7454,N,09832.0135,W,0.56,101.10,030412,,,D*78
$GPGGA,043615.000,3353.7451,N,09832.0133,W,2,06,2.0,336.4,M,-23.7,M,1.8,0000*42
$GPGSA,A,3,17,01,28,08,11,07,,,,,,,4.0,2.0,3.4*31
$GPGSV,3,1,12,17,66,261,22,08,63,153,40,28,61,357,33,01,39,066,22*72
$GPGSV,3,2,12,26,27,262,19,11,26,051,29,07,24,149,14,27,12,320,*70
$GPGSV,3,3,12,15,09,306,,04,08,192,18,20,01,112,18,51,49,195,41*74
$GPRMC,043615.000,A,3353.7451,N,09832.0133,W,0.41,114.94,030412,,,D*74
$GPGGA,043616.000,3353.7451,N,09832.0128,W,2,05,2.8,336.6,M,-23.7,M,2.8,0000*41
$GPGSA,A,3,17,01,28,08,11,,,,,,,,6.4,2.8,5.8*32
$GPRMC,043616.000,A,3353.7451,N,09832.0128,W,0.55,92.24,030412,,,D*4C
$GPGGA,043617.000,3353.7451,N,09832.0126,W,2,07,1.1,335.6,M,-23.7,M,3.8,0000*44
$GPGSA,A,3,17,01,26,28,08,11,07,,,,,,2.2,1.1,1.9*3C
$GPRMC,043617.000,A,3353.7451,N,09832.0126,W,0.13,83.70,030412,,,D*40
$GPGGA,043618.000,3353.7449,N,09832.0128,W,2,07,1.1,334.7,M,-23.7,M,0.8,0000*4F
$GPGSA,A,3,17,01,26,28,08,11,07,,,,,,2.2,1.1,1.9*3C
$GPRMC,043618.000,A,3353.7449,N,09832.0128,W,0.22,245.03,030412,,,D*76
$GPGGA,043619.000,3353.7449,N,09832.0131,W,2,06,1.7,334.3,M,-23.7,M,0.8,0000*45
$GPGSA,A,3,17,01,26,28,08,11,,,,,,,2.8,1.7,2.2*3F
$GPRMC,043619.000,A,3353.7449,N,09832.0131,W,0.56,284.27,030412,,,D*77
$GPGGA,043620.000,3353.7449,N,09832.0136,W,2,06,1.7,333.0,M,-23.7,M,0.8,0000*4C
$GPGSA,A,3,17,01,26,28,08,11,,,,,,,2.8,1.7,2.2*3F
$GPGSV,3,1,12,17,66,261,22,08,63,153,40,28,61,357,33,01,39,066,24*74
$GPGSV,3,2,12,26,27,262,12,11,26,051,30,07,24,149,16,27,12,320,*71
$GPGSV,3,3,12,15,09,306,,04,08,192,18,20,01,112,18,51,49,195,36*74
$GPRMC,043620.000,A,3353.7449,N,09832.0136,W,0.72,267.65,030412,,,D*77
$GPGGA,043621.000,3353.7449,N,09832.0141,W,2,06,1.7,332.9,M,-23.7,M,1.8,0000*44
$GPGSA,A,3,17,01,26,28,08,11,,,,,,,2.8,1.7,2.2*3F
$GPRMC,043621.000,A,3353.7449,N,09832.0141,W,0.87,277.17,030412,,,D*78
$GPGGA,043622.000,3353.7449,N,09832.0143,W,2,07,1.1,332.3,M,-23.7,M,2.8,0000*4B
$GPGSA,A,3,17,01,26,28,08,11,07,,,,,,2.2,1.1,1.9*3C
$GPRMC,043622.000,A,3353.7449,N,09832.0143,W,0.86,278.31,030412,,,D*73
$GPGGA,043623.000,3353.7449,N,09832.0144,W,2,07,1.1,332.0,M,-23.7,M,3.8,0000*4F
$GPGSA,A,3,17,01,26,28,08,11,07,,,,,,2.2,1.1,1.9*3C
$GPRMC,043623.000,A,3353.7449,N,09832.0144,W,0.72,270.68,030412,,,D*7A
$GPGGA,043624.000,3353.7451,N,09832.0146,W,2,07,1.1,332.4,M,-23.7,M,0.8,0000*44
$GPGSA,A,3,17,01,26,28,08,11,07,,,,,,2.2,1.1,1.9*3C
$GPRMC,043624.000,A,3353.7451,N,09832.0146,W,0.85,269.93,030412,,,D*72
$GPGGA,043625.000,3353.7455,N,09832.0143,W,2,07,1.1,334.3,M,-23.7,M,0.8,0000*45
$GPGSA,A,3,17,01,26,28,08,11,07,,,,,,2.2,1.1,1.9*3C
$GPGSV,3,1,12,17,66,261,21,08,63,153,40,28,61,357,33,01,39,066,24*77
$GPGSV,3,2,12,26,27,262,16,11,26,051,29,07,24,149,21,27,12,320,*79
$GPGSV,3,3,12,15,09,306,,04,08,192,18,20,01,112,17,51,49,195,37*7A
$GPRMC,043625.000,A,3353.7455,N,09832.0143,W,0.10,207.93,030412,,,D*76
$GPGGA,043626.000,3353.7455,N,09832.0143,W,2,07,1.1,334.3,M,-23.7,M,0.8,0000*46
$GPGSA,A,3,17,01,26,28,08,11,07,,,,,,2.2,1.1,1.9*3C
$GPRMC,043626.000,A,3353.7455,N,09832.0143,W,0.16,257.08,030412,,,D*74
$GPGGA,043627.000,3353.7456,N,09832.0141,W,2,07,1.1,334.7,M,-23.7,M,0.8,0000*42
$GPGSA,A,3,17,01,26,28,08,11,07,,,,,,2.2,1.1,1.9*3C
$GPRMC,043627.000,A,3353.7456,N,09832.0141,W,0.12,330.56,030412,,,D*7B
$GPGGA,043628.000,3353.7456,N,09832.0142,W,2,07,1.1,334.0,M,-23.7,M,1.8,0000*48
$GPGSA,A,3,17,01,26,28,08,11,07,,,,,,2.2,1.1,1.8*3D
$GPRMC,043628.000,A,3353.7456,N,09832.0142,W,0.22,54.62,030412,,,D*42
$GPGGA,043629.000,3353.7456,N,09832.0141,W,2,07,1.1,333.2,M,-23.7,M,0.8,0000*4E
$GPGSA,A,3,17,01,26,28,08,11,07,,,,,,2.2,1.1,1.8*3D
$GPRMC,043629.000,A,3353.7456,N,09832.0141,W,0.17,103.46,030412,,,D*73
$GPGGA,043630.000,3353.7455,N,09832.0142,W,2,07,1.1,332.3,M,-23.7,M,0.8,0000*46
$GPGSA,A,3,17,01,26,28,08,11,07,,,,,,2.2,1.1,1.8*3D
$GPGSV,3,1,12,17,66,261,21,08,63,153,40,28,61,357,33,01,39,066,24*77
$GPGSV,3,2,12,26,27,262,20,11,26,051,30,07,24,149,20,27,12,320,*75
$GPGSV,3,3,12,15,09,306,,04,08,192,18,20,01,112,18,51,49,195,37*75
$GPRMC,043630.000,A,3353.7455,N,09832.0142,W,0.66,97.24,030412,,,D*45
$GPGGA,043631.000,3353.7455,N,09832.0145,W,2,07,1.1,331.3,M,-23.7,M,0.8,0000*43
$GPGSA,A,3,17,01,26,28,08,11,07,,,,,,2.2,1.1,1.8*3D
$GPRMC,043631.000,A,3353.7455,N,09832.0145,W,0.05,174.62,030412,,,D*78
$GPGGA,043632.000,3353.7455,N,09832.0147,W,2,07,1.1,331.4,M,-23.7,M,0.8,0000*45
$GPGSA,A,3,17,01,26,28,08,11,07,,,,,,2.2,1.1,1.8*3D
$GPRMC,043632.000,A,3353.7455,N,09832.0147,W,0.38,278.38,030412,,,D*77
$GPGGA,043633.000,3353.7455,N,09832.0146,W,2,07,1.1,331.2,M,-23.7,M,1.8,0000*42
$GPGSA,A,3,17,01,26,28,08,11,07,,,,,,2.2,1.1,1.8*3D
$GPRMC,043633.000,A,3353.7455,N,09832.0146,W,0.19,160.13,030412,,,D*77
$GPGGA,043634.000,3353.7454,N,09832.0144,W,2,07,1.1,330.3,M,-23.7,M,2.8,0000*45
$GPGSA,A,3,17,01,26,28,08,11,07,,,,,,2.2,1.1,1.8*3D
$GPRMC,043634.000,A,3353.7454,N,09832.0144,W,0.33,187.52,030412,,,D*77
$GPGGA,043635.000,3353.7452,N,09832.0145,W,2,07,1.1,329.1,M,-23.7,M,0.8,0000*4B
$GPGSA,A,3,17,01,26,28,08,11,07,,,,,,2.2,1.1,1.8*3D
$GPGSV,3,1,12,17,66,261,21,08,63,153,40,28,61,357,34,01,39,066,23*77
$GPGSV,3,2,12,26,27,262,19,11,26,051,30,07,24,149,19,27,12,320,*75
$GPGSV,3,3,12,15,09,306,,04,08,192,19,20,01,112,17,51,49,195,37*7B
$GPRMC,043635.000,A,3353.7452,N,09832.0145,W,0.47,193.43,030412,,,D*77
$GPGGA,043636.000,3353.7451,N,09832.0145,W,2,07,1.1,327.8,M,-23.7,M,0.8,0000*4C
$GPGSA,A,3,17,01,26,28,08,11,07,,,,,,2.2,1.1,1.8*3D
$GPRMC,043636.000,A,3353.7451,N,09832.0145,W,0.43,171.19,030412,,,D*70
$GPGGA,043637.000,3353.7450,N,09832.0143,W,2,07,1.1,327.6,M,-23.7,M,0.8,0000*44
$GPGSA,A,3,17,01,26,28,08,11,07,,,,,,2.2,1.1,1.8*3D
$GPRMC,043637.000,A,3353.7450,N,09832.0143,W,0.68,118.34,030412,,,D*7F
$GPGGA,043638.000,3353.7451,N,09832.0139,W,2,07,1.1,328.6,M,-23.7,M,0.8,0000*48
$GPGSA,A,3,17,01,26,28,08,11,07,,,,,,2.2,1.1,1.8*3D
$GPRMC,043638.000,A,3353.7451,N,09832.0139,W,0.39,102.43,030412,,,D*73
$GPGGA,043639.000,3353.7451,N,09832.0136,W,2,07,1.1,329.3,M,-23.7,M,1.8,0000*43
$GPGSA,A,3,17,01,26,28,08,11,07,,,,,,2.2,1.1,1.8*3D
$GPRMC,043639.000,A,3353.7451,N,09832.0136,W,0.29,81.15,030412,,,D*45
$GPGGA,043640.000,3353.7452,N,09832.0135,W,2,07,1.1,329.5,M,-23.7,M,2.8,0000*48
$GPGSA,A,3,17,01,26,28,08,11,07,,,,,,2.2,1.1,1.8*3D
$GPGSV,3,1,12,17,66,261,20,08,63,153,40,28,61,357,34,01,39,066,23*76
$GPGSV,3,2,12,26,27,262,21,11,26,051,31,07,24,149,20,27,12,320,*75
$GPGSV,3,3,12,15,09,306,,04,08,192,20,20,01,112,,51,49,195,36*76
$GPRMC,043640.000,A,3353.7452,N,09832.0135,W,0.36,133.62,030412,,,D*7D
$GPGGA,043641.000,3353.7452,N,09832.0134,W,2,07,1.1,330.3,M,-23.7,M,0.8,0000*44
$GPGSA,A,3,17,01,26,28,08,11,07,,,,,,2.2,1.1,1.8*3D
$GPRMC,043641.000,A,3353.7452,N,09832.0134,W,0.32,127.91,030412,,,D*70
$GPGGA,043642.000,3353.7452,N,09832.0136,W,2,07,1.1,330.4,M,-23.7,M,0.8,0000*42
$GPGSA,A,3,17,01,26,28,08,11,07,,,,,,2.2,1.1,1.8*3D
$GPRMC,043642.000,A,3353.7452,N,09832.0136,W,0.19,144.51,030412,,,D*71
$GPGGA,043643.000,3353.7452,N,09832.0137,W,2,07,1.1,330.7,M,-23.7,M,0.8,0000*41
$GPGSA,A,3,17,01,26,28,08,11,07,,,,,,2.2,1.1,1.8*3D
$GPRMC,043643.000,A,3353.7452,N,09832.0137,W,0.11,220.20,030412,,,D*7E
$GPGGA,043644.000,3353.7455,N,09832.0139,W,2,07,1.1,331.9,M,-23.7,M,0.8,0000*40
$GPGSA,A,3,17,01,26,28,08,11,07,,,,,,2.2,1.1,1.8*3D
$GPRMC,043644.000,A,3353.7455,N,09832.0139,W,0.26,302.58,030412,,,D*7A
$GPGGA,043645.000,3353.7455,N,09832.0138,W,2,07,1.1,332.7,M,-23.7,M,1.8,0000*4C
$GPGSA,A,3,17,01,26,28,08,11,07,,,,,,2.2,1.1,1.8*3D
$GPGSV,3,1,12,17,66,261,20,08,63,153,40,28,61,357,34,01,39,066,22*77
$GPGSV,3,2,12,26,27,262,21,11,26,051,31,07,24,149,26,27,12,320,*73
$GPGSV,3,3,12,15,09,306,,04,08,192,21,20,01,112,,51,49,195,42*74
$GPRMC,043645.000,A,3353.7455,N,09832.0138,W,0.73,101.53,030412,,,D*70
$GPGGA,043646.000,3353.7459,N,09832.0142,W,2,07,1.1,333.7,M,-23.7,M,2.8,0000*4C
$GPGSA,A,3,17,01,26,28,08,11,07,,,,,,2.2,1.1,1.8*3D
$GPRMC,043646.000,A,3353.7459,N,09832.0142,W,0.26,124.21,030412,,,D*70
$GPGGA,043647.000,3353.7462,N,09832.0139,W,2,07,1.1,334.3,M,-23.7,M,3.8,0000*4B
$GPGSA,A,3,17,01,26,28,08,11,07,,,,,,2.2,1.1,1.8*3D
$GPRMC,043647.000,A,3353.7462,N,09832.0139,W,0.34,85.01,030412,,,D*4E
$GPGGA,043648.000,3353.7463,N,09832.0141,W,2,07,1.1,334.7,M,-23.7,M,0.8,0000*4D
$GPGSA,A,3,17,01,26,28,08,11,07,,,,,,2.2,1.1,1.8*3D
$GPRMC,043648.000,A,3353.7463,N,09832.0141,W,0.13,351.89,030412,,,D*70
$GPGGA,043649.000,3353.7464,N,09832.0145,W,2,06,1.2,334.2,M,-23.7,M,0.8,0000*48
$GPGSA,A,3,01,26,28,08,11,07,,,,,,,2.4,1.2,2.1*34
$GPRMC,043649.000,A,3353.7464,N,09832.0145,W,0.52,97.55,030412,,,D*4F
$GPGGA,043650.000,3353.7465,N,09832.0147,W,2,07,1.1,334.1,M,-23.7,M,0.8,0000*42
$GPGSA,A,3,17,01,26,28,08,11,07,,,,,,2.2,1.1,1.8*3D
$GPGSV,3,1,12,17,66,262,19,08,63,153,40,28,62,358,33,01,39,065,15*72
$GPGSV,3,2,12,26,27,262,20,11,25,050,32,07,24,150,26,27,12,320,*7B
$GPGSV,3,3,12,15,09,305,,04,08,192,22,20,01,112,,51,49,195,42*74
$GPRMC,043650.000,A,3353.7465,N,09832.0147,W,0.68,94.17,030412,,,D*48
$GPGGA,043651.000,3353.7464,N,09832.0148,W,2,06,1.2,332.9,M,-23.7,M,0.8,0000*41
$GPGSA,A,3,17,26,28,08,11,07,,,,,,,2.2,1.2,1.8*3F
$GPRMC,043651.000,A,3353.7464,N,09832.0148,W,0.59,92.84,030412,,,D*49
$GPGGA,043652.000,3353.7464,N,09832.0152,W,2,07,1.1,332.3,M,-23.7,M,1.8,0000*40
$GPGSA,A,3,17,01,26,28,08,11,07,,,,,,2.2,1.1,1.8*3D
$GPRMC,043652.000,A,3353.7464,N,09832.0152,W,0.06,13.56,030412,,,D*4D
$GPGGA,043653.000,3353.7464,N,09832.0150,W,2,07,1.1,332.0,M,-23.7,M,2.8,0000*43
$GPGSA,A,3,17,01,26,28,08,11,07,,,,,,2.2,1.1,1.8*3D
$GPRMC,043653.000,A,3353.7464,N,09832.0150,W,0.58,93.17,030412,,,D*48
$GPGGA,043654.000,3353.7464,N,09832.0145,W,2,07,1.1,332.8,M,-23.7,M,0.8,0000*4A
$GPGSA,A,3,17,01,26,28,08,11,07,,,,,,2.2,1.1,1.8*3D
$GPRMC,043654.000,A,3353.7464,N,09832.0145,W,0.88,90.56,030412,,,D*40
$GPGGA,043655.000,3353.7463,N,09832.0142,W,2,07,1.1,332.7,M,-23.7,M,0.8,0000*44
$GPGSA,A,3,17,01,26,28,08,11,07,,,,,,2.2,1.1,1.8*3D
$GPGSV,3,1,12,17,66,262,20,08,63,153,40,28,62,358,33,01,39,065,19*74
$GPGSV,3,2,12,26,27,262,19,11,25,050,33,07,24,150,26,27,12,320,*70
$GPGSV,3,3,12,15,09,305,,04,08,192,22,20,01,112,,51,49,195,36*77
$GPRMC,043655.000,A,3353.7463,N,09832.0142,W,0.67,88.09,030412,,,D*43
$GPGGA,043656.000,3353.7461,N,09832.0147,W,2,07,1.1,332.2,M,-23.7,M,0.8,0000*45
$GPGSA,A,3,17,01,26,28,08,11,07,,,,,,2.2,1.1,1.8*3D
$GPRMC,043656.000,A,3353.7461,N,09832.0147,W,0.43,115.36,030412,,,D*78
$GPGGA,043657.000,3353.7460,N,09832.0145,W,2,07,1.1,332.0,M,-23.7,M,0.8,0000*45
$GPGSA,A,3,17,01,26,28,08,11,07,,,,,,2.2,1.1,1.8*3D
$GPRMC,043657.000,A,3353.7460,N,09832.0145,W,0.30,110.35,030412,,,D*78
$GPGGA,043658.000,3353.7459,N,09832.0141,W,2,05,2.5,331.8,M,-23.7,M,1.8,0000*4B
$GPGSA,A,3,17,28,08,11,07,,,,,,,,4.5,2.5,3.8*3C
$GPRMC,043658.000,A,3353.7459,N,09832.0141,W,0.54,103.40,030412,,,D*7B
$GPGGA,043659.000,3353.7458,N,09832.0140,W,2,06,1.2,331.8,M,-23.7,M,0.8,0000*4C
$GPGSA,A,3,17,26,28,08,11,07,,,,,,,2.2,1.2,1.8*3F
$GPRMC,043659.000,A,3353.7458,N,09832.0140,W,0.38,111.45,030412,,,D*76
$GPGGA,043700.000,3353.7457,N,09832.0145,W,2,06,1.2,330.6,M,-23.7,M,0.8,0000*44
$GPGSA,A,3,17,26,28,08,11,07,,,,,,,2.2,1.2,1.8*3F
$GPGSV,3,1,12,17,66,262,21,08,63,153,40,28,62,358,33,01,39,065,12*7E
$GPGSV,3,2,12,26,27,262,15,11,25,050,33,07,24,150,26,27,12,320,*7C
$GPGSV,3,3,12,15,09,305,,04,08,192,23,20,01,112,,51,49,195,36*76
$GPRMC,043700.000,A,3353.7457,N,09832.0145,W,0.69,265.92,030412,,,D*7F
$GPGGA,043701.000,3353.7457,N,09832.0145,W,2,06,1.2,330.5,M,-23.7,M,1.8,0000*47
$GPGSA,A,3,17,26,28,08,11,07,,,,,,,2.2,1.2,1.8*3F
$GPRMC,043701.000,A,3353.7457,N,09832.0145,W,0.39,256.57,030412,,,D*72
$GPGGA,043702.000,3353.7456,N,09832.0148,W,2,06,1.2,330.3,M,-23.7,M,2.8,0000*4D
$GPGSA,A,3,17,26,28,08,11,07,,,,,,,2.2,1.2,1.8*3F
$GPRMC,043702.000,A,3353.7456,N,09832.0148,W,0.20,157.95,030412,,,D*79
$GPGGA,043703.000,3353.7455,N,09832.0148,W,2,06,1.2,330.1,M,-23.7,M,3.8,0000*4C
$GPGSA,A,3,17,26,28,08,11,07,,,,,,,2.2,1.2,1.8*3F
$GPRMC,043703.000,A,3353.7455,N,09832.0148,W,0.21,203.67,030412,,,D*75
$GPGGA,043704.000,3353.7456,N,09832.0155,W,2,06,1.2,329.4,M,-23.7,M,4.8,0000*4E
$GPGSA,A,3,17,26,28,08,11,07,,,,,,,2.2,1.2,1.8*3F
$GPRMC,043704.000,A,3353.7456,N,09832.0155,W,0.26,229.24,030412,,,D*75
$GPGGA,043705.000,3353.7456,N,09832.0152,W,2,06,1.2,330.4,M,-23.7,M,5.8,0000*41
$GPGSA,A,3,17,26,28,08,11,07,,,,,,,2.2,1.2,1.8*3F
$GPGSV,3,1,12,17,66,262,21,08,63,153,40,28,62,358,33,01,39,065,16*7A
$GPGSV,3,2,12,26,27,262,15,11,25,050,34,07,24,150,26,27,12,320,*7B
$GPGSV,3,3,12,15,09,305,,04,08,192,23,20,01,112,,51,49,195,42*75
$GPRMC,043705.000,A,3353.7456,N,09832.0152,W,0.27,237.50,030412,,,D*7E
$GPGGA,043706.000,3353.7456,N,09832.0155,W,2,07,1.1,330.2,M,-23.7,M,0.8,0000*44
$GPGSA,A,3,17,01,26,28,08,11,07,,,,,,2.2,1.1,1.8*3D
$GPRMC,043706.000,A,3353.7456,N,09832.0155,W,0.41,261.88,030412,,,D*7C
$GPGGA,043707.000,3353.7454,N,09832.0153,W,2,07,1.1,330.4,M,-23.7,M,0.8,0000*47
$GPGSA,A,3,17,01,26,28,08,11,07,,,,,,2.2,1.1,1.8*3D
$GPRMC,043707.000,A,3353.7454,N,09832.0153,W,0.16,165.55,030412,,,D*7C
$GPGGA,043708.000,3353.7454,N,09832.0153,W,2,07,1.1,330.8,M,-23.7,M,0.8,0000*44
$GPGSA,A,3,17,01,26,28,08,11,07,,,,,,2.2,1.1,1.8*3D
$GPRMC,043708.000,A,3353.7454,N,09832.0153,W,0.10,3.34,030412,,,D*73
$GPGGA,043709.000,3353.7455,N,09832.0148,W,2,07,1.1,332.0,M,-23.7,M,1.8,0000*45
$GPGSA,A,3,17,01,26,28,08,11,07,,,,,,2.2,1.1,1.8*3D
$GPRMC,043709.000,A,3353.7455,N,09832.0148,W,0.65,78.12,030412,,,D*43
$GPGGA,043710.000,3353.7457,N,09832.0142,W,2,07,1.1,333.4,M,-23.7,M,2.8,0000*43
$GPGSA,A,3,17,01,26,28,08,11,07,,,,,,2.2,1.1,1.8*3D
$GPGSV,3,1,12,17,66,262,20,08,63,153,39,28,62,358,34,01,39,065,15*71
$GPGSV,3,2,12,26,27,262,22,11,25,050,34,07,24,150,20,27,12,320,*79
$GPGSV,3,3,12,15,09,305,,04,08,192,23,20,01,112,,51,49,195,37*77
$GPRMC,043710.000,A,3353.7457,N,09832.0142,W,0.84,78.19,030412,,,D*47
$GPGGA,043711.000,3353.7458,N,09832.0136,W,2,07,1.1,334.6,M,-23.7,M,3.8,0000*4A
$GPGSA,A,3,17,01,26,28,08,11,07,,,,,,2.2,1.1,1.8*3D
$GPRMC,043711.000,A,3353.7458,N,09832.0136,W,0.86,84.23,030412,,,D*42
$GPGGA,043712.000,3353.7459,N,09832.0131,W,2,07,1.1,335.8,M,-23.7,M,0.8,0000*43
$GPGSA,A,3,17,01,26,28,08,11,07,,,,,,2.2,1.1,1.8*3D
$GPRMC,043712.000,A,3353.7459,N,09832.0131,W,0.73,87.23,030412,,,D*4E
$GPGGA,043713.000,3353.7461,N,09832.0134,W,2,07,1.1,337.5,M,-23.7,M,0.8,0000*43
$GPGSA,A,3,17,01,26,28,08,11,07,,,,,,2.2,1.1,1.8*3D
$GPRMC,043713.000,A,3353.7461,N,09832.0134,W,0.35,47.17,030412,,,D*48
$GPGGA,043714.000,3353.7461,N,09832.0134,W,2,07,1.1,337.9,M,-23.7,M,0.8,0000*48
$GPGSA,A,3,17,01,26,28,08,11,07,,,,,,2.2,1.1,1.8*3D
$GPRMC,043714.000,A,3353.7461,N,09832.0134,W,0.21,60.36,030412,,,D*4C
$GPGGA,043715.000,3353.7461,N,09832.0139,W,2,07,1.1,337.6,M,-23.7,M,1.8,0000*4A
$GPGSA,A,3,17,01,26,28,08,11,07,,,,,,2.2,1.1,1.8*3D
$GPGSV,3,1,12,17,66,262,20,08,63,153,39,28,62,358,34,01,39,065,15*71
$GPGSV,3,2,12,26,27,262,21,11,25,050,35,07,24,150,15,27,12,320,*7D
$GPGSV,3,3,12,15,09,305,,04,08,192,23,20,01,112,,51,49,195,38*78
$GPRMC,043715.000,A,3353.7461,N,09832.0139,W,0.39,83.39,030412,,,D*4B
$GPGGA,043716.000,3353.7461,N,09832.0142,W,2,07,1.1,337.3,M,-23.7,M,2.8,0000*43
$GPGSA,A,3,17,01,26,28,08,11,07,,,,,,2.2,1.1,1.8*3D
$GPRMC,043716.000,A,3353.7461,N,09832.0142,W,0.31,300.10,030412,,,D*7F
$GPGGA,043717.000,3353.7461,N,09832.0147,W,2,07,1.1,337.1,M,-23.7,M,0.8,0000*47
$GPGSA,A,3,17,01,26,28,08,11,07,,,,,,2.2,1.1,1.8*3D
$GPRMC,043717.000,A,3353.7461,N,09832.0147,W,0.10,346.04,030412,,,D*7F
$GPGGA,043718.000,3353.7461,N,09832.0149,W,2,06,1.7,336.7,M,-23.7,M,0.8,0000*46
$GPGSA,A,3,17,01,26,28,08,11,,,,,,,2.8,1.7,2.2*3F
$GPRMC,043718.000,A,3353.7461,N,09832.0149,W,0.43,303.03,030412,,,D*7E
$GPGGA,043719.000,3353.7462,N,09832.0154,W,2,07,1.1,336.4,M,-23.7,M,0.8,0000*4C
$GPGSA,A,3,17,01,26,28,08,11,07,,,,,,2.2,1.1,1.8*3D
$GPRMC,043719.000,A,3353.7462,N,09832.0154,W,0.70,298.69,030412,,,D*7F
$GPGGA,043720.000,3353.7463,N,09832.0155,W,2,07,1.1,336.8,M,-23.7,M,0.8,0000*4A
$GPGSA,A,3,17,01,26,28,08,11,07,,,,,,2.2,1.1,1.8*3D
$GPGSV,3,1,12,17,66,263,21,08,63,153,39,28,62,359,34,01,39,065,16*73
$GPGSV,3,2,12,26,27,262,21,11,25,050,35,07,24,150,15,27,12,320,*7D
$GPGSV,3,3,12,15,09,305,,04,08,192,24,20,01,112,,51,49,195,36*71
$GPRMC,043720.000,A,3353.7463,N,09832.0155,W,0.35,21.80,030412,,,D*43
$GPGGA,043721.000,3353.7463,N,09832.0155,W,2,07,1.1,336.8,M,-23.7,M,1.8,0000*4A
$GPGSA,A,3,17,01,26,28,08,11,07,,,,,,2.2,1.1,1.8*3D
$GPRMC,043721.000,A,3353.7463,N,09832.0155,W,0.50,61.09,030412,,,D*44
$GPGGA,043722.000,3353.7464,N,09832.0152,W,2,07,1.1,337.1,M,-23.7,M,2.8,0000*42
$GPGSA,A,3,17,01,26,28,08,11,07,,,,,,2.2,1.1,1.8*3D
$GPRMC,043722.000,A,3353.7464,N,09832.0152,W,0.45,85.04,030412,,,D*44
$GPGGA,043723.000,3353.7464,N,09832.0150,W,2,07,1.1,338.3,M,-23.7,M,0.8,0000*4E
$GPGSA,A,3,17,01,26,28,08,11,07,,,,,,2.2,1.1,1.8*3D
$GPRMC,043723.000,A,3353.7464,N,09832.0150,W,0.36,100.69,030412,,,D*74
$GPGGA,043724.000,3353.7465,N,09832.0147,W,2,07,1.1,339.4,M,-23.7,M,0.8,0000*48
$GPGSA,A,3,17,01,26,28,08,11,07,,,,,,2.2,1.1,1.8*3D
$GPRMC,043724.000,A,3353.7465,N,09832.0147,W,0.31,83.99,030412,,,D*46
$GPGGA,043725.000,3353.7466,N,09832.0145,W,2,07,1.1,340.2,M,-23.7,M,0.8,0000*40
$GPGSA,A,3,17,01,26,28,08,11,07,,,,,,2.2,1.1,1.8*3D
$GPGSV,3,1,12,17,66,263,22,08,63,153,39,28,62,359,34,01,39,065,17*71
$GPGSV,3,2,12,26,27,262,22,11,25,050,36,07,24,150,16,27,12,320,*7E
$GPGSV,3,3,12,15,09,305,,04,08,192,24,20,01,112,,51,49,195,36*71
$GPRMC,043725.000,A,3353.7466,N,09832.0145,W,0.27,67.37,030412,,,D*4F
$GPGGA,043726.000,3353.7466,N,09832.0146,W,2,07,1.1,340.8,M,-23.7,M,0.8,0000*4A
$GPGSA,A,3,17,01,26,28,08,11,07,,,,,,2.2,1.1,1.8*3D
$GPRMC,043726.000,A,3353.7466,N,09832.0146,W,0.29,82.33,030412,,,D*4E
$GPGGA,043727.000,3353.7466,N,09832.0148,W,2,07,1.1,341.0,M,-23.7,M,1.8,0000*4D
$GPGSA,A,3,17,01,26,28,08,11,07,,,,,,2.2,1.1,1.8*3D
$GPRMC,043727.000,A,3353.7466,N,09832.0148,W,0.22,106.81,030412,,,D*7E
$GPGGA,043728.000,3353.7464,N,09832.0150,W,2,07,1.1,340.5,M,-23.7,M,2.8,0000*4E
$GPGSA,A,3,17,01,26,28,08,11,07,,,,,,2.2,1.1,1.8*3D
$GPRMC,043728.000,A,3353.7464,N,09832.0150,W,0.49,128.37,030412,,,D*76
$GPGGA,043729.000,3353.7463,N,09832.0149,W,2,07,1.1,339.8,M,-23.7,M,3.8,0000*42
$GPGSA,A,3,17,01,26,28,08,11,07,,,,,,2.2,1.1,1.8*3D
$GPRMC,043729.000,A,3353.7463,N,09832.0149,W,0.43,136.86,030412,,,D*77
$GPGGA,043730.000,3353.7462,N,09832.0150,W,2,04,3.3,339.7,M,-23.7,M,0.8,0000*4C
$GPGSA,A,3,17,28,08,11,,,,,,,,,7.1,3.3,6.3*35
$GPGSV,3,1,12,17,66,263,22,08,63,153,39,28,62,359,34,01,39,065,17*71
$GPGSV,3,2,12,26,27,262,20,11,25,050,36,07,24,150,18,27,12,320,*72
$GPGSV,3,3,12,15,09,305,,04,08,192,24,20,01,112,,51,49,195,37*70
$GPRMC,043730.000,A,3353.7462,N,09832.0150,W,0.36,227.97,030412,,,D*77
$GPGGA,043731.000,3353.7462,N,09832.0148,W,2,04,3.3,339.8,M,-23.7,M,0.8,0000*4B
$GPGSA,A,3,17,28,08,11,,,,,,,,,7.1,3.3,6.3*35
$GPRMC,043731.000,A,3353.7462,N,09832.0148,W,0.09,118.42,030412,,,D*74
$GPGGA,043732.000,3353.7462,N,09832.0143,W,2,05,2.8,340.0,M,-23.7,M,1.8,0000*4F
$GPGSA,A,3,17,01,28,08,11,,,,,,,,6.4,2.8,5.8*32
$GPRMC,043732.000,A,3353.7462,N,09832.0143,W,0.39,79.10,030412,,,D*4E
$GPGGA,043733.000,3353.7463,N,09832.0140,W,2,04,3.3,340.4,M,-23.7,M,2.8,0000*40
$GPGSA,A,3,17,28,08,11,,,,,,,,,7.1,3.3,6.3*35
$GPRMC,043733.000,A,3353.7463,N,09832.0140,W,0.46,79.12,030412,,,D*47
$GPGGA,043734.000,3353.7463,N,09832.0132,W,2,05,2.8,341.1,M,-23.7,M,3.8,0000*4C
$GPGSA,A,3,17,01,28,08,11,,,,,,,,6.4,2.8,5.8*32
$GPRMC,043734.000,A,3353.7463,N,09832.0132,W,0.87,95.55,030412,,,D*49
$GPGGA,043735.000,3353.7464,N,09832.0127,W,2,05,2.8,341.9,M,-23.7,M,4.8,0000*41
$GPGSA,A,3,17,01,28,08,11,,,,,,,,6.4,2.8,5.8*32
$GPGSV,3,1,12,17,66,263,24,08,63,153,39,28,62,359,34,01,39,065,18*78
$GPGSV,3,2,12,26,27,262,,11,25,050,36,07,24,150,18,27,12,320,*70
$GPGSV,3,3,12,15,09,305,,04,08,192,24,20,01,112,,51,49,195,37*70
$GPRMC,043735.000,A,3353.7464,N,09832.0127,W,0.50,74.71,030412,,,D*48
$GPGGA,043736.000,3353.7465,N,09832.0120,W,2,05,2.8,342.9,M,-23.7,M,0.8,0000*43
$GPGSA,A,3,17,01,28,08,11,,,,,,,,6.4,2.8,5.8*32
$GPRMC,043736.000,A,3353.7465,N,09832.0120,W,0.48,57.77,030412,,,D*43
$GPGGA,043737.000,3353.7461,N,09832.0123,W,2,06,2.1,341.8,M,-23.7,M,0.8,0000*4D
$GPGSA,A,3,17,01,28,08,11,07,,,,,,,4.0,2.1,3.4*30
$GPRMC,043737.000,A,3353.7461,N,09832.0123,W,0.11,75.46,030412,,,D*4B
$GPGGA,043738.000,3353.7459,N,09832.0124,W,2,06,2.1,341.3,M,-23.7,M,0.8,0000*45
$GPGSA,A,3,17,01,28,08,11,07,,,,,,,4.0,2.1,3.4*30
$GPRMC,043738.000,A,3353.7459,N,09832.0124,W,0.54,105.49,030412,,,D*70
$GPGGA,043739.000,3353.7453,N,09832.0125,W,2,06,2.1,339.3,M,-23.7,M,0.8,0000*40
$GPGSA,A,3,17,01,28,08,11,07,,,,,,,4.0,2.1,3.4*30
$GPRMC,043739.000,A,3353.7453,N,09832.0125,W,0.69,118.51,030412,,,D*71
$GPGGA,043740.000,3353.7451,N,09832.0126,W,2,06,2.1,338.5,M,-23.7,M,0.8,0000*48
$GPGSA,A,3,17,01,28,08,11,07,,,,,,,4.0,2.1,3.4*30
$GPGSV,3,1,12,17,66,263,24,08,63,153,38,28,62,359,34,01,39,065,20*72
$GPGSV,3,2,12,26,27,262,,11,25,050,36,07,24,150,23,27,12,320,*78
$GPGSV,3,3,12,15,09,305,,04,08,192,24,20,01,112,,51,49,195,36*71
$GPRMC,043740.000,A,3353.7451,N,09832.0126,W,0.31,105.10,030412,,,D*7A
$GPGGA,043741.000,3353.7447,N,09832.0126,W,2,06,2.1,337.1,M,-23.7,M,1.8,0000*44
$GPGSA,A,3,17,01,28,08,11,07,,,,,,,4.0,2.1,3.4*30
$GPRMC,043741.000,A,3353.7447,N,09832.0126,W,0.39,152.72,030412,,,D*72
$GPGGA,043742.000,3353.7445,N,09832.0126,W,2,06,2.1,336.4,M,-23.7,M,0.8,0000*40
$GPGSA,A,3,17,01,28,08,11,07,,,,,,,4.0,2.1,3.4*30
$GPRMC,043742.000,A,3353.7445,N,09832.0126,W,0.40,140.07,030412,,,D*7C
$GPGGA,043743.000,3353.7443,N,09832.0127,W,2,06,2.1,335.7,M,-23.7,M,0.8,0000*46
$GPGSA,A,3,17,01,28,08,11,07,,,,,,,4.0,2.1,3.4*30
$GPRMC,043743.000,A,3353.7443,N,09832.0127,W,0.06,133.14,030412,,,D*7E
$GPGGA,043744.000,3353.7442,N,09832.0122,W,2,06,2.1,335.4,M,-23.7,M,0.8,0000*46
$GPGSA,A,3,17,01,28,08,11,07,,,,,,,4.0,2.1,3.4*30
$GPRMC,043744.000,A,3353.7442,N,09832.0122,W,0.21,188.08,030412,,,D*75
$GPGGA,043745.000,3353.7442,N,09832.0116,W,2,06,2.1,336.2,M,-23.7,M,0.8,0000*45
$GPGSA,A,3,17,01,28,08,11,07,,,,,,,4.0,2.1,3.4*30
$GPGSV,3,1,12,17,66,263,25,08,63,153,38,28,62,359,34,01,39,065,20*73
$GPGSV,3,2,12,26,27,262,,11,25,050,36,07,24,150,23,27,12,320,*78
$GPGSV,3,3,12,15,09,305,,04,08,192,24,20,01,112,,51,49,195,36*71
$GPRMC,043745.000,A,3353.7442,N,09832.0116,W,0.09,153.82,030412,,,D*7D
$GPGGA,043746.000,3353.7444,N,09832.0116,W,2,06,2.1,336.7,M,-23.7,M,1.8,0000*44
$GPGSA,A,3,17,01,28,08,11,07,,,,,,,4.0,2.1,3.4*30
$GPRMC,043746.000,A,3353.7444,N,09832.0116,W,0.16,327.32,030412,,,D*7C
$GPGGA,043747.000,3353.7444,N,09832.0111,W,2,06,2.1,337.1,M,-23.7,M,2.8,0000*46
$GPGSA,A,3,17,01,28,08,11,07,,,,,,,4.0,2.1,3.4*30
$GPRMC,043747.000,A,3353.7444,N,09832.0111,W,0.26,92.04,030412,,,D*41
$GPGGA,043748.000,3353.7445,N,09832.0103,W,2,06,2.1,338.7,M,-23.7,M,0.8,0000*40
$GPGSA,A,3,17,01,28,08,11,07,,,,,,,4.0,2.1,3.4*30
$GPRMC,043748.000,A,3353.7445,N,09832.0103,W,0.51,75.03,030412,,,D*42
$GPGGA,043749.000,3353.7446,N,09832.0097,W,2,06,2.1,339.4,M,-23.7,M,0.8,0000*4C
$GPGSA,A,3,17,01,28,08,11,07,,,,,,,4.0,2.1,3.4*30
$GPRMC,043749.000,A,3353.7446,N,09832.0097,W,0.52,92.88,030412,,,D*45
$GPGGA,043750.000,3353.7444,N,09832.0094,W,2,06,2.1,339.2,M,-23.7,M,0.8,0000*43
$GPGSA,A,3,17,01,28,08,11,07,,,,,,,4.0,2.1,3.4*30
$GPGSV,3,1,12,17,67,263,25,08,62,153,38,28,62,359,34,01,39,064,21*73
$GPGSV,3,2,12,26,27,261,,11,25,050,36,07,24,150,23,27,13,320,*7A
$GPGSV,3,3,12,15,09,305,,04,09,192,24,20,01,112,,51,49,195,38*7E
$GPRMC,043750.000,A,3353.7444,N,09832.0094,W,0.64,125.61,030412,,,D*73
$GPGGA,043751.000,3353.7442,N,09832.0089,W,2,06,2.1,339.2,M,-23.7,M,1.8,0000*49
$GPGSA,A,3,17,01,28,08,11,07,,,,,,,4.0,2.1,3.4*30
$GPRMC,043751.000,A,3353.7442,N,09832.0089,W,0.49,95.69,030412,,,D*45
$GPGGA,043752.000,3353.7442,N,09832.0087,W,2,07,1.1,339.3,M,-23.7,M,2.8,0000*44
$GPGSA,A,3,17,01,28,08,11,07,26,,,,,,2.1,1.1,1.8*3E
$GPRMC,043752.000,A,3353.7442,N,09832.0087,W,0.16,22.71,030412,,,D*47
$GPGGA,043753.000,3353.7443,N,09832.0084,W,2,05,2.8,339.8,M,-23.7,M,3.8,0000*45
$GPGSA,A,3,17,01,28,08,11,,,,,,,,6.4,2.8,5.7*3D
$GPRMC,043753.000,A,3353.7443,N,09832.0084,W,0.04,265.39,030412,,,D*7A
$GPGGA,043754.000,3353.7443,N,09832.0088,W,2,06,1.7,339.1,M,-23.7,M,0.8,0000*4B
$GPGSA,A,3,17,01,28,08,11,26,,,,,,,2.7,1.7,2.2*30
$GPRMC,043754.000,A,3353.7443,N,09832.0088,W,0.23,165.32,030412,,,D*7C
$GPGGA,043755.000,3353.7443,N,09832.0086,W,2,07,1.1,339.4,M,-23.7,M,0.8,0000*46
$GPGSA,A,3,17,01,28,08,11,07,26,,,,,,2.1,1.1,1.8*3E
$GPGSV,3,1,12,17,67,263,25,08,62,153,38,28,62,359,34,01,39,064,21*73
$GPGSV,3,2,12,26,27,261,20,11,25,050,36,07,24,150,19,27,13,320,*71
$GPGSV,3,3,12,15,09,305,,04,09,192,24,20,01,112,,51,49,195,36*70
$GPRMC,043755.000,A,3353.7443,N,09832.0086,W,0.60,113.07,030412,,,D*73
$GPGGA,043756.000,3353.7443,N,09832.0085,W,2,07,1.1,339.2,M,-23.7,M,0.8,0000*40
$GPGSA,A,3,17,01,28,08,11,07,26,,,,,,2.1,1.1,1.8*3E
$GPRMC,043756.000,A,3353.7443,N,09832.0085,W,0.82,114.50,030412,,,D*7A
$GPGGA,043757.000,3353.7444,N,09832.0090,W,2,06,1.7,338.4,M,-23.7,M,1.8,0000*43
$GPGSA,A,3,17,01,28,08,11,26,,,,,,,2.7,1.7,2.1*33
$GPRMC,043757.000,A,3353.7444,N,09832.0090,W,0.41,100.54,030412,,,D*76
$GPGGA,043758.000,3353.7445,N,09832.0095,W,2,06,1.7,337.9,M,-23.7,M,2.8,0000*49
$GPGSA,A,3,17,01,28,08,11,26,,,,,,,2.7,1.7,2.1*33
$GPRMC,043758.000,A,3353.7445,N,09832.0095,W,0.10,75.33,030412,,,D*4B
$GPGGA,043759.000,3353.7446,N,09832.0102,W,2,06,1.7,336.9,M,-23.7,M,3.8,0000*44
$GPGSA,A,3,17,01,28,08,11,26,,,,,,,2.7,1.7,2.1*33
$GPRMC,043759.000,A,3353.7446,N,09832.0102,W,0.22,291.15,030412,,,D*7B
$GPGGA,043800.000,3353.7447,N,09832.0106,W,2,06,1.7,335.9,M,-23.7,M,0.8,0000*42
$GPGSA,A,3,17,01,28,08,11,26,,,,,,,2.7,1.7,2.1*33
$GPGSV,3,1,12,17,67,263,25,08,62,153,38,28,62,359,34,01,39,064,21*73
$GPGSV,3,2,12,26,27,261,21,11,25,050,35,07,24,150,,27,13,320,*7B
$GPGSV,3,3,12,15,09,305,,04,09,192,24,20,01,112,,51,49,195,36*70
$GPRMC,043800.000,A,3353.7447,N,09832.0106,W,0.04,55.52,030412,,,D*40
$GPGGA,043801.000,3353.7446,N,09832.0119,W,2,06,1.7,332.5,M,-23.7,M,0.8,0000*47
$GPGSA,A,3,17,01,28,08,11,26,,,,,,,2.7,1.7,2.1*33
$GPRMC,043801.000,A,3353.7446,N,09832.0119,W,0.24,248.38,030412,,,D*7E
$GPGGA,043802.000,3353.7446,N,09832.0125,W,2,06,1.7,331.0,M,-23.7,M,0.8,0000*4D
$GPGSA,A,3,17,01,28,08,11,26,,,,,,,2.7,1.7,2.1*33
$GPRMC,043802.000,A,3353.7446,N,09832.0125,W,0.22,181.34,030412,,,D*7E
$GPGGA,043803.000,3353.7446,N,09832.0127,W,2,06,1.7,330.2,M,-23.7,M,1.8,0000*4C
$GPGSA,A,3,17,01,28,08,11,26,,,,,,,2.7,1.7,2.1*33
$GPRMC,043803.000,A,3353.7446,N,09832.0127,W,0.23,180.51,030412,,,D*7E
$GPGGA,043804.000,3353.7446,N,09832.0133,W,2,06,1.7,329.6,M,-23.7,M,2.8,0000*41
$GPGSA,A,3,17,01,28,08,11,26,,,,,,,2.7,1.7,2.1*33
$GPRMC,043804.000,A,3353.7446,N,09832.0133,W,0.36,228.87,030412,,,D*72
$GPGGA,043805.000,3353.7446,N,09832.0142,W,2,06,1.7,329.5,M,-23.7,M,0.8,0000*47
$GPGSA,A,3,17,01,28,08,11,26,,,,,,,2.7,1.7,2.1*33
$GPGSV,3,1,12,17,67,263,24,08,62,153,38,28,62,359,34,01,39,064,23*70
$GPGSV,3,2,12,26,27,261,22,11,25,050,35,07,24,150,,27,13,320,*78
$GPGSV,3,3,12,15,09,305,,04,09,192,24,20,01,112,19,51,49,195,36*78
$GPRMC,043805.000,A,3353.7446,N,09832.0142,W,0.57,255.96,030412,,,D*78
$GPGGA,043806.000,3353.7447,N,09832.0147,W,2,06,1.7,329.9,M,-23.7,M,0.8,0000*4C
$GPGSA,A,3,17,01,28,08,11,26,,,,,,,2.7,1.7,2.1*33
$GPRMC,043806.000,A,3353.7447,N,09832.0147,W,0.19,213.92,030412,,,D*73
$GPGGA,043807.000,3353.7448,N,09832.0150,W,2,06,1.7,330.6,M,-23.7,M,0.8,0000*43
$GPGSA,A,3,17,01,28,08,11,26,,,,,,,2.7,1.7,2.1*33
$GPRMC,043807.000,A,3353.7448,N,09832.0150,W,0.20,156.21,030412,,,D*7B
$GPGGA,043808.000,3353.7449,N,09832.0152,W,2,06,1.7,330.8,M,-23.7,M,0.8,0000*41
$GPGSA,A,3,17,01,28,08,11,26,,,,,,,2.7,1.7,2.1*33
$GPRMC,043808.000,A,3353.7449,N,09832.0152,W,0.27,107.51,030412,,,D*73
$GPGGA,043809.000,3353.7449,N,09832.0154,W,2,06,1.7,330.5,M,-23.7,M,1.8,0000*4A
$GPGSA,A,3,17,01,28,08,11,26,,,,,,,2.7,1.7,2.1*33
$GPRMC,043809.000,A,3353.7449,N,09832.0154,W,0.29,266.40,030412,,,D*7E
$GPGGA,043810.000,3353.7450,N,09832.0160,W,2,06,1.7,330.1,M,-23.7,M,0.8,0000*48
$GPGSA,A,3,17,01,28,08,11,26,,,,,,,2.7,1.7,2.1*33
$GPGSV,3,1,12,17,67,263,24,08,62,153,38,28,62,359,34,01,39,064,25*76
$GPGSV,3,2,12,26,27,261,21,11,25,050,34,07,24,150,13,27,13,320,*78
$GPGSV,3,3,12,15,09,305,,04,09,192,24,20,01,112,20,51,49,195,36*72
$GPRMC,043810.000,A,3353.7450,N,09832.0160,W,0.28,222.71,030412,,,D*7A
$GPGGA,043811.000,3353.7450,N,09832.0164,W,2,06,1.7,330.1,M,-23.7,M,1.8,0000*4C
$GPGSA,A,3,17,01,28,08,11,26,,,,,,,2.7,1.7,2.1*33
$GPRMC,043811.000,A,3353.7450,N,09832.0164,W,0.37,155.44,030412,,,D*74
$GPGGA,043812.000,3353.7449,N,09832.0169,W,2,06,1.7,329.4,M,-23.7,M,0.8,0000*46
$GPGSA,A,3,17,01,28,08,11,26,,,,,,,2.7,1.7,2.1*33
$GPRMC,043812.000,A,3353.7449,N,09832.0169,W,0.39,191.69,030412,,,D*7B
$GPGGA,043813.000,3353.7443,N,09832.0172,W,2,07,1.1,327.9,M,-23.7,M,0.8,0000*43
$GPGSA,A,3,17,01,28,08,11,07,26,,,,,,2.1,1.1,1.8*3E
$GPRMC,043813.000,A,3353.7443,N,09832.0172,W,0.48,246.57,030412,,,D*78
$GPGGA,043814.000,3353.7440,N,09832.0172,W,2,07,1.1,327.1,M,-23.7,M,0.8,0000*4F
$GPGSA,A,3,17,01,28,08,11,07,26,,,,,,2.1,1.1,1.8*3E
$GPRMC,043814.000,A,3353.7440,N,09832.0172,W,0.37,264.32,030412,,,D*77
$GPGGA,043815.000,3353.7442,N,09832.0174,W,2,07,1.1,327.7,M,-23.7,M,1.8,0000*4D
$GPGSA,A,3,17,01,28,08,11,07,26,,,,,,2.1,1.1,1.8*3E
$GPGSV,3,1,12,17,67,263,24,08,62,153,38,28,62,359,34,01,39,064,30*72
$GPGSV,3,2,12,26,27,261,21,11,25,050,34,07,24,150,23,27,13,320,*7B
$GPGSV,3,3,12,15,09,305,,04,09,192,24,20,01,112,22,51,49,195,37*71
$GPRMC,043815.000,A,3353.7442,N,09832.0174,W,0.10,33.82,030412,,,D*4C
$GPGGA,043816.000,3353.7446,N,09832.0174,W,2,07,1.1,328.8,M,-23.7,M,2.8,0000*49
$GPGSA,A,3,17,01,28,08,11,07,26,,,,,,2.1,1.1,1.8*3E
$GPRMC,043816.000,A,3353.7446,N,09832.0174,W,0.29,58.93,030412,,,D*4C
$GPGGA,043817.000,3353.7448,N,09832.0174,W,2,07,1.1,329.8,M,-23.7,M,0.8,0000*45
$GPGSA,A,3,17,01,28,08,11,07,26,,,,,,2.1,1.1,1.8*3E
$GPRMC,043817.000,A,3353.7448,N,09832.0174,W,0.23,44.83,030412,,,D*45
$GPGGA,043818.000,3353.7449,N,09832.0175,W,2,07,1.1,330.1,M,-23.7,M,0.8,0000*4B
$GPGSA,A,3,17,01,28,08,11,07,26,,,,,,2.1,1.1,1.8*3E
$GPRMC,043818.000,A,3353.7449,N,09832.0175,W,0.33,316.11,030412,,,D*74
$GPGGA,043819.000,3353.7450,N,09832.0176,W,2,07,1.1,330.0,M,-23.7,M,0.8,0000*40
$GPGSA,A,3,17,01,28,08,11,07,26,,,,,,2.1,1.1,1.8*3E
$GPRMC,043819.000,A,3353.7450,N,09832.0176,W,0.39,298.14,030412,,,D*76
$GPGGA,043820.000,3353.7449,N,09832.0178,W,2,07,1.1,329.9,M,-23.7,M,0.8,0000*4D
$GPGSA,A,3,17,01,28,08,11,07,26,,,,,,2.1,1.1,1.8*3E
$GPGSV,3,1,12,17,67,264,25,08,62,153,38,28,62,000,34,01,39,064,30*7B
$GPGSV,3,2,12,26,27,261,20,11,25,050,33,07,23,150,23,27,13,320,*7A
$GPGSV,3,3,12,15,09,305,,04,09,192,23,20,01,111,22,51,49,195,37*75
$GPRMC,043820.000,A,3353.7449,N,09832.0178,W,0.18,261.90,030412,,,D*73
$GPGGA,043821.000,3353.7450,N,09832.0178,W,2,07,1.1,330.5,M,-23.7,M,0.8,0000*40
$GPGSA,A,3,17,01,28,08,11,07,26,,,,,,2.1,1.1,1.8*3E
$GPRMC,043821.000,A,3353.7450,N,09832.0178,W,0.17,98.03,030412,,,D*4B
$GPGGA,043822.000,3353.7451,N,09832.0178,W,2,07,1.1,330.8,M,-23.7,M,0.8,0000*4F
$GPGSA,A,3,17,01,28,08,11,07,26,,,,,,2.1,1.1,1.8*3E
$GPRMC,043822.000,A,3353.7451,N,09832.0178,W,0.12,185.53,030412,,,D*74
$GPGGA,043823.000,3353.7452,N,09832.0178,W,2,07,1.1,331.2,M,-23.7,M,1.8,0000*47
$GPGSA,A,3,17,01,28,08,11,07,26,,,,,,2.1,1.1,1.8*3E
$GPRMC,043823.000,A,3353.7452,N,09832.0178,W,0.19,335.94,030412,,,D*7F
$GPGGA,043824.000,3353.7453,N,09832.0178,W,2,07,1.1,331.4,M,-23.7,M,0.8,0000*46
$GPGSA,A,3,17,01,28,08,11,07,26,,,,,,2.1,1.1,1.8*3E
$GPRMC,043824.000,A,3353.7453,N,09832.0178,W,0.21,284.73,030412,,,D*70
$GPGGA,043825.000,3353.7455,N,09832.0179,W,2,07,1.1,331.9,M,-23.7,M,0.8,0000*4D
$GPGSA,A,3,17,01,28,08,11,07,26,,,,,,2.1,1.1,1.8*3E
$GPGSV,3,1,12,17,67,264,26,08,62,153,38,28,62,000,34,01,39,064,30*78
$GPGSV,3,2,12,26,27,261,16,11,25,050,32,07,23,150,23,27,13,320,*7E
$GPGSV,3,3,12,15,09,305,,04,09,192,23,20,01,111,22,51,49,195,37*75
$GPRMC,043825.000,A,3353.7455,N,09832.0179,W,0.47,300.59,030412,,,D*73
$GPGGA,043826.000,3353.7457,N,09832.0180,W,2,07,1.1,332.4,M,-23.7,M,0.8,0000*44
$GPGSA,A,3,17,01,28,08,11,07,26,,,,,,2.1,1.1,1.8*3E
$GPRMC,043826.000,A,3353.7457,N,09832.0180,W,0.33,284.96,030412,,,D*79
$GPGGA,043827.000,3353.7459,N,09832.0180,W,2,07,1.1,333.4,M,-23.7,M,1.8,0000*4B
$GPGSA,A,3,17,01,28,08,11,07,26,,,,,,2.1,1.1,1.8*3E
$GPRMC,043827.000,A,3353.7459,N,09832.0180,W,0.09,292.46,030412,,,D*75
$GPGGA,043828.000,3353.7462,N,09832.0181,W,2,07,1.1,334.3,M,-23.7,M,2.8,0000*4E
$GPGSA,A,3,17,01,28,08,11,07,26,,,,,,2.1,1.1,1.8*3E
$GPRMC,043828.000,A,3353.7462,N,09832.0181,W,0.20,207.85,030412,,,D*7B
$GPGGA,043829.000,3353.7463,N,09832.0180,W,2,07,1.1,335.3,M,-23.7,M,3.8,0000*4F
$GPGSA,A,3,17,01,28,08,11,07,26,,,,,,2.1,1.1,1.8*3E
$GPRMC,043829.000,A,3353.7463,N,09832.0180,W,0.45,107.93,030412,,,D*7D
$GPGGA,043830.000,3353.7462,N,09832.0179,W,2,07,1.1,335.3,M,-23.7,M,0.8,0000*43
$GPGSA,A,3,17,01,28,08,11,07,26,,,,,,2.1,1.1,1.8*3E
$GPGSV,3,1,12,17,67,264,25,08,62,153,38,28,62,000,34,01,39,064,30*7B
$GPGSV,3,2,12,26,27,261,18,11,25,050,32,07,23,150,23,27,13,320,*70
$GPGSV,3,3,12,15,09,305,,04,09,192,19,20,01,111,22,51,49,195,36*7D
$GPRMC,043830.000,A,3353.7462,N,09832.0179,W,0.33,145.74,030412,,,D*7C
$GPGGA,043831.000,3353.7460,N,09832.0180,W,2,07,1.1,334.9,M,-23.7,M,0.8,0000*4D
$GPGSA,A,3,17,01,28,08,11,07,26,,,,,,2.1,1.1,1.8*3E
$GPRMC,043831.000,A,3353.7460,N,09832.0180,W,0.18,208.34,030412,,,D*7E
$GPGGA,043832.000,3353.7460,N,09832.0181,W,2,07,1.1,334.9,M,-23.7,M,0.8,0000*4F
$GPGSA,A,3,17,01,28,08,11,07,26,,,,,,2.1,1.1,1.8*3E
$GPRMC,043832.000,A,3353.7460,N,09832.0181,W,0.30,269.43,030412,,,D*71
$GPGGA,043833.000,3353.7460,N,09832.0183,W,2,07,1.1,334.7,M,-23.7,M,1.8,0000*43
$GPGSA,A,3,17,01,28,08,11,07,26,,,,,,2.1,1.1,1.8*3E
$GPRMC,043833.000,A,3353.7460,N,09832.0183,W,0.44,289.46,030412,,,D*7A
$GPGGA,043834.000,3353.7459,N,09832.0184,W,2,07,1.1,334.3,M,-23.7,M,2.8,0000*4E
$GPGSA,A,3,17,01,28,08,11,07,26,,,,,,2.1,1.1,1.8*3E
$GPRMC,043834.000,A,3353.7459,N,09832.0184,W,0.21,225.41,030412,,,D*72
$GPGGA,043835.000,3353.7458,N,09832.0184,W,2,07,1.1,333.9,M,-23.7,M,3.8,0000*42
$GPGSA,A,3,17,01,28,08,11,07,26,,,,,,2.1,1.1,1.8*3E
$GPGSV,3,1,12,17,67,264,26,08,62,153,38,28,62,000,34,01,39,064,31*79
$GPGSV,3,2,12,26,27,261,18,11,25,050,31,07,23,150,21,27,13,320,*71
$GPGSV,3,3,12,15,09,305,,04,09,192,18,20,01,111,22,51,49,195,36*7C
$GPRMC,043835.000,A,3353.7458,N,09832.0184,W,0.39,136.76,030412,,,D*7E
$GPGGA,043836.000,3353.7456,N,09832.0183,W,2,07,1.1,333.6,M,-23.7,M,0.8,0000*44
$GPGSA,A,3,17,01,28,08,11,07,26,,,,,,2.1,1.1,1.8*3E
$GPRMC,043836.000,A,3353.7456,N,09832.0183,W,0.21,101.96,030412,,,D*77
$GPGGA,043837.000,3353.7453,N,09832.0183,W,2,07,1.1,332.9,M,-23.7,M,0.8,0000*4E
$GPGSA,A,3,17,01,28,08,11,07,26,,,,,,2.1,1.1,1.8*3E
$GPRMC,043837.000,A,3353.7453,N,09832.0183,W,0.38,117.77,030412,,,D*73
$GPGGA,043838.000,3353.7452,N,09832.0182,W,2,07,1.1,332.4,M,-23.7,M,0.8,0000*4C
$GPGSA,A,3,17,01,28,08,11,07,26,,,,,,2.1,1.1,1.8*3E
$GPRMC,043838.000,A,3353.7452,N,09832.0182,W,0.34,133.07,030412,,,D*71
$GPGGA,043839.000,3353.7451,N,09832.0183,W,2,07,1.1,332.0,M,-23.7,M,1.8,0000*4A
$GPGSA,A,3,17,01,28,08,11,07,26,,,,,,2.1,1.1,1.8*3E
$GPRMC,043839.000,A,3353.7451,N,09832.0183,W,0.38,180.62,030412,,,D*75
$GPGGA,043840.000,3353.7448,N,09832.0184,W,2,07,1.1,331.2,M,-23.7,M,2.8,0000*49
$GPGSA,A,3,17,01,28,08,11,07,26,,,,,,2.1,1.1,1.8*3E
$GPGSV,3,1,12,17,67,264,26,08,62,153,38,28,62,000,34,01,39,064,31*79
$GPGSV,3,2,12,26,27,261,18,11,25,050,31,07,23,150,21,27,13,320,*71
$GPGSV,3,3,12,15,09,305,,04,09,192,18,20,01,111,22,51,49,195,36*7C
$GPRMC,043840.000,A,3353.7448,N,09832.0184,W,0.34,247.58,030412,,,D*79
$GPGGA,043841.000,3353.7449,N,09832.0186,W,2,07,1.1,331.2,M,-23.7,M,3.8,0000*4A
$GPGSA,A,3,17,01,28,08,11,07,26,,,,,,2.1,1.1,1.8*3E
$GPRMC,043841.000,A,3353.7449,N,09832.0186,W,0.46,284.43,030412,,,D*7B
$GPGGA,043842.000,3353.7452,N,09832.0188,W,2,07,1.1,331.8,M,-23.7,M,0.8,0000*44
$GPGSA,A,3,17,01,28,08,11,07,26,,,,,,2.1,1.1,1.8*3E
$GPRMC,043842.000,A,3353.7452,N,09832.0188,W,0.69,294.63,030412,,,D*72
$GPGGA,043843.000,3353.7454,N,09832.0189,W,2,06,2.1,332.5,M,-23.7,M,0.8,0000*4E
$GPGSA,A,3,17,01,28,08,11,07,,,,,,,3.9,2.1,3.4*3E
$GPRMC,043843.000,A,3353.7454,N,09832.0189,W,0.17,284.21,030412,,,D*7A
$GPGGA,043844.000,3353.7456,N,09832.0189,W,2,06,2.1,332.9,M,-23.7,M,0.8,0000*47
$GPGSA,A,3,17,01,28,08,11,07,,,,,,,3.9,2.1,3.4*3E
$GPRMC,043844.000,A,3353.7456,N,09832.0189,W,0.11,318.57,030412,,,D*7C
$GPGGA,043845.000,3353.7458,N,09832.0188,W,2,06,2.1,333.6,M,-23.7,M,1.8,0000*46
$GPGSA,A,3,17,01,28,08,11,07,,,,,,,3.9,2.1,3.4*3E
