$GPGGA,145909.000,3352.4669,N,09831.1866,W,1,09,1.0,287.7,M,-23.7,M,240.8,0000*47
$GPGSA,A,3,15,21,27,14,09,03,22,29,18,,,,1.9,1.0,1.7*32
$GPGSV,3,1,12,21,81,032,17,18,64,333,36,15,48,048,41,22,33,279,27*70
$GPGSV,3,2,12,27,28,086,36,06,28,299,,09,28,115,34,29,20,179,29*7D
$GPGSV,3,3,12,03,18,307,32,14,16,211,23,26,05,038,15,48,36,230,33*72
$GPRMC,145909.000,A,3352.4669,N,09831.1866,W,0.26,52.57,310312,,,A*4F
$GPGGA,145910.000,3352.4669,N,09831.1866,W,1,09,1.0,287.8,M,-23.7,M,0.8,0000*46
$GPGSA,A,3,15,21,27,14,09,03,22,29,18,,,,1.9,1.0,1.7*32
$GPRMC,145910.000,A,3352.4669,N,09831.1866,W,0.08,37.06,310312,,,A*4C
$GPGGA,145911.000,3352.4667,N,09831.1866,W,2,09,1.0,288.2,M,-23.7,M,0.8,0000*4F
$GPGSA,A,3,15,21,27,14,09,03,22,29,18,,,,1.9,1.0,1.7*32
$GPRMC,145911.000,A,3352.4667,N,09831.1866,W,0.03,29.70,310312,,,D*43
$GPGGA,145912.000,3352.4667,N,09831.1866,W,2,09,1.0,288.3,M,-23.7,M,1.8,0000*4C
$GPGSA,A,3,15,21,27,14,09,03,22,29,18,,,,1.9,1.0,1.7*32
$GPRMC,145912.000,A,3352.4667,N,09831.1866,W,0.07,58.55,310312,,,D*45
$GPGGA,145913.000,3352.4667,N,09831.1866,W,2,10,0.9,288.4,M,-23.7,M,2.8,0000*49
$GPGSA,A,3,15,21,27,14,09,03,22,06,29,18,,,1.9,0.9,1.6*3D
$GPRMC,145913.000,A,3352.4667,N,09831.1866,W,0.09,125.99,310312,,,D*71
$GPGGA,145914.000,3352.4668,N,09831.1865,W,2,10,0.9,288.4,M,-23.7,M,3.8,0000*43
$GPGSA,A,3,15,21,27,14,09,03,22,06,29,18,,,1.9,0.9,1.6*3D
$GPGSV,3,1,12,21,81,035,18,18,64,334,37,15,48,048,42,22,33,279,28*72
$GPGSV,3,2,12,27,28,086,38,09,28,114,34,06,28,299,20,29,19,179,30*72
$GPGSV,3,3,12,03,18,307,31,14,17,211,25,26,05,038,18,48,36,230,34*7C
$GPRMC,145914.000,A,3352.4668,N,09831.1865,W,0.14,85.49,310312,,,D*40
$GPGGA,145915.000,3352.4668,N,09831.1865,W,2,10,0.9,288.6,M,-23.7,M,4.8,0000*47
$GPGSA,A,3,15,21,27,14,09,03,22,06,29,18,,,1.9,0.9,1.6*3D
$GPRMC,145915.000,A,3352.4668,N,09831.1865,W,0.11,88.84,310312,,,D*48
$GPGGA,145916.000,3352.4668,N,09831.1864,W,2,10,0.9,288.5,M,-23.7,M,5.8,0000*47
$GPGSA,A,3,15,21,27,14,09,03,22,06,29,18,,,1.9,0.9,1.6*3D
$GPRMC,145916.000,A,3352.4668,N,09831.1864,W,0.07,46.72,310312,,,D*46
$GPGGA,145917.000,3352.4669,N,09831.1864,W,2,10,0.9,288.5,M,-23.7,M,6.8,0000*44
$GPGSA,A,3,15,21,27,14,09,03,22,06,29,18,,,1.9,0.9,1.6*3D
$GPRMC,145917.000,A,3352.4669,N,09831.1864,W,0.13,60.78,310312,,,D*4D
$GPGGA,145918.000,3352.4669,N,09831.1863,W,2,10,0.9,288.5,M,-23.7,M,7.8,0000*4D
$GPGSA,A,3,15,21,27,14,09,03,22,06,29,18,,,1.9,0.9,1.6*3D
$GPRMC,145918.000,A,3352.4669,N,09831.1863,W,0.11,11.34,310312,,,D*49
$GPGGA,145919.000,3352.4670,N,09831.1863,W,2,10,0.9,288.5,M,-23.7,M,8.8,0000*4B
$GPGSA,A,3,15,21,27,14,09,03,22,06,29,18,,,1.9,0.9,1.6*3D
$GPGSV,3,1,12,21,81,035,18,18,64,334,37,15,47,048,42,22,33,279,28*7D
$GPGSV,3,2,12,27,28,086,38,09,28,114,34,06,28,299,22,29,19,179,30*70
$GPGSV,3,3,12,03,18,307,31,14,17,211,25,26,05,038,19,48,36,230,34*7D
$GPRMC,145919.000,A,3352.4670,N,09831.1863,W,0.07,25.03,310312,,,D*44
$GPGGA,145920.000,3352.4670,N,09831.1863,W,2,10,0.9,288.6,M,-23.7,M,9.8,0000*43
$GPGSA,A,3,15,21,27,14,09,03,22,06,29,18,,,1.9,0.9,1.6*3D
$GPRMC,145920.000,A,3352.4670,N,09831.1863,W,0.08,28.61,310312,,,D*48
$GPGGA,145921.000,3352.4671,N,09831.1862,W,2,10,0.9,288.6,M,-23.7,M,10.8,0000*7A
$GPGSA,A,3,15,21,27,14,09,03,22,06,29,18,,,1.9,0.9,1.6*3D
$GPRMC,145921.000,A,3352.4671,N,09831.1862,W,0.10,43.81,310312,,,D*43
$GPGGA,145922.000,3352.4671,N,09831.1862,W,2,10,0.9,288.7,M,-23.7,M,11.8,0000*79
$GPGSA,A,3,15,21,27,14,09,03,22,06,29,18,,,1.9,0.9,1.6*3D
$GPRMC,145922.000,A,3352.4671,N,09831.1862,W,0.09,28.66,310312,,,D*4C
$GPGGA,145923.000,3352.4671,N,09831.1862,W,2,10,0.9,288.6,M,-23.7,M,12.8,0000*7A
$GPGSA,A,3,15,21,27,14,09,03,22,06,29,18,,,1.9,0.9,1.6*3D
$GPRMC,145923.000,A,3352.4671,N,09831.1862,W,0.10,24.36,310312,,,D*4C
$GPGGA,145924.000,3352.4672,N,09831.1862,W,2,10,0.9,288.7,M,-23.7,M,13.8,0000*7E
$GPGSA,A,3,15,21,27,14,09,03,22,06,29,18,,,1.9,0.9,1.6*3D
$GPGSV,3,1,12,21,81,035,18,18,64,334,37,15,47,048,42,22,33,279,28*7D
$GPGSV,3,2,12,27,28,086,39,09,28,114,34,06,28,299,24,29,19,179,30*77
$GPGSV,3,3,12,03,18,307,31,14,17,211,26,26,05,038,19,48,36,230,34*7E
$GPRMC,145924.000,A,3352.4672,N,09831.1862,W,0.07,0.00,310312,,,D*7D
$GPGGA,145925.000,3352.4672,N,09831.1861,W,2,10,0.9,288.8,M,-23.7,M,14.8,0000*74
$GPGSA,A,3,15,21,27,14,09,03,22,06,29,18,,,1.9,0.9,1.6*3D
$GPRMC,145925.000,A,3352.4672,N,09831.1861,W,0.09,64.23,310312,,,D*42
$GPGGA,145926.000,3352.4672,N,09831.1861,W,2,10,0.9,288.8,M,-23.7,M,15.8,0000*76
$GPGSA,A,3,15,21,27,14,09,03,22,06,29,18,,,1.9,0.9,1.6*3D
$GPRMC,145926.000,A,3352.4672,N,09831.1861,W,0.04,29.28,310312,,,D*4E
$GPGGA,145927.000,3352.4673,N,09831.1861,W,2,10,0.9,288.9,M,-23.7,M,16.8,0000*74
$GPGSA,A,3,15,21,27,14,09,03,22,06,29,18,,,1.9,0.9,1.6*3D
$GPRMC,145927.000,A,3352.4673,N,09831.1861,W,0.07,8.61,310312,,,D*73
$GPGGA,145928.000,3352.4673,N,09831.1861,W,2,10,0.9,288.9,M,-23.7,M,17.8,0000*7A
$GPGSA,A,3,15,21,27,14,09,03,22,06,29,18,,,1.9,0.9,1.6*3D
$GPRMC,145928.000,A,3352.4673,N,09831.1861,W,0.06,32.10,310312,,,D*42
$GPGGA,145929.000,3352.4673,N,09831.1860,W,1,10,0.9,288.9,M,-23.7,M,18.8,0000*76
$GPGSA,A,3,15,21,27,14,09,03,22,06,29,18,,,1.9,0.9,1.6*3D
$GPGSV,3,1,12,21,81,035,18,18,64,334,37,15,47,048,42,22,33,279,28*7D
$GPGSV,3,2,12,27,28,086,39,09,28,114,35,06,28,299,24,29,19,179,31*77
$GPGSV,3,3,12,03,18,307,30,14,17,211,26,26,05,038,20,48,36,230,34*75
$GPRMC,145929.000,A,3352.4673,N,09831.1860,W,0.13,62.06,310312,,,A*41
$GPGGA,145930.000,3352.4674,N,09831.1860,W,1,10,0.9,288.9,M,-23.7,M,18.8,0000*79
$GPGSA,A,3,15,21,27,14,09,03,22,06,29,18,,,1.9,0.9,1.6*3D
$GPRMC,145930.000,A,3352.4674,N,09831.1860,W,0.10,36.63,310312,,,A*4F
$GPGGA,145931.000,3352.4674,N,09831.1860,W,1,10,0.9,288.9,M,-23.7,M,18.8,0000*78
$GPGSA,A,3,15,21,27,14,09,03,22,06,29,18,,,1.9,0.9,1.6*3D
$GPRMC,145931.000,A,3352.4674,N,09831.1860,W,0.09,60.64,310312,,,A*42
$GPGGA,145932.000,3352.4674,N,09831.1860,W,1,10,0.9,288.9,M,-23.7,M,18.8,0000*7B
$GPGSA,A,3,15,21,27,14,09,03,22,06,29,18,,,1.9,0.9,1.6*3D
$GPRMC,145932.000,A,3352.4674,N,09831.1860,W,0.07,352.66,310312,,,A*7F
$GPGGA,145933.000,3352.4674,N,09831.1860,W,2,10,0.9,289.0,M,-23.7,M,0.8,0000*48
$GPGSA,A,3,15,21,27,14,09,03,22,06,29,18,,,1.9,0.9,1.6*3D
$GPRMC,145933.000,A,3352.4674,N,09831.1860,W,0.06,56.04,310312,,,D*49
$GPGGA,145934.000,3352.4674,N,09831.1860,W,2,10,0.9,289.1,M,-23.7,M,1.8,0000*4F
$GPGSA,A,3,15,21,27,14,09,03,22,06,29,18,,,1.9,0.9,1.6*3D
$GPGSV,3,1,12,21,81,035,18,18,64,334,37,15,47,048,42,22,33,279,29*7C
$GPGSV,3,2,12,27,28,086,39,09,28,114,35,06,28,299,24,29,19,179,31*77
$GPGSV,3,3,12,03,18,307,30,14,17,211,26,26,05,038,20,48,36,230,34*75
$GPRMC,145934.000,A,3352.4674,N,09831.1860,W,0.05,2.49,310312,,,D*75
$GPGGA,145935.000,3352.4674,N,09831.1860,W,2,10,0.9,289.2,M,-23.7,M,,0000*6A
$GPGSA,A,3,15,21,27,14,09,03,22,06,29,18,,,1.9,0.9,1.6*3D
$GPRMC,145935.000,A,3352.4674,N,09831.1860,W,0.08,83.67,310312,,,D*4C
$GPGGA,145936.000,3352.4674,N,09831.1860,W,2,10,0.9,289.1,M,-23.7,M,1.8,0000*4D
$GPGSA,A,3,15,21,27,14,09,03,22,06,29,18,,,1.9,0.9,1.6*3D
$GPRMC,145936.000,A,3352.4674,N,09831.1860,W,0.11,65.96,310312,,,D*41
$GPGGA,145937.000,3352.4674,N,09831.1859,W,2,10,0.9,289.1,M,-23.7,M,2.8,0000*45
$GPGSA,A,3,15,21,27,14,09,03,22,06,29,18,,,1.9,0.9,1.6*3D
$GPRMC,145937.000,A,3352.4674,N,09831.1859,W,0.09,356.67,310312,,,D*7E
$GPGGA,145938.000,3352.4674,N,09831.1859,W,2,10,0.9,289.0,M,-23.7,M,3.8,0000*4A
$GPGSA,A,3,15,21,27,14,09,03,22,06,29,18,,,1.9,0.9,1.6*3D
$GPRMC,145938.000,A,3352.4674,N,09831.1859,W,0.14,68.17,310312,,,D*44
$GPGGA,145939.000,3352.4675,N,09831.1859,W,2,10,0.9,288.9,M,-23.7,M,,0000*67
$GPGSA,A,3,15,21,27,14,09,03,22,06,29,18,,,1.9,0.9,1.6*3D
$GPGSV,3,1,12,21,81,035,17,18,64,334,37,15,47,048,42,22,33,279,29*73
$GPGSV,3,2,12,27,28,086,39,09,28,114,34,06,28,299,23,29,19,179,31*71
$GPGSV,3,3,12,03,18,307,31,14,17,211,27,26,05,038,20,48,36,230,34*75
$GPRMC,145939.000,A,3352.4675,N,09831.1859,W,0.12,37.92,310312,,,D*45
$GPGGA,145940.000,3352.4675,N,09831.1859,W,2,10,0.9,289.0,M,-23.7,M,,0000*61
$GPGSA,A,3,15,21,27,14,09,03,22,06,29,18,,,1.9,0.9,1.6*3D
$GPRMC,145940.000,A,3352.4675,N,09831.1859,W,0.08,341.51,310312,,,D*7D
$GPGGA,145941.000,3352.4675,N,09831.1859,W,2,10,0.9,289.0,M,-23.7,M,1.8,0000*47
$GPGSA,A,3,15,21,27,14,09,03,22,06,29,18,,,1.9,0.9,1.6*3D
$GPRMC,145941.000,A,3352.4675,N,09831.1859,W,0.07,27.09,310312,,,D*4D
$GPGGA,145942.000,3352.4675,N,09831.1859,W,2,10,0.9,288.9,M,-23.7,M,2.8,0000*4F
$GPGSA,A,3,15,21,27,14,09,03,22,06,29,18,,,1.9,0.9,1.6*3D
$GPRMC,145942.000,A,3352.4675,N,09831.1859,W,0.10,13.65,310312,,,D*45
$GPGGA,145943.000,3352.4675,N,09831.1859,W,2,10,0.9,288.9,M,-23.7,M,3.8,0000*4F
$GPGSA,A,3,15,21,27,14,09,03,22,06,29,18,,,1.9,0.9,1.6*3D
$GPRMC,145943.000,A,3352.4675,N,09831.1859,W,0.14,38.82,310312,,,D*40
$GPGGA,145944.000,3352.4675,N,09831.1859,W,2,10,0.9,288.8,M,-23.7,M,4.8,0000*4E
$GPGSA,A,3,15,21,27,14,09,03,22,06,29,18,,,1.9,0.9,1.6*3D
$GPGSV,3,1,12,21,81,035,17,18,64,334,37,15,47,048,42,22,33,279,30*7B
$GPGSV,3,2,12,27,28,086,39,09,28,114,34,06,28,299,24,29,19,179,31*76
$GPGSV,3,3,12,03,18,307,31,14,17,211,27,26,05,038,20,48,36,230,33*72
$GPRMC,145944.000,A,3352.4675,N,09831.1859,W,0.11,30.77,310312,,,D*40
$GPGGA,145945.000,3352.4675,N,09831.1859,W,2,10,0.9,288.9,M,-23.7,M,5.8,0000*4F
$GPGSA,A,3,15,21,27,14,09,03,22,06,29,18,,,1.9,0.9,1.6*3D
$GPRMC,145945.000,A,3352.4675,N,09831.1859,W,0.09,44.70,310312,,,D*4C
$GPGGA,145946.000,3352.4675,N,09831.1858,W,2,10,0.9,288.8,M,-23.7,M,6.8,0000*4F
$GPGSA,A,3,15,21,27,14,09,03,22,06,29,18,,,1.9,0.9,1.6*3D
$GPRMC,145946.000,A,3352.4675,N,09831.1858,W,0.13,58.24,310312,,,D*49
$GPGGA,145947.000,3352.4676,N,09831.1858,W,2,10,0.9,288.8,M,-23.7,M,7.8,0000*4C
$GPGSA,A,3,15,21,27,14,09,03,22,06,29,18,,,1.9,0.9,1.6*3D
$GPRMC,145947.000,A,3352.4676,N,09831.1858,W,0.12,38.03,310312,,,D*49
$GPGGA,145948.000,3352.4676,N,09831.1858,W,2,10,0.9,288.8,M,-23.7,M,8.8,0000*4C
$GPGSA,A,3,15,21,27,14,09,03,22,06,29,18,,,1.9,0.9,1.6*3D
$GPRMC,145948.000,A,3352.4676,N,09831.1858,W,0.11,34.83,310312,,,D*41
$GPGGA,145949.000,3352.4676,N,09831.1858,W,2,10,0.9,288.8,M,-23.7,M,9.8,0000*4C
$GPGSA,A,3,15,21,27,14,09,03,22,06,29,18,,,1.9,0.9,1.6*3D
$GPGSV,3,1,12,21,81,035,18,18,64,334,37,15,47,048,41,22,33,279,29*7F
$GPGSV,3,2,12,27,28,086,38,09,28,114,34,06,28,299,25,29,19,179,31*76
$GPGSV,3,3,12,03,18,307,31,14,17,211,27,26,05,038,20,48,36,230,34*75
$GPRMC,145949.000,A,3352.4676,N,09831.1858,W,0.08,44.82,310312,,,D*4E
$GPGGA,145950.000,3352.4676,N,09831.1858,W,2,10,0.9,288.8,M,-23.7,M,10.8,0000*7C
$GPGSA,A,3,15,21,27,14,09,03,22,06,29,18,,,1.9,0.9,1.6*3D
$GPRMC,145950.000,A,3352.4676,N,09831.1858,W,0.12,32.85,310312,,,D*4B
$GPGGA,145951.000,3352.4676,N,09831.1858,W,2,10,0.9,288.9,M,-23.7,M,11.8,0000*7D
$GPGSA,A,3,15,21,27,14,09,03,22,06,29,18,,,1.9,0.9,1.6*3D
$GPRMC,145951.000,A,3352.4676,N,09831.1858,W,0.09,40.64,310312,,,D*4A
$GPGGA,145952.000,3352.4676,N,09831.1858,W,2,10,0.9,288.8,M,-23.7,M,12.8,0000*7C
$GPGSA,A,3,15,21,27,14,09,03,22,06,29,18,,,1.9,0.9,1.6*3D
$GPRMC,145952.000,A,3352.4676,N,09831.1858,W,0.11,35.57,310312,,,D*42
$GPGGA,145953.000,3352.4676,N,09831.1857,W,2,10,0.9,288.8,M,-23.7,M,13.8,0000*73
$GPGSA,A,3,15,21,27,14,09,03,22,06,29,18,,,1.9,0.9,1.6*3D
$GPRMC,145953.000,A,3352.4676,N,09831.1857,W,0.12,32.32,310312,,,D*4B
$GPGGA,145954.000,3352.4676,N,09831.1857,W,2,10,0.9,288.9,M,-23.7,M,14.8,0000*72
$GPGSA,A,3,15,21,27,14,09,03,22,06,29,18,,,1.9,0.9,1.6*3D
$GPGSV,3,1,12,21,81,035,19,18,64,334,37,15,47,048,41,22,33,279,29*7E
$GPGSV,3,2,12,27,28,086,38,09,28,114,34,06,28,299,25,29,19,179,30*77
$GPGSV,3,3,12,03,18,307,31,14,17,211,27,26,05,038,20,48,36,230,33*72
$GPRMC,145954.000,A,3352.4676,N,09831.1857,W,0.07,46.75,310312,,,D*48
$GPGGA,145955.000,3352.4675,N,09831.1857,W,2,10,0.9,289.0,M,-23.7,M,15.8,0000*79
$GPGSA,A,3,15,21,27,14,09,03,22,06,29,18,,,1.9,0.9,1.6*3D
$GPRMC,145955.000,A,3352.4675,N,09831.1857,W,0.07,43.83,310312,,,D*46
$GPGGA,145956.000,3352.4675,N,09831.1857,W,2,10,0.9,289.1,M,-23.7,M,16.8,0000*78
$GPGSA,A,3,15,21,27,14,09,03,22,06,29,18,,,1.9,0.9,1.6*3D
$GPRMC,145956.000,A,3352.4675,N,09831.1857,W,0.04,75.24,310312,,,D*4E
$GPGGA,145957.000,3352.4675,N,09831.1857,W,2,10,0.9,289.2,M,-23.7,M,17.8,0000*7B
$GPGSA,A,3,15,21,27,14,09,03,22,06,29,18,,,1.9,0.9,1.6*3D
$GPRMC,145957.000,A,3352.4675,N,09831.1857,W,0.13,38.93,310312,,,D*4C
$GPGGA,145958.000,3352.4675,N,09831.1857,W,1,10,0.9,289.4,M,-23.7,M,18.8,0000*7E
$GPGSA,A,3,15,21,27,14,09,03,22,06,29,18,,,1.9,0.9,1.6*3D
$GPRMC,145958.000,A,3352.4675,N,09831.1857,W,0.05,34.17,310312,,,A*41
$GPGGA,145959.000,3352.4675,N,09831.1857,W,2,10,0.9,289.4,M,-23.7,M,0.8,0000*45
$GPGSA,A,3,15,21,27,14,09,03,22,06,29,18,,,1.9,0.9,1.6*3D
$GPGSV,3,1,12,21,81,035,19,18,64,334,37,15,47,048,41,22,33,279,28*7F
$GPGSV,3,2,12,27,28,086,38,09,28,114,34,06,28,299,26,29,19,179,30*74
$GPGSV,3,3,12,03,18,307,31,14,17,211,27,26,05,038,20,48,36,230,34*75
$GPRMC,145959.000,A,3352.4675,N,09831.1857,W,0.08,51.72,310312,,,D*48
$GPGGA,150000.000,3352.4675,N,09831.1857,W,2,10,0.9,289.4,M,-23.7,M,1.8,0000*45
$GPGSA,A,3,15,21,27,14,09,03,22,06,29,18,,,1.9,0.9,1.6*3D
$GPRMC,150000.000,A,3352.4675,N,09831.1857,W,0.07,36.27,310312,,,D*47
$GPGGA,150001.000,3352.4675,N,09831.1857,W,2,10,0.9,289.5,M,-23.7,M,2.8,0000*46
$GPGSA,A,3,15,21,27,14,09,03,22,06,29,18,,,1.9,0.9,1.6*3D
$GPRMC,150001.000,A,3352.4675,N,09831.1857,W,0.08,45.15,310312,,,D*4C
$GPGGA,150002.000,3352.4675,N,09831.1857,W,2,10,0.9,289.6,M,-23.7,M,3.8,0000*47
$GPGSA,A,3,15,21,27,14,09,03,22,06,29,18,,,1.9,0.9,1.6*3D
$GPRMC,150002.000,A,3352.4675,N,09831.1857,W,0.07,36.35,310312,,,D*46
$GPGGA,150003.000,3352.4675,N,09831.1857,W,2,10,0.9,289.5,M,-23.7,M,4.8,0000*42
$GPGSA,A,3,15,21,27,14,09,03,22,06,29,18,,,1.9,0.9,1.6*3D
$GPRMC,150003.000,A,3352.4675,N,09831.1857,W,0.10,38.76,310312,,,D*48
$GPGGA,150004.000,3352.4675,N,09831.1857,W,2,10,0.9,289.5,M,-23.7,M,0.8,0000*41
$GPGSA,A,3,15,21,27,14,09,03,22,06,29,18,,,1.9,0.9,1.6*3D
$GPGSV,3,1,12,21,82,038,18,18,64,334,37,15,47,048,41,22,33,279,28*70
$GPGSV,3,2,12,27,28,085,38,09,28,114,34,06,28,298,26,29,19,179,29*7E
$GPGSV,3,3,12,03,18,306,31,14,17,212,27,26,05,038,20,48,36,230,33*70
$GPRMC,150004.000,A,3352.4675,N,09831.1857,W,0.11,45.93,310312,,,D*4F
$GPGGA,150005.000,3352.4675,N,09831.1856,W,2,10,0.9,289.5,M,-23.7,M,1.8,0000*40
$GPGSA,A,3,15,21,27,14,09,03,22,06,29,18,,,1.9,0.9,1.6*3D
$GPRMC,150005.000,A,3352.4675,N,09831.1856,W,0.13,35.57,310312,,,D*42
$GPGGA,150006.000,3352.4676,N,09831.1856,W,2,10,0.9,289.5,M,-23.7,M,2.8,0000*43
$GPGSA,A,3,15,21,27,14,09,03,22,06,29,18,,,1.9,0.9,1.6*3D
$GPRMC,150006.000,A,3352.4676,N,09831.1856,W,0.13,32.36,310312,,,D*42
$GPGGA,150007.000,3352.4676,N,09831.1856,W,2,10,0.9,289.5,M,-23.7,M,3.8,0000*43
$GPGSA,A,3,15,21,27,14,09,03,22,06,29,18,,,1.9,0.9,1.6*3D
$GPRMC,150007.000,A,3352.4676,N,09831.1856,W,0.09,41.81,310312,,,D*40
$GPGGA,150008.000,3352.4675,N,09831.1856,W,2,10,0.9,289.6,M,-23.7,M,4.8,0000*4B
$GPGSA,A,3,15,21,27,14,09,03,22,06,29,18,,,1.9,0.9,1.6*3D
$GPRMC,150008.000,A,3352.4675,N,09831.1856,W,0.09,44.67,310312,,,D*41
$GPGGA,150009.000,3352.4675,N,09831.1856,W,2,10,0.9,289.8,M,-23.7,M,,0000*66
$GPGSA,A,3,15,21,27,14,09,03,22,06,29,18,,,1.9,0.9,1.6*3D
$GPGSV,3,1,12,21,82,038,19,18,64,334,37,15,47,048,42,22,33,279,28*72
$GPGSV,3,2,12,27,28,085,38,09,28,114,35,06,28,298,26,29,19,179,29*7F
$GPGSV,3,3,12,03,18,306,31,14,17,212,27,26,05,038,20,48,36,230,34*77
$GPRMC,150009.000,A,3352.4675,N,09831.1856,W,0.05,31.46,310312,,,D*4D
$GPGGA,150010.000,3352.4675,N,09831.1856,W,2,10,0.9,289.7,M,-23.7,M,1.8,0000*46
$GPGSA,A,3,15,21,27,14,09,03,22,06,29,18,,,1.9,0.9,1.6*3D
$GPRMC,150010.000,A,3352.4675,N,09831.1856,W,0.10,43.57,310312,,,D*44
$GPGGA,150011.000,3352.4674,N,09831.1856,W,2,10,0.9,289.7,M,-23.7,M,,0000*61
$GPGSA,A,3,15,21,27,14,09,03,22,06,29,18,,,1.9,0.9,1.6*3D
$GPRMC,150011.000,A,3352.4674,N,09831.1856,W,0.09,39.64,310312,,,D*41
$GPGGA,150012.000,3352.4674,N,09831.1856,W,2,10,0.9,289.8,M,-23.7,M,1.8,0000*4A
$GPGSA,A,3,15,21,27,14,09,03,22,06,29,18,,,1.9,0.9,1.6*3D
$GPRMC,150012.000,A,3352.4674,N,09831.1856,W,0.07,55.29,310312,,,D*4F
$GPGGA,150013.000,3352.4673,N,09831.1856,W,2,10,0.9,289.9,M,-23.7,M,2.8,0000*4E
$GPGSA,A,3,15,21,27,14,09,03,22,06,29,18,,,1.9,0.9,1.6*3D
$GPRMC,150013.000,A,3352.4673,N,09831.1856,W,0.07,47.69,310312,,,D*4E
$GPGGA,150014.000,3352.4673,N,09831.1858,W,2,10,0.9,289.7,M,-23.7,M,3.8,0000*48
$GPGSA,A,3,15,21,27,14,09,03,22,06,29,18,,,1.9,0.9,1.6*3D
$GPGSV,3,1,12,21,82,038,20,18,64,334,37,15,47,048,42,22,33,279,28*78
$GPGSV,3,2,12,27,28,085,37,09,28,114,35,06,28,298,26,29,19,179,28*71
$GPGSV,3,3,12,03,18,306,31,14,17,212,27,26,05,038,20,48,36,230,34*77
$GPRMC,150014.000,A,3352.4673,N,09831.1858,W,0.10,4.05,310312,,,D*7C
$GPGGA,150015.000,3352.4673,N,09831.1860,W,2,10,0.9,289.7,M,-23.7,M,4.8,0000*45
$GPGSA,A,3,15,21,27,14,09,03,22,06,29,18,,,1.9,0.9,1.6*3D
$GPRMC,150015.000,A,3352.4673,N,09831.1860,W,0.05,28.29,310312,,,D*42
$GPGGA,150016.000,3352.4672,N,09831.1862,W,2,10,0.9,289.7,M,-23.7,M,5.8,0000*44
$GPGSA,A,3,15,21,27,14,09,03,22,06,29,18,,,1.9,0.9,1.6*3D
$GPRMC,150016.000,A,3352.4672,N,09831.1862,W,0.07,32.85,310312,,,D*4D
$GPGGA,150017.000,3352.4671,N,09831.1863,W,2,10,0.9,289.7,M,-23.7,M,6.8,0000*44
$GPGSA,A,3,15,21,27,14,09,03,22,06,29,18,,,1.9,0.9,1.6*3D
$GPRMC,150017.000,A,3352.4671,N,09831.1863,W,0.08,66.58,310312,,,D*40
$GPGGA,150018.000,3352.4671,N,09831.1864,W,2,10,0.9,289.6,M,-23.7,M,7.8,0000*4C
$GPGSA,A,3,15,21,27,14,09,03,22,06,29,18,,,1.9,0.9,1.6*3D
$GPRMC,150018.000,A,3352.4671,N,09831.1864,W,0.08,38.84,310312,,,D*42
$GPGGA,150019.000,3352.4670,N,09831.1865,W,2,10,0.9,289.5,M,-23.7,M,8.8,0000*41
$GPGSA,A,3,15,21,27,14,09,03,22,06,29,18,,,1.9,0.9,1.6*3D
$GPGSV,3,1,12,21,82,038,21,18,64,334,37,15,47,048,42,22,33,279,29*78
$GPGSV,3,2,12,27,28,085,37,09,28,114,35,06,28,298,26,29,19,179,28*71
$GPGSV,3,3,12,03,18,306,31,14,17,212,27,26,05,038,19,48,36,230,34*7D
$GPRMC,150019.000,A,3352.4670,N,09831.1865,W,0.09,32.30,310312,,,D*47
$GPGGA,150020.000,3352.4670,N,09831.1866,W,2,10,0.9,289.5,M,-23.7,M,9.8,0000*49
$GPGSA,A,3,15,21,27,14,09,03,22,06,29,18,,,1.9,0.9,1.6*3D
$GPRMC,150020.000,A,3352.4670,N,09831.1866,W,0.08,16.01,310312,,,D*4B
$GPGGA,150021.000,3352.4669,N,09831.1867,W,2,10,0.9,289.3,M,-23.7,M,10.8,0000*7F
$GPGSA,A,3,15,21,27,14,09,03,22,06,29,18,,,1.9,0.9,1.6*3D
$GPRMC,150021.000,A,3352.4669,N,09831.1867,W,0.12,27.14,310312,,,D*4E
$GPGGA,150022.000,3352.4669,N,09831.1868,W,2,10,0.9,289.2,M,-23.7,M,11.8,0000*73
$GPGSA,A,3,15,21,27,14,09,03,22,06,29,18,,,1.9,0.9,1.6*3D
$GPRMC,150022.000,A,3352.4669,N,09831.1868,W,0.13,7.59,310312,,,D*78
$GPGGA,150023.000,3352.4668,N,09831.1869,W,2,10,0.9,289.2,M,-23.7,M,12.8,0000*71
$GPGSA,A,3,15,21,27,14,09,03,22,06,29,18,,,1.9,0.9,1.6*3D
$GPRMC,150023.000,A,3352.4668,N,09831.1869,W,0.10,41.07,310312,,,D*43
$GPGGA,150024.000,3352.4668,N,09831.1869,W,2,10,0.9,289.1,M,-23.7,M,13.8,0000*74
$GPGSA,A,3,15,21,27,14,09,03,22,06,29,18,,,1.9,0.9,1.6*3D
$GPGSV,3,1,12,21,82,038,22,18,64,334,38,15,47,048,42,22,33,279,29*74
$GPGSV,3,2,12,27,28,085,37,09,28,114,35,06,28,298,26,29,19,179,28*71
$GPGSV,3,3,12,03,18,306,31,14,17,212,27,26,05,038,19,48,36,230,33*7A
$GPRMC,150024.000,A,3352.4668,N,09831.1869,W,0.14,36.01,310312,,,D*46
$GPGGA,150025.000,3352.4667,N,09831.1870,W,2,10,0.9,289.1,M,-23.7,M,14.8,0000*75
$GPGSA,A,3,15,21,27,14,09,03,22,06,29,18,,,1.9,0.9,1.6*3D
$GPRMC,150025.000,A,3352.4667,N,09831.1870,W,0.06,34.04,310312,,,D*44
$GPGGA,150026.000,3352.4666,N,09831.1871,W,2,10,0.9,289.2,M,-23.7,M,15.8,0000*74
$GPGSA,A,3,15,21,27,14,09,03,22,06,29,18,,,1.9,0.9,1.6*3D
$GPRMC,150026.000,A,3352.4666,N,09831.1871,W,0.07,33.61,310312,,,D*42
$GPGGA,150027.000,3352.4665,N,09831.1871,W,2,10,0.9,289.2,M,-23.7,M,16.8,0000*75
$GPGSA,A,3,15,21,27,14,09,03,22,06,29,18,,,1.9,0.9,1.6*3D
$GPRMC,150027.000,A,3352.4665,N,09831.1871,W,0.09,30.85,310312,,,D*47
$GPGGA,150028.000,3352.4665,N,09831.1872,W,2,10,0.9,289.1,M,-23.7,M,17.8,0000*7B
$GPGSA,A,3,15,21,27,14,09,03,22,06,29,18,,,1.9,0.9,1.6*3D
$GPRMC,150028.000,A,3352.4665,N,09831.1872,W,0.11,35.17,310312,,,D*4C
$GPGGA,150029.000,3352.4664,N,09831.1872,W,1,10,0.9,289.1,M,-23.7,M,18.8,0000*77
$GPGSA,A,3,15,21,27,14,09,03,22,06,29,18,,,1.9,0.9,1.6*3D
$GPGSV,3,1,12,21,82,038,22,18,64,334,38,15,47,048,42,22,33,279,30*7C
$GPGSV,3,2,12,27,28,085,37,09,28,114,36,06,28,298,27,29,19,179,27*7C
$GPGSV,3,3,12,03,18,306,32,14,17,212,27,26,05,038,19,48,36,230,34*7E
$GPRMC,150029.000,A,3352.4664,N,09831.1872,W,0.09,26.76,310312,,,A*45
$GPGGA,150030.000,3352.4665,N,09831.1872,W,1,10,0.9,289.1,M,-23.7,M,18.8,0000*7E
$GPGSA,A,3,15,21,27,14,09,03,22,06,29,18,,,1.9,0.9,1.6*3D
$GPRMC,150030.000,A,3352.4665,N,09831.1872,W,0.11,29.56,310312,,,A*48
$GPGGA,150031.000,3352.4665,N,09831.1872,W,1,10,0.9,289.1,M,-23.7,M,18.8,0000*7F
$GPGSA,A,3,15,21,27,14,09,03,22,06,29,18,,,1.9,0.9,1.6*3D
$GPRMC,150031.000,A,3352.4665,N,09831.1872,W,0.11,32.27,310312,,,A*45
$GPGGA,150032.000,3352.4665,N,09831.1872,W,1,10,0.9,289.0,M,-23.7,M,18.8,0000*7D
$GPGSA,A,3,15,21,27,14,09,03,22,06,29,18,,,1.9,0.9,1.6*3D
$GPRMC,150032.000,A,3352.4665,N,09831.1872,W,0.13,27.82,310312,,,A*4F
$GPGGA,150033.000,3352.4663,N,09831.1873,W,2,10,0.9,288.9,M,-23.7,M,,0000*6F
$GPGSA,A,3,15,21,27,14,09,03,22,06,29,18,,,1.9,0.9,1.6*3D
$GPRMC,150033.000,A,3352.4663,N,09831.1873,W,0.11,30.29,310312,,,D*49
$GPGGA,150034.000,3352.4662,N,09831.1874,W,2,10,0.9,288.9,M,-23.7,M,,0000*6E
$GPGSA,A,3,15,21,27,14,09,03,22,06,29,18,,,1.9,0.9,1.6*3D
$GPGSV,3,1,12,21,82,038,22,18,64,334,38,15,47,048,42,22,33,279,31*7D
$GPGSV,3,2,12,27,28,085,37,09,28,114,36,06,28,298,27,29,19,179,27*7C
$GPGSV,3,3,12,03,18,306,32,14,17,212,27,26,05,038,19,48,36,230,34*7E
$GPRMC,150034.000,A,3352.4662,N,09831.1874,W,0.12,33.60,310312,,,D*45
$GPGGA,150035.000,3352.4661,N,09831.1874,W,2,10,0.9,288.9,M,-23.7,M,1.8,0000*4B
$GPGSA,A,3,15,21,27,14,09,03,22,06,29,18,,,1.9,0.9,1.6*3D
$GPRMC,150035.000,A,3352.4661,N,09831.1874,W,0.11,28.72,310312,,,D*4D
$GPGGA,150036.000,3352.4660,N,09831.1875,W,2,10,0.9,289.0,M,-23.7,M,2.8,0000*43
$GPGSA,A,3,15,21,27,14,09,03,22,06,29,18,,,1.9,0.9,1.6*3D
$GPRMC,150036.000,A,3352.4660,N,09831.1875,W,0.09,29.89,310312,,,D*42
$GPGGA,150037.000,3352.4660,N,09831.1875,W,2,10,0.9,288.9,M,-23.7,M,3.8,0000*4B
$GPGSA,A,3,15,21,27,14,09,03,22,06,29,18,,,1.9,0.9,1.6*3D
$GPRMC,150037.000,A,3352.4660,N,09831.1875,W,0.12,32.48,310312,,,D*4E
$GPGGA,150038.000,3352.4659,N,09831.1875,W,2,10,0.9,288.9,M,-23.7,M,4.8,0000*49
$GPGSA,A,3,15,21,27,14,09,03,22,06,29,18,,,1.9,0.9,1.6*3D
$GPRMC,150038.000,A,3352.4659,N,09831.1875,W,0.12,31.32,310312,,,D*45
$GPGGA,150039.000,3352.4659,N,09831.1876,W,2,10,0.9,288.8,M,-23.7,M,5.8,0000*4B
$GPGSA,A,3,15,21,27,14,09,03,22,06,29,18,,,1.9,0.9,1.6*3D
$GPGSV,3,1,12,21,82,038,22,18,64,334,38,15,47,048,42,22,33,279,31*7D
$GPGSV,3,2,12,27,28,085,37,09,28,114,36,06,28,298,27,29,19,179,27*7C
$GPGSV,3,3,12,03,18,306,33,14,17,212,26,26,05,038,18,48,36,230,34*7F
$GPRMC,150039.000,A,3352.4659,N,09831.1876,W,0.14,27.71,310312,,,D*41
$GPGGA,150040.000,3352.4658,N,09831.1876,W,2,10,0.9,288.8,M,-23.7,M,6.8,0000*47
$GPGSA,A,3,15,21,27,14,09,03,22,06,29,18,,,1.9,0.9,1.6*3D
$GPRMC,150040.000,A,3352.4658,N,09831.1876,W,0.11,29.18,310312,,,D*4A
$GPGGA,150041.000,3352.4657,N,09831.1876,W,2,10,0.9,288.9,M,-23.7,M,7.8,0000*49
$GPGSA,A,3,15,21,27,14,09,03,22,06,29,18,,,1.9,0.9,1.6*3D
$GPRMC,150041.000,A,3352.4657,N,09831.1876,W,0.10,30.21,310312,,,D*47
$GPGGA,150042.000,3352.4656,N,09831.1877,W,2,10,0.9,288.9,M,-23.7,M,8.8,0000*45
$GPGSA,A,3,15,21,27,14,09,03,22,06,29,18,,,1.9,0.9,1.6*3D
$GPRMC,150042.000,A,3352.4656,N,09831.1877,W,0.06,30.80,310312,,,D*48
$GPGGA,150043.000,3352.4656,N,09831.1877,W,2,10,0.9,288.9,M,-23.7,M,9.8,0000*45
$GPGSA,A,3,15,21,27,14,09,03,22,06,29,18,,,1.9,0.9,1.6*3D
$GPRMC,150043.000,A,3352.4656,N,09831.1877,W,0.13,32.95,310312,,,D*4B
$GPGGA,150044.000,3352.4655,N,09831.1877,W,2,10,0.9,289.0,M,-23.7,M,10.8,0000*71
$GPGSA,A,3,15,21,27,14,09,03,22,06,29,18,,,1.9,0.9,1.6*3D
$GPGSV,3,1,12,21,82,038,23,18,64,334,38,15,47,048,41,22,33,279,32*7C
$GPGSV,3,2,12,27,28,085,37,09,28,114,36,06,28,298,27,29,19,179,27*7C
$GPGSV,3,3,12,03,18,306,33,14,17,212,26,26,05,038,18,48,36,230,34*7F
$GPRMC,150044.000,A,3352.4655,N,09831.1877,W,0.08,23.22,310312,,,D*49
$GPGGA,150045.000,3352.4654,N,09831.1877,W,2,10,0.9,289.1,M,-23.7,M,11.8,0000*71
$GPGSA,A,3,15,21,27,14,09,03,22,06,29,18,,,1.9,0.9,1.6*3D
$GPRMC,150045.000,A,3352.4654,N,09831.1877,W,0.09,24.63,310312,,,D*4A
$GPGGA,150046.000,3352.4654,N,09831.1878,W,2,10,0.9,289.1,M,-23.7,M,12.8,0000*7E
$GPGSA,A,3,15,21,27,14,09,03,22,06,29,18,,,1.9,0.9,1.6*3D
$GPRMC,150046.000,A,3352.4654,N,09831.1878,W,0.08,36.92,310312,,,D*4A
$GPGGA,150047.000,3352.4653,N,09831.1878,W,2,10,0.9,289.1,M,-23.7,M,,0000*6D
$GPGSA,A,3,15,21,27,14,09,03,22,06,29,18,,,1.9,0.9,1.6*3D
$GPRMC,150047.000,A,3352.4653,N,09831.1878,W,0.08,30.26,310312,,,D*45
$GPGGA,150048.000,3352.4653,N,09831.1878,W,2,10,0.9,289.2,M,-23.7,M,1.8,0000*46
$GPGSA,A,3,15,21,27,14,09,03,22,06,29,18,,,1.9,0.9,1.6*3D
$GPRMC,150048.000,A,3352.4653,N,09831.1878,W,0.10,31.61,310312,,,D*41
$GPGGA,150049.000,3352.4652,N,09831.1878,W,2,10,0.9,289.3,M,-23.7,M,2.8,0000*44
$GPGSA,A,3,15,21,27,14,09,03,22,06,29,18,,,1.9,0.9,1.6*3D
$GPGSV,3,1,12,21,82,038,24,18,64,334,38,15,47,048,41,22,33,279,33*7A
$GPGSV,3,2,12,27,28,085,37,09,28,114,36,06,28,298,27,29,19,179,27*7C
$GPGSV,3,3,12,03,18,306,33,14,17,212,27,26,05,038,18,48,36,230,33*79
$GPRMC,150049.000,A,3352.4652,N,09831.1878,W,0.07,30.78,310312,,,D*4E
$GPGGA,150050.000,3352.4652,N,09831.1878,W,2,10,0.9,289.2,M,-23.7,M,3.8,0000*4C
$GPGSA,A,3,15,21,27,14,09,03,22,06,29,18,,,1.9,0.9,1.6*3D
$GPRMC,150050.000,A,3352.4652,N,09831.1878,W,0.10,32.87,310312,,,D*42
$GPGGA,150051.000,3352.4651,N,09831.1879,W,2,10,0.9,289.2,M,-23.7,M,4.8,0000*48
$GPGSA,A,3,15,21,27,14,09,03,22,06,29,18,,,1.9,0.9,1.6*3D
$GPRMC,150051.000,A,3352.4651,N,09831.1879,W,0.12,29.00,310312,,,D*46
$GPGGA,150052.000,3352.4651,N,09831.1879,W,2,10,0.9,289.3,M,-23.7,M,5.8,0000*4B
$GPGSA,A,3,15,21,27,14,09,03,22,06,29,18,,,1.9,0.9,1.6*3D
$GPRMC,150052.000,A,3352.4651,N,09831.1879,W,0.10,34.29,310312,,,D*40
$GPGGA,150053.000,3352.4650,N,09831.1879,W,2,10,0.9,289.3,M,-23.7,M,0.8,0000*4E
$GPGSA,A,3,15,21,27,14,09,03,22,06,29,18,,,1.9,0.9,1.6*3D
$GPRMC,150053.000,A,3352.4650,N,09831.1879,W,0.11,25.84,310312,,,D*46
$GPGGA,150054.000,3352.4650,N,09831.1879,W,2,10,0.9,289.4,M,-23.7,M,1.8,0000*4F
$GPGSA,A,3,15,21,27,14,09,03,22,06,29,18,,,1.9,0.9,1.6*3D
$GPGSV,3,1,12,21,82,038,25,18,64,334,38,15,47,048,41,22,33,279,33*7B
$GPGSV,3,2,12,27,28,085,37,09,28,114,36,06,28,298,27,29,19,179,27*7C
$GPGSV,3,3,12,03,18,306,33,14,17,212,27,26,05,038,18,48,36,230,34*7E
$GPRMC,150054.000,A,3352.4650,N,09831.1879,W,0.11,24.99,310312,,,D*4C
$GPGGA,150055.000,3352.4649,N,09831.1879,W,2,10,0.9,289.4,M,-23.7,M,2.8,0000*45
$GPGSA,A,3,15,21,27,14,09,03,22,06,29,18,,,1.9,0.9,1.6*3D
$GPRMC,150055.000,A,3352.4649,N,09831.1879,W,0.09,22.96,310312,,,D*45
$GPGGA,150056.000,3352.4649,N,09831.1879,W,2,10,0.9,289.4,M,-23.7,M,3.8,0000*47
$GPGSA,A,3,15,21,27,14,09,03,22,06,29,18,,,1.9,0.9,1.6*3D
$GPRMC,150056.000,A,3352.4649,N,09831.1879,W,0.11,20.64,310312,,,D*40
$GPGGA,150057.000,3352.4648,N,09831.1880,W,2,10,0.9,289.5,M,-23.7,M,,0000*65
$GPGSA,A,3,15,21,27,14,09,03,22,06,29,18,,,1.9,0.9,1.6*3D
$GPRMC,150057.000,A,3352.4648,N,09831.1880,W,0.10,24.54,310312,,,D*40
$GPGGA,150058.000,3352.4648,N,09831.1880,W,2,10,0.9,289.6,M,-23.7,M,,0000*69
$GPGSA,A,3,15,21,27,14,09,03,22,06,29,18,,,1.9,0.9,1.6*3D
$GPRMC,150058.000,A,3352.4648,N,09831.1880,W,0.10,23.59,310312,,,D*45
$GPGGA,150059.000,3352.4648,N,09831.1880,W,2,10,0.9,289.6,M,-23.7,M,1.8,0000*4F
$GPGSA,A,3,15,21,27,14,09,03,22,06,29,18,,,1.9,0.9,1.6*3D
$GPGSV,3,1,12,21,82,038,26,18,64,334,38,15,47,048,41,22,33,279,34*7F
$GPGSV,3,2,12,27,28,085,36,09,28,114,36,06,28,298,27,29,19,179,27*7D
$GPGSV,3,3,12,03,18,306,34,14,17,212,28,26,05,038,18,48,36,230,34*76
$GPRMC,150059.000,A,3352.4648,N,09831.1880,W,0.11,26.50,310312,,,D*49
$GPGGA,150100.000,3352.4647,N,09831.1880,W,2,10,0.9,289.6,M,-23.7,M,2.8,0000*4E
$GPGSA,A,3,15,21,27,14,09,03,22,06,29,18,,,1.9,0.9,1.6*3D
$GPRMC,150100.000,A,3352.4647,N,09831.1880,W,0.10,21.71,310312,,,D*4E
$GPGGA,150101.000,3352.4647,N,09831.1880,W,2,10,0.9,289.7,M,-23.7,M,3.8,0000*4F
$GPGSA,A,3,15,21,27,14,09,03,22,06,29,18,,,1.9,0.9,1.6*3D
$GPRMC,150101.000,A,3352.4647,N,09831.1880,W,0.10,26.71,310312,,,D*48
$GPGGA,150102.000,3352.4647,N,09831.1880,W,2,10,0.9,289.7,M,-23.7,M,4.8,0000*4B
$GPGSA,A,3,15,21,27,14,09,03,22,06,29,18,,,1.9,0.9,1.6*3D
$GPRMC,150102.000,A,3352.4647,N,09831.1880,W,0.10,24.80,310312,,,D*47
$GPGGA,150103.000,3352.4646,N,09831.1880,W,2,10,0.9,289.7,M,-23.7,M,,0000*69
$GPGSA,A,3,15,21,27,14,09,03,22,06,29,18,,,1.9,0.9,1.6*3D
$GPRMC,150103.000,A,3352.4646,N,09831.1880,W,0.15,31.13,310312,,,D*4C
$GPGGA,150104.000,3352.4646,N,09831.1880,W,2,10,0.9,289.8,M,-23.7,M,,0000*61
$GPGSA,A,3,15,21,27,14,09,03,22,06,29,18,,,1.9,0.9,1.6*3D
$GPGSV,3,1,12,21,82,038,27,18,64,334,38,15,47,048,41,22,33,279,34*7E
$GPGSV,3,2,12,27,28,085,36,09,28,114,36,06,28,298,27,29,19,179,27*7D
$GPGSV,3,3,12,03,18,306,34,14,17,212,28,26,05,038,18,48,36,230,33*71
$GPRMC,150104.000,A,3352.4646,N,09831.1880,W,0.16,31.65,310312,,,D*49
$GPGGA,150105.000,3352.4646,N,09831.1880,W,2,10,0.9,289.8,M,-23.7,M,1.8,0000*47
$GPGSA,A,3,15,21,27,14,09,03,22,06,29,18,,,1.9,0.9,1.6*3D
$GPRMC,150105.000,A,3352.4646,N,09831.1880,W,0.15,28.10,310312,,,D*41
$GPGGA,150106.000,3352.4646,N,09831.1880,W,2,10,0.9,289.8,M,-23.7,M,2.8,0000*47
$GPGSA,A,3,15,21,27,14,09,03,22,06,29,18,,,1.9,0.9,1.6*3D
$GPRMC,150106.000,A,3352.4646,N,09831.1880,W,0.14,32.63,310312,,,D*4C
$GPGGA,150107.000,3352.4646,N,09831.1880,W,2,10,0.9,289.9,M,-23.7,M,3.8,0000*46
$GPGSA,A,3,15,21,27,14,09,03,22,06,29,18,,,1.9,0.9,1.6*3D
$GPRMC,150107.000,A,3352.4646,N,09831.1880,W,0.16,29.95,310312,,,D*4C
$GPGGA,150108.000,3352.4646,N,09831.1880,W,2,10,0.9,289.9,M,-23.7,M,4.8,0000*4E
$GPGSA,A,3,15,21,27,14,09,03,22,06,29,18,,,1.9,0.9,1.6*3D
$GPRMC,150108.000,A,3352.4646,N,09831.1880,W,0.17,30.59,310312,,,D*4A
$GPGGA,150109.000,3352.4646,N,09831.1880,W,2,10,0.9,289.9,M,-23.7,M,5.8,0000*4E
$GPGSA,A,3,15,21,27,14,09,03,22,06,29,18,,,1.9,0.9,1.6*3D
$GPGSV,3,1,12,21,82,038,27,18,64,334,38,15,47,048,41,22,33,279,34*7E
$GPGSV,3,2,12,27,28,085,36,09,28,114,36,06,28,298,28,29,19,179,28*7D
$GPGSV,3,3,12,03,18,306,34,14,17,212,29,26,05,038,18,48,36,230,34*77
$GPRMC,150109.000,A,3352.4646,N,09831.1880,W,0.17,29.49,310312,,,D*42
$GPGGA,150110.000,3352.4645,N,09831.1880,W,2,10,0.9,289.9,M,-23.7,M,6.8,0000*46
$GPGSA,A,3,15,21,27,14,09,03,22,06,29,18,,,1.9,0.9,1.6*3D
$GPRMC,150110.000,A,3352.4645,N,09831.1880,W,0.15,32.20,310312,,,D*4E
$GPGGA,150111.000,3352.4645,N,09831.1880,W,2,10,0.9,289.9,M,-23.7,M,7.8,0000*46
$GPGSA,A,3,15,21,27,14,09,03,22,06,29,18,,,1.9,0.9,1.6*3D
$GPRMC,150111.000,A,3352.4645,N,09831.1880,W,0.15,26.27,310312,,,D*4D
$GPGGA,150112.000,3352.4645,N,09831.1879,W,2,10,0.9,289.9,M,-23.7,M,8.8,0000*4C
$GPGSA,A,3,15,21,27,14,09,03,22,06,29,18,,,1.9,0.9,1.6*3D
$GPRMC,150112.000,A,3352.4645,N,09831.1879,W,0.17,29.15,310312,,,D*44
$GPGGA,150113.000,3352.4645,N,09831.1879,W,2,10,0.9,289.9,M,-23.7,M,9.8,0000*4C
$GPGSA,A,3,15,21,27,14,09,03,22,06,29,18,,,1.9,0.9,1.6*3D
$GPRMC,150113.000,A,3352.4645,N,09831.1879,W,0.16,27.59,310312,,,D*42
$GPGGA,150114.000,3352.4645,N,09831.1879,W,2,10,0.9,289.9,M,-23.7,M,10.8,0000*73
$GPGSA,A,3,15,21,27,14,09,03,22,06,29,18,,,1.9,0.9,1.6*3D
$GPGSV,3,1,12,21,82,038,27,18,64,334,38,15,47,048,41,22,33,279,34*7E
$GPGSV,3,2,12,27,28,085,35,09,28,114,36,06,28,298,28,29,19,179,28*7E
$GPGSV,3,3,12,03,18,306,34,14,17,212,29,26,05,038,18,48,36,230,34*77
$GPRMC,150114.000,A,3352.4645,N,09831.1879,W,0.16,29.72,310312,,,D*42
$GPGGA,150115.000,3352.4645,N,09831.1879,W,2,10,0.9,289.9,M,-23.7,M,11.8,0000*73
$GPGSA,A,3,15,21,27,14,09,03,22,06,29,18,,,1.9,0.9,1.6*3D
$GPRMC,150115.000,A,3352.4645,N,09831.1879,W,0.15,31.32,310312,,,D*4D
$GPGGA,150116.000,3352.4645,N,09831.1879,W,2,10,0.9,289.8,M,-23.7,M,12.8,0000*72
$GPGSA,A,3,15,21,27,14,09,03,22,06,29,18,,,1.9,0.9,1.6*3D
$GPRMC,150116.000,A,3352.4645,N,09831.1879,W,0.18,33.39,310312,,,D*4A
$GPGGA,150117.000,3352.4646,N,09831.1878,W,2,10,0.9,289.8,M,-23.7,M,13.8,0000*70
$GPGSA,A,3,15,21,27,14,09,03,22,06,29,18,,,1.9,0.9,1.6*3D
$GPRMC,150117.000,A,3352.4646,N,09831.1878,W,0.18,29.36,310312,,,D*4D
$GPGGA,150118.000,3352.4645,N,09831.1878,W,2,10,0.9,289.8,M,-23.7,M,14.8,0000*7B
$GPGSA,A,3,15,21,27,14,09,03,22,06,29,18,,,1.9,0.9,1.6*3D
$GPRMC,150118.000,A,3352.4645,N,09831.1878,W,0.17,28.20,310312,,,D*48
$GPGGA,150119.000,3352.4646,N,09831.1878,W,2,10,0.9,289.8,M,-23.7,M,15.8,0000*78
$GPGSA,A,3,15,21,27,14,09,03,22,06,29,18,,,1.9,0.9,1.6*3D
$GPGSV,3,1,12,21,82,038,27,18,64,334,37,15,47,048,41,22,33,279,34*71
$GPGSV,3,2,12,27,28,085,35,09,28,114,36,06,28,298,28,29,19,179,28*7E
$GPGSV,3,3,12,03,18,306,33,14,17,212,29,26,05,038,18,48,36,230,33*77
$GPRMC,150119.000,A,3352.4646,N,09831.1878,W,0.15,36.44,310312,,,D*45
$GPGGA,150120.000,3352.4646,N,09831.1878,W,2,10,0.9,289.8,M,-23.7,M,16.8,0000*71
$GPGSA,A,3,15,21,27,14,09,03,22,06,29,18,,,1.9,0.9,1.6*3D
$GPRMC,150120.000,A,3352.4646,N,09831.1878,W,0.16,34.97,310312,,,D*40
$GPGGA,150121.000,3352.4646,N,09831.1878,W,2,10,0.9,289.8,M,-23.7,M,17.8,0000*71
$GPGSA,A,3,15,21,27,14,09,03,22,06,29,18,,,1.9,0.9,1.6*3D
$GPRMC,150121.000,A,3352.4646,N,09831.1878,W,0.15,37.68,310312,,,D*41
$GPGGA,150122.000,3352.4646,N,09831.1877,W,1,10,0.9,289.7,M,-23.7,M,18.8,0000*7E
$GPGSA,A,3,15,21,27,14,09,03,22,06,29,18,,,1.9,0.9,1.6*3D
$GPRMC,150122.000,A,3352.4646,N,09831.1877,W,0.10,41.31,310312,,,A*40
$GPGGA,150123.000,3352.4646,N,09831.1877,W,2,10,0.9,289.7,M,-23.7,M,0.8,0000*45
$GPGSA,A,3,15,21,27,14,09,03,22,06,29,18,,,1.9,0.9,1.6*3D
$GPRMC,150123.000,A,3352.4646,N,09831.1877,W,0.10,36.00,310312,,,D*46
$GPGGA,150124.000,3352.4646,N,09831.1877,W,2,10,0.9,289.7,M,-23.7,M,1.8,0000*43
$GPGSA,A,3,15,21,27,14,09,03,22,06,29,18,,,1.9,0.9,1.6*3D
$GPGSV,3,1,12,21,82,038,27,18,64,334,37,15,47,048,41,22,33,279,34*71
$GPGSV,3,2,12,27,28,085,35,09,28,114,36,06,28,298,28,29,19,179,28*7E
$GPGSV,3,3,12,03,18,306,33,14,17,212,29,26,05,038,18,48,36,230,34*70
$GPRMC,150124.000,A,3352.4646,N,09831.1877,W,0.10,35.31,310312,,,D*40
$GPGGA,150125.000,3352.4646,N,09831.1876,W,2,10,0.9,289.6,M,-23.7,M,2.8,0000*41
$GPGSA,A,3,15,21,27,14,09,03,22,06,29,18,,,1.9,0.9,1.6*3D
$GPRMC,150125.000,A,3352.4646,N,09831.1876,W,0.11,32.74,310312,,,D*47
$GPGGA,150126.000,3352.4646,N,09831.1876,W,2,10,0.9,289.6,M,-23.7,M,3.8,0000*43
$GPGSA,A,3,15,21,27,14,09,03,22,06,29,18,,,1.9,0.9,1.6*3D
$GPRMC,150126.000,A,3352.4646,N,09831.1876,W,0.10,36.13,310312,,,D*40
$GPGGA,150127.000,3352.4646,N,09831.1876,W,2,10,0.9,289.6,M,-23.7,M,4.8,0000*45
$GPGSA,A,3,15,21,27,14,09,03,22,06,29,18,,,1.9,0.9,1.6*3D
$GPRMC,150127.000,A,3352.4646,N,09831.1876,W,0.10,39.19,310312,,,D*44
$GPGGA,150128.000,3352.4646,N,09831.1876,W,2,10,0.9,289.6,M,-23.7,M,5.8,0000*4B
$GPGSA,A,3,15,21,27,14,09,03,22,06,29,18,,,1.9,0.9,1.6*3D
$GPRMC,150128.000,A,3352.4646,N,09831.1876,W,0.10,37.45,310312,,,D*4C
$GPGGA,150129.000,3352.4646,N,09831.1876,W,2,10,0.9,289.6,M,-23.7,M,0.8,0000*4F
$GPGSA,A,3,15,21,27,14,09,03,22,06,29,18,,,1.9,0.9,1.6*3D
$GPGSV,3,1,12,21,82,038,27,18,64,334,37,15,47,048,41,22,33,279,34*71
$GPGSV,3,2,12,27,28,085,35,09,28,114,35,06,28,298,27,29,19,179,29*73
$GPGSV,3,3,12,03,18,306,33,14,17,212,30,26,05,038,18,48,36,230,33*7F
$GPRMC,150129.000,A,3352.4646,N,09831.1876,W,0.11,31.53,310312,,,D*4D
$GPGGA,150130.000,3352.4646,N,09831.1876,W,2,10,0.9,289.6,M,-23.7,M,1.8,0000*46
$GPGSA,A,3,15,21,27,14,09,03,22,06,29,18,,,1.9,0.9,1.6*3D
$GPRMC,150130.000,A,3352.4646,N,09831.1876,W,0.10,24.19,310312,,,D*4E
$GPGGA,150131.000,3352.4647,N,09831.1875,W,2,10,0.9,289.7,M,-23.7,M,2.8,0000*47
$GPGSA,A,3,15,21,27,14,09,03,22,06,29,18,,,1.9,0.9,1.6*3D
$GPRMC,150131.000,A,3352.4647,N,09831.1875,W,0.10,36.82,310312,,,D*4C
$GPGGA,150132.000,3352.4647,N,09831.1875,W,2,10,0.9,289.7,M,-23.7,M,3.8,0000*45
$GPGSA,A,3,15,21,27,14,09,03,22,06,29,18,,,1.9,0.9,1.6*3D
$GPRMC,150132.000,A,3352.4647,N,09831.1875,W,0.11,28.78,310312,,,D*44
$GPGGA,150133.000,3352.4646,N,09831.1875,W,2,10,0.9,289.7,M,-23.7,M,,0000*60
$GPGSA,A,3,15,21,27,14,09,03,22,06,29,18,,,1.9,0.9,1.6*3D
$GPRMC,150133.000,A,3352.4646,N,09831.1875,W,0.11,27.09,310312,,,D*4D
$GPGGA,150134.000,3352.4646,N,09831.1875,W,2,10,0.9,289.7,M,-23.7,M,1.8,0000*40
$GPGSA,A,3,15,21,27,14,09,03,22,06,29,18,,,1.9,0.9,1.6*3D
$GPGSV,3,1,12,21,82,038,27,18,64,334,37,15,47,048,41,22,33,279,34*71
$GPGSV,3,2,12,27,28,085,35,09,28,114,35,06,28,298,27,29,19,179,29*73
$GPGSV,3,3,12,03,18,306,33,14,17,212,30,26,05,038,18,48,36,230,34*78
$GPRMC,150134.000,A,3352.4646,N,09831.1875,W,0.09,35.27,310312,,,D*4C
$GPGGA,150135.000,3352.4646,N,09831.1875,W,2,10,0.9,289.7,M,-23.7,M,2.8,0000*42
$GPGSA,A,3,15,21,27,14,09,03,22,06,29,18,,,1.9,0.9,1.6*3D
$GPRMC,150135.000,A,3352.4646,N,09831.1875,W,0.11,23.12,310312,,,D*45
$GPGGA,150136.000,3352.4646,N,09831.1875,W,2,10,0.9,289.7,M,-23.7,M,3.8,0000*40
$GPGSA,A,3,15,21,27,14,09,03,22,06,29,18,,,1.9,0.9,1.6*3D
$GPRMC,150136.000,A,3352.4646,N,09831.1875,W,0.09,43.66,310312,,,D*4A
$GPGGA,150137.000,3352.4646,N,09831.1875,W,2,10,0.9,289.7,M,-23.7,M,4.8,0000*46
$GPGSA,A,3,15,21,27,14,09,03,22,06,29,18,,,1.9,0.9,1.6*3D
$GPRMC,150137.000,A,3352.4646,N,09831.1875,W,0.10,31.08,310312,,,D*4E
$GPGGA,150138.000,3352.4646,N,09831.1875,W,2,10,0.9,289.7,M,-23.7,M,5.8,0000*48
$GPGSA,A,3,15,21,27,14,09,03,22,06,29,18,,,1.9,0.9,1.6*3D
$GPRMC,150138.000,A,3352.4646,N,09831.1875,W,0.11,23.92,310312,,,D*40
$GPGGA,150139.000,3352.4646,N,09831.1875,W,2,10,0.9,289.7,M,-23.7,M,,0000*6A
$GPGSA,A,3,15,21,27,14,09,03,22,06,29,18,,,1.9,0.9,1.6*3D
$GPGSV,3,1,12,21,82,038,27,18,64,334,37,15,47,048,41,22,33,279,34*71
$GPGSV,3,2,12,27,28,085,35,09,28,114,35,06,28,298,27,29,19,179,29*73
$GPGSV,3,3,12,03,18,306,33,14,17,212,30,26,05,038,18,48,36,230,34*78
$GPRMC,150139.000,A,3352.4646,N,09831.1875,W,0.15,36.74,310312,,,D*49
$GPGGA,150140.000,3352.4646,N,09831.1875,W,2,10,0.9,289.7,M,-23.7,M,,0000*64
$GPGSA,A,3,15,21,27,14,09,03,22,06,29,18,,,1.9,0.9,1.6*3D
$GPRMC,150140.000,A,3352.4646,N,09831.1875,W,0.14,38.19,310312,,,D*43
$GPGGA,150141.000,3352.4646,N,09831.1875,W,2,10,0.9,289.7,M,-23.7,M,1.8,0000*42
$GPGSA,A,3,15,21,27,14,09,03,22,06,29,18,,,1.9,0.9,1.6*3D
$GPRMC,150141.000,A,3352.4646,N,09831.1875,W,0.16,29.14,310312,,,D*4D
$GPGGA,150142.000,3352.4646,N,09831.1875,W,2,10,0.9,289.7,M,-23.7,M,2.8,0000*42
$GPGSA,A,3,15,21,27,14,09,03,22,06,29,18,,,1.9,0.9,1.6*3D
$GPRMC,150142.000,A,3352.4646,N,09831.1875,W,0.16,33.37,310312,,,D*44
$GPGGA,150143.000,3352.4646,N,09831.1875,W,2,10,0.9,289.6,M,-23.7,M,3.8,0000*43
$GPGSA,A,3,15,21,27,14,09,03,22,06,29,18,,,1.9,0.9,1.6*3D
$GPRMC,150143.000,A,3352.4646,N,09831.1875,W,0.15,32.21,310312,,,D*40
$GPGGA,150144.000,3352.4646,N,09831.1875,W,2,10,0.9,289.6,M,-23.7,M,4.8,0000*43
$GPGSA,A,3,15,21,27,14,09,03,22,06,29,18,,,1.9,0.9,1.6*3D
$GPGSV,3,1,12,21,82,038,27,18,64,334,37,15,47,048,41,22,33,279,34*71
$GPGSV,3,2,12,27,28,085,34,09,28,114,35,06,28,298,28,29,19,179,29*7D
$GPGSV,3,3,12,03,18,306,33,14,17,212,29,26,05,038,18,48,36,230,34*70
$GPRMC,150144.000,A,3352.4646,N,09831.1875,W,0.15,29.04,310312,,,D*4A
$GPGGA,150145.000,3352.4646,N,09831.1875,W,2,10,0.9,289.6,M,-23.7,M,5.8,0000*43
$GPGSA,A,3,15,21,27,14,09,03,22,06,29,18,,,1.9,0.9,1.6*3D
$GPRMC,150145.000,A,3352.4646,N,09831.1875,W,0.15,31.65,310312,,,D*45
$GPGGA,150146.000,3352.4646,N,09831.1874,W,2,10,0.9,289.6,M,-23.7,M,6.8,0000*42
$GPGSA,A,3,15,21,27,14,09,03,22,06,29,18,,,1.9,0.9,1.6*3D
$GPRMC,150146.000,A,3352.4646,N,09831.1874,W,0.16,32.91,310312,,,D*4C
$GPGGA,150147.000,3352.4647,N,09831.1874,W,2,10,0.9,289.6,M,-23.7,M,7.8,0000*43
$GPGSA,A,3,15,21,27,14,09,03,22,06,29,18,,,1.9,0.9,1.6*3D
$GPRMC,150147.000,A,3352.4647,N,09831.1874,W,0.15,30.01,310312,,,D*44
$GPGGA,150148.000,3352.4647,N,09831.1874,W,2,10,0.9,289.6,M,-23.7,M,8.8,0000*43
$GPGSA,A,3,15,21,27,14,09,03,22,06,29,18,,,1.9,0.9,1.6*3D
$GPRMC,150148.000,A,3352.4647,N,09831.1874,W,0.17,30.78,310312,,,D*47
$GPGGA,150149.000,3352.4647,N,09831.1874,W,2,10,0.9,289.6,M,-23.7,M,9.8,0000*43
$GPGSA,A,3,15,21,27,14,09,03,22,06,29,18,,,1.9,0.9,1.6*3D
$GPGSV,3,1,12,21,82,038,27,18,64,334,36,15,47,048,41,22,33,279,34*70
$GPGSV,3,2,12,27,28,085,34,09,28,114,36,06,28,298,28,29,19,179,30*76
$GPGSV,3,3,12,03,18,306,33,14,17,212,29,26,05,038,17,48,36,230,34*7F
$GPRMC,150149.000,A,3352.4647,N,09831.1874,W,0.14,35.47,310312,,,D*4C
$GPGGA,150150.000,3352.4647,N,09831.1874,W,2,10,0.9,289.6,M,-23.7,M,10.8,0000*73
$GPGSA,A,3,15,21,27,14,09,03,22,06,29,18,,,1.9,0.9,1.6*3D
$GPRMC,150150.000,A,3352.4647,N,09831.1874,W,0.16,27.74,310312,,,D*45
$GPGGA,150151.000,3352.4647,N,09831.1874,W,2,10,0.9,289.6,M,-23.7,M,11.8,0000*73
$GPGSA,A,3,15,21,27,14,09,03,22,06,29,18,,,1.9,0.9,1.6*3D
$GPRMC,150151.000,A,3352.4647,N,09831.1874,W,0.16,33.29,310312,,,D*49
$GPGGA,150152.000,3352.4647,N,09831.1874,W,2,10,0.9,289.6,M,-23.7,M,12.8,0000*73
$GPGSA,A,3,15,21,27,14,09,03,22,06,29,18,,,1.9,0.9,1.6*3D
$GPRMC,150152.000,A,3352.4647,N,09831.1874,W,0.15,32.61,310312,,,D*44
$GPGGA,150153.000,3352.4647,N,09831.1874,W,2,10,0.9,289.6,M,-23.7,M,13.8,0000*73
$GPGSA,A,3,15,21,27,14,09,03,22,06,29,18,,,1.9,0.9,1.6*3D
$GPRMC,150153.000,A,3352.4647,N,09831.1874,W,0.15,28.30,310312,,,D*4A
$GPGGA,150154.000,3352.4647,N,09831.1874,W,2,10,0.9,289.6,M,-23.7,M,14.8,0000*73
$GPGSA,A,3,15,21,27,14,09,03,22,06,29,18,,,1.9,0.9,1.6*3D
$GPGSV,3,1,12,21,82,038,28,18,64,334,37,15,47,048,41,22,33,279,33*79
$GPGSV,3,2,12,27,28,085,34,09,28,114,36,06,28,298,29,29,19,179,30*77
$GPGSV,3,3,12,03,18,306,34,14,17,212,29,26,05,038,16,48,36,230,34*79
$GPRMC,150154.000,A,3352.4647,N,09831.1874,W,0.16,32.60,310312,,,D*40
$GPGGA,150155.000,3352.4648,N,09831.1873,W,2,10,0.9,289.6,M,-23.7,M,15.8,0000*7B
$GPGSA,A,3,15,21,27,14,09,03,22,06,29,18,,,1.9,0.9,1.6*3D
$GPRMC,150155.000,A,3352.4648,N,09831.1873,W,0.15,30.59,310312,,,D*42
$GPGGA,150156.000,3352.4648,N,09831.1873,W,2,10,0.9,289.6,M,-23.7,M,16.8,0000*7B
$GPGSA,A,3,15,21,27,14,09,03,22,06,29,18,,,1.9,0.9,1.6*3D
$GPRMC,150156.000,A,3352.4648,N,09831.1873,W,0.15,31.42,310312,,,D*4A
$GPGGA,150157.000,3352.4648,N,09831.1873,W,2,10,0.9,289.6,M,-23.7,M,17.8,0000*7B
$GPGSA,A,3,15,21,27,14,09,03,22,06,29,18,,,1.9,0.9,1.6*3D
$GPRMC,150157.000,A,3352.4648,N,09831.1873,W,0.16,29.47,310312,,,D*44
$GPGGA,150158.000,3352.4648,N,09831.1873,W,1,10,0.9,289.5,M,-23.7,M,18.8,0000*7B
$GPGSA,A,3,15,21,27,14,09,03,22,06,29,18,,,1.9,0.9,1.6*3D
$GPRMC,150158.000,A,3352.4648,N,09831.1873,W,0.10,30.44,310312,,,A*43
$GPGGA,150159.000,3352.4648,N,09831.1873,W,1,10,0.9,289.5,M,-23.7,M,18.8,0000*7A
$GPGSA,A,3,15,21,27,14,09,03,22,06,29,18,,,1.9,0.9,1.6*3D
$GPGSV,3,1,12,21,82,038,28,18,64,334,37,15,47,048,41,22,33,279,33*79
$GPGSV,3,2,12,27,28,085,34,09,28,114,36,06,28,298,30,29,19,179,29*77
$GPGSV,3,3,12,03,18,306,34,14,17,212,29,26,05,038,16,48,36,230,34*79
$GPRMC,150159.000,A,3352.4648,N,09831.1873,W,0.09,35.08,310312,,,A*47
$GPGGA,150200.000,3352.4648,N,09831.1873,W,1,10,0.9,289.4,M,-23.7,M,18.8,0000*74
$GPGSA,A,3,15,21,27,14,09,03,22,06,29,18,,,1.9,0.9,1.6*3D
$GPRMC,150200.000,A,3352.4648,N,09831.1873,W,0.11,29.66,310312,,,A*44
$GPGGA,150201.000,3352.4649,N,09831.1873,W,1,10,0.9,289.4,M,-23.7,M,18.8,0000*74
$GPGSA,A,3,15,21,27,14,09,03,22,06,29,18,,,1.9,0.9,1.6*3D
$GPRMC,150201.000,A,3352.4649,N,09831.1873,W,0.09,36.27,310312,,,A*46
$GPGGA,150202.000,3352.4649,N,09831.1872,W,1,10,0.9,289.4,M,-23.7,M,18.8,0000*76
$GPGSA,A,3,15,21,27,14,09,03,22,06,29,18,,,1.9,0.9,1.6*3D
$GPRMC,150202.000,A,3352.4649,N,09831.1872,W,0.11,29.15,310312,,,A*42
$GPGGA,150203.000,3352.4649,N,09831.1872,W,1,10,0.9,289.3,M,-23.7,M,18.8,0000*70
$GPGSA,A,3,15,21,27,14,09,03,22,06,29,18,,,1.9,0.9,1.6*3D
$GPRMC,150203.000,A,3352.4649,N,09831.1872,W,0.11,27.53,310312,,,A*4F
$GPGGA,150204.000,3352.4649,N,09831.1872,W,1,10,0.9,289.3,M,-23.7,M,18.8,0000*77
$GPGSA,A,3,15,21,27,14,09,03,22,06,29,18,,,1.9,0.9,1.6*3D
$GPGSV,3,1,12,21,82,038,29,18,64,334,37,15,47,048,41,22,33,279,33*78
$GPGSV,3,2,12,27,28,085,34,09,28,114,37,06,28,298,30,29,19,179,29*76
$GPGSV,3,3,12,03,18,306,34,14,17,212,29,26,05,038,15,48,36,230,33*7D
$GPRMC,150204.000,A,3352.4649,N,09831.1872,W,0.10,39.73,310312,,,A*44
$GPGGA,150205.000,3352.4649,N,09831.1872,W,1,10,0.9,289.2,M,-23.7,M,18.8,0000*77
$GPGSA,A,3,15,21,27,14,09,03,22,06,29,18,,,1.9,0.9,1.6*3D
$GPRMC,150205.000,A,3352.4649,N,09831.1872,W,0.12,29.51,310312,,,A*46
$GPGGA,150206.000,3352.4650,N,09831.1872,W,1,10,0.9,289.2,M,-23.7,M,18.8,0000*7C
$GPGSA,A,3,15,21,27,14,09,03,22,06,29,18,,,1.9,0.9,1.6*3D
$GPRMC,150206.000,A,3352.4650,N,09831.1872,W,0.10,31.55,310312,,,A*42
$GPGGA,150207.000,3352.4650,N,09831.1872,W,1,10,0.9,289.1,M,-23.7,M,18.8,0000*7E
$GPGSA,A,3,15,21,27,14,09,03,22,06,29,18,,,1.9,0.9,1.6*3D
$GPRMC,150207.000,A,3352.4650,N,09831.1872,W,0.11,29.63,310312,,,A*4E
$GPGGA,150208.000,3352.4650,N,09831.1872,W,1,10,0.9,289.1,M,-23.7,M,18.8,0000*71
$GPGSA,A,3,15,21,27,14,09,03,22,06,29,18,,,1.9,0.9,1.6*3D
$GPRMC,150208.000,A,3352.4650,N,09831.1872,W,0.10,34.93,310312,,,A*43
$GPGGA,150209.000,3352.4650,N,09831.1872,W,1,10,0.9,289.0,M,-23.7,M,18.8,0000*71
$GPGSA,A,3,15,21,27,14,09,03,22,06,29,18,,,1.9,0.9,1.6*3D
$GPGSV,3,1,12,21,82,038,29,18,64,334,36,15,47,048,41,22,33,279,32*78
$GPGSV,3,2,12,27,28,085,34,09,28,114,37,06,28,298,31,29,19,179,29*77
$GPGSV,3,3,12,03,18,306,34,14,17,212,28,26,05,038,,48,36,230,34*7F
$GPRMC,150209.000,A,3352.4650,N,09831.1872,W,0.11,29.40,310312,,,A*41
$GPGGA,150210.000,3352.4650,N,09831.1871,W,1,10,0.9,288.9,M,-23.7,M,18.8,0000*72
$GPGSA,A,3,15,21,27,14,09,03,22,06,29,18,,,1.9,0.9,1.6*3D
$GPRMC,150210.000,A,3352.4650,N,09831.1871,W,0.11,35.33,310312,,,A*43
$GPGGA,150211.000,3352.4651,N,09831.1871,W,1,10,0.9,288.9,M,-23.7,M,18.8,0000*72
$GPGSA,A,3,15,21,27,14,09,03,22,06,29,18,,,1.9,0.9,1.6*3D
$GPRMC,150211.000,A,3352.4651,N,09831.1871,W,0.10,32.78,310312,,,A*4A
$GPGGA,150212.000,3352.4651,N,09831.1871,W,1,10,0.9,288.8,M,-23.7,M,18.8,0000*70
$GPGSA,A,3,15,21,27,14,09,03,22,06,29,18,,,1.9,0.9,1.6*3D
$GPRMC,150212.000,A,3352.4651,N,09831.1871,W,0.12,31.86,310312,,,A*49
$GPGGA,150213.000,3352.4650,N,09831.1873,W,2,10,0.9,288.6,M,-23.7,M,,0000*60
$GPGSA,A,3,15,21,27,14,09,03,22,06,29,18,,,1.9,0.9,1.6*3D
$GPRMC,150213.000,A,3352.4650,N,09831.1873,W,0.12,25.54,310312,,,D*44
$GPGGA,150214.000,3352.4651,N,09831.1873,W,2,10,0.9,288.6,M,-23.7,M,1.8,0000*41
$GPGSA,A,3,15,21,27,14,09,03,22,06,29,18,,,1.9,0.9,1.6*3D
$GPGSV,3,1,12,21,82,038,30,18,64,334,36,15,47,048,41,22,33,279,32*70
$GPGSV,3,2,12,27,28,085,34,09,28,114,37,06,28,298,31,29,19,179,29*77
$GPGSV,3,3,12,03,18,306,34,14,17,212,28,26,05,038,,48,36,230,34*7F
$GPRMC,150214.000,A,3352.4651,N,09831.1873,W,0.10,25.66,310312,,,D*41
$GPGGA,150215.000,3352.4651,N,09831.1873,W,2,10,0.9,288.5,M,-23.7,M,2.8,0000*40
$GPGSA,A,3,15,21,27,14,09,03,22,06,29,18,,,1.9,0.9,1.6*3D
$GPRMC,150215.000,A,3352.4651,N,09831.1873,W,0.12,26.06,310312,,,D*47
$GPGGA,150216.000,3352.4652,N,09831.1873,W,2,10,0.9,288.5,M,-23.7,M,3.8,0000*41
$GPGSA,A,3,15,21,27,14,09,03,22,06,29,18,,,1.9,0.9,1.7*3C
$GPRMC,150216.000,A,3352.4652,N,09831.1873,W,0.10,28.67,310312,,,D*4C
$GPGGA,150217.000,3352.4652,N,09831.1874,W,2,10,0.9,288.5,M,-23.7,M,0.8,0000*44
$GPGSA,A,3,15,21,27,14,09,03,22,06,29,18,,,1.9,0.9,1.7*3C
$GPRMC,150217.000,A,3352.4652,N,09831.1874,W,0.11,24.25,310312,,,D*41
$GPGGA,150218.000,3352.4652,N,09831.1874,W,2,10,0.9,288.4,M,-23.7,M,1.8,0000*4B
$GPGSA,A,3,15,21,27,14,09,03,22,06,29,18,,,1.9,0.9,1.7*3C
$GPRMC,150218.000,A,3352.4652,N,09831.1874,W,0.10,26.63,310312,,,D*4F
$GPGGA,150219.000,3352.4653,N,09831.1874,W,2,10,0.9,288.4,M,-23.7,M,2.8,0000*48
$GPGSA,A,3,15,21,27,14,09,03,22,06,29,18,,,1.9,0.9,1.7*3C
$GPGSV,3,1,12,21,82,038,30,18,64,334,36,15,47,048,42,22,33,279,32*73
$GPGSV,3,2,12,27,28,085,34,09,28,114,37,06,28,298,31,29,19,179,29*77
$GPGSV,3,3,12,03,18,306,34,14,17,212,28,26,05,038,,48,36,230,33*78
$GPRMC,150219.000,A,3352.4653,N,09831.1874,W,0.12,27.94,310312,,,D*44
$GPGGA,150220.000,3352.4653,N,09831.1874,W,2,10,0.9,288.4,M,-23.7,M,3.8,0000*43
$GPGSA,A,3,15,21,27,14,09,03,22,06,29,18,,,1.9,0.9,1.7*3C
$GPRMC,150220.000,A,3352.4653,N,09831.1874,W,0.09,31.77,310312,,,D*4E
$GPGGA,150221.000,3352.4653,N,09831.1874,W,2,10,0.9,288.4,M,-23.7,M,4.8,0000*45
$GPGSA,A,3,15,21,27,14,09,03,22,06,29,18,,,1.9,0.9,1.7*3C
$GPRMC,150221.000,A,3352.4653,N,09831.1874,W,0.10,37.37,310312,,,D*45
$GPGGA,150222.000,3352.4654,N,09831.1874,W,2,10,0.9,288.3,M,-23.7,M,5.8,0000*47
$GPGSA,A,3,15,21,27,14,09,03,22,06,29,18,,,1.9,0.9,1.7*3C
$GPRMC,150222.000,A,3352.4654,N,09831.1874,W,0.12,24.02,310312,,,D*47
$GPGGA,150223.000,3352.4654,N,09831.1874,W,2,10,0.9,288.3,M,-23.7,M,0.8,0000*43
$GPGSA,A,3,15,21,27,14,09,03,22,06,29,18,,,1.9,0.9,1.7*3C
$GPRMC,150223.000,A,3352.4654,N,09831.1874,W,0.10,24.32,310312,,,D*47
$GPGGA,150224.000,3352.4654,N,09831.1875,W,2,10,0.9,288.2,M,-23.7,M,1.8,0000*45
$GPGSA,A,3,15,21,27,14,09,03,22,06,29,18,,,1.9,0.9,1.7*3C
$GPGSV,3,1,12,21,82,038,29,18,64,334,36,15,47,048,42,22,33,279,32*7B
$GPGSV,3,2,12,27,28,085,34,09,28,114,37,06,28,298,30,29,19,179,29*76
$GPGSV,3,3,12,03,18,306,35,14,17,212,28,26,05,038,,48,36,230,34*7E
$GPRMC,150224.000,A,3352.4654,N,09831.1875,W,0.11,34.98,310312,,,D*41
$GPGGA,150225.000,3352.4655,N,09831.1875,W,2,10,0.9,288.1,M,-23.7,M,2.8,0000*45
$GPGSA,A,3,15,21,27,14,09,03,22,06,29,18,,,1.9,0.9,1.7*3C
$GPRMC,150225.000,A,3352.4655,N,09831.1875,W,0.11,33.80,310312,,,D*4F
$GPGGA,150226.000,3352.4655,N,09831.1875,W,2,10,0.9,288.1,M,-23.7,M,3.8,0000*47
$GPGSA,A,3,15,21,27,14,09,03,22,06,29,18,,,1.9,0.9,1.7*3C
$GPRMC,150226.000,A,3352.4655,N,09831.1875,W,0.12,26.54,310312,,,D*42
$GPGGA,150227.000,3352.4655,N,09831.1875,W,2,10,0.9,288.0,M,-23.7,M,4.8,0000*40
$GPGSA,A,3,15,21,27,14,09,03,22,06,29,18,,,1.9,0.9,1.7*3C
$GPRMC,150227.000,A,3352.4655,N,09831.1875,W,0.12,27.53,310312,,,D*45
$GPGGA,150228.000,3352.4655,N,09831.1875,W,2,10,0.9,288.0,M,-23.7,M,5.8,0000*4E
$GPGSA,A,3,15,21,27,14,09,03,22,06,29,18,,,1.9,0.9,1.7*3C
$GPRMC,150228.000,A,3352.4655,N,09831.1875,W,0.10,29.77,310312,,,D*40
$GPGGA,150229.000,3352.4656,N,09831.1875,W,2,10,0.9,288.0,M,-23.7,M,6.8,0000*4F
$GPGSA,A,3,15,21,27,14,09,03,22,06,29,18,,,1.9,0.9,1.7*3C
$GPGSV,3,1,12,21,82,038,29,18,64,334,36,15,47,048,42,22,33,279,32*7B
$GPGSV,3,2,12,27,28,085,33,09,28,114,37,06,28,298,29,29,19,179,29*79
$GPGSV,3,3,12,03,18,306,34,14,17,212,28,26,05,038,,48,36,230,34*7F
$GPRMC,150229.000,A,3352.4656,N,09831.1875,W,0.12,27.71,310312,,,D*48
$GPGGA,150230.000,3352.4656,N,09831.1875,W,2,10,0.9,287.9,M,-23.7,M,7.8,0000*40
$GPGSA,A,3,15,21,27,14,09,03,22,06,29,18,,,1.9,0.9,1.7*3C
$GPRMC,150230.000,A,3352.4656,N,09831.1875,W,0.11,32.73,310312,,,D*45
$GPGGA,150231.000,3352.4656,N,09831.1875,W,2,10,0.9,287.9,M,-23.7,M,8.8,0000*4E
$GPGSA,A,3,15,21,27,14,09,03,22,06,29,18,,,1.9,0.9,1.7*3C
$GPRMC,150231.000,A,3352.4656,N,09831.1875,W,0.10,36.05,310312,,,D*40
$GPGGA,150232.000,3352.4656,N,09831.1875,W,2,10,0.9,287.8,M,-23.7,M,9.8,0000*4D
$GPGSA,A,3,15,21,27,14,09,03,22,06,29,18,,,1.9,0.9,1.7*3C
$GPRMC,150232.000,A,3352.4656,N,09831.1875,W,0.12,35.46,310312,,,D*45
$GPGGA,150233.000,3352.4656,N,09831.1874,W,2,10,0.9,287.8,M,-23.7,M,10.8,0000*75
$GPGSA,A,3,15,21,27,14,09,03,22,06,29,18,,,1.9,0.9,1.7*3C
$GPRMC,150233.000,A,3352.4656,N,09831.1874,W,0.11,32.40,310312,,,D*47
$GPGGA,150234.000,3352.4655,N,09831.1874,W,2,10,0.9,287.7,M,-23.7,M,11.8,0000*7F
$GPGSA,A,3,15,21,27,14,09,03,22,06,29,18,,,1.9,0.9,1.7*3C
$GPGSV,3,1,12,21,82,038,28,18,64,334,36,15,47,048,42,22,33,279,32*7A
$GPGSV,3,2,12,27,28,085,33,09,28,114,37,06,28,298,28,29,19,179,29*78
$GPGSV,3,3,12,03,18,306,35,14,17,212,28,26,05,038,,48,36,230,34*7E
$GPRMC,150234.000,A,3352.4655,N,09831.1874,W,0.12,33.42,310312,,,D*43
$GPGGA,150235.000,3352.4655,N,09831.1874,W,2,10,0.9,287.7,M,-23.7,M,12.8,0000*7D
$GPGSA,A,3,15,21,27,14,09,03,22,06,29,18,,,1.9,0.9,1.7*3C
$GPRMC,150235.000,A,3352.4655,N,09831.1874,W,0.10,37.00,310312,,,D*42
$GPGGA,150236.000,3352.4655,N,09831.1874,W,2,10,0.9,287.6,M,-23.7,M,13.8,0000*7E
$GPGSA,A,3,15,21,27,14,09,03,22,06,29,18,,,1.9,0.9,1.7*3C
$GPRMC,150236.000,A,3352.4655,N,09831.1874,W,0.10,36.76,310312,,,D*41
$GPGGA,150237.000,3352.4655,N,09831.1874,W,2,10,0.9,287.6,M,-23.7,M,14.8,0000*78
$GPGSA,A,3,15,21,27,14,09,03,22,06,29,18,,,1.9,0.9,1.7*3C
$GPRMC,150237.000,A,3352.4655,N,09831.1874,W,0.13,25.46,310312,,,D*42
$GPGGA,150238.000,3352.4655,N,09831.1874,W,2,10,0.9,287.5,M,-23.7,M,15.8,0000*75
$GPGSA,A,3,15,21,27,14,09,03,22,06,29,18,,,1.9,0.9,1.7*3C
$GPRMC,150238.000,A,3352.4655,N,09831.1874,W,0.12,32.25,310312,,,D*4F
$GPGGA,150239.000,3352.4655,N,09831.1874,W,2,10,0.9,287.5,M,-23.7,M,,0000*66
$GPGSA,A,3,15,21,27,14,09,03,22,06,29,18,,,1.9,0.9,1.7*3C
$GPGSV,3,1,12,21,82,038,28,18,64,334,36,15,47,048,42,22,33,279,32*7A
$GPGSV,3,2,12,27,28,085,33,09,28,114,37,06,28,298,28,29,19,179,29*78
$GPGSV,3,3,12,03,18,306,35,14,17,212,28,26,05,038,,48,36,230,33*79
$GPRMC,150239.000,A,3352.4655,N,09831.1874,W,0.10,30.52,310312,,,D*4E
$GPGGA,150240.000,3352.4655,N,09831.1874,W,2,10,0.9,287.4,M,-23.7,M,,0000*69
$GPGSA,A,3,15,21,27,14,09,03,22,06,29,18,,,1.9,0.9,1.7*3C
$GPRMC,150240.000,A,3352.4655,N,09831.1874,W,0.11,32.89,310312,,,D*45
$GPGGA,150241.000,3352.4655,N,09831.1874,W,2,10,0.9,287.4,M,-23.7,M,1.8,0000*4F
$GPGSA,A,3,15,21,27,14,09,03,22,06,29,18,,,1.9,0.9,1.7*3C
$GPRMC,150241.000,A,3352.4655,N,09831.1874,W,0.12,29.14,310312,,,D*49
$GPGGA,150242.000,3352.4655,N,09831.1874,W,2,10,0.9,287.3,M,-23.7,M,2.8,0000*48
$GPGSA,A,3,15,21,27,14,09,03,22,06,29,18,,,1.9,0.9,1.7*3C
$GPRMC,150242.000,A,3352.4655,N,09831.1874,W,0.09,32.58,310312,,,D*42
$GPGGA,150243.000,3352.4655,N,09831.1875,W,2,10,0.9,287.3,M,-23.7,M,3.8,0000*49
$GPGSA,A,3,15,21,27,14,09,03,22,06,29,18,,,1.9,0.9,1.7*3C
$GPRMC,150243.000,A,3352.4655,N,09831.1875,W,0.13,26.28,310312,,,D*4B
$GPGGA,150244.000,3352.4655,N,09831.1875,W,2,10,0.9,287.2,M,-23.7,M,4.8,0000*48
$GPGSA,A,3,15,21,27,14,09,03,22,06,29,18,,,1.9,0.9,1.7*3C
$GPGSV,3,1,12,21,82,038,28,18,64,334,36,15,47,048,42,22,33,279,33*7B
$GPGSV,3,2,12,27,28,085,33,09,28,114,37,06,28,298,29,29,19,179,29*79
$GPGSV,3,3,12,03,18,306,34,14,17,212,28,26,05,038,,48,36,230,34*7F
$GPRMC,150244.000,A,3352.4655,N,09831.1875,W,0.12,23.70,310312,,,D*45
$GPGGA,150245.000,3352.4655,N,09831.1875,W,2,10,0.9,287.2,M,-23.7,M,5.8,0000*48
$GPGSA,A,3,15,21,27,14,09,03,22,06,29,18,,,1.9,0.9,1.7*3C
$GPRMC,150245.000,A,3352.4655,N,09831.1875,W,0.10,39.09,310312,,,D*43
$GPGGA,150246.000,3352.4655,N,09831.1875,W,2,10,0.9,287.2,M,-23.7,M,6.8,0000*48
$GPGSA,A,3,15,21,27,14,09,03,22,06,29,18,,,1.9,0.9,1.7*3C
$GPRMC,150246.000,A,3352.4655,N,09831.1875,W,0.14,26.89,310312,,,D*42
$GPGGA,150247.000,3352.4655,N,09831.1875,W,2,10,0.9,287.1,M,-23.7,M,7.8,0000*4B
$GPGSA,A,3,15,21,27,14,09,03,22,06,29,18,,,1.9,0.9,1.7*3C
$GPRMC,150247.000,A,3352.4655,N,09831.1875,W,0.11,29.50,310312,,,D*4D
$GPGGA,150248.000,3352.4655,N,09831.1875,W,2,10,0.9,287.1,M,-23.7,M,8.8,0000*4B
$GPGSA,A,3,15,21,27,14,09,03,22,06,29,18,,,1.9,0.9,1.7*3C
$GPRMC,150248.000,A,3352.4655,N,09831.1875,W,0.10,31.92,310312,,,D*44
$GPGGA,150249.000,3352.4655,N,09831.1875,W,2,10,0.9,287.0,M,-23.7,M,9.8,0000*4A
$GPGSA,A,3,15,21,27,14,09,03,22,06,29,18,,,1.9,0.9,1.7*3C
$GPGSV,3,1,12,21,82,038,28,18,64,334,36,15,47,048,42,22,33,279,32*7A
$GPGSV,3,2,12,27,28,085,33,09,28,114,37,06,28,298,30,29,19,179,29*71
$GPGSV,3,3,12,03,18,306,34,14,17,212,28,26,05,038,,48,36,230,34*7F
$GPRMC,150249.000,A,3352.4655,N,09831.1875,W,0.12,32.52,310312,,,D*48
$GPGGA,150250.000,3352.4655,N,09831.1875,W,2,10,0.9,287.0,M,-23.7,M,10.8,0000*7A
$GPGSA,A,3,15,21,27,14,09,03,22,06,29,18,,,1.9,0.9,1.7*3C
$GPRMC,150250.000,A,3352.4655,N,09831.1875,W,0.11,32.64,310312,,,D*46
$GPGGA,150251.000,3352.4655,N,09831.1875,W,2,10,0.9,286.9,M,-23.7,M,11.8,0000*72
$GPGSA,A,3,15,21,27,14,09,03,22,06,29,18,,,1.9,0.9,1.7*3C
$GPRMC,150251.000,A,3352.4655,N,09831.1875,W,0.12,23.83,310312,,,D*4D
$GPGGA,150252.000,3352.4655,N,09831.1875,W,2,10,0.9,286.9,M,-23.7,M,12.8,0000*72
$GPGSA,A,3,15,21,27,14,09,03,22,06,29,18,,,1.9,0.9,1.7*3C
$GPRMC,150252.000,A,3352.4655,N,09831.1875,W,0.11,33.79,310312,,,D*49
$GPGGA,150253.000,3352.4655,N,09831.1875,W,2,10,0.9,286.8,M,-23.7,M,13.8,0000*73
$GPGSA,A,3,15,21,27,14,09,03,22,06,29,18,,,1.9,0.9,1.7*3C
$GPRMC,150253.000,A,3352.4655,N,09831.1875,W,0.12,30.74,310312,,,D*45
$GPGGA,150254.000,3352.4655,N,09831.1875,W,2,10,0.9,286.8,M,-23.7,M,14.8,0000*73
$GPGSA,A,3,15,21,27,14,09,03,22,06,29,18,,,1.9,0.9,1.7*3C
$GPGSV,3,1,12,21,82,038,29,18,64,334,36,15,47,048,42,22,33,279,32*7B
$GPGSV,3,2,12,27,28,085,33,09,28,114,36,06,28,298,31,29,19,179,30*79
$GPGSV,3,3,12,03,18,306,34,14,17,212,28,26,05,038,,48,36,230,34*7F
$GPRMC,150254.000,A,3352.4655,N,09831.1875,W,0.12,31.84,310312,,,D*4C
$GPGGA,150255.000,3352.4655,N,09831.1875,W,2,10,0.9,286.7,M,-23.7,M,15.8,0000*7C
$GPGSA,A,3,15,21,27,14,09,03,22,06,29,18,,,1.9,0.9,1.7*3C
$GPRMC,150255.000,A,3352.4655,N,09831.1875,W,0.12,33.89,310312,,,D*42
$GPGGA,150256.000,3352.4655,N,09831.1875,W,2,10,0.9,286.6,M,-23.7,M,16.8,0000*7D
$GPGSA,A,3,15,21,27,14,09,03,22,06,29,18,,,1.9,0.9,1.7*3C
$GPRMC,150256.000,A,3352.4655,N,09831.1875,W,0.11,25.89,310312,,,D*45
$GPGGA,150257.000,3352.4655,N,09831.1875,W,2,10,0.9,286.5,M,-23.7,M,17.8,0000*7E
$GPGSA,A,3,15,21,27,14,09,03,22,06,29,18,,,1.9,0.9,1.7*3C
$GPRMC,150257.000,A,3352.4655,N,09831.1875,W,0.12,35.73,310312,,,D*43
$GPGGA,150258.000,3352.4655,N,09831.1874,W,1,10,0.9,286.5,M,-23.7,M,18.8,0000*7C
$GPGSA,A,3,15,21,27,14,09,03,22,06,29,18,,,1.9,0.9,1.7*3C
$GPRMC,150258.000,A,3352.4655,N,09831.1874,W,0.11,32.04,310312,,,A*4C
$GPGGA,150259.000,3352.4655,N,09831.1874,W,1,10,0.9,286.5,M,-23.7,M,18.8,0000*7D
$GPGSA,A,3,15,21,27,14,09,03,22,06,29,18,,,1.9,0.9,1.7*3C
$GPGSV,3,1,12,21,82,038,29,18,64,334,36,15,47,048,42,22,33,279,32*7B
$GPGSV,3,2,12,27,28,085,32,09,28,114,36,06,28,298,31,29,19,179,30*78
$GPGSV,3,3,12,03,18,306,34,14,17,212,28,26,05,038,,48,36,230,33*78
$GPRMC,150259.000,A,3352.4655,N,09831.1874,W,0.10,34.55,310312,,,A*4E
$GPGGA,150300.000,3352.4656,N,09831.1874,W,1,10,0.9,286.4,M,-23.7,M,18.8,0000*72
$GPGSA,A,3,15,21,27,14,09,03,22,06,29,18,,,1.9,0.9,1.7*3C
$GPRMC,150300.000,A,3352.4656,N,09831.1874,W,0.10,35.36,310312,,,A*44
$GPGGA,150301.000,3352.4656,N,09831.1874,W,1,10,0.9,286.4,M,-23.7,M,18.8,0000*73
$GPGSA,A,3,15,21,27,14,09,03,22,06,29,18,,,1.9,0.9,1.7*3C
$GPRMC,150301.000,A,3352.4656,N,09831.1874,W,0.11,40.01,310312,,,A*42
$GPGGA,150302.000,3352.4656,N,09831.1874,W,1,10,0.9,286.3,M,-23.7,M,18.8,0000*77
$GPGSA,A,3,15,21,27,14,09,03,22,06,29,18,,,1.9,0.9,1.7*3C
$GPRMC,150302.000,A,3352.4656,N,09831.1874,W,0.10,30.01,310312,,,A*47
$GPGGA,150303.000,3352.4655,N,09831.1873,W,2,10,0.9,286.3,M,-23.7,M,,0000*6E
$GPGSA,A,3,15,21,27,14,09,03,22,06,29,18,,,1.9,0.9,1.7*3C
$GPRMC,150303.000,A,3352.4655,N,09831.1873,W,0.12,31.11,310312,,,D*45
$GPGGA,150304.000,3352.4655,N,09831.1873,W,2,10,0.9,286.3,M,-23.7,M,1.8,0000*4E
$GPGSA,A,3,15,21,27,14,09,03,22,06,29,18,,,1.9,0.9,1.7*3C
$GPGSV,3,1,12,21,82,048,29,18,64,338,36,15,46,047,42,22,34,281,32*7E
$GPGSV,3,2,12,09,29,112,36,27,28,084,32,06,28,297,31,03,19,305,34*74
$GPGSV,3,3,12,14,18,212,28,29,18,178,31,26,04,038,,48,36,230,33*70
$GPRMC,150304.000,A,3352.4655,N,09831.1873,W,0.11,38.45,310312,,,D*49
$GPGGA,150305.000,3352.4655,N,09831.1873,W,2,10,0.9,286.2,M,-23.7,M,2.8,0000*4D
