$GPGGA,032609.000,3351.4583,N,09832.0548,W,2,08,1.1,291.5,M,-23.7,M,2.8,0000*4C
$GPGSA,A,3,17,01,26,28,11,08,07,19,,,,,2.4,1.1,2.1*39
$GPRMC,032609.000,A,3351.4583,N,09832.0548,W,0.08,75.83,030412,,,D*45
$GPGGA,032610.000,3351.4584,N,09832.0548,W,2,08,1.1,291.7,M,-23.7,M,3.8,0000*40
$GPGSA,A,3,17,01,26,28,11,08,07,19,,,,,2.4,1.1,2.1*39
$GPGSV,3,1,10,08,77,358,29,07,56,126,36,28,49,306,35,11,42,083,35*7C
$GPGSV,3,2,10,17,39,221,34,01,36,109,28,26,29,301,34,19,21,043,37*77
$GPGSV,3,3,10,13,10,178,,51,49,195,43*76
$GPRMC,032610.000,A,3351.4584,N,09832.0548,W,0.07,49.42,030412,,,D*47
$GPGGA,032611.000,3351.4584,N,09832.0548,W,2,08,1.1,291.9,M,-23.7,M,4.8,0000*48
$GPGSA,A,3,17,01,26,28,11,08,07,19,,,,,2.4,1.1,2.1*39
$GPRMC,032611.000,A,3351.4584,N,09832.0548,W,0.07,66.47,030412,,,D*4E
$GPGGA,032612.000,3351.4584,N,09832.0548,W,2,08,1.1,292.2,M,-23.7,M,0.8,0000*47
$GPGSA,A,3,17,01,26,28,11,08,07,19,,,,,2.4,1.1,2.1*39
$GPRMC,032612.000,A,3351.4584,N,09832.0548,W,0.06,123.19,030412,,,D*77
$GPGGA,032613.000,3351.4584,N,09832.0548,W,2,08,1.1,292.3,M,-23.7,M,0.8,0000*47
$GPGSA,A,3,17,01,26,28,11,08,07,19,,,,,2.4,1.1,2.1*39
$GPRMC,032613.000,A,3351.4584,N,09832.0548,W,0.11,126.54,030412,,,D*7C
$GPGGA,032614.000,3351.4584,N,09832.0547,W,2,08,1.1,292.4,M,-23.7,M,0.8,0000*48
$GPGSA,A,3,17,01,26,28,11,08,07,19,,,,,2.4,1.1,2.1*39
$GPRMC,032614.000,A,3351.4584,N,09832.0547,W,0.09,117.15,030412,,,D*7A
$GPGGA,032615.000,3351.4584,N,09832.0547,W,2,08,1.1,292.5,M,-23.7,M,1.8,0000*49
$GPGSA,A,3,17,01,26,28,11,08,07,19,,,,,2.4,1.1,2.1*39
$GPGSV,3,1,10,08,77,358,29,07,56,126,36,28,49,306,36,11,42,083,35*7F
$GPGSV,3,2,10,17,39,221,34,01,36,109,28,26,29,301,34,19,21,043,37*77
$GPGSV,3,3,10,13,10,178,19,51,49,195,36*7C
$GPRMC,032615.000,A,3351.4584,N,09832.0547,W,0.10,128.24,030412,,,D*7D
$GPGGA,032616.000,3351.4583,N,09832.0547,W,2,08,1.1,292.6,M,-23.7,M,2.8,0000*4D
$GPGSA,A,3,17,01,26,28,11,08,07,19,,,,,2.4,1.1,2.1*39
$GPRMC,032616.000,A,3351.4583,N,09832.0547,W,0.09,123.84,030412,,,D*70
$GPGGA,032617.000,3351.4583,N,09832.0547,W,2,08,1.1,292.7,M,-23.7,M,3.8,0000*4C
$GPGSA,A,3,17,01,26,28,11,08,07,19,,,,,2.4,1.1,2.1*39
$GPRMC,032617.000,A,3351.4583,N,09832.0547,W,0.11,128.55,030412,,,D*7F
$GPGGA,032618.000,3351.4583,N,09832.0547,W,2,08,1.1,292.8,M,-23.7,M,0.8,0000*4F
$GPGSA,A,3,17,01,26,28,11,08,07,19,,,,,2.4,1.1,2.1*39
$GPRMC,032618.000,A,3351.4583,N,09832.0547,W,0.08,82.02,030412,,,D*4B
$GPGGA,032619.000,3351.4584,N,09832.0547,W,2,08,1.1,292.7,M,-23.7,M,0.8,0000*46
$GPGSA,A,3,17,01,26,28,11,08,07,19,,,,,2.4,1.1,2.1*39
$GPRMC,032619.000,A,3351.4584,N,09832.0547,W,0.04,67.52,030412,,,D*4F
$GPGGA,032620.000,3351.4584,N,09832.0547,W,2,08,1.1,292.7,M,-23.7,M,0.8,0000*4C
$GPGSA,A,3,17,01,26,28,11,08,07,19,,,,,2.4,1.1,2.1*39
$GPGSV,3,1,10,08,77,000,29,07,55,127,36,28,49,307,36,11,41,082,35*70
$GPGSV,3,2,10,17,40,221,34,01,36,108,27,26,29,300,34,19,20,043,37*77
$GPGSV,3,3,10,13,09,177,19,51,49,195,36*7B
$GPRMC,032620.000,A,3351.4584,N,09832.0547,W,0.04,56.18,030412,,,D*49
$GPGGA,032621.000,3351.4584,N,09832.0548,W,2,08,1.1,292.7,M,-23.7,M,1.8,0000*43
$GPGSA,A,3,17,01,26,28,11,08,07,19,,,,,2.4,1.1,2.1*39
$GPRMC,032621.000,A,3351.4584,N,09832.0548,W,0.05,30.32,030412,,,D*4E
$GPGGA,032622.000,3351.4585,N,09832.0548,W,2,08,1.1,292.7,M,-23.7,M,2.8,0000*42
$GPGSA,A,3,17,01,26,28,11,08,07,19,,,,,2.4,1.1,2.1*39
$GPRMC,032622.000,A,3351.4585,N,09832.0548,W,0.03,60.37,030412,,,D*4A
$GPGGA,032623.000,3351.4585,N,09832.0548,W,2,08,1.1,292.6,M,-23.7,M,0.8,0000*40
$GPGSA,A,3,17,01,26,28,11,08,07,19,,,,,2.4,1.1,2.1*39
$GPRMC,032623.000,A,3351.4585,N,09832.0548,W,0.04,41.00,030412,,,D*4B
$GPGGA,032624.000,3351.4585,N,09832.0548,W,2,08,1.1,292.6,M,-23.7,M,0.8,0000*47
$GPGSA,A,3,17,01,26,28,11,08,07,19,,,,,2.4,1.1,2.1*39
$GPRMC,032624.000,A,3351.4585,N,09832.0548,W,0.04,32.61,030412,,,D*4F
$GPGGA,032625.000,3351.4585,N,09832.0548,W,2,08,1.1,292.5,M,-23.7,M,0.8,0000*45
$GPGSA,A,3,17,01,26,28,11,08,07,19,,,,,2.4,1.1,2.1*39
$GPGSV,3,1,10,08,77,000,30,07,55,127,36,28,49,307,35,11,41,082,35*7B
$GPGSV,3,2,10,17,40,221,34,01,36,108,27,26,29,300,35,19,20,043,37*76
$GPGSV,3,3,10,13,09,177,19,51,49,195,39*74
$GPRMC,032625.000,A,3351.4585,N,09832.0548,W,0.08,86.62,030412,,,D*4E
$GPGGA,032626.000,3351.4585,N,09832.0548,W,2,08,1.1,292.5,M,-23.7,M,0.8,0000*46
$GPGSA,A,3,17,01,26,28,11,08,07,19,,,,,2.4,1.1,2.1*39
$GPRMC,032626.000,A,3351.4585,N,09832.0548,W,0.12,109.30,030412,,,D*77
$GPGGA,032627.000,3351.4585,N,09832.0548,W,2,08,1.1,292.5,M,-23.7,M,1.8,0000*46
$GPGSA,A,3,17,01,26,28,11,08,07,19,,,,,2.4,1.1,2.1*39
$GPRMC,032627.000,A,3351.4585,N,09832.0548,W,0.09,101.80,030412,,,D*7F
$GPGGA,032628.000,3351.4585,N,09832.0548,W,2,08,1.1,292.4,M,-23.7,M,2.8,0000*4B
$GPGSA,A,3,17,01,26,28,11,08,07,19,,,,,2.4,1.1,2.1*39
$GPRMC,032628.000,A,3351.4585,N,09832.0548,W,0.11,112.82,030412,,,D*79
$GPGGA,032629.000,3351.4585,N,09832.0548,W,2,08,1.1,292.4,M,-23.7,M,3.8,0000*4B
$GPGSA,A,3,17,01,26,28,11,08,07,19,,,,,2.4,1.1,2.1*39
$GPRMC,032629.000,A,3351.4585,N,09832.0548,W,0.10,101.70,030412,,,D*76
$GPGGA,032630.000,3351.4585,N,09832.0548,W,2,08,1.1,292.4,M,-23.7,M,0.8,0000*40
$GPGSA,A,3,17,01,26,28,11,08,07,19,,,,,2.4,1.1,2.1*39
$GPGSV,3,1,10,08,77,000,29,07,55,127,36,28,49,307,35,11,41,082,35*73
$GPGSV,3,2,10,17,40,221,34,01,36,108,26,26,29,300,35,19,20,043,37*77
$GPGSV,3,3,10,13,09,177,19,51,49,195,36*7B
$GPRMC,032630.000,A,3351.4585,N,09832.0548,W,0.08,86.63,030412,,,D*4B
$GPGGA,032631.000,3351.4585,N,09832.0548,W,2,08,1.1,292.4,M,-23.7,M,0.8,0000*41
$GPGSA,A,3,17,01,26,28,11,08,07,19,,,,,2.4,1.1,2.1*39
$GPRMC,032631.000,A,3351.4585,N,09832.0548,W,0.06,68.09,030412,,,D*48
$GPGGA,032632.000,3351.4585,N,09832.0548,W,2,08,1.1,292.4,M,-23.7,M,0.8,0000*42
$GPGSA,A,3,17,01,26,28,11,08,07,19,,,,,2.4,1.1,2.1*39
$GPRMC,032632.000,A,3351.4585,N,09832.0548,W,0.07,34.88,030412,,,D*4A
$GPGGA,032633.000,3351.4586,N,09832.0548,W,2,08,1.1,292.4,M,-23.7,M,0.8,0000*40
$GPGSA,A,3,17,01,26,28,11,08,07,19,,,,,2.4,1.1,2.1*39
$GPRMC,032633.000,A,3351.4586,N,09832.0548,W,0.07,30.36,030412,,,D*49
$GPGGA,032634.000,3351.4586,N,09832.0549,W,2,08,1.1,292.3,M,-23.7,M,1.8,0000*40
$GPGSA,A,3,17,01,26,28,11,08,07,19,,,,,2.4,1.1,2.1*39
$GPRMC,032634.000,A,3351.4586,N,09832.0549,W,0.06,30.56,030412,,,D*48
$GPGGA,032635.000,3351.4586,N,09832.0549,W,2,08,1.1,292.3,M,-23.7,M,0.8,0000*40
$GPGSA,A,3,17,01,26,28,11,08,07,19,,,,,2.4,1.1,2.1*39
$GPGSV,3,1,10,08,77,000,29,07,55,127,37,28,49,307,35,11,41,082,35*72
$GPGSV,3,2,10,17,40,221,34,01,36,108,27,26,29,300,35,19,20,043,37*76
$GPGSV,3,3,10,13,09,177,19,51,49,195,36*7B
$GPRMC,032635.000,A,3351.4586,N,09832.0549,W,0.05,27.89,030412,,,D*4E
$GPGGA,032636.000,3351.4586,N,09832.0549,W,2,08,1.1,292.3,M,-23.7,M,0.8,0000*43
$GPGSA,A,3,17,01,26,28,11,08,07,19,,,,,2.4,1.1,2.1*39
$GPRMC,032636.000,A,3351.4586,N,09832.0549,W,0.04,95.86,030412,,,D*4A
$GPGGA,032637.000,3351.4586,N,09832.0549,W,2,08,1.1,292.2,M,-23.7,M,0.8,0000*43
$GPGSA,A,3,17,01,26,28,11,08,07,19,,,,,2.4,1.1,2.1*39
$GPRMC,032637.000,A,3351.4586,N,09832.0549,W,0.06,105.35,030412,,,D*79
$GPGGA,032638.000,3351.4586,N,09832.0549,W,2,08,1.1,292.2,M,-23.7,M,0.8,0000*4C
$GPGSA,A,3,17,01,26,28,11,08,07,19,,,,,2.4,1.1,2.1*39
$GPRMC,032638.000,A,3351.4586,N,09832.0549,W,0.08,130.27,030412,,,D*7D
$GPGGA,032639.000,3351.4586,N,09832.0549,W,2,08,1.1,292.2,M,-23.7,M,1.8,0000*4C
$GPGSA,A,3,17,01,26,28,11,08,07,19,,,,,2.4,1.1,2.1*39
$GPRMC,032639.000,A,3351.4586,N,09832.0549,W,0.10,118.88,030412,,,D*7A
$GPGGA,032640.000,3351.4586,N,09832.0549,W,2,08,1.1,292.2,M,-23.7,M,2.8,0000*41
$GPGSA,A,3,17,01,26,28,11,08,07,19,,,,,2.4,1.1,2.1*39
$GPGSV,3,1,10,08,77,000,29,07,55,127,37,28,49,307,35,11,41,082,35*72
$GPGSV,3,2,10,17,40,221,33,01,36,108,27,26,29,300,35,19,20,043,37*71
$GPGSV,3,3,10,13,09,177,18,51,49,195,36*7A
$GPRMC,032640.000,A,3351.4586,N,09832.0549,W,0.09,123.11,030412,,,D*74
$GPGGA,032641.000,3351.4585,N,09832.0549,W,2,08,1.1,292.2,M,-23.7,M,3.8,0000*42
$GPGSA,A,3,17,01,26,28,11,08,07,19,,,,,2.4,1.1,2.1*39
$GPRMC,032641.000,A,3351.4585,N,09832.0549,W,0.07,119.72,030412,,,D*74
$GPGGA,032642.000,3351.4585,N,09832.0549,W,2,08,1.1,292.2,M,-23.7,M,0.8,0000*42
$GPGSA,A,3,17,01,26,28,11,08,07,19,,,,,2.4,1.1,2.1*39
$GPRMC,032642.000,A,3351.4585,N,09832.0549,W,0.06,114.58,030412,,,D*73
$GPGGA,032643.000,3351.4585,N,09832.0549,W,2,08,1.1,292.3,M,-23.7,M,0.8,0000*42
$GPGSA,A,3,17,01,26,28,11,08,07,19,,,,,2.4,1.1,2.1*39
$GPRMC,032643.000,A,3351.4585,N,09832.0549,W,0.04,79.49,030412,,,D*4A
$GPGGA,032644.000,3351.4586,N,09832.0549,W,2,08,1.1,292.3,M,-23.7,M,0.8,0000*46
$GPGSA,A,3,17,01,26,28,11,08,07,19,,,,,2.4,1.1,2.1*39
$GPRMC,032644.000,A,3351.4586,N,09832.0549,W,0.05,1.38,030412,,,D*76
$GPGGA,032645.000,3351.4586,N,09832.0549,W,2,08,1.1,292.4,M,-23.7,M,1.8,0000*41
$GPGSA,A,3,17,01,26,28,11,08,07,19,,,,,2.4,1.1,2.1*39
$GPGSV,3,1,10,08,77,000,29,07,55,127,36,28,49,307,35,11,41,082,34*72
$GPGSV,3,2,10,17,40,221,33,01,36,108,27,26,29,300,36,19,20,043,38*7D
$GPGSV,3,3,10,13,09,177,17,51,49,195,36*75
$GPRMC,032645.000,A,3351.4586,N,09832.0549,W,0.05,353.35,030412,,,D*7E
$GPGGA,032646.000,3351.4586,N,09832.0550,W,2,08,1.1,292.4,M,-23.7,M,2.8,0000*49
$GPGSA,A,3,17,01,26,28,11,08,07,19,,,,,2.4,1.1,2.1*39
$GPRMC,032646.000,A,3351.4586,N,09832.0550,W,0.06,0.32,030412,,,D*74
$GPGGA,032647.000,3351.4586,N,09832.0550,W,2,08,1.1,292.5,M,-23.7,M,3.8,0000*48
$GPGSA,A,3,17,01,26,28,11,08,07,19,,,,,2.4,1.1,2.1*39
$GPRMC,032647.000,A,3351.4586,N,09832.0550,W,0.05,355.89,030412,,,D*75
$GPGGA,032648.000,3351.4587,N,09832.0550,W,2,08,1.1,292.5,M,-23.7,M,0.8,0000*45
$GPGSA,A,3,17,01,26,28,11,08,07,19,,,,,2.4,1.1,2.1*39
$GPRMC,032648.000,A,3351.4587,N,09832.0550,W,0.05,47.44,030412,,,D*4A
$GPGGA,032649.000,3351.4586,N,09832.0550,W,2,08,1.1,292.4,M,-23.7,M,0.8,0000*44
$GPGSA,A,3,17,01,26,28,11,08,07,19,,,,,2.4,1.1,2.1*39
$GPRMC,032649.000,A,3351.4586,N,09832.0550,W,0.07,74.43,030412,,,D*4F
$GPGGA,032650.000,3351.4586,N,09832.0550,W,2,08,1.1,292.4,M,-23.7,M,0.8,0000*4C
$GPGSA,A,3,17,01,26,28,11,08,07,19,,,,,2.4,1.1,2.1*39
$GPGSV,3,1,10,08,77,000,30,07,55,127,36,28,49,307,35,11,41,082,34*7A
$GPGSV,3,2,10,17,40,221,33,01,36,108,27,26,29,300,36,19,20,043,38*7D
$GPGSV,3,3,10,13,09,177,17,51,49,195,36*75
$GPRMC,032650.000,A,3351.4586,N,09832.0550,W,0.10,104.75,030412,,,D*72
$GPGGA,032651.000,3351.4586,N,09832.0549,W,2,08,1.1,292.3,M,-23.7,M,1.8,0000*43
$GPGSA,A,3,17,01,26,28,11,08,07,19,,,,,2.4,1.1,2.1*39
$GPRMC,032651.000,A,3351.4586,N,09832.0549,W,0.09,101.93,030412,,,D*7E
$GPGGA,032652.000,3351.4586,N,09832.0549,W,2,08,1.1,292.3,M,-23.7,M,0.8,0000*41
$GPGSA,A,3,17,01,26,28,11,08,07,19,,,,,2.4,1.1,2.1*39
$GPRMC,032652.000,A,3351.4586,N,09832.0549,W,0.11,111.52,030412,,,D*78
$GPGGA,032653.000,3351.4586,N,09832.0549,W,2,08,1.1,292.3,M,-23.7,M,1.8,0000*41
$GPGSA,A,3,17,01,26,28,11,08,07,19,,,,,2.4,1.1,2.1*39
$GPRMC,032653.000,A,3351.4586,N,09832.0549,W,0.10,107.29,030412,,,D*73
$GPGGA,032654.000,3351.4585,N,09832.0549,W,2,08,1.1,292.3,M,-23.7,M,0.8,0000*44
$GPGSA,A,3,17,01,26,28,11,08,07,19,,,,,2.4,1.1,2.1*39
$GPRMC,032654.000,A,3351.4585,N,09832.0549,W,0.06,153.89,030412,,,D*7B
$GPGGA,032655.000,3351.4585,N,09832.0549,W,2,08,1.1,292.3,M,-23.7,M,0.8,0000*45
$GPGSA,A,3,17,01,26,28,11,08,07,19,,,,,2.4,1.1,2.1*39
$GPGSV,3,1,10,08,77,000,31,07,55,127,36,28,49,307,35,11,41,082,34*7B
$GPGSV,3,2,10,17,40,221,33,01,36,108,28,26,29,300,36,19,20,043,38*72
$GPGSV,3,3,10,13,09,177,16,51,49,195,36*74
$GPRMC,032655.000,A,3351.4585,N,09832.0549,W,0.07,156.33,030412,,,D*7F
$GPGGA,032656.000,3351.4585,N,09832.0549,W,2,08,1.1,292.3,M,-23.7,M,0.8,0000*46
$GPGSA,A,3,17,01,26,28,11,08,07,19,,,,,2.4,1.1,2.1*39
$GPRMC,032656.000,A,3351.4585,N,09832.0549,W,0.03,271.33,030412,,,D*7E
$GPGGA,032657.000,3351.4585,N,09832.0549,W,2,08,1.1,292.3,M,-23.7,M,1.8,0000*46
$GPGSA,A,3,17,01,26,28,11,08,07,19,,,,,2.4,1.1,2.1*39
$GPRMC,032657.000,A,3351.4585,N,09832.0549,W,0.02,263.80,030412,,,D*75
$GPGGA,032658.000,3351.4585,N,09832.0550,W,2,08,1.1,292.3,M,-23.7,M,2.8,0000*42
$GPGSA,A,3,17,01,26,28,11,08,07,19,,,,,2.4,1.1,2.1*39
$GPRMC,032658.000,A,3351.4585,N,09832.0550,W,0.02,221.69,030412,,,D*73
$GPGGA,032659.000,3351.4585,N,09832.0550,W,2,08,1.1,292.2,M,-23.7,M,3.8,0000*43
$GPGSA,A,3,17,01,26,28,11,08,07,19,,,,,2.4,1.1,2.1*39
$GPRMC,032659.000,A,3351.4585,N,09832.0550,W,0.02,271.12,030412,,,D*7B
$GPGGA,032700.000,3351.4585,N,09832.0550,W,2,08,1.1,292.3,M,-23.7,M,0.8,0000*4C
$GPGSA,A,3,17,01,26,28,11,08,07,19,,,,,2.4,1.1,2.1*39
$GPGSV,3,1,10,08,77,000,31,07,55,127,36,28,49,307,35,11,41,082,35*7A
$GPGSV,3,2,10,17,40,221,33,01,36,108,29,26,29,300,36,19,20,043,38*73
$GPGSV,3,3,10,13,09,177,15,51,49,195,36*77
$GPRMC,032700.000,A,3351.4585,N,09832.0550,W,0.07,39.14,030412,,,D*4B
$GPGGA,032701.000,3351.4585,N,09832.0550,W,2,08,1.1,292.2,M,-23.7,M,0.8,0000*4C
$GPGSA,A,3,17,01,26,28,11,08,07,19,,,,,2.4,1.1,2.1*39
$GPRMC,032701.000,A,3351.4585,N,09832.0550,W,0.09,53.59,030412,,,D*41
$GPGGA,032702.000,3351.4585,N,09832.0550,W,2,08,1.1,292.3,M,-23.7,M,0.8,0000*4E
$GPGSA,A,3,17,01,26,28,11,08,07,19,,,,,2.4,1.1,2.1*39
$GPRMC,032702.000,A,3351.4585,N,09832.0550,W,0.10,87.01,030412,,,D*4E
$GPGGA,032703.000,3351.4585,N,09832.0549,W,2,08,1.1,292.3,M,-23.7,M,1.8,0000*46
$GPGSA,A,3,17,01,26,28,11,08,07,19,,,,,2.4,1.1,2.1*39
$GPRMC,032703.000,A,3351.4585,N,09832.0549,W,0.11,94.03,030412,,,D*46
$GPGGA,032704.000,3351.4585,N,09832.0549,W,2,08,1.1,292.4,M,-23.7,M,2.8,0000*45
$GPGSA,A,3,17,01,26,28,11,08,07,19,,,,,2.4,1.1,2.1*39
$GPRMC,032704.000,A,3351.4585,N,09832.0549,W,0.11,80.36,030412,,,D*42
$GPGGA,032705.000,3351.4585,N,09832.0549,W,2,08,1.1,292.4,M,-23.7,M,0.8,0000*46
$GPGSA,A,3,17,01,26,28,11,08,07,19,,,,,2.4,1.1,2.1*39
$GPGSV,3,1,10,08,77,000,30,07,55,127,35,28,49,307,35,11,41,082,35*78
$GPGSV,3,2,10,17,40,221,33,01,36,108,30,26,29,300,36,19,20,043,38*7B
$GPGSV,3,3,10,13,09,177,14,51,49,195,36*76
$GPRMC,032705.000,A,3351.4585,N,09832.0549,W,0.10,79.61,030412,,,D*46
$GPGGA,032706.000,3351.4585,N,09832.0549,W,2,08,1.1,292.5,M,-23.7,M,0.8,0000*44
$GPGSA,A,3,17,01,26,28,11,08,07,19,,,,,2.4,1.1,2.1*39
$GPRMC,032706.000,A,3351.4585,N,09832.0549,W,0.07,151.65,030412,,,D*7C
$GPGGA,032707.000,3351.4585,N,09832.0549,W,2,08,1.1,292.5,M,-23.7,M,0.8,0000*45
$GPGSA,A,3,17,01,26,28,11,08,07,19,,,,,2.4,1.1,2.1*39
$GPRMC,032707.000,A,3351.4585,N,09832.0549,W,0.05,153.75,030412,,,D*7C
$GPGGA,032708.000,3351.4585,N,09832.0549,W,2,08,1.1,292.5,M,-23.7,M,0.8,0000*4A
$GPGSA,A,3,17,01,26,28,11,08,07,19,,,,,2.4,1.1,2.1*39
$GPRMC,032708.000,A,3351.4585,N,09832.0549,W,0.02,312.04,030412,,,D*75
$GPGGA,032709.000,3351.4585,N,09832.0549,W,2,08,1.1,292.5,M,-23.7,M,0.8,0000*4B
$GPGSA,A,3,17,01,26,28,11,08,07,19,,,,,2.4,1.1,2.1*39
$GPRMC,032709.000,A,3351.4585,N,09832.0549,W,0.04,299.89,030412,,,D*75
$GPGGA,032710.000,3351.4585,N,09832.0550,W,2,08,1.1,292.5,M,-23.7,M,1.8,0000*4A
$GPGSA,A,3,17,01,26,28,11,08,07,19,,,,,2.4,1.1,2.1*39
$GPGSV,3,1,10,08,77,000,30,07,55,127,35,28,49,307,34,11,41,082,35*79
$GPGSV,3,2,10,17,40,221,33,01,36,108,30,26,29,300,37,19,20,043,38*7A
$GPGSV,3,3,10,13,09,177,14,51,49,195,37*77
$GPRMC,032710.000,A,3351.4585,N,09832.0550,W,0.00,184.64,030412,,,D*7D
$GPGGA,032711.000,3351.4584,N,09832.0550,W,2,08,1.1,292.5,M,-23.7,M,2.8,0000*49
$GPGSA,A,3,17,01,26,28,11,08,07,19,,,,,2.4,1.1,2.1*39
$GPRMC,032711.000,A,3351.4584,N,09832.0550,W,0.02,297.30,030412,,,D*7F
$GPGGA,032712.000,3351.4584,N,09832.0550,W,2,08,1.1,292.5,M,-23.7,M,3.8,0000*4B
$GPGSA,A,3,17,01,26,28,11,08,07,19,,,,,2.4,1.1,2.1*39
$GPRMC,032712.000,A,3351.4584,N,09832.0550,W,0.02,295.11,030412,,,D*7D
$GPGGA,032713.000,3351.4584,N,09832.0550,W,2,08,1.1,292.5,M,-23.7,M,0.8,0000*49
$GPGSA,A,3,17,01,26,28,11,08,07,19,,,,,2.4,1.1,2.1*39
$GPRMC,032713.000,A,3351.4584,N,09832.0550,W,0.01,223.31,030412,,,D*70
$GPGGA,032714.000,3351.4584,N,09832.0550,W,2,08,1.1,292.4,M,-23.7,M,0.8,0000*4F
$GPGSA,A,3,17,01,26,28,11,08,07,19,,,,,2.4,1.1,2.1*39
$GPRMC,032714.000,A,3351.4584,N,09832.0550,W,0.07,161.04,030412,,,D*72
$GPGGA,032715.000,3351.4583,N,09832.0551,W,2,08,1.1,292.4,M,-23.7,M,0.8,0000*48
$GPGSA,A,3,17,01,26,28,11,08,07,19,,,,,2.4,1.1,2.1*39
$GPGSV,3,1,10,08,77,000,29,07,55,127,36,28,49,307,34,11,41,082,35*72
$GPGSV,3,2,10,17,40,221,32,01,36,108,29,26,29,300,37,19,20,043,38*73
$GPGSV,3,3,10,13,09,177,13,51,49,195,36*71
$GPRMC,032715.000,A,3351.4583,N,09832.0551,W,0.07,156.36,030412,,,D*70
$GPGGA,032716.000,3351.4583,N,09832.0551,W,2,08,1.1,292.4,M,-23.7,M,1.8,0000*4A
$GPGSA,A,3,17,01,26,28,11,08,07,19,,,,,2.4,1.1,2.1*39
$GPRMC,032716.000,A,3351.4583,N,09832.0551,W,0.08,157.20,030412,,,D*7A
$GPGGA,032717.000,3351.4583,N,09832.0550,W,2,08,1.1,292.4,M,-23.7,M,2.8,0000*49
$GPGSA,A,3,17,01,26,28,11,08,07,19,,,,,2.4,1.1,2.1*39
$GPRMC,032717.000,A,3351.4583,N,09832.0550,W,0.05,148.32,030412,,,D*7A
$GPGGA,032718.000,3351.4582,N,09832.0550,W,2,08,1.1,292.6,M,-23.7,M,0.8,0000*47
$GPGSA,A,3,17,01,26,28,11,08,07,19,,,,,2.4,1.1,2.1*39
$GPRMC,032718.000,A,3351.4582,N,09832.0550,W,0.09,111.82,030412,,,D*7F
$GPGGA,032719.000,3351.4582,N,09832.0549,W,2,08,1.1,292.9,M,-23.7,M,0.8,0000*41
$GPGSA,A,3,17,01,26,28,11,08,07,19,,,,,2.4,1.1,2.1*39
$GPRMC,032719.000,A,3351.4582,N,09832.0549,W,0.10,108.96,030412,,,D*73
$GPGGA,032720.000,3351.4582,N,09832.0548,W,2,08,1.1,293.1,M,-23.7,M,0.8,0000*43
$GPGSA,A,3,17,01,26,28,11,08,07,19,,,,,2.4,1.1,2.1*39
$GPGSV,3,1,10,08,77,000,29,07,55,127,36,28,49,307,35,11,41,082,35*73
$GPGSV,3,2,10,17,40,221,32,01,36,108,28,26,29,300,38,19,20,043,38*7D
$GPGSV,3,3,10,13,09,177,12,51,49,195,36*70
$GPRMC,032720.000,A,3351.4582,N,09832.0548,W,0.20,104.35,030412,,,D*7E
$GPGGA,032721.000,3351.4582,N,09832.0548,W,2,08,1.1,293.3,M,-23.7,M,0.8,0000*40
$GPGSA,A,3,17,01,26,28,11,08,07,19,,,,,2.4,1.1,2.1*39
$GPRMC,032721.000,A,3351.4582,N,09832.0548,W,0.12,89.74,030412,,,D*4F
$GPGGA,032722.000,3351.4582,N,09832.0547,W,2,08,1.1,293.4,M,-23.7,M,1.8,0000*4A
$GPGSA,A,3,17,01,26,28,11,08,07,19,,,,,2.4,1.1,2.1*39
$GPRMC,032722.000,A,3351.4582,N,09832.0547,W,0.11,79.51,030412,,,D*48
$GPGGA,032723.000,3351.4582,N,09832.0547,W,2,08,1.1,293.6,M,-23.7,M,0.8,0000*48
$GPGSA,A,3,17,01,26,28,11,08,07,19,,,,,2.4,1.1,2.1*39
$GPRMC,032723.000,A,3351.4582,N,09832.0547,W,0.07,38.51,030412,,,D*4B
$GPGGA,032724.000,3351.4582,N,09832.0546,W,2,08,1.1,293.9,M,-23.7,M,0.8,0000*41
$GPGSA,A,3,17,01,26,28,11,08,07,19,,,,,2.4,1.1,2.1*39
$GPRMC,032724.000,A,3351.4582,N,09832.0546,W,0.11,43.29,030412,,,D*49
$GPGGA,032725.000,3351.4581,N,09832.0546,W,2,08,1.1,294.0,M,-23.7,M,0.8,0000*4D
$GPGSA,A,3,17,01,26,28,11,08,07,19,,,,,2.4,1.1,2.1*39
$GPGSV,3,1,10,08,77,000,29,07,55,127,36,28,49,307,35,11,41,082,35*73
$GPGSV,3,2,10,17,40,221,32,01,36,108,28,26,29,300,38,19,20,043,37*72
$GPGSV,3,3,10,13,09,177,13,51,49,195,36*71
$GPRMC,032725.000,A,3351.4581,N,09832.0546,W,0.12,41.73,030412,,,D*45
$GPGGA,032726.000,3351.4581,N,09832.0545,W,2,08,1.1,294.2,M,-23.7,M,0.8,0000*4F
$GPGSA,A,3,17,01,26,28,11,08,07,19,,,,,2.4,1.1,2.1*39
$GPRMC,032726.000,A,3351.4581,N,09832.0545,W,0.10,71.04,030412,,,D*44
$GPGGA,032727.000,3351.4581,N,09832.0545,W,2,08,1.1,294.4,M,-23.7,M,0.8,0000*48
$GPGSA,A,3,17,01,26,28,11,08,07,19,,,,,2.4,1.1,2.1*39
$GPRMC,032727.000,A,3351.4581,N,09832.0545,W,0.09,73.64,030412,,,D*49
$GPGGA,032728.000,3351.4581,N,09832.0544,W,2,08,1.1,294.5,M,-23.7,M,1.8,0000*46
$GPGSA,A,3,17,01,26,28,11,08,07,19,,,,,2.4,1.1,2.1*39
$GPRMC,032728.000,A,3351.4581,N,09832.0544,W,0.11,68.61,030412,,,D*41
$GPGGA,032729.000,3351.4581,N,09832.0543,W,2,08,1.1,294.7,M,-23.7,M,2.8,0000*41
$GPGSA,A,3,17,01,26,28,11,08,07,19,,,,,2.4,1.1,2.1*39
$GPRMC,032729.000,A,3351.4581,N,09832.0543,W,0.10,65.32,030412,,,D*4D
$GPGGA,032730.000,3351.4580,N,09832.0543,W,2,08,1.1,294.8,M,-23.7,M,0.8,0000*45
$GPGSA,A,3,17,01,26,28,11,08,07,19,,,,,2.4,1.1,2.1*39
$GPGSV,3,1,10,08,77,000,29,07,55,127,36,28,49,307,34,11,41,082,35*72
$GPGSV,3,2,10,17,40,221,33,01,36,108,28,26,29,300,39,19,20,043,37*72
$GPGSV,3,3,10,13,09,177,13,51,49,195,36*71
$GPRMC,032730.000,A,3351.4580,N,09832.0543,W,0.02,169.99,030412,,,D*7B
$GPGGA,032731.000,3351.4580,N,09832.0543,W,2,08,1.1,295.0,M,-23.7,M,0.8,0000*4D
$GPGSA,A,3,17,01,26,28,11,08,07,19,,,,,2.4,1.1,2.1*39
$GPRMC,032731.000,A,3351.4580,N,09832.0543,W,0.03,192.63,030412,,,D*7A
$GPGGA,032732.000,3351.4580,N,09832.0543,W,2,08,1.1,295.1,M,-23.7,M,0.8,0000*4F
$GPGSA,A,3,17,01,26,28,11,08,07,19,,,,,2.4,1.1,2.1*39
$GPRMC,032732.000,A,3351.4580,N,09832.0543,W,0.05,328.40,030412,,,D*7D
$GPGGA,032733.000,3351.4580,N,09832.0544,W,2,08,1.1,295.2,M,-23.7,M,0.8,0000*4A
$GPGSA,A,3,17,01,26,28,11,08,07,19,,,,,2.4,1.1,2.1*39
$GPRMC,032733.000,A,3351.4580,N,09832.0544,W,0.04,322.07,030412,,,D*73
$GPGGA,032734.000,3351.4580,N,09832.0544,W,2,08,1.1,295.3,M,-23.7,M,1.8,0000*4D
$GPGSA,A,3,17,01,26,28,11,08,07,19,,,,,2.4,1.1,2.1*39
$GPRMC,032734.000,A,3351.4580,N,09832.0544,W,0.04,320.33,030412,,,D*71
$GPGGA,032735.000,3351.4579,N,09832.0544,W,2,08,1.1,295.3,M,-23.7,M,2.8,0000*49
$GPGSA,A,3,17,01,26,28,11,08,07,19,,,,,2.4,1.1,2.1*39
$GPGSV,3,1,10,08,77,000,29,07,55,127,36,28,49,307,34,11,41,082,35*72
$GPGSV,3,2,10,17,40,221,33,01,36,108,28,26,29,300,39,19,20,043,36*73
$GPGSV,3,3,10,13,09,177,15,51,49,195,36*77
$GPRMC,032735.000,A,3351.4579,N,09832.0544,W,0.04,287.72,030412,,,D*7F
$GPGGA,032736.000,3351.4579,N,09832.0544,W,2,08,1.1,295.4,M,-23.7,M,0.8,0000*4F
$GPGSA,A,3,17,01,26,28,11,08,07,19,,,,,2.4,1.1,2.1*39
$GPRMC,032736.000,A,3351.4579,N,09832.0544,W,0.09,31.07,030412,,,D*4C
$GPGGA,032737.000,3351.4580,N,09832.0544,W,2,08,1.1,295.5,M,-23.7,M,0.8,0000*49
$GPGSA,A,3,17,01,26,28,11,08,07,19,,,,,2.4,1.1,2.1*39
$GPRMC,032737.000,A,3351.4580,N,09832.0544,W,0.10,37.65,030412,,,D*41
$GPGGA,032738.000,3351.4580,N,09832.0544,W,2,08,1.1,295.5,M,-23.7,M,0.8,0000*46
$GPGSA,A,3,17,01,26,28,11,08,07,19,,,,,2.4,1.1,2.1*39
$GPRMC,032738.000,A,3351.4580,N,09832.0544,W,0.09,71.53,030412,,,D*41
$GPGGA,032739.000,3351.4580,N,09832.0544,W,2,08,1.1,295.6,M,-23.7,M,1.8,0000*45
$GPGSA,A,3,17,01,26,28,11,08,07,19,,,,,2.4,1.1,2.1*39
$GPRMC,032739.000,A,3351.4580,N,09832.0544,W,0.10,71.89,030412,,,D*4F
$GPGGA,032740.000,3351.4580,N,09832.0543,W,2,08,1.1,295.6,M,-23.7,M,2.8,0000*4F
$GPGSA,A,3,17,01,26,28,11,08,07,19,,,,,2.4,1.1,2.1*39
$GPGSV,3,1,10,08,77,000,28,07,55,127,36,28,49,307,34,11,41,082,35*73
$GPGSV,3,2,10,17,40,221,33,01,36,108,29,26,29,300,39,19,20,043,36*72
$GPGSV,3,3,10,13,09,177,16,51,49,195,36*74
$GPRMC,032740.000,A,3351.4580,N,09832.0543,W,0.10,75.22,030412,,,D*43
$GPGGA,032741.000,3351.4579,N,09832.0543,W,2,08,1.1,295.7,M,-23.7,M,3.8,0000*48
$GPGSA,A,3,17,01,26,28,11,08,07,19,,,,,2.4,1.1,2.1*39
$GPRMC,032741.000,A,3351.4579,N,09832.0543,W,0.10,82.20,030412,,,D*4E
$GPGGA,032742.000,3351.4579,N,09832.0543,W,2,08,1.1,295.7,M,-23.7,M,0.8,0000*48
$GPGSA,A,3,17,01,26,28,11,08,07,19,,,,,2.4,1.1,2.1*39
$GPRMC,032742.000,A,3351.4579,N,09832.0543,W,0.02,126.49,030412,,,D*7E
$GPGGA,032743.000,3351.4579,N,09832.0543,W,2,08,1.1,295.8,M,-23.7,M,0.8,0000*46
$GPGSA,A,3,17,01,26,28,11,08,07,19,,,,,2.4,1.1,2.1*39
$GPRMC,032743.000,A,3351.4579,N,09832.0543,W,0.02,177.40,030412,,,D*72
$GPGGA,032744.000,3351.4579,N,09832.0543,W,2,08,1.1,295.8,M,-23.7,M,1.8,0000*40
$GPGSA,A,3,17,01,26,28,11,08,07,19,,,,,2.4,1.1,2.1*39
$GPRMC,032744.000,A,3351.4579,N,09832.0543,W,0.03,186.02,030412,,,D*7C
$GPGGA,032745.000,3351.4579,N,09832.0544,W,2,08,1.1,295.8,M,-23.7,M,2.8,0000*45
$GPGSA,A,3,17,01,26,28,11,08,07,19,,,,,2.4,1.1,2.1*39
$GPGSV,3,1,10,08,77,000,28,07,55,127,37,28,49,307,34,11,41,082,35*72
$GPGSV,3,2,10,17,40,221,33,01,36,108,28,26,29,300,39,19,20,043,36*73
$GPGSV,3,3,10,13,09,177,18,51,49,195,36*7A
$GPRMC,032745.000,A,3351.4579,N,09832.0544,W,0.02,159.76,030412,,,D*7A
$GPGGA,032746.000,3351.4578,N,09832.0544,W,2,08,1.1,295.9,M,-23.7,M,3.8,0000*47
$GPGSA,A,3,17,01,26,28,11,08,07,19,,,,,2.4,1.1,2.1*39
$GPRMC,032746.000,A,3351.4578,N,09832.0544,W,0.02,210.14,030412,,,D*72
$GPGGA,032747.000,3351.4578,N,09832.0544,W,2,08,1.1,295.9,M,-23.7,M,4.8,0000*41
$GPGSA,A,3,17,01,26,28,11,08,07,19,,,,,2.4,1.1,2.1*39
$GPRMC,032747.000,A,3351.4578,N,09832.0544,W,0.02,120.86,030412,,,D*78
$GPGGA,032748.000,3351.4578,N,09832.0544,W,2,08,1.1,296.0,M,-23.7,M,0.8,0000*40
$GPGSA,A,3,17,01,26,28,11,08,07,19,,,,,2.4,1.1,2.1*39
$GPRMC,032748.000,A,3351.4578,N,09832.0544,W,0.07,67.18,030412,,,D*47
$GPGGA,032749.000,3351.4578,N,09832.0544,W,2,08,1.1,295.9,M,-23.7,M,0.8,0000*4B
$GPGSA,A,3,17,01,26,28,11,08,07,19,,,,,2.4,1.1,2.1*39
$GPRMC,032749.000,A,3351.4578,N,09832.0544,W,0.09,53.46,030412,,,D*44
$GPGGA,032750.000,3351.4578,N,09832.0544,W,2,08,1.1,295.9,M,-23.7,M,0.8,0000*43
$GPGSA,A,3,17,01,26,28,11,08,07,19,,,,,2.4,1.1,2.1*39
$GPGSV,3,1,10,08,77,000,28,07,55,127,37,28,49,307,34,11,41,082,35*72
$GPGSV,3,2,10,17,40,221,33,01,36,108,28,26,29,300,39,19,20,043,36*73
$GPGSV,3,3,10,13,09,177,20,51,49,195,36*71
$GPRMC,032750.000,A,3351.4578,N,09832.0544,W,0.08,44.86,030412,,,D*47
$GPGGA,032751.000,3351.4578,N,09832.0544,W,2,08,1.1,295.8,M,-23.7,M,1.8,0000*42
$GPGSA,A,3,17,01,26,28,11,08,07,19,,,,,2.4,1.1,2.1*39
$GPRMC,032751.000,A,3351.4578,N,09832.0544,W,0.08,40.62,030412,,,D*48
$GPGGA,032752.000,3351.4578,N,09832.0544,W,2,08,1.1,295.8,M,-23.7,M,2.8,0000*42
$GPGSA,A,3,17,01,26,28,11,08,07,19,,,,,2.4,1.1,2.1*39
$GPRMC,032752.000,A,3351.4578,N,09832.0544,W,0.07,51.81,030412,,,D*49
$GPGGA,032753.000,3351.4579,N,09832.0544,W,2,08,1.1,295.8,M,-23.7,M,0.8,0000*40
$GPGSA,A,3,17,01,26,28,11,08,07,19,,,,,2.4,1.1,2.1*39
$GPRMC,032753.000,A,3351.4579,N,09832.0544,W,0.07,50.38,030412,,,D*4A
$GPGGA,032754.000,3351.4578,N,09832.0544,W,2,08,1.1,295.7,M,-23.7,M,0.8,0000*49
$GPGSA,A,3,17,01,26,28,11,08,07,19,,,,,2.4,1.1,2.1*39
$GPRMC,032754.000,A,3351.4578,N,09832.0544,W,0.05,112.46,030412,,,D*70
$GPGGA,032755.000,3351.4578,N,09832.0544,W,2,08,1.1,295.7,M,-23.7,M,0.8,0000*48
$GPGSA,A,3,17,01,26,28,11,08,07,19,,,,,2.4,1.1,2.1*39
$GPGSV,3,1,10,08,77,000,28,07,55,127,37,28,49,307,34,11,41,082,34*73
$GPGSV,3,2,10,17,40,221,33,01,36,108,28,26,29,300,39,19,20,043,37*72
$GPGSV,3,3,10,13,09,177,21,51,49,195,36*70
$GPRMC,032755.000,A,3351.4578,N,09832.0544,W,0.05,119.37,030412,,,D*7C
$GPGGA,032756.000,3351.4578,N,09832.0544,W,2,08,1.1,295.7,M,-23.7,M,0.8,0000*4B
$GPGSA,A,3,17,01,26,28,11,08,07,19,,,,,2.4,1.1,2.1*39
$GPRMC,032756.000,A,3351.4578,N,09832.0544,W,0.03,87.19,030412,,,D*43
$GPGGA,032757.000,3351.4578,N,09832.0544,W,2,08,1.1,295.7,M,-23.7,M,0.8,0000*4A
$GPGSA,A,3,17,01,26,28,11,08,07,19,,,,,2.4,1.1,2.1*39
$GPRMC,032757.000,A,3351.4578,N,09832.0544,W,0.03,98.56,030412,,,D*47
$GPGGA,032758.000,3351.4578,N,09832.0544,W,2,08,1.1,295.8,M,-23.7,M,1.8,0000*4B
$GPGSA,A,3,17,01,26,28,11,08,07,19,,,,,2.4,1.1,2.1*39
$GPRMC,032758.000,A,3351.4578,N,09832.0544,W,0.02,85.35,030412,,,D*40
$GPGGA,032759.000,3351.4578,N,09832.0545,W,2,08,1.1,295.8,M,-23.7,M,2.8,0000*48
$GPGSA,A,3,17,01,26,28,11,08,07,19,,,,,2.4,1.1,2.1*39
$GPRMC,032759.000,A,3351.4578,N,09832.0545,W,0.03,88.55,030412,,,D*4A
$GPGGA,032800.000,3351.4578,N,09832.0545,W,2,08,1.1,295.8,M,-23.7,M,0.8,0000*49
$GPGSA,A,3,17,01,26,28,11,08,07,19,,,,,2.4,1.1,2.1*39
$GPGSV,3,1,10,08,77,000,28,07,55,127,37,28,49,307,34,11,41,082,34*73
$GPGSV,3,2,10,17,40,221,32,01,36,108,27,26,29,300,39,19,20,043,37*7C
$GPGSV,3,3,10,13,09,177,21,51,49,195,36*70
$GPRMC,032800.000,A,3351.4578,N,09832.0545,W,0.06,352.32,030412,,,D*79
$GPGGA,032801.000,3351.4578,N,09832.0545,W,2,08,1.1,295.8,M,-23.7,M,0.8,0000*48
$GPGSA,A,3,17,01,26,28,11,08,07,19,,,,,2.4,1.1,2.1*39
$GPRMC,032801.000,A,3351.4578,N,09832.0545,W,0.05,3.30,030412,,,D*7E
$GPGGA,032802.000,3351.4578,N,09832.0545,W,2,08,1.1,295.8,M,-23.7,M,0.8,0000*4B
$GPGSA,A,3,17,01,26,28,11,08,07,19,,,,,2.4,1.1,2.1*39
$GPRMC,032802.000,A,3351.4578,N,09832.0545,W,0.04,66.23,030412,,,D*4D
$GPGGA,032803.000,3351.4578,N,09832.0545,W,2,08,1.1,295.8,M,-23.7,M,0.8,0000*4A
$GPGSA,A,3,17,01,26,28,11,08,07,19,,,,,2.4,1.1,2.1*39
$GPRMC,032803.000,A,3351.4578,N,09832.0545,W,0.04,64.52,030412,,,D*48
$GPGGA,032804.000,3351.4578,N,09832.0545,W,2,08,1.1,295.8,M,-23.7,M,1.8,0000*4C
$GPGSA,A,3,17,01,26,28,11,08,07,19,,,,,2.4,1.1,2.1*39
$GPRMC,032804.000,A,3351.4578,N,09832.0545,W,0.04,66.13,030412,,,D*48
$GPGGA,032805.000,3351.4578,N,09832.0545,W,2,08,1.1,295.8,M,-23.7,M,2.8,0000*4E
$GPGSA,A,3,17,01,26,28,11,08,07,19,,,,,2.4,1.1,2.1*39
$GPGSV,3,1,10,08,77,000,28,07,55,127,37,28,49,307,33,11,41,082,34*74
$GPGSV,3,2,10,17,40,221,32,01,36,108,26,26,29,300,39,19,20,043,37*7D
$GPGSV,3,3,10,13,09,177,20,51,49,195,36*71
$GPRMC,032805.000,A,3351.4578,N,09832.0545,W,0.05,72.78,030412,,,D*40
$GPGGA,032806.000,3351.4578,N,09832.0545,W,2,08,1.1,295.9,M,-23.7,M,0.8,0000*4E
$GPGSA,A,3,17,01,26,28,11,08,07,19,,,,,2.4,1.1,2.1*39
$GPRMC,032806.000,A,3351.4578,N,09832.0545,W,0.05,96.92,030412,,,D*4D
$GPGGA,032807.000,3351.4578,N,09832.0545,W,2,08,1.1,296.0,M,-23.7,M,0.8,0000*45
$GPGSA,A,3,17,01,26,28,11,08,07,19,,,,,2.4,1.1,2.1*39
$GPRMC,032807.000,A,3351.4578,N,09832.0545,W,0.06,97.59,030412,,,D*49
$GPGGA,032808.000,3351.4578,N,09832.0545,W,2,08,1.1,296.0,M,-23.7,M,0.8,0000*4A
$GPGSA,A,3,17,01,26,28,11,08,07,19,,,,,2.4,1.1,2.1*39
$GPRMC,032808.000,A,3351.4578,N,09832.0545,W,0.04,14.09,030412,,,D*4A
$GPGGA,032809.000,3351.4578,N,09832.0545,W,2,08,1.1,296.0,M,-23.7,M,0.8,0000*4B
$GPGSA,A,3,17,01,26,28,11,08,07,19,,,,,2.4,1.1,2.1*39
$GPRMC,032809.000,A,3351.4578,N,09832.0545,W,0.04,31.20,030412,,,D*47
$GPGGA,032810.000,3351.4579,N,09832.0546,W,2,08,1.1,296.0,M,-23.7,M,1.8,0000*40
$GPGSA,A,3,17,01,26,28,11,08,07,19,,,,,2.4,1.1,2.1*39
$GPGSV,3,1,10,08,78,003,29,07,54,128,37,28,49,308,33,11,41,081,34*7B
$GPGSV,3,2,10,17,40,222,32,01,37,107,26,26,29,299,39,19,20,043,37*71
$GPGSV,3,3,10,13,08,177,21,51,49,195,36*71
$GPRMC,032810.000,A,3351.4579,N,09832.0546,W,0.04,21.94,030412,,,D*43
$GPGGA,032811.000,3351.4579,N,09832.0546,W,2,08,1.1,296.0,M,-23.7,M,2.8,0000*42
$GPGSA,A,3,17,01,26,28,11,08,07,19,,,,,2.4,1.1,2.1*39
$GPRMC,032811.000,A,3351.4579,N,09832.0546,W,0.03,39.95,030412,,,D*4D
$GPGGA,032812.000,3351.4579,N,09832.0546,W,2,08,1.1,296.1,M,-23.7,M,0.8,0000*42
$GPGSA,A,3,17,01,26,28,11,08,07,19,,,,,2.4,1.1,2.1*39
$GPRMC,032812.000,A,3351.4579,N,09832.0546,W,0.04,28.32,030412,,,D*44
$GPGGA,032813.000,3351.4579,N,09832.0546,W,2,08,1.1,296.0,M,-23.7,M,0.8,0000*42
$GPGSA,A,3,17,01,26,28,11,08,07,19,,,,,2.4,1.1,2.1*39
$GPRMC,032813.000,A,3351.4579,N,09832.0546,W,0.04,63.14,030412,,,D*4E
$GPGGA,032814.000,3351.4579,N,09832.0546,W,2,08,1.1,296.0,M,-23.7,M,0.8,0000*45
$GPGSA,A,3,17,01,26,28,11,08,07,19,,,,,2.4,1.1,2.1*39
$GPRMC,032814.000,A,3351.4579,N,09832.0546,W,0.05,87.75,030412,,,D*45
$GPGGA,032815.000,3351.4578,N,09832.0546,W,2,08,1.1,296.1,M,-23.7,M,0.8,0000*44
$GPGSA,A,3,17,01,26,28,11,08,07,19,,,,,2.4,1.1,2.1*39
$GPGSV,3,1,10,08,78,003,28,07,54,128,37,28,49,308,33,11,41,081,33*7D
$GPGSV,3,2,10,17,40,222,32,01,37,107,26,26,29,299,39,19,20,043,37*71
$GPGSV,3,3,10,13,08,177,21,51,49,195,36*71
$GPRMC,032815.000,A,3351.4578,N,09832.0546,W,0.06,104.78,030412,,,D*71
$GPGGA,032816.000,3351.4578,N,09832.0546,W,2,08,1.1,296.1,M,-23.7,M,1.8,0000*46
$GPGSA,A,3,17,01,26,28,11,08,07,19,,,,,2.4,1.1,2.1*39
$GPRMC,032816.000,A,3351.4578,N,09832.0546,W,0.04,95.36,030412,,,D*43
$GPGGA,032817.000,3351.4578,N,09832.0546,W,2,08,1.1,296.1,M,-23.7,M,2.8,0000*44
$GPGSA,A,3,17,01,26,28,11,08,07,19,,,,,2.4,1.1,2.1*39
$GPRMC,032817.000,A,3351.4578,N,09832.0546,W,0.06,102.33,030412,,,D*7A
$GPGGA,032818.000,3351.4578,N,09832.0545,W,2,08,1.1,296.2,M,-23.7,M,0.8,0000*49
$GPGSA,A,3,17,01,26,28,11,08,07,19,,,,,2.4,1.1,2.1*39
$GPRMC,032818.000,A,3351.4578,N,09832.0545,W,0.04,100.95,030412,,,D*7A
$GPGGA,032819.000,3351.4578,N,09832.0545,W,2,08,1.1,296.3,M,-23.7,M,0.8,0000*49
$GPGSA,A,3,17,01,26,28,11,08,07,19,,,,,2.4,1.1,2.1*39
$GPRMC,032819.000,A,3351.4578,N,09832.0545,W,0.04,86.72,030412,,,D*4D
$GPGGA,032820.000,3351.4578,N,09832.0545,W,2,08,1.1,296.3,M,-23.7,M,0.8,0000*43
$GPGSA,A,3,17,01,26,28,11,08,07,19,,,,,2.4,1.1,2.1*39
$GPGSV,3,1,10,08,78,003,28,07,54,128,37,28,50,308,34,11,41,081,33*72
$GPGSV,3,2,10,17,40,222,32,01,37,107,25,26,29,299,39,19,20,043,37*72
$GPGSV,3,3,10,13,08,177,21,51,49,195,36*71
$GPRMC,032820.000,A,3351.4578,N,09832.0545,W,0.03,43.88,030412,,,D*4C
$GPGGA,032821.000,3351.4579,N,09832.0546,W,2,08,1.1,296.4,M,-23.7,M,1.8,0000*46
$GPGSA,A,3,17,01,26,28,11,08,07,19,,,,,2.4,1.1,2.1*39
$GPRMC,032821.000,A,3351.4579,N,09832.0546,W,0.04,18.84,030412,,,D*4A
$GPGGA,032822.000,3351.4579,N,09832.0546,W,2,08,1.1,296.4,M,-23.7,M,2.8,0000*46
$GPGSA,A,3,17,01,26,28,11,08,07,19,,,,,2.4,1.1,2.1*39
$GPRMC,032822.000,A,3351.4579,N,09832.0546,W,0.05,30.32,030412,,,D*4F
$GPGGA,032823.000,3351.4579,N,09832.0546,W,2,08,1.1,296.4,M,-23.7,M,3.8,0000*46
$GPGSA,A,3,17,01,26,28,11,08,07,19,,,,,2.4,1.1,2.1*39
$GPRMC,032823.000,A,3351.4579,N,09832.0546,W,0.04,29.70,030412,,,D*41
$GPGGA,032824.000,3351.4579,N,09832.0546,W,2,08,1.1,296.4,M,-23.7,M,0.8,0000*42
$GPGSA,A,3,17,01,26,28,11,08,07,19,,,,,2.4,1.1,2.1*39
$GPRMC,032824.000,A,3351.4579,N,09832.0546,W,0.05,45.81,030412,,,D*43
$GPGGA,032825.000,3351.4579,N,09832.0546,W,2,08,1.1,296.3,M,-23.7,M,0.8,0000*44
$GPGSA,A,3,17,01,26,28,11,08,07,19,,,,,2.4,1.1,2.1*39
$GPGSV,3,1,10,08,78,003,28,07,54,128,37,28,50,308,34,11,41,081,33*72
$GPGSV,3,2,10,17,40,222,32,01,37,107,26,26,29,299,39,19,20,043,37*71
$GPGSV,3,3,10,13,08,177,20,51,49,195,36*70
$GPRMC,032825.000,A,3351.4579,N,09832.0546,W,0.05,79.50,030412,,,D*41
$GPGGA,032826.000,3351.4578,N,09832.0546,W,2,08,1.1,296.2,M,-23.7,M,0.8,0000*47
$GPGSA,A,3,17,01,26,28,11,08,07,19,,,,,2.4,1.1,2.1*39
$GPRMC,032826.000,A,3351.4578,N,09832.0546,W,0.07,98.81,030412,,,D*42
$GPGGA,032827.000,3351.4578,N,09832.0545,W,2,08,1.1,296.2,M,-23.7,M,1.8,0000*44
$GPGSA,A,3,17,01,26,28,11,08,07,19,,,,,2.4,1.1,2.1*39
$GPRMC,032827.000,A,3351.4578,N,09832.0545,W,0.07,88.41,030412,,,D*4D
$GPGGA,032828.000,3351.4578,N,09832.0545,W,2,08,1.1,296.1,M,-23.7,M,2.8,0000*4B
$GPGSA,A,3,17,01,26,28,11,08,07,19,,,,,2.4,1.1,2.1*39
$GPRMC,032828.000,A,3351.4578,N,09832.0545,W,0.05,105.80,030412,,,D*79
$GPGGA,032829.000,3351.4578,N,09832.0545,W,2,08,1.1,296.0,M,-23.7,M,3.8,0000*4A
$GPGSA,A,3,17,01,26,28,11,08,07,19,,,,,2.4,1.1,2.1*39
$GPRMC,032829.000,A,3351.4578,N,09832.0545,W,0.05,114.19,030412,,,D*78
$GPGGA,032830.000,3351.4578,N,09832.0545,W,2,08,1.1,296.0,M,-23.7,M,0.8,0000*41
$GPGSA,A,3,17,01,26,28,11,08,07,19,,,,,2.4,1.1,2.1*39
$GPGSV,3,1,10,08,78,003,28,07,54,128,37,28,50,308,33,11,41,081,34*72
$GPGSV,3,2,10,17,40,222,32,01,37,107,25,26,29,299,39,19,20,043,37*72
$GPGSV,3,3,10,13,08,177,20,51,49,195,36*70
$GPRMC,032830.000,A,3351.4578,N,09832.0545,W,0.03,74.46,030412,,,D*4B
$GPGGA,032831.000,3351.4578,N,09832.0545,W,2,08,1.1,296.1,M,-23.7,M,0.8,0000*41
$GPGSA,A,3,17,01,26,28,11,08,07,19,,,,,2.4,1.1,2.1*39
$GPRMC,032831.000,A,3351.4578,N,09832.0545,W,0.00,300.79,030412,,,D*75
$GPGGA,032832.000,3351.4578,N,09832.0546,W,2,08,1.1,296.0,M,-23.7,M,0.8,0000*40
$GPGSA,A,3,17,01,26,28,11,08,07,19,,,,,2.4,1.1,2.1*39
$GPRMC,032832.000,A,3351.4578,N,09832.0546,W,0.02,345.83,030412,,,D*73
$GPGGA,032833.000,3351.4578,N,09832.0546,W,2,08,1.1,296.0,M,-23.7,M,1.8,0000*40
$GPGSA,A,3,17,01,26,28,11,08,07,19,,,,,2.4,1.1,2.1*39
$GPRMC,032833.000,A,3351.4578,N,09832.0546,W,0.05,342.27,030412,,,D*7C
$GPGGA,032834.000,3351.4579,N,09832.0546,W,2,08,1.1,296.0,M,-23.7,M,0.8,0000*47
$GPGSA,A,3,17,01,26,28,11,08,07,19,,,,,2.4,1.1,2.1*39
$GPRMC,032834.000,A,3351.4579,N,09832.0546,W,0.03,339.26,030412,,,D*71
$GPGGA,032835.000,3351.4579,N,09832.0546,W,2,08,1.1,296.0,M,-23.7,M,0.8,0000*46
$GPGSA,A,3,17,01,26,28,11,08,07,19,,,,,2.4,1.1,2.1*39
$GPGSV,3,1,10,08,78,003,28,07,54,128,37,28,50,308,33,11,41,081,34*72
$GPGSV,3,2,10,17,40,222,32,01,37,107,25,26,29,299,39,19,20,043,36*73
$GPGSV,3,3,10,13,08,177,20,51,49,195,36*70
$GPRMC,032835.000,A,3351.4579,N,09832.0546,W,0.04,6.65,030412,,,D*7F
$GPGGA,032836.000,3351.4579,N,09832.0546,W,2,08,1.1,296.0,M,-23.7,M,0.8,0000*45
$GPGSA,A,3,17,01,26,28,11,08,07,19,,,,,2.4,1.1,2.1*39
$GPRMC,032836.000,A,3351.4579,N,09832.0546,W,0.04,81.65,030412,,,D*43
$GPGGA,032837.000,3351.4579,N,09832.0546,W,2,08,1.1,295.8,M,-23.7,M,0.8,0000*4F
$GPGSA,A,3,17,01,26,28,11,08,07,19,,,,,2.4,1.1,2.1*39
$GPRMC,032837.000,A,3351.4579,N,09832.0546,W,0.05,93.69,030412,,,D*4C
$GPGGA,032838.000,3351.4578,N,09832.0546,W,2,08,1.1,295.8,M,-23.7,M,0.8,0000*41
$GPGSA,A,3,17,01,26,28,11,08,07,19,,,,,2.4,1.1,2.1*39
$GPRMC,032838.000,A,3351.4578,N,09832.0546,W,0.09,114.64,030412,,,D*7D
$GPGGA,032839.000,3351.4578,N,09832.0546,W,2,08,1.1,295.8,M,-23.7,M,1.8,0000*41
$GPGSA,A,3,17,01,26,28,11,08,07,19,,,,,2.4,1.1,2.1*39
$GPRMC,032839.000,A,3351.4578,N,09832.0546,W,0.08,117.48,030412,,,D*70
$GPGGA,032840.000,3351.4578,N,09832.0546,W,2,08,1.1,295.7,M,-23.7,M,2.8,0000*43
$GPGSA,A,3,17,01,26,28,11,08,07,19,,,,,2.4,1.1,2.1*39
$GPGSV,3,1,10,08,78,003,29,07,54,129,37,28,50,308,33,11,41,080,34*73
$GPGSV,3,2,10,17,41,222,32,01,37,106,26,26,29,298,39,19,20,043,36*71
$GPGSV,3,3,10,13,08,177,21,51,49,195,36*71
$GPRMC,032840.000,A,3351.4578,N,09832.0546,W,0.09,104.77,030412,,,D*71
$GPGGA,032841.000,3351.4578,N,09832.0546,W,2,08,1.1,295.7,M,-23.7,M,0.8,0000*40
$GPGSA,A,3,17,01,26,28,11,08,07,19,,,,,2.4,1.1,2.1*39
$GPRMC,032841.000,A,3351.4578,N,09832.0546,W,0.07,118.52,030412,,,D*74
$GPGGA,032842.000,3351.4578,N,09832.0546,W,2,08,1.1,295.7,M,-23.7,M,0.8,0000*43
$GPGSA,A,3,17,01,26,28,11,08,07,19,,,,,2.4,1.1,2.1*39
$GPRMC,032842.000,A,3351.4578,N,09832.0546,W,0.04,128.99,030412,,,D*70
$GPGGA,032843.000,3351.4578,N,09832.0546,W,2,08,1.1,295.7,M,-23.7,M,0.8,0000*42
$GPGSA,A,3,17,01,26,28,11,08,07,19,,,,,2.4,1.1,2.1*39
$GPRMC,032843.000,A,3351.4578,N,09832.0546,W,0.04,106.83,030412,,,D*76
$GPGGA,032844.000,3351.4578,N,09832.0546,W,2,08,1.1,295.8,M,-23.7,M,0.8,0000*4A
$GPGSA,A,3,17,01,26,28,11,08,07,19,,,,,2.4,1.1,2.1*39
$GPRMC,032844.000,A,3351.4578,N,09832.0546,W,0.03,31.69,030412,,,D*47
$GPGGA,032845.000,3351.4578,N,09832.0546,W,2,08,1.1,295.7,M,-23.7,M,0.8,0000*44
$GPGSA,A,3,17,01,26,28,11,08,07,19,,,,,2.4,1.1,2.1*39
$GPGSV,3,1,10,08,78,003,28,07,54,129,37,28,50,308,33,11,41,080,34*72
$GPGSV,3,2,10,17,41,222,32,01,37,106,26,26,29,298,39,19,20,043,36*71
$GPGSV,3,3,10,13,08,177,22,51,49,195,35*71
$GPRMC,032845.000,A,3351.4578,N,09832.0546,W,0.02,22.05,030412,,,D*4F
$GPGGA,032846.000,3351.4578,N,09832.0546,W,2,08,1.1,295.6,M,-23.7,M,0.8,0000*46
$GPGSA,A,3,17,01,26,28,11,08,07,19,,,,,2.4,1.1,2.1*39
$GPRMC,032846.000,A,3351.4578,N,09832.0546,W,0.02,61.00,030412,,,D*4E
$GPGGA,032847.000,3351.4578,N,09832.0546,W,2,08,1.1,295.6,M,-23.7,M,1.8,0000*46
$GPGSA,A,3,17,01,26,28,11,08,07,19,,,,,2.4,1.1,2.1*39
$GPRMC,032847.000,A,3351.4578,N,09832.0546,W,0.03,63.03,030412,,,D*4F
$GPGGA,032848.000,3351.4578,N,09832.0546,W,2,08,1.1,295.5,M,-23.7,M,2.8,0000*49
$GPGSA,A,3,17,01,26,28,11,08,07,19,,,,,2.4,1.1,2.1*39
$GPRMC,032848.000,A,3351.4578,N,09832.0546,W,0.02,22.36,030412,,,D*42
$GPGGA,032849.000,3351.4578,N,09832.0546,W,2,08,1.1,295.4,M,-23.7,M,0.8,0000*4B
$GPGSA,A,3,17,01,26,28,11,08,07,19,,,,,2.4,1.1,2.1*39
$GPRMC,032849.000,A,3351.4578,N,09832.0546,W,0.03,80.95,030412,,,D*43
$GPGGA,032850.000,3351.4578,N,09832.0545,W,2,08,1.1,295.4,M,-23.7,M,0.8,0000*40
$GPGSA,A,3,17,01,26,28,11,08,07,19,,,,,2.4,1.1,2.1*39
$GPGSV,3,1,10,08,79,004,28,07,54,129,36,28,50,308,32,11,41,080,34*74
$GPGSV,3,2,10,17,41,222,33,01,37,106,27,26,29,298,39,19,19,043,36*7B
$GPGSV,3,3,10,13,08,177,21,51,49,195,36*71
$GPRMC,032850.000,A,3351.4578,N,09832.0545,W,0.04,111.96,030412,,,D*75
$GPGGA,032851.000,3351.4578,N,09832.0545,W,2,08,1.1,295.4,M,-23.7,M,1.8,0000*40
$GPGSA,A,3,17,01,26,28,11,08,07,19,,,,,2.4,1.1,2.1*39
$GPRMC,032851.000,A,3351.4578,N,09832.0545,W,0.05,111.97,030412,,,D*74
$GPGGA,032852.000,3351.4578,N,09832.0545,W,2,08,1.1,295.4,M,-23.7,M,2.8,0000*40
$GPGSA,A,3,17,01,26,28,11,08,07,19,,,,,2.4,1.1,2.1*39
$GPRMC,032852.000,A,3351.4578,N,09832.0545,W,0.05,106.48,030412,,,D*73
$GPGGA,032853.000,3351.4579,N,09832.0545,W,2,08,1.1,295.4,M,-23.7,M,0.8,0000*42
$GPGSA,A,3,17,01,26,28,11,08,07,19,,,,,2.4,1.1,2.1*39
$GPRMC,032853.000,A,3351.4579,N,09832.0545,W,0.04,106.52,030412,,,D*79
$GPGGA,032854.000,3351.4579,N,09832.0545,W,2,08,1.1,295.4,M,-23.7,M,0.8,0000*45
$GPGSA,A,3,17,01,26,28,11,08,07,19,,,,,2.4,1.1,2.1*39
$GPRMC,032854.000,A,3351.4579,N,09832.0545,W,0.05,109.23,030412,,,D*76
$GPGGA,032855.000,3351.4579,N,09832.0545,W,2,08,1.1,295.4,M,-23.7,M,0.8,0000*44
$GPGSA,A,3,17,01,26,28,11,08,07,19,,,,,2.4,1.1,2.1*39
$GPGSV,3,1,10,08,79,004,27,07,54,129,36,28,50,308,32,11,41,080,34*7B
$GPGSV,3,2,10,17,41,222,33,01,37,106,27,26,29,298,39,19,19,043,36*7B
$GPGSV,3,3,10,13,08,177,21,51,49,195,36*71
$GPRMC,032855.000,A,3351.4579,N,09832.0545,W,0.05,63.41,030412,,,D*4E
$GPGGA,032856.000,3351.4579,N,09832.0544,W,2,08,1.1,295.3,M,-23.7,M,0.8,0000*41
$GPGSA,A,3,17,01,26,28,11,08,07,19,,,,,2.4,1.1,2.1*39
$GPRMC,032856.000,A,3351.4579,N,09832.0544,W,0.03,54.42,030412,,,D*4D
$GPGGA,032857.000,3351.4579,N,09832.0544,W,2,08,1.1,295.2,M,-23.7,M,1.8,0000*40
$GPGSA,A,3,17,01,26,28,11,08,07,19,,,,,2.4,1.1,2.1*39
$GPRMC,032857.000,A,3351.4579,N,09832.0544,W,0.04,45.17,030412,,,D*4B
$GPGGA,032858.000,3351.4579,N,09832.0544,W,2,08,1.1,295.1,M,-23.7,M,2.8,0000*4F
$GPGSA,A,3,17,01,26,28,11,08,07,19,,,,,2.4,1.1,2.1*39
$GPRMC,032858.000,A,3351.4579,N,09832.0544,W,0.02,41.87,030412,,,D*4F
$GPGGA,032859.000,3351.4579,N,09832.0544,W,2,08,1.1,294.9,M,-23.7,M,3.8,0000*46
$GPGSA,A,3,17,01,26,28,11,08,07,19,,,,,2.4,1.1,2.1*39
$GPRMC,032859.000,A,3351.4579,N,09832.0544,W,0.03,39.27,030412,,,D*4A
$GPGGA,032900.000,3351.4579,N,09832.0544,W,2,08,1.1,294.8,M,-23.7,M,0.8,0000*49
$GPGSA,A,3,17,01,26,28,11,08,07,19,,,,,2.4,1.1,2.1*39
$GPGSV,3,1,10,08,79,004,26,07,54,129,36,28,50,308,32,11,41,080,34*7A
$GPGSV,3,2,10,17,41,222,33,01,37,106,26,26,29,298,39,19,19,043,36*7A
$GPGSV,3,3,10,13,08,177,22,51,49,195,36*72
$GPRMC,032900.000,A,3351.4579,N,09832.0544,W,0.04,56.87,030412,,,D*43
$GPGGA,032901.000,3351.4579,N,09832.0544,W,2,08,1.1,294.7,M,-23.7,M,0.8,0000*47
$GPGSA,A,3,17,01,26,28,11,08,07,19,,,,,2.4,1.1,2.1*39
$GPRMC,032901.000,A,3351.4579,N,09832.0544,W,0.04,70.96,030412,,,D*46
$GPGGA,032902.000,3351.4579,N,09832.0544,W,2,08,1.1,294.6,M,-23.7,M,0.8,0000*45
$GPGSA,A,3,17,01,26,28,11,08,07,19,,,,,2.4,1.1,2.1*39
$GPRMC,032902.000,A,3351.4579,N,09832.0544,W,0.08,100.46,030412,,,D*72
$GPGGA,032903.000,3351.4579,N,09832.0544,W,2,08,1.1,294.5,M,-23.7,M,1.8,0000*46
$GPGSA,A,3,17,01,26,28,11,08,07,19,,,,,2.4,1.1,2.1*39
$GPRMC,032903.000,A,3351.4579,N,09832.0544,W,0.09,107.78,030412,,,D*78
$GPGGA,032904.000,3351.4579,N,09832.0544,W,2,08,1.1,294.5,M,-23.7,M,2.8,0000*42
$GPGSA,A,3,17,01,26,28,11,08,07,19,,,,,2.4,1.1,2.1*39
$GPRMC,032904.000,A,3351.4579,N,09832.0544,W,0.06,97.87,030412,,,D*48
$GPGGA,032905.000,3351.4579,N,09832.0544,W,2,08,1.1,294.4,M,-23.7,M,3.8,0000*43
$GPGSA,A,3,17,01,26,28,11,08,07,19,,,,,2.4,1.1,2.1*39
$GPGSV,3,1,10,08,79,004,26,07,54,129,36,28,50,308,32,11,41,080,34*7A
$GPGSV,3,2,10,17,41,222,33,01,37,106,26,26,29,298,39,19,19,043,36*7A
$GPGSV,3,3,10,13,08,177,22,51,49,195,36*72
$GPRMC,032905.000,A,3351.4579,N,09832.0544,W,0.06,98.33,030412,,,D*49
$GPGGA,032906.000,3351.4579,N,09832.0544,W,2,08,1.1,294.4,M,-23.7,M,4.8,0000*47
$GPGSA,A,3,17,01,26,28,11,08,07,19,,,,,2.4,1.1,2.1*39
$GPRMC,032906.000,A,3351.4579,N,09832.0544,W,0.06,100.41,030412,,,D*7F
$GPGGA,032907.000,3351.4579,N,09832.0543,W,2,08,1.1,294.4,M,-23.7,M,0.8,0000*45
$GPGSA,A,3,17,01,26,28,11,08,07,19,,,,,2.4,1.1,2.1*39
$GPRMC,032907.000,A,3351.4579,N,09832.0543,W,0.05,81.26,030412,,,D*43
$GPGGA,032908.000,3351.4579,N,09832.0543,W,2,08,1.1,294.3,M,-23.7,M,0.8,0000*4D
$GPGSA,A,3,17,01,26,28,11,08,07,19,,,,,2.4,1.1,2.1*39
$GPRMC,032908.000,A,3351.4579,N,09832.0543,W,0.04,62.57,030412,,,D*46
$GPGGA,032909.000,3351.4579,N,09832.0543,W,2,08,1.1,294.1,M,-23.7,M,1.8,0000*4F
$GPGSA,A,3,17,01,26,28,11,08,07,19,,,,,2.4,1.1,2.1*39
$GPRMC,032909.000,A,3351.4579,N,09832.0543,W,0.04,51.71,030412,,,D*43
$GPGGA,032910.000,3351.4579,N,09832.0543,W,2,08,1.1,294.0,M,-23.7,M,2.8,0000*45
$GPGSA,A,3,17,01,26,28,11,08,07,19,,,,,2.4,1.1,2.1*39
$GPGSV,3,1,10,08,79,004,26,07,54,129,36,28,50,308,32,11,41,080,34*7A
$GPGSV,3,2,10,17,41,222,33,01,37,106,26,26,29,298,39,19,19,043,36*7A
$GPGSV,3,3,10,13,08,177,22,51,49,195,35*71
$GPRMC,032910.000,A,3351.4579,N,09832.0543,W,0.04,75.31,030412,,,D*49
$GPGGA,032911.000,3351.4579,N,09832.0543,W,2,08,1.1,293.9,M,-23.7,M,3.8,0000*4B
$GPGSA,A,3,17,01,26,28,11,08,07,19,,,,,2.4,1.1,2.1*39
$GPRMC,032911.000,A,3351.4579,N,09832.0543,W,0.04,55.91,030412,,,D*40
$GPGGA,032912.000,3351.4579,N,09832.0544,W,2,08,1.1,293.8,M,-23.7,M,0.8,0000*4D
$GPGSA,A,3,17,01,26,28,11,08,07,19,,,,,2.4,1.1,2.1*39
$GPRMC,032912.000,A,3351.4579,N,09832.0544,W,0.01,99.10,030412,,,D*48
$GPGGA,032913.000,3351.4579,N,09832.0544,W,2,08,1.1,293.7,M,-23.7,M,0.8,0000*43
$GPGSA,A,3,17,01,26,28,11,08,07,19,,,,,2.4,1.1,2.1*39
$GPRMC,032913.000,A,3351.4579,N,09832.0544,W,0.04,125.67,030412,,,D*7A
$GPGGA,032914.000,3351.4579,N,09832.0544,W,2,08,1.1,293.7,M,-23.7,M,0.8,0000*44
$GPGSA,A,3,17,01,26,28,11,08,07,19,,,,,2.4,1.1,2.1*39
$GPRMC,032914.000,A,3351.4579,N,09832.0544,W,0.06,132.60,030412,,,D*7E
$GPGGA,032915.000,3351.4579,N,09832.0544,W,2,08,1.1,293.7,M,-23.7,M,1.8,0000*44
$GPGSA,A,3,17,01,26,28,11,08,07,19,,,,,2.4,1.1,2.1*39
$GPGSV,3,1,10,08,79,004,26,07,54,129,36,28,50,308,32,11,41,080,34*7A
$GPGSV,3,2,10,17,41,222,33,01,37,106,26,26,29,298,39,19,19,043,36*7A
$GPGSV,3,3,10,13,08,177,22,51,49,195,39*7D
$GPRMC,032915.000,A,3351.4579,N,09832.0544,W,0.06,127.24,030412,,,D*7B
$GPGGA,032916.000,3351.4579,N,09832.0543,W,2,08,1.1,293.7,M,-23.7,M,2.8,0000*43
$GPGSA,A,3,17,01,26,28,11,08,07,19,,,,,2.4,1.1,2.1*39
$GPRMC,032916.000,A,3351.4579,N,09832.0543,W,0.06,131.78,030412,,,D*71
$GPGGA,032917.000,3351.4579,N,09832.0543,W,2,08,1.1,293.7,M,-23.7,M,3.8,0000*43
$GPGSA,A,3,17,01,26,28,11,08,07,19,,,,,2.4,1.1,2.1*39
$GPRMC,032917.000,A,3351.4579,N,09832.0543,W,0.05,126.82,030412,,,D*70
$GPGGA,032918.000,3351.4579,N,09832.0543,W,2,08,1.1,293.7,M,-23.7,M,0.8,0000*4F
$GPGSA,A,3,17,01,26,28,11,08,07,19,,,,,2.4,1.1,2.1*39
$GPRMC,032918.000,A,3351.4579,N,09832.0543,W,0.10,142.79,030412,,,D*7D
$GPGGA,032919.000,3351.4579,N,09832.0543,W,2,08,1.1,293.8,M,-23.7,M,0.8,0000*41
$GPGSA,A,3,17,01,26,28,11,08,07,19,,,,,2.4,1.1,2.1*39
$GPRMC,032919.000,A,3351.4579,N,09832.0543,W,0.07,132.30,030412,,,D*70
$GPGGA,032920.000,3351.4579,N,09832.0543,W,2,08,1.1,293.9,M,-23.7,M,1.8,0000*4B
$GPGSA,A,3,17,01,26,28,11,08,07,19,,,,,2.4,1.1,2.1*39
$GPGSV,3,1,10,08,79,004,26,07,54,129,36,28,50,308,32,11,41,080,34*7A
$GPGSV,3,2,10,17,41,222,33,01,37,106,26,26,29,298,39,19,19,043,36*7A
$GPGSV,3,3,10,13,08,177,21,51,49,195,36*71
$GPRMC,032920.000,A,3351.4579,N,09832.0543,W,0.08,132.80,030412,,,D*7E
$GPGGA,032921.000,3351.4579,N,09832.0543,W,2,08,1.1,293.9,M,-23.7,M,2.8,0000*49
$GPGSA,A,3,17,01,26,28,11,08,07,19,,,,,2.4,1.1,2.1*39
$GPRMC,032921.000,A,3351.4579,N,09832.0543,W,0.06,131.90,030412,,,D*73
$GPGGA,032922.000,3351.4579,N,09832.0543,W,2,08,1.1,294.0,M,-23.7,M,3.8,0000*45
$GPGSA,A,3,17,01,26,28,11,08,07,19,,,,,2.4,1.1,2.1*39
$GPRMC,032922.000,A,3351.4579,N,09832.0543,W,0.07,118.41,030412,,,D*76
$GPGGA,032923.000,3351.4579,N,09832.0543,W,2,08,1.1,294.2,M,-23.7,M,0.8,0000*45
$GPGSA,A,3,17,01,26,28,11,08,07,19,,,,,2.4,1.1,2.1*39
$GPRMC,032923.000,A,3351.4579,N,09832.0543,W,0.06,105.38,030412,,,D*74
$GPGGA,032924.000,3351.4579,N,09832.0543,W,2,08,1.1,294.2,M,-23.7,M,0.8,0000*42
$GPGSA,A,3,17,01,26,28,11,08,07,19,,,,,2.4,1.1,2.1*39
$GPRMC,032924.000,A,3351.4579,N,09832.0543,W,0.06,49.50,030412,,,D*44
$GPGGA,032925.000,3351.4579,N,09832.0543,W,2,08,1.1,294.2,M,-23.7,M,0.8,0000*43
$GPGSA,A,3,17,01,26,28,11,08,07,19,,,,,2.4,1.1,2.1*39
$GPGSV,3,1,10,08,79,004,25,07,54,129,36,28,50,308,32,11,41,080,34*79
$GPGSV,3,2,10,17,41,222,32,01,37,106,27,26,29,298,40,19,19,043,37*75
$GPGSV,3,3,10,13,08,177,20,51,49,195,36*70
$GPRMC,032925.000,A,3351.4579,N,09832.0543,W,0.06,38.34,030412,,,D*41
$GPGGA,032926.000,3351.4579,N,09832.0543,W,2,08,1.1,294.1,M,-23.7,M,0.8,0000*43
$GPGSA,A,3,17,01,26,28,11,08,07,19,,,,,2.4,1.1,2.1*39
$GPRMC,032926.000,A,3351.4579,N,09832.0543,W,0.06,28.08,030412,,,D*4C
$GPGGA,032927.000,3351.4579,N,09832.0543,W,2,08,1.1,294.0,M,-23.7,M,1.8,0000*42
$GPGSA,A,3,17,01,26,28,11,08,07,19,,,,,2.4,1.1,2.1*39
$GPRMC,032927.000,A,3351.4579,N,09832.0543,W,0.04,30.47,030412,,,D*4D
$GPGGA,032928.000,3351.4579,N,09832.0543,W,2,08,1.1,294.1,M,-23.7,M,2.8,0000*4F
$GPGSA,A,3,17,01,26,28,11,08,07,19,,,,,2.4,1.1,2.1*39
$GPRMC,032928.000,A,3351.4579,N,09832.0543,W,0.07,32.60,030412,,,D*46
$GPGGA,032929.000,3351.4579,N,09832.0543,W,2,08,1.1,293.9,M,-23.7,M,0.8,0000*43
$GPGSA,A,3,17,01,26,28,11,08,07,19,,,,,2.4,1.1,2.1*39
$GPRMC,032929.000,A,3351.4579,N,09832.0543,W,0.04,31.43,030412,,,D*46
$GPGGA,032930.000,3351.4578,N,09832.0543,W,2,08,1.1,293.7,M,-23.7,M,0.8,0000*44
$GPGSA,A,3,17,01,26,28,11,08,07,19,,,,,2.4,1.1,2.1*39
$GPGSV,3,1,10,08,79,004,18,07,54,129,36,28,50,308,32,11,41,080,34*77
$GPGSV,3,2,10,17,41,222,33,01,37,106,27,26,29,298,40,19,19,043,37*74
$GPGSV,3,3,10,13,08,177,15,51,49,195,36*76
$GPRMC,032930.000,A,3351.4578,N,09832.0543,W,0.05,156.68,030412,,,D*77
$GPGGA,032931.000,3351.4578,N,09832.0543,W,2,08,1.1,293.8,M,-23.7,M,0.8,0000*4A
$GPGSA,A,3,17,01,26,28,11,08,07,19,,,,,2.4,1.1,2.1*39
$GPRMC,032931.000,A,3351.4578,N,09832.0543,W,0.06,121.85,030412,,,D*76
$GPGGA,032932.000,3351.4578,N,09832.0543,W,2,08,1.1,293.8,M,-23.7,M,0.8,0000*49
$GPGSA,A,3,17,01,26,28,11,08,07,19,,,,,2.4,1.1,2.1*39
$GPRMC,032932.000,A,3351.4578,N,09832.0543,W,0.03,133.38,030412,,,D*75
$GPGGA,032933.000,3351.4578,N,09832.0543,W,2,08,1.1,293.9,M,-23.7,M,0.8,0000*49
$GPGSA,A,3,17,01,26,28,11,08,07,19,,,,,2.4,1.1,2.1*39
$GPRMC,032933.000,A,3351.4578,N,09832.0543,W,0.04,93.42,030412,,,D*45
$GPGGA,032934.000,3351.4579,N,09832.0543,W,2,08,1.1,294.1,M,-23.7,M,1.8,0000*41
$GPGSA,A,3,17,01,26,28,11,08,07,19,,,,,2.4,1.1,2.1*39
$GPRMC,032934.000,A,3351.4579,N,09832.0543,W,0.05,72.18,030412,,,D*42
$GPGGA,032935.000,3351.4578,N,09832.0543,W,2,08,1.1,293.9,M,-23.7,M,2.8,0000*4D
$GPGSA,A,3,17,01,26,28,11,08,07,19,,,,,2.4,1.1,2.1*39
$GPGSV,3,1,10,08,79,004,20,07,54,129,35,28,50,308,32,11,41,080,34*7F
$GPGSV,3,2,10,17,41,222,33,01,37,106,28,26,29,298,41,19,19,043,37*7A
$GPGSV,3,3,10,13,08,177,,51,49,195,37*73
$GPRMC,032935.000,A,3351.4578,N,09832.0543,W,0.02,90.00,030412,,,D*40
$GPGGA,032936.000,3351.4578,N,09832.0543,W,2,08,1.1,293.7,M,-23.7,M,0.8,0000*42
$GPGSA,A,3,17,01,26,28,11,08,07,19,,,,,2.4,1.1,2.1*39
$GPRMC,032936.000,A,3351.4578,N,09832.0543,W,0.08,333.22,030412,,,D*73
$GPGGA,032937.000,3351.4578,N,09832.0543,W,2,08,1.1,293.7,M,-23.7,M,0.8,0000*43
$GPGSA,A,3,17,01,26,28,11,08,07,19,,,,,2.4,1.1,2.1*39
$GPRMC,032937.000,A,3351.4578,N,09832.0543,W,0.06,25.74,030412,,,D*4B
$GPGGA,032938.000,3351.4579,N,09832.0543,W,2,08,1.1,293.9,M,-23.7,M,0.8,0000*43
$GPGSA,A,3,17,01,26,28,11,08,07,19,,,,,2.4,1.1,2.1*39
$GPRMC,032938.000,A,3351.4579,N,09832.0543,W,0.05,40.27,030412,,,D*43
$GPGGA,032939.000,3351.4579,N,09832.0543,W,2,08,1.1,293.9,M,-23.7,M,0.8,0000*42
$GPGSA,A,3,17,01,26,28,11,08,07,19,,,,,2.4,1.1,2.1*39
$GPRMC,032939.000,A,3351.4579,N,09832.0543,W,0.04,30.34,030412,,,D*46
$GPGGA,032940.000,3351.4579,N,09832.0543,W,2,08,1.1,294.1,M,-23.7,M,1.8,0000*42
$GPGSA,A,3,17,01,26,28,11,08,07,19,,,,,2.4,1.1,2.1*39
$GPGSV,3,1,10,08,79,004,20,07,54,129,35,28,50,308,32,11,41,080,33*78
$GPGSV,3,2,10,17,41,222,33,01,37,106,28,26,29,298,41,19,19,043,36*7B
$GPGSV,3,3,10,13,08,177,16,51,49,195,36*75
$GPRMC,032940.000,A,3351.4579,N,09832.0543,W,0.06,40.06,030412,,,D*4C
$GPGGA,032941.000,3351.4579,N,09832.0543,W,2,08,1.1,294.1,M,-23.7,M,2.8,0000*40
$GPGSA,A,3,17,01,26,28,11,08,07,19,,,,,2.4,1.1,2.1*39
$GPRMC,032941.000,A,3351.4579,N,09832.0543,W,0.06,6.41,030412,,,D*7C
$GPGGA,032942.000,3351.4579,N,09832.0543,W,2,08,1.1,294.0,M,-23.7,M,0.8,0000*40
$GPGSA,A,3,17,01,26,28,11,08,07,19,,,,,2.4,1.1,2.1*39
$GPRMC,032942.000,A,3351.4579,N,09832.0543,W,0.06,141.09,030412,,,D*71
$GPGGA,032943.000,3351.4578,N,09832.0544,W,2,08,1.1,294.0,M,-23.7,M,0.8,0000*47
$GPGSA,A,3,17,01,26,28,11,08,07,19,,,,,2.4,1.1,2.1*39
$GPRMC,032943.000,A,3351.4578,N,09832.0544,W,0.07,133.36,030412,,,D*7E
$GPGGA,032944.000,3351.4578,N,09832.0544,W,2,08,1.1,294.0,M,-23.7,M,0.8,0000*40
$GPGSA,A,3,17,01,26,28,11,08,07,19,,,,,2.4,1.1,2.1*39
$GPRMC,032944.000,A,3351.4578,N,09832.0544,W,0.03,84.62,030412,,,D*41
$GPGGA,032945.000,3351.4578,N,09832.0544,W,2,08,1.1,293.9,M,-23.7,M,1.8,0000*4E
$GPGSA,A,3,17,01,26,28,11,08,07,19,,,,,2.4,1.1,2.1*39
$GPGSV,3,1,10,08,79,004,21,07,54,129,35,28,50,308,31,11,41,080,33*7A
$GPGSV,3,2,10,17,41,222,33,01,37,106,28,26,29,298,41,19,19,043,36*7B
$GPGSV,3,3,10,13,08,177,16,51,49,195,37*74
$GPRMC,032945.000,A,3351.4578,N,09832.0544,W,0.03,83.14,030412,,,D*46
$GPGGA,032946.000,3351.4577,N,09832.0544,W,2,08,1.1,293.9,M,-23.7,M,2.8,0000*41
$GPGSA,A,3,17,01,26,28,11,08,07,19,,,,,2.4,1.1,2.1*39
$GPRMC,032946.000,A,3351.4577,N,09832.0544,W,0.04,71.01,030412,,,D*44
$GPGGA,032947.000,3351.4577,N,09832.0545,W,2,08,1.1,293.9,M,-23.7,M,0.8,0000*43
$GPGSA,A,3,17,01,26,28,11,08,07,19,,,,,2.4,1.1,2.1*39
$GPRMC,032947.000,A,3351.4577,N,09832.0545,W,0.04,49.66,030412,,,D*4E
$GPGGA,032948.000,3351.4576,N,09832.0545,W,2,08,1.1,293.6,M,-23.7,M,0.8,0000*42
$GPGSA,A,3,17,01,26,28,11,08,07,19,,,,,2.4,1.1,2.1*39
$GPRMC,032948.000,A,3351.4576,N,09832.0545,W,0.10,352.63,030412,,,D*79
$GPGGA,032949.000,3351.4576,N,09832.0545,W,2,08,1.1,293.2,M,-23.7,M,0.8,0000*47
$GPGSA,A,3,17,01,26,28,11,08,07,19,,,,,2.4,1.1,2.1*39
$GPRMC,032949.000,A,3351.4576,N,09832.0545,W,0.07,349.57,030412,,,D*73
$GPGGA,032950.000,3351.4575,N,09832.0546,W,2,08,1.1,292.8,M,-23.7,M,0.8,0000*44
$GPGSA,A,3,17,01,26,28,11,08,07,19,,,,,2.4,1.1,2.1*39
$GPGSV,3,1,10,08,79,004,22,07,54,129,36,28,50,308,31,11,41,080,33*7A
$GPGSV,3,2,10,17,41,222,33,01,37,106,28,26,29,298,41,19,19,043,36*7B
$GPGSV,3,3,10,13,08,177,16,51,49,195,36*75
$GPRMC,032950.000,A,3351.4575,N,09832.0546,W,0.02,28.50,030412,,,D*4D
$GPGGA,032951.000,3351.4575,N,09832.0546,W,2,08,1.1,292.9,M,-23.7,M,1.8,0000*45
$GPGSA,A,3,17,01,26,28,11,08,07,19,,,,,2.4,1.1,2.1*39
$GPRMC,032951.000,A,3351.4575,N,09832.0546,W,0.04,62.51,030412,,,D*45
$GPGGA,032952.000,3351.4575,N,09832.0546,W,2,08,1.1,292.9,M,-23.7,M,2.8,0000*45
$GPGSA,A,3,17,01,26,28,11,08,07,19,,,,,2.4,1.1,2.1*39
$GPRMC,032952.000,A,3351.4575,N,09832.0546,W,0.06,44.91,030412,,,D*4C
$GPGGA,032953.000,3351.4576,N,09832.0546,W,2,08,1.1,292.9,M,-23.7,M,3.8,0000*46
$GPGSA,A,3,17,01,26,28,11,08,07,19,,,,,2.4,1.1,2.1*39
$GPRMC,032953.000,A,3351.4576,N,09832.0546,W,0.07,30.39,030412,,,D*4E
$GPGGA,032954.000,3351.4575,N,09832.0547,W,2,08,1.1,292.6,M,-23.7,M,0.8,0000*4F
$GPGSA,A,3,17,01,26,28,11,08,07,19,,,,,2.4,1.1,2.1*39
$GPRMC,032954.000,A,3351.4575,N,09832.0547,W,0.08,158.76,030412,,,D*70
$GPGGA,032955.000,3351.4575,N,09832.0546,W,2,08,1.1,292.7,M,-23.7,M,0.8,0000*4E
$GPGSA,A,3,17,01,26,28,11,08,07,19,,,,,2.4,1.1,2.1*39
$GPGSV,3,1,10,08,79,004,22,07,54,129,36,28,50,308,30,11,41,080,32*7A
$GPGSV,3,2,10,17,41,222,33,01,37,106,28,26,29,298,41,19,19,043,36*7B
$GPGSV,3,3,10,13,08,177,,51,49,195,36*72
$GPRMC,032955.000,A,3351.4575,N,09832.0546,W,0.07,156.67,030412,,,D*71
$GPGGA,032956.000,3351.4575,N,09832.0546,W,2,08,1.1,292.7,M,-23.7,M,0.8,0000*4D
$GPGSA,A,3,17,01,26,28,11,08,07,19,,,,,2.4,1.1,2.1*39
$GPRMC,032956.000,A,3351.4575,N,09832.0546,W,0.06,167.04,030412,,,D*74
$GPGGA,032957.000,3351.4575,N,09832.0546,W,2,08,1.1,292.7,M,-23.7,M,1.8,0000*4D
$GPGSA,A,3,17,01,26,28,11,08,07,19,,,,,2.4,1.1,2.1*39
$GPRMC,032957.000,A,3351.4575,N,09832.0546,W,0.07,166.97,030412,,,D*7F
$GPGGA,032958.000,3351.4575,N,09832.0546,W,2,08,1.1,292.9,M,-23.7,M,2.8,0000*4F
$GPGSA,A,3,17,01,26,28,11,08,07,19,,,,,2.4,1.1,2.1*39
$GPRMC,032958.000,A,3351.4575,N,09832.0546,W,0.05,135.37,030412,,,D*7E
$GPGGA,032959.000,3351.4575,N,09832.0546,W,2,08,1.1,293.1,M,-23.7,M,3.8,0000*46
$GPGSA,A,3,17,01,26,28,11,08,07,19,,,,,2.4,1.1,2.1*39
$GPRMC,032959.000,A,3351.4575,N,09832.0546,W,0.05,125.10,030412,,,D*7B
$GPGGA,033000.000,3351.4576,N,09832.0545,W,2,08,1.1,293.1,M,-23.7,M,0.8,0000*41
$GPGSA,A,3,17,01,26,28,11,08,07,19,,,,,2.4,1.1,2.1*39
$GPGSV,3,1,10,08,79,004,23,07,54,129,36,28,50,308,30,11,41,080,32*7B
$GPGSV,3,2,10,17,41,222,32,01,37,106,28,26,29,298,41,19,19,043,35*79
$GPGSV,3,3,10,13,08,177,,51,49,195,37*73
$GPRMC,033000.000,A,3351.4576,N,09832.0545,W,0.06,1.90,030412,,,D*73
$GPGGA,033001.000,3351.4577,N,09832.0545,W,2,08,1.1,293.4,M,-23.7,M,0.8,0000*44
$GPGSA,A,3,17,01,26,28,11,08,07,19,,,,,2.4,1.1,2.1*39
$GPRMC,033001.000,A,3351.4577,N,09832.0545,W,0.11,20.10,030412,,,D*4E
$GPGGA,033002.000,3351.4577,N,09832.0545,W,2,08,1.1,293.4,M,-23.7,M,0.8,0000*47
$GPGSA,A,3,17,01,26,28,11,08,07,19,,,,,2.4,1.1,2.1*39
$GPRMC,033002.000,A,3351.4577,N,09832.0545,W,0.07,1.87,030412,,,D*77
$GPGGA,033003.000,3351.4577,N,09832.0545,W,2,08,1.1,293.4,M,-23.7,M,0.8,0000*46
$GPGSA,A,3,17,01,26,28,11,08,07,19,,,,,2.4,1.1,2.1*39
$GPRMC,033003.000,A,3351.4577,N,09832.0545,W,0.05,26.90,030412,,,D*47
$GPGGA,033004.000,3351.4578,N,09832.0545,W,2,08,1.1,293.6,M,-23.7,M,1.8,0000*4D
$GPGSA,A,3,17,01,26,28,11,08,07,19,,,,,2.4,1.1,2.1*39
$GPRMC,033004.000,A,3351.4578,N,09832.0545,W,0.08,30.56,030412,,,D*4F
$GPGGA,033005.000,3351.4578,N,09832.0544,W,2,08,1.1,293.7,M,-23.7,M,0.8,0000*4D
$GPGSA,A,3,17,01,26,28,11,08,07,19,,,,,2.4,1.1,2.1*39
$GPGSV,3,1,10,08,79,004,23,07,54,129,36,28,50,308,30,11,41,080,32*7B
$GPGSV,3,2,10,17,41,222,32,01,37,106,28,26,29,298,41,19,19,043,35*79
$GPGSV,3,3,10,13,08,177,16,51,49,195,37*74
$GPRMC,033005.000,A,3351.4578,N,09832.0544,W,0.07,17.69,030412,,,D*49
$GPGGA,033006.000,3351.4578,N,09832.0544,W,2,08,1.1,293.7,M,-23.7,M,0.8,0000*4E
$GPGSA,A,3,17,01,26,28,11,08,07,19,,,,,2.4,1.1,2.1*39
$GPRMC,033006.000,A,3351.4578,N,09832.0544,W,0.07,150.86,030412,,,D*79
$GPGGA,033007.000,3351.4578,N,09832.0544,W,2,08,1.1,293.9,M,-23.7,M,0.8,0000*41
$GPGSA,A,3,17,01,26,28,11,08,07,19,,,,,2.4,1.1,2.1*39
$GPRMC,033007.000,A,3351.4578,N,09832.0544,W,0.06,154.00,030412,,,D*73
$GPGGA,033008.000,3351.4578,N,09832.0544,W,2,08,1.1,293.8,M,-23.7,M,0.8,0000*4F
$GPGSA,A,3,17,01,26,28,11,08,07,19,,,,,2.4,1.1,2.1*39
$GPRMC,033008.000,A,3351.4578,N,09832.0544,W,0.05,156.18,030412,,,D*74
$GPGGA,033009.000,3351.4578,N,09832.0544,W,2,08,1.1,294.0,M,-23.7,M,0.8,0000*41
$GPGSA,A,3,17,01,26,28,11,08,07,19,,,,,2.4,1.1,2.1*39
$GPRMC,033009.000,A,3351.4578,N,09832.0544,W,0.05,121.58,030412,,,D*71
$GPGGA,033010.000,3351.4578,N,09832.0544,W,2,08,1.1,293.9,M,-23.7,M,1.8,0000*46
$GPGSA,A,3,17,01,26,28,11,08,07,19,,,,,2.4,1.1,2.1*39
$GPGSV,3,1,10,08,79,004,23,07,54,129,36,28,50,308,30,11,41,080,32*7B
$GPGSV,3,2,10,17,41,222,33,01,37,106,28,26,29,298,41,19,19,043,35*78
$GPGSV,3,3,10,13,08,177,14,51,49,195,37*76
$GPRMC,033010.000,A,3351.4578,N,09832.0544,W,0.05,173.13,030412,,,D*71
$GPGGA,033011.000,3351.4578,N,09832.0544,W,2,08,1.1,294.2,M,-23.7,M,0.8,0000*4A
$GPGSA,A,3,17,01,26,28,11,08,07,19,,,,,2.4,1.1,2.1*39
$GPRMC,033011.000,A,3351.4578,N,09832.0544,W,0.05,103.89,030412,,,D*74
$GPGGA,033012.000,3351.4579,N,09832.0544,W,2,08,1.1,294.4,M,-23.7,M,0.8,0000*4E
$GPGSA,A,3,17,01,26,28,11,08,07,19,,,,,2.4,1.1,2.1*39
$GPRMC,033012.000,A,3351.4579,N,09832.0544,W,0.09,14.54,030412,,,D*4D
$GPGGA,033013.000,3351.4579,N,09832.0544,W,2,08,1.1,294.5,M,-23.7,M,0.8,0000*4E
$GPGSA,A,3,17,01,26,28,11,08,07,19,,,,,2.4,1.1,2.1*39
$GPRMC,033013.000,A,3351.4579,N,09832.0544,W,0.12,8.47,030412,,,D*79
$GPGGA,033014.000,3351.4580,N,09832.0543,W,2,08,1.1,294.5,M,-23.7,M,0.8,0000*48
$GPGSA,A,3,17,01,26,28,11,08,07,19,,,,,2.4,1.1,2.1*39
