$GPGGA,192425.000,3352.7204,N,09832.5411,W,2,09,0.9,295.3,M,-23.7,M,,0000*65
$GPGSA,A,3,22,14,01,20,32,11,31,30,25,,,,1.9,0.9,1.6*35
$GPRMC,192425.000,A,3352.7204,N,09832.5411,W,0.06,7.48,030412,,,D*7E
$GPGGA,192426.000,3352.7204,N,09832.5411,W,2,09,0.9,295.4,M,-23.7,M,1.8,0000*46
$GPGSA,A,3,22,14,01,20,32,11,31,30,25,,,,1.9,0.9,1.6*35
$GPRMC,192426.000,A,3352.7204,N,09832.5411,W,0.09,32.83,030412,,,D*43
$GPGGA,192427.000,3352.7204,N,09832.5411,W,2,09,0.9,295.2,M,-23.7,M,2.8,0000*42
$GPGSA,A,3,22,14,01,20,32,11,31,30,25,,,,1.9,0.9,1.6*35
$GPRMC,192427.000,A,3352.7204,N,09832.5411,W,0.14,200.60,030412,,,D*70
$GPGGA,192428.000,3352.7204,N,09832.5412,W,2,09,0.9,295.3,M,-23.7,M,3.8,0000*4E
$GPGSA,A,3,22,14,01,20,32,11,31,30,25,,,,1.9,0.9,1.6*35
$GPRMC,192428.000,A,3352.7204,N,09832.5412,W,0.05,127.15,030412,,,D*78
$GPGGA,192429.000,3352.7204,N,09832.5412,W,2,09,0.9,295.3,M,-23.7,M,,0000*6A
$GPGSA,A,3,22,14,01,20,32,11,31,30,25,,,,1.9,0.9,1.6*35
$GPGSV,3,1,12,31,89,299,29,14,44,051,38,32,40,316,29,22,38,130,35*7D
$GPGSV,3,2,12,01,31,287,30,25,26,064,33,11,23,261,30,30,21,167,24*76
$GPGSV,3,3,12,20,13,314,22,12,02,032,24,16,00,182,,48,36,230,34*79
$GPRMC,192429.000,A,3352.7204,N,09832.5412,W,0.15,172.63,030412,,,D*79
$GPGGA,192430.000,3352.7204,N,09832.5412,W,2,09,0.9,295.3,M,-23.7,M,,0000*62
$GPGSA,A,3,22,14,01,20,32,11,31,30,25,,,,1.9,0.9,1.6*35
$GPRMC,192430.000,A,3352.7204,N,09832.5412,W,0.06,4.56,030412,,,D*75
$GPGGA,192431.000,3352.7204,N,09832.5412,W,2,09,0.9,295.4,M,-23.7,M,1.8,0000*43
$GPGSA,A,3,22,14,01,20,32,11,31,30,25,,,,1.9,0.9,1.6*35
$GPRMC,192431.000,A,3352.7204,N,09832.5412,W,0.29,172.97,030412,,,D*74
$GPGGA,192432.000,3352.7203,N,09832.5412,W,2,09,0.9,295.2,M,-23.7,M,2.8,0000*42
$GPGSA,A,3,22,14,01,20,32,11,31,30,25,,,,1.9,0.9,1.6*35
$GPRMC,192432.000,A,3352.7203,N,09832.5412,W,0.22,184.91,030412,,,D*74
$GPGGA,192433.000,3352.7203,N,09832.5413,W,2,09,0.9,295.2,M,-23.7,M,3.8,0000*43
$GPGSA,A,3,22,14,01,20,32,11,31,30,25,,,,1.9,0.9,1.6*35
$GPRMC,192433.000,A,3352.7203,N,09832.5413,W,0.12,348.18,030412,,,D*74
$GPGGA,192434.000,3352.7203,N,09832.5413,W,2,09,0.9,295.0,M,-23.7,M,4.8,0000*41
$GPGSA,A,3,22,14,01,20,32,11,31,30,25,,,,1.9,0.9,1.6*35
$GPGSV,3,1,12,31,89,299,28,14,44,051,38,32,40,316,29,22,38,130,35*7C
$GPGSV,3,2,12,01,31,287,30,25,26,064,33,11,23,261,30,30,21,167,24*76
$GPGSV,3,3,12,20,13,314,22,12,02,032,24,16,00,182,,48,36,230,34*79
$GPRMC,192434.000,A,3352.7203,N,09832.5413,W,0.10,211.00,030412,,,D*75
$GPGGA,192435.000,3352.7203,N,09832.5413,W,2,09,0.9,295.0,M,-23.7,M,,0000*62
$GPGSA,A,3,22,14,01,20,32,11,31,30,25,,,,1.9,0.9,1.6*35
$GPRMC,192435.000,A,3352.7203,N,09832.5413,W,0.06,39.60,030412,,,D*4D
$GPGGA,192436.000,3352.7203,N,09832.5413,W,2,09,0.9,295.1,M,-23.7,M,1.8,0000*47
$GPGSA,A,3,22,14,01,20,32,11,31,30,25,,,,1.9,0.9,1.6*35
$GPRMC,192436.000,A,3352.7203,N,09832.5413,W,0.06,66.46,030412,,,D*40
$GPGGA,192437.000,3352.7203,N,09832.5413,W,2,09,0.9,295.2,M,-23.7,M,2.8,0000*46
$GPGSA,A,3,22,14,01,20,32,11,31,30,25,,,,1.9,0.9,1.6*35
$GPRMC,192437.000,A,3352.7203,N,09832.5413,W,0.11,148.59,030412,,,D*74
$GPGGA,192438.000,3352.7203,N,09832.5413,W,2,09,0.9,295.2,M,-23.7,M,3.8,0000*48
$GPGSA,A,3,22,14,01,20,32,11,31,30,25,,,,1.9,0.9,1.6*35
$GPRMC,192438.000,A,3352.7203,N,09832.5413,W,0.26,169.70,030412,,,D*77
$GPGGA,192439.000,3352.7203,N,09832.5413,W,2,09,0.9,295.1,M,-23.7,M,4.8,0000*4D
$GPGSA,A,3,22,14,01,20,32,11,31,30,25,,,,1.9,0.9,1.6*35
$GPGSV,3,1,12,31,89,299,28,14,44,051,38,32,40,316,30,22,38,130,35*74
$GPGSV,3,2,12,01,31,287,30,25,26,064,33,11,23,261,30,30,21,167,24*76
$GPGSV,3,3,12,20,13,314,22,12,02,032,23,16,00,182,,48,36,230,34*7E
$GPRMC,192439.000,A,3352.7203,N,09832.5413,W,0.19,347.10,030412,,,D*72
$GPGGA,192440.000,3352.7204,N,09832.5413,W,2,09,0.9,295.0,M,-23.7,M,5.8,0000*44
$GPGSA,A,3,22,14,01,20,32,11,31,30,25,,,,1.9,0.9,1.6*35
$GPRMC,192440.000,A,3352.7204,N,09832.5413,W,0.32,349.20,030412,,,D*7F
$GPGGA,192441.000,3352.7204,N,09832.5413,W,2,09,0.9,294.9,M,-23.7,M,6.8,0000*4E
$GPGSA,A,3,22,14,01,20,32,11,31,30,25,,,,1.9,0.9,1.6*35
$GPRMC,192441.000,A,3352.7204,N,09832.5413,W,0.01,346.84,030412,,,D*7F
$GPGGA,192442.000,3352.7204,N,09832.5413,W,2,09,0.9,295.0,M,-23.7,M,7.8,0000*44
$GPGSA,A,3,22,14,01,20,32,11,31,30,25,,,,1.9,0.9,1.6*35
$GPRMC,192442.000,A,3352.7204,N,09832.5413,W,0.09,32.58,030412,,,D*45
$GPGGA,192443.000,3352.7204,N,09832.5413,W,2,09,0.9,294.8,M,-23.7,M,,0000*6D
$GPGSA,A,3,22,14,01,20,32,11,31,30,25,,,,1.9,0.9,1.6*35
$GPRMC,192443.000,A,3352.7204,N,09832.5413,W,0.20,176.14,030412,,,D*76
$GPGGA,192444.000,3352.7204,N,09832.5413,W,2,09,0.9,294.9,M,-23.7,M,,0000*6B
$GPGSA,A,3,22,14,01,20,32,11,31,30,25,,,,1.9,0.9,1.6*35
$GPGSV,3,1,12,31,89,299,27,14,44,051,38,32,40,316,30,22,38,130,35*7B
$GPGSV,3,2,12,01,31,287,31,25,26,064,33,11,23,261,29,30,21,167,24*7F
$GPGSV,3,3,12,20,13,314,22,12,02,032,22,16,00,182,,48,36,230,34*7F
$GPRMC,192444.000,A,3352.7204,N,09832.5413,W,0.09,132.72,030412,,,D*7A
$GPGGA,192445.000,3352.7204,N,09832.5413,W,2,09,0.9,294.9,M,-23.7,M,1.8,0000*4D
$GPGSA,A,3,22,14,01,20,32,11,31,30,25,,,,1.9,0.9,1.6*35
$GPRMC,192445.000,A,3352.7204,N,09832.5413,W,0.07,23.24,030412,,,D*47
$GPGGA,192446.000,3352.7204,N,09832.5413,W,2,09,0.9,295.0,M,-23.7,M,,0000*61
$GPGSA,A,3,22,14,01,20,32,11,31,30,25,,,,1.9,0.9,1.6*35
$GPRMC,192446.000,A,3352.7204,N,09832.5413,W,0.12,24.53,030412,,,D*47
$GPGGA,192447.000,3352.7204,N,09832.5413,W,2,09,0.9,294.9,M,-23.7,M,1.8,0000*4F
$GPGSA,A,3,22,14,01,20,32,11,31,30,25,,,,1.9,0.9,1.6*35
$GPRMC,192447.000,A,3352.7204,N,09832.5413,W,0.02,183.89,030412,,,D*7C
$GPGGA,192448.000,3352.7204,N,09832.5413,W,2,09,0.9,295.0,M,-23.7,M,,0000*6F
$GPGSA,A,3,22,14,01,20,32,11,31,30,25,,,,1.9,0.9,1.6*35
$GPRMC,192448.000,A,3352.7204,N,09832.5413,W,0.08,7.37,030412,,,D*71
$GPGGA,192449.000,3352.7205,N,09832.5413,W,2,09,0.9,295.0,M,-23.7,M,,0000*6F
$GPGSA,A,3,22,14,01,20,32,11,31,30,25,,,,1.9,0.9,1.6*35
$GPGSV,3,1,12,31,89,299,27,14,44,051,38,32,40,316,30,22,38,130,35*7B
$GPGSV,3,2,12,01,31,287,31,25,26,064,33,11,23,261,29,30,21,167,24*7F
$GPGSV,3,3,12,20,13,314,22,12,02,032,21,16,00,182,,48,36,230,34*7C
$GPRMC,192449.000,A,3352.7205,N,09832.5413,W,0.24,352.82,030412,,,D*72
$GPGGA,192450.000,3352.7205,N,09832.5413,W,2,09,0.9,294.9,M,-23.7,M,,0000*6F
$GPGSA,A,3,22,14,01,20,32,11,31,30,25,,,,1.9,0.9,1.6*35
$GPRMC,192450.000,A,3352.7205,N,09832.5413,W,0.06,142.18,030412,,,D*7A
$GPGGA,192451.000,3352.7204,N,09832.5413,W,2,09,0.9,295.1,M,-23.7,M,1.8,0000*41
$GPGSA,A,3,22,14,01,20,32,11,31,30,25,,,,1.9,0.9,1.6*35
$GPRMC,192451.000,A,3352.7204,N,09832.5413,W,0.37,167.16,030412,,,D*71
$GPGGA,192452.000,3352.7204,N,09832.5413,W,2,09,0.9,295.2,M,-23.7,M,2.8,0000*42
$GPGSA,A,3,22,14,01,20,32,11,31,30,25,,,,1.9,0.9,1.6*35
$GPRMC,192452.000,A,3352.7204,N,09832.5413,W,0.17,168.82,030412,,,D*72
$GPGGA,192453.000,3352.7204,N,09832.5413,W,2,09,0.9,295.3,M,-23.7,M,3.8,0000*43
$GPGSA,A,3,22,14,01,20,32,11,31,30,25,,,,1.9,0.9,1.6*35
$GPRMC,192453.000,A,3352.7204,N,09832.5413,W,0.17,157.99,030412,,,D*75
$GPGGA,192454.000,3352.7204,N,09832.5414,W,2,09,0.9,295.3,M,-23.7,M,,0000*66
$GPGSA,A,3,22,14,01,20,32,11,31,30,25,,,,1.9,0.9,1.6*35
$GPGSV,3,1,12,31,89,299,26,14,44,051,38,32,40,316,29,22,38,130,35*72
$GPGSV,3,2,12,01,31,287,30,25,26,064,33,11,23,261,29,30,21,167,24*7E
$GPGSV,3,3,12,20,13,314,22,12,02,032,,16,00,182,,48,36,230,34*7F
$GPRMC,192454.000,A,3352.7204,N,09832.5414,W,0.05,252.39,030412,,,D*7A
$GPGGA,192455.000,3352.7204,N,09832.5414,W,2,09,0.9,295.2,M,-23.7,M,,0000*66
$GPGSA,A,3,22,14,01,20,32,11,31,30,25,,,,1.9,0.9,1.6*35
$GPRMC,192455.000,A,3352.7204,N,09832.5414,W,0.14,329.41,030412,,,D*79
$GPGGA,192456.000,3352.7204,N,09832.5414,W,2,09,0.9,295.1,M,-23.7,M,,0000*66
$GPGSA,A,3,22,14,01,20,32,11,31,30,25,,,,1.9,0.9,1.6*35
$GPRMC,192456.000,A,3352.7204,N,09832.5414,W,0.18,324.63,030412,,,D*7B
$GPGGA,192457.000,3352.7205,N,09832.5415,W,2,09,0.9,295.1,M,-23.7,M,,0000*67
$GPGSA,A,3,22,14,01,20,32,11,31,30,25,,,,1.9,0.9,1.6*35
$GPRMC,192457.000,A,3352.7205,N,09832.5415,W,0.11,350.25,030412,,,D*72
$GPGGA,192458.000,3352.7206,N,09832.5415,W,2,09,0.9,295.0,M,-23.7,M,1.8,0000*4D
$GPGSA,A,3,22,14,01,20,32,11,31,30,25,,,,1.9,0.9,1.6*35
$GPRMC,192458.000,A,3352.7206,N,09832.5415,W,0.31,347.19,030412,,,D*75
$GPGGA,192459.000,3352.7206,N,09832.5415,W,2,09,0.9,295.1,M,-23.7,M,2.8,0000*4E
$GPGSA,A,3,22,14,01,20,32,11,31,30,25,,,,1.9,0.9,1.6*35
$GPGSV,3,1,12,31,89,299,26,14,44,051,38,32,40,316,29,22,38,130,35*72
$GPGSV,3,2,12,01,31,287,30,25,26,064,33,11,23,261,29,30,21,167,23*79
$GPGSV,3,3,12,20,13,314,23,12,02,032,,16,00,182,,48,36,230,34*7E
$GPRMC,192459.000,A,3352.7206,N,09832.5415,W,0.06,1.79,030412,,,D*77
$GPGGA,192500.000,3352.7207,N,09832.5415,W,2,09,0.9,295.0,M,-23.7,M,,0000*67
$GPGSA,A,3,22,14,01,20,32,11,31,30,25,,,,1.9,0.9,1.6*35
$GPRMC,192500.000,A,3352.7207,N,09832.5415,W,0.27,349.29,030412,,,D*72
$GPGGA,192501.000,3352.7207,N,09832.5416,W,2,09,0.9,295.1,M,-23.7,M,,0000*64
$GPGSA,A,3,22,14,01,20,32,11,31,30,25,,,,1.9,0.9,1.6*35
$GPRMC,192501.000,A,3352.7207,N,09832.5416,W,0.15,5.51,030412,,,D*75
$GPGGA,192502.000,3352.7207,N,09832.5416,W,2,09,0.9,295.2,M,-23.7,M,,0000*64
$GPGSA,A,3,22,14,01,20,32,11,31,30,25,,,,1.9,0.9,1.6*35
$GPRMC,192502.000,A,3352.7207,N,09832.5416,W,0.08,52.03,030412,,,D*4F
$GPGGA,192503.000,3352.7207,N,09832.5415,W,2,09,0.9,295.3,M,-23.7,M,1.8,0000*40
$GPGSA,A,3,22,14,01,20,32,11,31,30,25,,,,1.9,0.9,1.6*35
$GPRMC,192503.000,A,3352.7207,N,09832.5415,W,0.08,131.08,030412,,,D*72
$GPGGA,192504.000,3352.7207,N,09832.5415,W,2,09,0.9,295.5,M,-23.7,M,,0000*66
$GPGSA,A,3,22,14,01,20,32,11,31,30,25,,,,1.9,0.9,1.6*35
$GPGSV,3,1,12,31,89,299,25,14,44,051,38,32,40,316,29,22,38,130,35*71
$GPGSV,3,2,12,01,31,287,31,25,26,064,33,11,23,261,29,30,21,167,23*78
$GPGSV,3,3,12,20,13,314,23,12,02,032,,16,00,182,,48,36,230,34*7E
$GPRMC,192504.000,A,3352.7207,N,09832.5415,W,0.03,80.44,030412,,,D*4D
$GPGGA,192505.000,3352.7207,N,09832.5416,W,2,09,0.9,295.4,M,-23.7,M,1.8,0000*42
$GPGSA,A,3,22,14,01,20,32,11,31,30,25,,,,1.9,0.9,1.6*35
$GPRMC,192505.000,A,3352.7207,N,09832.5416,W,0.08,205.51,030412,,,D*7F
$GPGGA,192506.000,3352.7206,N,09832.5416,W,2,09,0.9,295.4,M,-23.7,M,,0000*67
$GPGSA,A,3,22,14,01,20,32,11,31,30,25,,,,1.9,0.9,1.6*35
$GPRMC,192506.000,A,3352.7206,N,09832.5416,W,0.37,171.25,030412,,,D*72
$GPGGA,192507.000,3352.7206,N,09832.5416,W,2,09,0.9,295.6,M,-23.7,M,,0000*64
$GPGSA,A,3,22,14,01,20,32,11,31,30,25,,,,1.9,0.9,1.6*35
$GPRMC,192507.000,A,3352.7206,N,09832.5416,W,0.13,149.18,030412,,,D*70
$GPGGA,192508.000,3352.7206,N,09832.5416,W,2,09,0.9,295.6,M,-23.7,M,,0000*6B
$GPGSA,A,3,22,14,01,20,32,11,31,30,25,,,,1.9,0.9,1.6*35
$GPRMC,192508.000,A,3352.7206,N,09832.5416,W,0.03,13.36,030412,,,D*4C
$GPGGA,192509.000,3352.7206,N,09832.5416,W,2,09,0.9,295.4,M,-23.7,M,1.8,0000*4F
$GPGSA,A,3,22,14,01,20,32,11,31,30,25,,,,1.9,0.9,1.6*35
$GPGSV,3,1,12,31,89,299,25,14,44,051,38,32,40,316,29,22,38,130,35*71
$GPGSV,3,2,12,01,31,287,31,25,26,064,33,11,23,261,28,30,21,167,22*78
$GPGSV,3,3,12,20,13,314,23,12,02,032,,16,00,182,,48,36,230,34*7E
$GPRMC,192509.000,A,3352.7206,N,09832.5416,W,0.07,222.47,030412,,,D*7F
$GPGGA,192510.000,3352.7206,N,09832.5416,W,2,09,0.9,295.3,M,-23.7,M,2.8,0000*43
$GPGSA,A,3,22,14,01,20,32,11,31,30,25,,,,1.9,0.9,1.6*35
$GPRMC,192510.000,A,3352.7206,N,09832.5416,W,0.22,174.12,030412,,,D*70
$GPGGA,192511.000,3352.7205,N,09832.5416,W,2,09,0.9,295.4,M,-23.7,M,3.8,0000*47
$GPGSA,A,3,22,14,01,20,32,11,31,30,25,,,,1.9,0.9,1.6*35
$GPRMC,192511.000,A,3352.7205,N,09832.5416,W,0.10,176.34,030412,,,D*75
$GPGGA,192512.000,3352.7206,N,09832.5416,W,2,09,0.9,295.4,M,-23.7,M,,0000*62
$GPGSA,A,3,22,14,01,20,32,11,31,30,25,,,,1.9,0.9,1.6*35
$GPRMC,192512.000,A,3352.7206,N,09832.5416,W,0.15,352.51,030412,,,D*77
$GPGGA,192513.000,3352.7206,N,09832.5415,W,2,09,0.9,295.4,M,-23.7,M,,0000*60
$GPGSA,A,3,22,14,01,20,32,11,31,30,25,,,,1.9,0.9,1.6*35
$GPRMC,192513.000,A,3352.7206,N,09832.5415,W,0.08,32.38,030412,,,D*43
$GPGGA,192514.000,3352.7206,N,09832.5415,W,2,09,0.9,295.4,M,-23.7,M,,0000*67
$GPGSA,A,3,22,14,01,20,32,11,31,30,25,,,,1.9,0.9,1.6*35
$GPGSV,3,1,12,31,89,299,25,14,44,051,39,32,40,316,28,22,38,130,35*71
$GPGSV,3,2,12,01,31,287,31,25,26,064,32,11,23,261,28,30,21,167,22*79
$GPGSV,3,3,12,20,13,314,23,12,02,032,,16,00,182,,48,36,230,34*7E
$GPRMC,192514.000,A,3352.7206,N,09832.5415,W,0.12,336.50,030412,,,D*76
$GPGGA,192515.000,3352.7206,N,09832.5415,W,2,09,0.9,295.4,M,-23.7,M,1.8,0000*41
$GPGSA,A,3,22,14,01,20,32,11,31,30,25,,,,1.9,0.9,1.6*35
$GPRMC,192515.000,A,3352.7206,N,09832.5415,W,0.29,163.15,030412,,,D*7C
$GPGGA,192516.000,3352.7205,N,09832.5415,W,2,09,0.9,295.2,M,-23.7,M,2.8,0000*44
$GPGSA,A,3,22,14,01,20,32,11,31,30,25,,,,1.9,0.9,1.6*35
$GPRMC,192516.000,A,3352.7205,N,09832.5415,W,0.28,186.17,030412,,,D*74
$GPGGA,192517.000,3352.7205,N,09832.5415,W,2,09,0.9,295.3,M,-23.7,M,3.8,0000*45
$GPGSA,A,3,22,14,01,20,32,11,31,30,25,,,,1.9,0.9,1.6*35
$GPRMC,192517.000,A,3352.7205,N,09832.5415,W,0.13,146.88,030412,,,D*77
$GPGGA,192518.000,3352.7204,N,09832.5415,W,2,09,0.9,295.1,M,-23.7,M,,0000*6C
$GPGSA,A,3,22,14,01,20,32,11,31,30,25,,,,1.9,0.9,1.6*35
$GPRMC,192518.000,A,3352.7204,N,09832.5415,W,0.31,188.71,030412,,,D*7D
$GPGGA,192519.000,3352.7204,N,09832.5415,W,2,09,0.9,295.0,M,-23.7,M,,0000*6C
$GPGSA,A,3,22,14,01,20,32,11,31,30,25,,,,1.9,0.9,1.6*35
$GPGSV,3,1,12,31,89,299,25,14,44,051,39,32,40,316,28,22,38,130,35*71
$GPGSV,3,2,12,01,31,287,32,25,26,064,32,11,23,261,28,30,21,167,22*7A
$GPGSV,3,3,12,20,13,314,22,12,02,032,21,16,00,182,,48,36,230,34*7C
$GPRMC,192519.000,A,3352.7204,N,09832.5415,W,0.42,168.68,030412,,,D*7E
$GPGGA,192520.000,3352.7203,N,09832.5415,W,2,09,0.9,294.9,M,-23.7,M,,0000*69
$GPGSA,A,3,22,14,01,20,32,11,31,30,25,,,,1.9,0.9,1.6*35
$GPRMC,192520.000,A,3352.7203,N,09832.5415,W,0.20,177.60,030412,,,D*71
$GPGGA,192521.000,3352.7203,N,09832.5415,W,2,09,0.9,294.7,M,-23.7,M,1.8,0000*41
$GPGSA,A,3,22,14,01,20,32,11,31,30,25,,,,1.9,0.9,1.7*34
$GPRMC,192521.000,A,3352.7203,N,09832.5415,W,0.04,290.61,030412,,,D*7D
$GPGGA,192522.000,3352.7204,N,09832.5415,W,2,09,0.9,294.6,M,-23.7,M,2.8,0000*47
$GPGSA,A,3,22,14,01,20,32,11,31,30,25,,,,1.9,0.9,1.7*34
$GPRMC,192522.000,A,3352.7204,N,09832.5415,W,0.20,343.95,030412,,,D*7B
$GPGGA,192523.000,3352.7204,N,09832.5415,W,2,09,0.9,294.5,M,-23.7,M,3.8,0000*44
$GPGSA,A,3,22,14,01,20,32,11,31,30,25,,,,1.9,0.9,1.7*34
$GPRMC,192523.000,A,3352.7204,N,09832.5415,W,0.08,185.07,030412,,,D*73
$GPGGA,192524.000,3352.7204,N,09832.5415,W,2,09,0.9,294.6,M,-23.7,M,,0000*65
$GPGSA,A,3,22,14,01,20,32,11,31,30,25,,,,1.9,0.9,1.7*34
$GPGSV,3,1,12,31,89,299,25,14,44,051,39,32,40,316,27,22,38,130,35*7E
$GPGSV,3,2,12,01,31,287,32,25,26,064,32,11,23,261,28,30,21,167,22*7A
$GPGSV,3,3,12,20,13,314,22,12,02,032,,16,00,182,,48,36,230,34*7F
$GPRMC,192524.000,A,3352.7204,N,09832.5415,W,0.11,47.38,030412,,,D*4F
$GPGGA,192525.000,3352.7204,N,09832.5415,W,2,09,0.9,294.5,M,-23.7,M,,0000*67
$GPGSA,A,3,22,14,01,20,32,11,31,30,25,,,,1.9,0.9,1.7*34
$GPRMC,192525.000,A,3352.7204,N,09832.5415,W,0.19,171.73,030412,,,D*7D
$GPGGA,192526.000,3352.7204,N,09832.5415,W,2,09,0.9,294.6,M,-23.7,M,,0000*67
$GPGSA,A,3,22,14,01,20,32,11,31,30,25,,,,1.9,0.9,1.7*34
$GPRMC,192526.000,A,3352.7204,N,09832.5415,W,0.18,157.28,030412,,,D*75
$GPGGA,192527.000,3352.7204,N,09832.5415,W,2,09,0.9,294.6,M,-23.7,M,1.8,0000*41
$GPGSA,A,3,22,14,01,20,32,11,31,30,25,,,,1.9,0.9,1.7*34
$GPRMC,192527.000,A,3352.7204,N,09832.5415,W,0.14,5.20,030412,,,D*76
$GPGGA,192528.000,3352.7204,N,09832.5415,W,2,09,0.9,294.8,M,-23.7,M,2.8,0000*43
$GPGSA,A,3,22,14,01,20,32,11,31,30,25,,,,1.9,0.9,1.7*34
$GPRMC,192528.000,A,3352.7204,N,09832.5415,W,0.15,10.00,030412,,,D*4E
$GPGGA,192529.000,3352.7205,N,09832.5415,W,2,09,0.9,294.9,M,-23.7,M,,0000*66
$GPGSA,A,3,22,14,01,20,32,11,31,30,25,,,,1.9,0.9,1.7*34
$GPGSV,3,1,12,31,89,299,26,14,44,051,39,32,40,316,26,22,38,130,35*7C
$GPGSV,3,2,12,01,31,287,32,25,26,064,32,11,23,261,28,30,21,167,23*7B
$GPGSV,3,3,12,20,13,314,22,12,02,032,,16,00,182,,48,36,230,34*7F
$GPRMC,192529.000,A,3352.7205,N,09832.5415,W,0.13,145.93,030412,,,D*73
$GPGGA,192530.000,3352.7205,N,09832.5415,W,2,09,0.9,295.1,M,-23.7,M,,0000*67
$GPGSA,A,3,22,14,01,20,32,11,31,30,25,,,,1.9,0.9,1.7*34
$GPRMC,192530.000,A,3352.7205,N,09832.5415,W,0.05,36.84,030412,,,D*4F
$GPGGA,192531.000,3352.7205,N,09832.5414,W,2,09,0.9,295.2,M,-23.7,M,,0000*64
$GPGSA,A,3,22,14,01,20,32,11,31,30,25,,,,1.9,0.9,1.7*34
$GPRMC,192531.000,A,3352.7205,N,09832.5414,W,0.13,17.51,030412,,,D*43
$GPGGA,192532.000,3352.7205,N,09832.5414,W,2,09,0.9,295.2,M,-23.7,M,,0000*67
$GPGSA,A,3,22,14,01,20,32,11,31,30,25,,,,1.9,0.9,1.7*34
$GPRMC,192532.000,A,3352.7205,N,09832.5414,W,0.04,276.23,030412,,,D*76
$GPGGA,192533.000,3352.7205,N,09832.5414,W,2,09,0.9,295.3,M,-23.7,M,,0000*67
$GPGSA,A,3,22,14,01,20,32,11,31,30,25,,,,1.9,0.9,1.7*34
$GPRMC,192533.000,A,3352.7205,N,09832.5414,W,0.19,155.74,030412,,,D*7B
$GPGGA,192534.000,3352.7205,N,09832.5414,W,2,09,0.9,295.3,M,-23.7,M,1.8,0000*47
$GPGSA,A,3,22,14,01,20,32,11,31,30,25,,,,1.9,0.9,1.7*34
$GPGSV,3,1,12,31,89,299,26,14,44,051,39,32,40,316,23,22,38,130,35*79
$GPGSV,3,2,12,01,31,287,32,25,26,064,32,11,23,261,28,30,21,167,23*7B
$GPGSV,3,3,12,20,13,314,23,12,02,032,,16,00,182,,48,36,230,34*7E
$GPRMC,192534.000,A,3352.7205,N,09832.5414,W,0.27,340.42,030412,,,D*72
$GPGGA,192535.000,3352.7206,N,09832.5415,W,2,09,0.9,295.2,M,-23.7,M,2.8,0000*46
$GPGSA,A,3,22,14,01,20,32,11,31,30,25,,,,1.9,0.9,1.7*34
$GPRMC,192535.000,A,3352.7206,N,09832.5415,W,0.10,299.13,030412,,,D*74
$GPGGA,192536.000,3352.7206,N,09832.5414,W,2,09,0.9,295.2,M,-23.7,M,,0000*60
$GPGSA,A,3,22,14,01,20,32,11,31,30,25,,,,1.9,0.9,1.7*34
$GPRMC,192536.000,A,3352.7206,N,09832.5414,W,0.32,162.19,030412,,,D*7B
$GPGGA,192537.000,3352.7205,N,09832.5414,W,2,09,0.9,295.4,M,-23.7,M,,0000*64
$GPGSA,A,3,22,14,01,20,32,11,31,30,25,,,,1.9,0.9,1.7*34
$GPRMC,192537.000,A,3352.7205,N,09832.5414,W,0.17,148.77,030412,,,D*7E
$GPGGA,192538.000,3352.7205,N,09832.5414,W,2,09,0.9,295.7,M,-23.7,M,,0000*68
$GPGSA,A,3,22,14,01,20,32,11,31,30,25,,,,1.9,0.9,1.7*34
$GPRMC,192538.000,A,3352.7205,N,09832.5414,W,0.05,71.08,030412,,,D*41
$GPGGA,192539.000,3352.7205,N,09832.5414,W,2,09,0.9,295.8,M,-23.7,M,,0000*66
$GPGSA,A,3,22,14,01,20,32,11,31,30,25,,,,1.9,0.9,1.7*34
$GPGSV,3,1,12,31,89,299,26,14,44,051,39,32,40,316,24,22,38,130,35*7E
$GPGSV,3,2,12,01,31,287,32,25,26,064,31,11,23,261,28,30,21,167,23*78
$GPGSV,3,3,12,20,13,314,22,12,02,032,,16,00,182,,48,36,230,34*7F
$GPRMC,192539.000,A,3352.7205,N,09832.5414,W,0.21,329.37,030412,,,D*74
$GPGGA,192540.000,3352.7206,N,09832.5415,W,2,09,0.9,296.0,M,-23.7,M,1.8,0000*46
$GPGSA,A,3,22,14,01,20,32,11,31,30,25,,,,1.9,0.9,1.7*34
$GPRMC,192540.000,A,3352.7206,N,09832.5415,W,0.20,344.31,030412,,,D*74
$GPGGA,192541.000,3352.7206,N,09832.5415,W,2,09,0.9,296.0,M,-23.7,M,2.8,0000*44
$GPGSA,A,3,22,14,01,20,32,11,31,30,25,,,,1.9,0.9,1.7*34
$GPRMC,192541.000,A,3352.7206,N,09832.5415,W,0.13,193.10,030412,,,D*7E
$GPGGA,192542.000,3352.7206,N,09832.5415,W,2,09,0.9,296.0,M,-23.7,M,,0000*63
$GPGSA,A,3,22,14,01,20,32,11,31,30,25,,,,1.9,0.9,1.7*34
$GPRMC,192542.000,A,3352.7206,N,09832.5415,W,0.11,188.05,030412,,,D*71
$GPGGA,192543.000,3352.7206,N,09832.5415,W,2,09,0.9,295.8,M,-23.7,M,,0000*69
$GPGSA,A,3,22,14,01,20,32,11,31,30,25,,,,1.9,0.9,1.7*34
$GPGSV,3,1,12,31,89,299,27,14,44,051,39,32,40,316,25,22,38,130,35*7E
$GPGSV,3,2,12,01,31,287,32,25,26,064,31,11,23,261,29,30,21,167,23*79
$GPGSV,3,3,12,20,13,314,22,12,02,032,,16,00,182,,48,36,230,34*7F
$GPRMC,192543.000,A,3352.7206,N,09832.5415,W,0.23,187.49,030412,,,D*76
$GPGGA,192544.000,3352.7206,N,09832.5415,W,2,09,0.9,295.7,M,-23.7,M,,0000*61
$GPGSA,A,3,22,14,01,20,32,11,31,30,25,,,,1.9,0.9,1.7*34
$GPGSV,3,1,12,31,89,299,27,14,44,051,38,32,40,316,25,22,38,130,35*7F
$GPGSV,3,2,12,01,31,287,33,25,26,064,31,11,23,261,29,30,21,167,23*78
$GPGSV,3,3,12,20,13,314,22,12,02,032,,16,00,182,,48,36,230,34*7F
$GPRMC,192544.000,A,3352.7206,N,09832.5415,W,0.14,324.74,030412,,,D*70
$GPGGA,192545.000,3352.7206,N,09832.5415,W,2,09,0.9,295.6,M,-23.7,M,,0000*61
$GPGSA,A,3,22,14,01,20,32,11,31,30,25,,,,1.9,0.9,1.7*34
$GPRMC,192545.000,A,3352.7206,N,09832.5415,W,0.06,194.86,030412,,,D*76
$GPGGA,192546.000,3352.7206,N,09832.5415,W,2,09,0.9,295.6,M,-23.7,M,,0000*62
$GPGSA,A,3,22,14,01,20,32,11,31,30,25,,,,1.9,0.9,1.7*34
$GPRMC,192546.000,A,3352.7206,N,09832.5415,W,0.19,169.51,030412,,,D*73
$GPGGA,192547.000,3352.7206,N,09832.5415,W,2,09,0.9,295.7,M,-23.7,M,1.8,0000*45
$GPGSA,A,3,22,14,01,20,32,11,31,30,25,,,,1.9,0.9,1.7*34
$GPRMC,192547.000,A,3352.7206,N,09832.5415,W,0.11,117.87,030412,,,D*78
$GPGGA,192548.000,3352.7205,N,09832.5414,W,2,09,0.9,295.6,M,-23.7,M,,0000*6E
$GPGSA,A,3,22,14,01,20,32,11,31,30,25,,,,1.9,0.9,1.7*34
$GPRMC,192548.000,A,3352.7205,N,09832.5414,W,0.12,156.72,030412,,,D*79
$GPGGA,192549.000,3352.7205,N,09832.5414,W,2,09,0.9,295.7,M,-23.7,M,,0000*6E
$GPGSA,A,3,22,14,01,20,32,11,31,30,25,,,,1.9,0.9,1.7*34
$GPGSV,3,1,12,31,89,299,28,14,44,051,38,32,40,316,25,22,38,130,35*70
$GPGSV,3,2,12,01,31,287,32,25,26,064,31,11,23,261,29,30,21,167,23*79
$GPGSV,3,3,12,20,13,314,23,12,02,032,,16,00,182,,48,36,230,33*79
$GPRMC,192549.000,A,3352.7205,N,09832.5414,W,0.09,140.92,030412,,,D*7B
$GPGGA,192550.000,3352.7205,N,09832.5414,W,2,09,0.9,295.8,M,-23.7,M,,0000*69
$GPGSA,A,3,22,14,01,20,32,11,31,30,25,,,,1.9,0.9,1.7*34
$GPRMC,192550.000,A,3352.7205,N,09832.5414,W,0.15,169.97,030412,,,D*70
$GPGGA,192551.000,3352.7205,N,09832.5414,W,2,09,0.9,295.9,M,-23.7,M,1.8,0000*4E
$GPGSA,A,3,22,14,01,20,32,11,31,30,25,,,,1.9,0.9,1.7*34
$GPRMC,192551.000,A,3352.7205,N,09832.5414,W,0.10,150.87,030412,,,D*7F
$GPGGA,192552.000,3352.7205,N,09832.5414,W,2,09,0.9,296.1,M,-23.7,M,2.8,0000*45
$GPGSA,A,3,22,14,01,20,32,11,31,30,25,,,,1.9,0.9,1.7*34
$GPRMC,192552.000,A,3352.7205,N,09832.5414,W,0.30,159.10,030412,,,D*79
$GPGGA,192553.000,3352.7204,N,09832.5414,W,2,09,0.9,296.0,M,-23.7,M,3.8,0000*45
$GPGSA,A,3,22,14,01,20,32,11,31,30,25,,,,1.9,0.9,1.7*34
$GPRMC,192553.000,A,3352.7204,N,09832.5414,W,0.20,185.19,030412,,,D*70
$GPGGA,192554.000,3352.7204,N,09832.5414,W,2,09,0.9,295.8,M,-23.7,M,,0000*6C
$GPGSA,A,3,22,14,01,20,32,11,31,30,25,,,,1.9,0.9,1.7*34
$GPGSV,3,1,12,31,89,299,28,14,44,051,38,32,40,316,25,22,38,130,35*70
$GPGSV,3,2,12,01,31,287,33,25,26,064,31,11,23,261,29,30,21,167,23*78
$GPGSV,3,3,12,20,13,314,23,12,02,032,,16,00,182,,48,36,230,33*79
$GPRMC,192554.000,A,3352.7204,N,09832.5414,W,0.25,196.81,030412,,,D*71
$GPGGA,192555.000,3352.7204,N,09832.5414,W,2,09,0.9,295.9,M,-23.7,M,,0000*6C
$GPGSA,A,3,22,14,01,20,32,11,31,30,25,,,,1.9,0.9,1.7*34
$GPRMC,192555.000,A,3352.7204,N,09832.5414,W,0.06,111.80,030412,,,D*7F
$GPGGA,192556.000,3352.7204,N,09832.5414,W,2,09,0.9,296.0,M,-23.7,M,,0000*65
$GPGSA,A,3,22,14,01,20,32,11,31,30,25,,,,1.9,0.9,1.7*34
$GPRMC,192556.000,A,3352.7204,N,09832.5414,W,0.26,161.38,030412,,,D*7A
$GPGGA,192557.000,3352.7203,N,09832.5414,W,2,09,0.9,296.0,M,-23.7,M,1.8,0000*44
$GPGSA,A,3,22,14,01,20,32,11,31,30,25,,,,1.9,0.9,1.7*34
$GPRMC,192557.000,A,3352.7203,N,09832.5414,W,0.35,167.09,030412,,,D*7A
$GPGGA,192558.000,3352.7203,N,09832.5414,W,2,09,0.9,296.0,M,-23.7,M,2.8,0000*48
$GPGSA,A,3,22,14,01,20,32,11,31,30,25,,,,1.9,0.9,1.7*34
$GPRMC,192558.000,A,3352.7203,N,09832.5414,W,0.05,169.51,030412,,,D*75
$GPGGA,192559.000,3352.7203,N,09832.5414,W,2,09,0.9,295.9,M,-23.7,M,3.8,0000*42
$GPGSA,A,3,22,14,01,20,32,11,31,30,25,,,,1.9,0.9,1.7*34
$GPRMC,192559.000,A,3352.7203,N,09832.5414,W,0.06,202.68,030412,,,D*73
$GPGGA,192600.000,3352.7203,N,09832.5414,W,2,09,0.9,295.9,M,-23.7,M,,0000*68
$GPGSA,A,3,22,14,01,20,32,11,31,30,25,,,,1.9,0.9,1.7*34
$GPRMC,192600.000,A,3352.7203,N,09832.5414,W,0.28,154.87,030412,,,D*71
$GPGGA,192601.000,3352.7203,N,09832.5413,W,2,09,0.9,295.9,M,-23.7,M,,0000*6E
$GPGSA,A,3,22,14,01,20,32,11,31,30,25,,,,1.9,0.9,1.7*34
$GPRMC,192601.000,A,3352.7203,N,09832.5413,W,0.26,168.39,030412,,,D*73
$GPGGA,192602.000,3352.7202,N,09832.5413,W,2,09,0.9,295.8,M,-23.7,M,,0000*6D
$GPGSA,A,3,22,14,01,20,32,11,31,30,25,,,,1.9,0.9,1.7*34
$GPRMC,192602.000,A,3352.7202,N,09832.5413,W,0.23,185.38,030412,,,D*76
$GPGGA,192603.000,3352.7203,N,09832.5414,W,2,09,0.9,295.8,M,-23.7,M,1.8,0000*4D
$GPGSA,A,3,22,14,01,20,32,11,31,30,25,,,,1.9,0.9,1.7*34
$GPRMC,192603.000,A,3352.7203,N,09832.5414,W,0.03,114.38,030412,,,D*7B
$GPGGA,192604.000,3352.7203,N,09832.5414,W,2,09,0.9,295.9,M,-23.7,M,2.8,0000*48
$GPGSA,A,3,22,14,01,20,32,11,31,30,25,,,,1.9,0.9,1.7*34
$GPGSV,3,1,12,31,88,001,29,14,43,052,38,32,41,316,26,22,37,131,35*7B
$GPGSV,3,2,12,01,31,285,33,25,25,062,30,11,23,260,29,30,23,167,23*7D
$GPGSV,3,3,12,20,14,314,24,12,01,031,,16,01,181,,48,36,230,34*7C
$GPRMC,192604.000,A,3352.7203,N,09832.5414,W,0.13,150.38,030412,,,D*7D
$GPGGA,192605.000,3352.7203,N,09832.5414,W,2,09,0.9,295.9,M,-23.7,M,,0000*6D
$GPGSA,A,3,22,14,01,20,32,11,31,30,25,,,,1.9,0.9,1.7*34
$GPRMC,192605.000,A,3352.7203,N,09832.5414,W,0.04,187.77,030412,,,D*7B
$GPGGA,192606.000,3352.7203,N,09832.5414,W,2,09,0.9,295.9,M,-23.7,M,,0000*6E
$GPGSA,A,3,22,14,01,20,32,11,31,30,25,,,,1.9,0.9,1.7*34
$GPRMC,192606.000,A,3352.7203,N,09832.5414,W,0.17,191.22,030412,,,D*7D
$GPGGA,192607.000,3352.7203,N,09832.5414,W,2,09,0.9,295.8,M,-23.7,M,,0000*6E
$GPGSA,A,3,22,14,01,20,32,11,31,30,25,,,,1.9,0.9,1.7*34
$GPRMC,192607.000,A,3352.7203,N,09832.5414,W,0.03,320.88,030412,,,D*71
$GPGGA,192608.000,3352.7203,N,09832.5414,W,2,09,0.9,295.8,M,-23.7,M,,0000*61
$GPGSA,A,3,22,14,01,20,32,11,31,30,25,,,,1.9,0.9,1.7*34
$GPRMC,192608.000,A,3352.7203,N,09832.5414,W,0.17,160.92,030412,,,D*76
$GPGGA,192609.000,3352.7203,N,09832.5414,W,2,09,0.9,295.7,M,-23.7,M,1.8,0000*48
$GPGSA,A,3,22,14,01,20,32,11,31,30,25,,,,1.9,0.9,1.7*34
$GPGSV,3,1,12,31,88,001,29,14,43,052,38,32,41,316,26,22,37,131,35*7B
$GPGSV,3,2,12,01,31,285,33,25,25,062,30,11,23,260,29,30,23,167,23*7D
$GPGSV,3,3,12,20,14,314,24,12,01,031,,16,01,181,,48,36,230,34*7C
$GPRMC,192609.000,A,3352.7203,N,09832.5414,W,0.21,166.27,030412,,,D*7A
$GPGGA,192610.000,3352.7206,N,09832.5417,W,2,09,0.9,297.2,M,-23.7,M,2.8,0000*42
$GPGSA,A,3,22,14,01,20,32,11,31,30,25,,,,1.9,0.9,1.7*34
$GPRMC,192610.000,A,3352.7206,N,09832.5417,W,0.19,340.99,030412,,,D*7C
$GPGGA,192611.000,3352.7209,N,09832.5419,W,2,09,0.9,298.5,M,-23.7,M,3.8,0000*4B
$GPGSA,A,3,22,14,01,20,32,11,31,30,25,,,,1.9,0.9,1.7*34
$GPRMC,192611.000,A,3352.7209,N,09832.5419,W,0.39,340.21,030412,,,D*7D
$GPGGA,192612.000,3352.7211,N,09832.5421,W,2,09,0.9,299.7,M,-23.7,M,,0000*6C
$GPGSA,A,3,22,14,01,20,32,11,31,30,25,,,,1.9,0.9,1.7*34
$GPRMC,192612.000,A,3352.7211,N,09832.5421,W,0.30,355.68,030412,,,D*7C
$GPGGA,192613.000,3352.7211,N,09832.5421,W,2,09,0.9,299.6,M,-23.7,M,,0000*6C
$GPGSA,A,3,22,14,01,20,32,11,31,30,25,,,,1.9,0.9,1.7*34
$GPRMC,192613.000,A,3352.7211,N,09832.5421,W,0.03,335.14,030412,,,D*70
$GPGGA,192614.000,3352.7211,N,09832.5422,W,2,09,0.9,299.5,M,-23.7,M,,0000*6B
$GPGSA,A,3,22,14,01,20,32,11,31,30,25,,,,1.9,0.9,1.7*34
$GPGSV,3,1,12,31,88,001,29,14,43,052,38,32,41,316,29,22,37,131,35*74
$GPGSV,3,2,12,01,31,285,33,25,25,062,29,11,23,260,29,30,23,167,23*75
$GPGSV,3,3,12,20,14,314,24,12,01,031,,16,01,181,,48,36,230,34*7C
$GPRMC,192614.000,A,3352.7211,N,09832.5422,W,0.13,352.37,030412,,,D*75
$GPGGA,192615.000,3352.7211,N,09832.5422,W,2,09,0.9,299.3,M,-23.7,M,1.8,0000*4B
$GPGSA,A,3,22,14,01,20,32,11,31,30,25,,,,1.9,0.9,1.7*34
$GPRMC,192615.000,A,3352.7211,N,09832.5422,W,0.14,357.43,030412,,,D*75
$GPGGA,192616.000,3352.7211,N,09832.5422,W,2,09,0.9,299.2,M,-23.7,M,2.8,0000*4A
$GPGSA,A,3,22,14,01,20,32,11,31,30,25,,,,1.9,0.9,1.7*34
$GPRMC,192616.000,A,3352.7211,N,09832.5422,W,0.19,353.92,030412,,,D*73
$GPGGA,192617.000,3352.7211,N,09832.5422,W,2,09,0.9,299.8,M,-23.7,M,,0000*65
$GPGSA,A,3,22,14,01,20,32,11,31,30,25,,,,1.9,0.9,1.7*34
$GPRMC,192617.000,A,3352.7211,N,09832.5422,W,0.09,174.99,030412,,,D*7F
$GPGGA,192618.000,3352.7210,N,09832.5423,W,2,09,0.9,300.3,M,-23.7,M,,0000*60
$GPGSA,A,3,22,14,01,20,32,11,31,30,25,,,,1.9,0.9,1.7*34
$GPRMC,192618.000,A,3352.7210,N,09832.5423,W,0.17,189.88,030412,,,D*7D
$GPGGA,192619.000,3352.7209,N,09832.5423,W,2,09,0.9,300.8,M,-23.7,M,,0000*62
$GPGSA,A,3,22,14,01,20,32,11,31,30,25,,,,1.9,0.9,1.7*34
$GPGSV,3,1,12,31,88,001,29,14,43,052,38,32,41,316,29,22,37,131,35*74
$GPGSV,3,2,12,01,31,285,33,25,25,062,29,11,23,260,30,30,23,167,23*7D
$GPGSV,3,3,12,20,14,314,25,12,01,031,21,16,01,181,,48,36,230,34*7E
$GPRMC,192619.000,A,3352.7209,N,09832.5423,W,0.03,179.48,030412,,,D*72
$GPGGA,192620.000,3352.7209,N,09832.5423,W,2,09,0.9,301.2,M,-23.7,M,,0000*63
$GPGSA,A,3,22,14,01,20,32,11,31,30,25,,,,1.9,0.9,1.7*34
$GPRMC,192620.000,A,3352.7209,N,09832.5423,W,0.08,354.19,030412,,,D*7A
$GPGGA,192621.000,3352.7208,N,09832.5423,W,2,09,0.9,301.5,M,-23.7,M,,0000*64
$GPGSA,A,3,22,14,01,20,32,11,31,30,25,,,,1.9,0.9,1.7*34
$GPRMC,192621.000,A,3352.7208,N,09832.5423,W,0.25,179.84,030412,,,D*7C
$GPGGA,192622.000,3352.7208,N,09832.5424,W,2,09,0.9,301.8,M,-23.7,M,1.8,0000*4A
$GPGSA,A,3,22,14,01,20,32,11,31,30,25,,,,1.9,0.9,1.7*34
$GPRMC,192622.000,A,3352.7208,N,09832.5424,W,0.02,212.23,030412,,,D*7E
$GPGGA,192623.000,3352.7207,N,09832.5424,W,2,09,0.9,302.1,M,-23.7,M,2.8,0000*4D
$GPGSA,A,3,22,14,01,20,32,11,31,30,25,,,,1.9,0.9,1.7*34
$GPRMC,192623.000,A,3352.7207,N,09832.5424,W,0.10,354.71,030412,,,D*77
$GPGGA,192624.000,3352.7207,N,09832.5424,W,2,09,0.9,302.4,M,-23.7,M,,0000*6B
$GPGSA,A,3,22,14,01,20,32,11,31,30,25,,,,1.9,0.9,1.7*34
$GPGSV,3,1,12,31,88,001,29,14,43,052,38,32,41,316,29,22,37,131,35*74
$GPGSV,3,2,12,01,31,285,33,25,25,062,28,11,23,260,30,30,23,167,23*7C
$GPGSV,3,3,12,20,14,314,25,12,01,031,21,16,01,181,,48,36,230,34*7E
$GPRMC,192624.000,A,3352.7207,N,09832.5424,W,0.11,8.41,030412,,,D*78
$GPGGA,192625.000,3352.7207,N,09832.5424,W,2,09,0.9,302.7,M,-23.7,M,,0000*69
$GPGSA,A,3,22,14,01,20,32,11,31,30,25,,,,1.9,0.9,1.7*34
$GPRMC,192625.000,A,3352.7207,N,09832.5424,W,0.16,352.67,030412,,,D*76
$GPGGA,192626.000,3352.7207,N,09832.5425,W,2,09,0.9,303.1,M,-23.7,M,,0000*6C
$GPGSA,A,3,22,14,01,20,32,11,31,30,25,,,,1.9,0.9,1.7*34
$GPRMC,192626.000,A,3352.7207,N,09832.5425,W,0.15,343.96,030412,,,D*79
$GPGGA,192627.000,3352.7209,N,09832.5426,W,2,09,0.9,303.5,M,-23.7,M,,0000*64
$GPGSA,A,3,22,14,01,20,32,11,31,30,25,,,,1.9,0.9,1.7*34
$GPRMC,192627.000,A,3352.7209,N,09832.5426,W,0.16,187.66,030412,,,D*73
$GPGGA,192628.000,3352.7210,N,09832.5427,W,2,09,0.9,303.9,M,-23.7,M,1.8,0000*49
$GPGSA,A,3,22,14,01,20,32,11,31,30,25,,,,1.9,0.9,1.7*34
$GPRMC,192628.000,A,3352.7210,N,09832.5427,W,0.06,332.36,030412,,,D*7D
$GPGGA,192629.000,3352.7212,N,09832.5429,W,2,09,0.9,304.3,M,-23.7,M,2.8,0000*4A
$GPGSA,A,3,22,14,01,20,32,11,31,30,25,,,,1.9,0.9,1.7*34
$GPGSV,3,1,12,31,88,001,28,14,43,052,38,32,41,316,29,22,37,131,35*75
$GPGSV,3,2,12,01,31,285,33,25,25,062,28,11,23,260,30,30,23,167,24*7B
$GPGSV,3,3,12,20,14,314,26,12,01,031,20,16,01,181,,48,36,230,33*7B
$GPRMC,192629.000,A,3352.7212,N,09832.5429,W,0.18,343.91,030412,,,D*74
$GPGGA,192630.000,3352.7213,N,09832.5429,W,2,09,0.9,304.5,M,-23.7,M,,0000*61
$GPGSA,A,3,22,14,01,20,32,11,31,30,25,,,,1.9,0.9,1.7*34
$GPRMC,192630.000,A,3352.7213,N,09832.5429,W,0.06,255.39,030412,,,D*76
$GPGGA,192631.000,3352.7213,N,09832.5430,W,2,09,0.9,304.8,M,-23.7,M,,0000*65
$GPGSA,A,3,22,14,01,20,32,11,31,30,25,,,,1.9,0.9,1.7*34
$GPRMC,192631.000,A,3352.7213,N,09832.5430,W,0.21,181.16,030412,,,D*7D
$GPGGA,192632.000,3352.7214,N,09832.5431,W,2,09,0.9,305.0,M,-23.7,M,,0000*69
$GPGSA,A,3,22,14,01,20,32,11,31,30,25,,,,1.9,0.9,1.7*34
$GPRMC,192632.000,A,3352.7214,N,09832.5431,W,0.26,180.09,030412,,,D*70
$GPGGA,192633.000,3352.7214,N,09832.5431,W,2,09,0.9,305.2,M,-23.7,M,1.8,0000*4D
$GPGSA,A,3,22,14,01,20,32,11,31,30,25,,,,1.9,0.9,1.7*34
$GPRMC,192633.000,A,3352.7214,N,09832.5431,W,0.12,180.58,030412,,,D*72
$GPGGA,192634.000,3352.7214,N,09832.5432,W,2,09,0.9,305.4,M,-23.7,M,,0000*68
$GPGSA,A,3,22,14,01,20,32,11,31,30,25,,,,1.9,0.9,1.7*34
$GPGSV,3,1,12,31,88,001,28,14,43,052,38,32,41,316,29,22,37,131,35*75
$GPGSV,3,2,12,01,31,285,33,25,25,062,29,11,23,260,30,30,23,167,24*7A
$GPGSV,3,3,12,20,14,314,26,12,01,031,,16,01,181,,48,36,230,33*79
$GPRMC,192634.000,A,3352.7214,N,09832.5432,W,0.18,177.43,030412,,,D*7E
$GPGGA,192635.000,3352.7214,N,09832.5431,W,2,09,0.9,305.2,M,-23.7,M,1.8,0000*4B
$GPGSA,A,3,22,14,01,20,32,11,31,30,25,,,,1.9,0.9,1.7*34
$GPRMC,192635.000,A,3352.7214,N,09832.5431,W,0.04,159.12,030412,,,D*79
$GPGGA,192636.000,3352.7214,N,09832.5432,W,2,09,0.9,305.4,M,-23.7,M,,0000*6A
$GPGSA,A,3,22,14,01,20,32,11,31,30,25,,,,1.9,0.9,1.7*34
$GPRMC,192636.000,A,3352.7214,N,09832.5432,W,0.03,148.32,030412,,,D*7C
$GPGGA,192637.000,3352.7215,N,09832.5432,W,2,09,0.9,305.6,M,-23.7,M,,0000*68
$GPGSA,A,3,22,14,01,20,32,11,31,30,25,,,,1.9,0.9,1.7*34
$GPRMC,192637.000,A,3352.7215,N,09832.5432,W,0.07,344.70,030412,,,D*70
$GPGGA,192638.000,3352.7216,N,09832.5433,W,2,09,0.9,305.8,M,-23.7,M,,0000*6B
$GPGSA,A,3,22,14,01,20,32,11,31,30,25,,,,1.9,0.9,1.7*34
$GPRMC,192638.000,A,3352.7216,N,09832.5433,W,0.15,351.62,030412,,,D*79
$GPGGA,192639.000,3352.7217,N,09832.5433,W,2,09,0.9,305.9,M,-23.7,M,1.8,0000*4D
$GPGSA,A,3,22,14,01,20,32,11,31,30,25,,,,1.9,0.9,1.7*34
$GPRMC,192639.000,A,3352.7217,N,09832.5433,W,0.14,182.69,030412,,,D*7F
$GPGGA,192640.000,3352.7218,N,09832.5433,W,2,09,0.9,306.1,M,-23.7,M,2.8,0000*44
$GPGSA,A,3,22,14,01,20,32,11,31,30,25,,,,1.9,0.9,1.7*34
$GPRMC,192640.000,A,3352.7218,N,09832.5433,W,0.15,345.27,030412,,,D*7C
$GPGGA,192641.000,3352.7218,N,09832.5434,W,2,09,0.9,306.3,M,-23.7,M,3.8,0000*41
$GPGSA,A,3,22,14,01,20,32,11,31,30,25,,,,1.9,0.9,1.7*34
$GPRMC,192641.000,A,3352.7218,N,09832.5434,W,0.21,356.96,030412,,,D*75
$GPGGA,192642.000,3352.7219,N,09832.5434,W,2,09,0.9,306.4,M,-23.7,M,,0000*61
$GPGSA,A,3,22,14,01,20,32,11,31,30,25,,,,1.9,0.9,1.7*34
$GPRMC,192642.000,A,3352.7219,N,09832.5434,W,0.04,313.61,030412,,,D*79
$GPGGA,192643.000,3352.7219,N,09832.5434,W,2,09,0.9,306.7,M,-23.7,M,,0000*63
$GPGSA,A,3,22,14,01,20,32,11,31,30,25,,,,1.9,0.9,1.7*34
$GPRMC,192643.000,A,3352.7219,N,09832.5434,W,0.03,25.92,030412,,,D*45
$GPGGA,192644.000,3352.7220,N,09832.5434,W,2,09,0.9,306.8,M,-23.7,M,,0000*61
$GPGSA,A,3,22,14,01,20,32,11,31,30,25,,,,1.9,0.9,1.7*34
$GPGSV,3,1,12,31,88,001,28,14,43,052,38,32,41,316,29,22,37,131,35*75
$GPGSV,3,2,12,01,31,285,33,25,25,062,29,11,23,260,30,30,23,167,23*7D
$GPGSV,3,3,12,20,14,314,26,12,01,031,,16,01,181,,48,36,230,34*7E
$GPRMC,192644.000,A,3352.7220,N,09832.5434,W,0.01,133.13,030412,,,D*75
$GPGGA,192645.000,3352.7220,N,09832.5434,W,2,09,0.9,306.9,M,-23.7,M,1.8,0000*46
$GPGSA,A,3,22,14,01,20,32,11,31,30,25,,,,1.9,0.9,1.7*34
$GPRMC,192645.000,A,3352.7220,N,09832.5434,W,0.07,17.12,030412,,,D*44
$GPGGA,192646.000,3352.7219,N,09832.5434,W,2,09,0.9,306.7,M,-23.7,M,2.8,0000*42
$GPGSA,A,3,22,14,01,20,32,11,31,30,25,,,,1.9,0.9,1.7*34
$GPRMC,192646.000,A,3352.7219,N,09832.5434,W,0.23,171.78,030412,,,D*76
$GPGGA,192647.000,3352.7218,N,09832.5433,W,2,09,0.9,306.4,M,-23.7,M,3.8,0000*47
$GPGSA,A,3,22,14,01,20,32,11,31,30,25,,,,1.9,0.9,1.7*34
$GPRMC,192647.000,A,3352.7218,N,09832.5433,W,0.31,174.21,030412,,,D*7B
$GPGGA,192648.000,3352.7216,N,09832.5432,W,2,09,0.9,306.1,M,-23.7,M,,0000*67
$GPGSA,A,3,22,14,01,20,32,11,31,30,25,,,,1.9,0.9,1.7*34
$GPRMC,192648.000,A,3352.7216,N,09832.5432,W,0.28,171.67,030412,,,D*74
$GPGGA,192649.000,3352.7216,N,09832.5432,W,2,09,0.9,305.9,M,-23.7,M,,0000*6D
$GPGSA,A,3,22,14,01,20,32,11,31,30,25,,,,1.9,0.9,1.7*34
$GPGSV,3,1,12,31,88,001,27,14,43,052,38,32,41,316,29,22,37,131,35*7A
$GPGSV,3,2,12,01,31,285,33,25,25,062,29,11,23,260,31,30,23,167,22*7D
$GPGSV,3,3,12,20,14,314,26,12,01,031,,16,01,181,,48,36,230,33*79
$GPRMC,192649.000,A,3352.7216,N,09832.5432,W,0.03,8.35,030412,,,D*74
$GPGGA,192650.000,3352.7215,N,09832.5432,W,2,09,0.9,305.6,M,-23.7,M,,0000*69
$GPGSA,A,3,22,14,01,20,32,11,31,30,25,,,,1.9,0.9,1.7*34
$GPRMC,192650.000,A,3352.7215,N,09832.5432,W,0.07,17.34,030412,,,D*44
$GPGGA,192651.000,3352.7215,N,09832.5431,W,2,09,0.9,305.3,M,-23.7,M,,0000*6E
$GPGSA,A,3,22,14,01,20,32,11,31,30,25,,,,1.9,0.9,1.7*34
$GPRMC,192651.000,A,3352.7215,N,09832.5431,W,0.10,15.32,030412,,,D*44
$GPGGA,192652.000,3352.7215,N,09832.5431,W,2,09,0.9,305.0,M,-23.7,M,1.8,0000*49
$GPGSA,A,3,22,14,01,20,32,11,31,30,25,,,,1.9,0.9,1.7*34
$GPRMC,192652.000,A,3352.7215,N,09832.5431,W,0.04,47.78,030412,,,D*4B
$GPGGA,192653.000,3352.7214,N,09832.5430,W,2,09,0.9,304.7,M,-23.7,M,2.8,0000*4D
$GPGSA,A,3,22,14,01,20,32,11,31,30,25,,,,1.9,0.9,1.7*34
$GPRMC,192653.000,A,3352.7214,N,09832.5430,W,0.07,161.78,030412,,,D*7C
$GPGGA,192654.000,3352.7213,N,09832.5430,W,2,09,0.9,304.2,M,-23.7,M,,0000*6C
$GPGSA,A,3,22,14,01,20,32,11,31,30,25,,,,1.9,0.9,1.7*34
$GPGSV,3,1,12,31,88,001,27,14,43,052,38,32,41,316,29,22,37,131,35*7A
$GPGSV,3,2,12,01,31,285,33,25,25,062,30,11,23,260,31,30,23,167,21*76
$GPGSV,3,3,12,20,14,314,26,12,01,031,19,16,01,181,,48,36,230,34*76
$GPRMC,192654.000,A,3352.7213,N,09832.5430,W,0.27,175.69,030412,,,D*7B
$GPGGA,192655.000,3352.7212,N,09832.5430,W,2,09,0.9,303.8,M,-23.7,M,,0000*61
$GPGSA,A,3,22,14,01,20,32,11,31,30,25,,,,1.9,0.9,1.7*34
$GPRMC,192655.000,A,3352.7212,N,09832.5430,W,0.30,169.55,030412,,,D*7F
$GPGGA,192656.000,3352.7211,N,09832.5429,W,2,09,0.9,303.4,M,-23.7,M,,0000*65
$GPGSA,A,3,22,14,01,20,32,11,31,30,25,,,,1.9,0.9,1.7*34
$GPRMC,192656.000,A,3352.7211,N,09832.5429,W,0.12,152.37,030412,,,D*7B
$GPGGA,192657.000,3352.7211,N,09832.5429,W,2,09,0.9,303.0,M,-23.7,M,1.8,0000*47
$GPGSA,A,3,22,14,01,20,32,11,31,30,25,,,,1.9,0.9,1.7*34
$GPRMC,192657.000,A,3352.7211,N,09832.5429,W,0.08,109.54,030412,,,D*7A
$GPGGA,192658.000,3352.7210,N,09832.5428,W,2,09,0.9,302.7,M,-23.7,M,,0000*69
$GPGSA,A,3,22,14,01,20,32,11,31,30,25,,,,1.9,0.9,1.7*34
$GPGSV,3,1,12,31,88,001,27,14,43,052,38,32,41,316,29,22,37,131,35*7A
$GPGSV,3,2,12,01,31,285,33,25,25,062,30,11,23,260,31,30,23,167,21*76
$GPGSV,3,3,12,20,14,314,26,12,01,031,19,16,01,181,,48,36,230,34*76
$GPRMC,192658.000,A,3352.7210,N,09832.5428,W,0.07,59.70,030412,,,D*48
$GPGGA,192659.000,3352.7210,N,09832.5428,W,2,09,0.9,302.3,M,-23.7,M,,0000*6C
$GPGSA,A,3,22,14,01,20,32,11,31,30,25,,,,1.9,0.9,1.7*34
$GPGSV,3,1,12,31,88,001,27,14,43,052,38,32,41,316,29,22,37,131,35*7A
$GPGSV,3,2,12,01,31,285,33,25,25,062,30,11,23,260,31,30,23,167,21*76
$GPGSV,3,3,12,20,14,314,26,12,01,031,19,16,01,181,,48,36,230,33*71
$GPRMC,192659.000,A,3352.7210,N,09832.5428,W,0.10,31.35,030412,,,D*40
$GPGGA,192700.000,3352.7210,N,09832.5427,W,2,09,0.9,302.0,M,-23.7,M,,0000*6D
$GPGSA,A,3,22,14,01,20,32,11,31,30,25,,,,1.9,0.9,1.7*34
$GPRMC,192700.000,A,3352.7210,N,09832.5427,W,0.20,18.92,030412,,,D*47
$GPGGA,192701.000,3352.7210,N,09832.5427,W,2,09,0.9,301.7,M,-23.7,M,,0000*68
$GPGSA,A,3,22,14,01,20,32,11,31,30,25,,,,1.9,0.9,1.7*34
$GPRMC,192701.000,A,3352.7210,N,09832.5427,W,0.22,3.56,030412,,,D*76
$GPGGA,192702.000,3352.7211,N,09832.5427,W,2,09,0.9,301.3,M,-23.7,M,,0000*6E
$GPGSA,A,3,22,14,01,20,32,11,31,30,25,,,,1.9,0.9,1.7*34
$GPRMC,192702.000,A,3352.7211,N,09832.5427,W,0.13,9.82,030412,,,D*75
$GPGGA,192703.000,3352.7211,N,09832.5426,W,2,09,0.9,301.0,M,-23.7,M,1.8,0000*4A
$GPGSA,A,3,22,14,01,20,32,11,31,30,25,,,,1.9,0.9,1.7*34
$GPRMC,192703.000,A,3352.7211,N,09832.5426,W,0.17,6.54,030412,,,D*75
$GPGGA,192704.000,3352.7211,N,09832.5426,W,2,09,0.9,300.7,M,-23.7,M,2.8,0000*48
$GPGSA,A,3,22,14,01,20,32,11,31,30,25,,,,1.9,0.9,1.7*34
$GPGSV,3,1,12,31,88,001,27,14,43,052,38,32,41,316,29,22,37,131,35*7A
$GPGSV,3,2,12,01,31,285,33,25,25,062,31,11,23,260,31,30,23,167,20*76
$GPGSV,3,3,12,20,14,314,26,12,01,031,,16,01,181,,48,36,230,34*7E
$GPRMC,192704.000,A,3352.7211,N,09832.5426,W,0.16,10.55,030412,,,D*45
$GPGGA,192705.000,3352.7211,N,09832.5426,W,2,09,0.9,300.4,M,-23.7,M,3.8,0000*4B
$GPGSA,A,3,22,14,01,20,32,11,31,30,25,,,,1.9,0.9,1.7*34
$GPRMC,192705.000,A,3352.7211,N,09832.5426,W,0.18,2.58,030412,,,D*74
$GPGGA,192706.000,3352.7210,N,09832.5426,W,2,09,0.9,300.0,M,-23.7,M,,0000*68
$GPGSA,A,3,22,14,01,20,32,11,31,30,25,,,,1.9,0.9,1.7*34
$GPRMC,192706.000,A,3352.7210,N,09832.5426,W,0.29,173.49,030412,,,D*73
$GPGGA,192707.000,3352.7209,N,09832.5426,W,2,09,0.9,299.5,M,-23.7,M,,0000*65
$GPGSA,A,3,22,14,01,20,32,11,31,30,25,,,,1.9,0.9,1.7*34
$GPRMC,192707.000,A,3352.7209,N,09832.5426,W,0.44,168.53,030412,,,D*70
$GPGGA,192708.000,3352.7207,N,09832.5425,W,2,09,0.9,299.1,M,-23.7,M,,0000*63
$GPGSA,A,3,22,14,01,20,32,11,31,30,25,,,,1.9,0.9,1.7*34
$GPRMC,192708.000,A,3352.7207,N,09832.5425,W,0.35,169.77,030412,,,D*73
$GPGGA,192709.000,3352.7206,N,09832.5425,W,2,09,0.9,298.7,M,-23.7,M,,0000*64
$GPGSA,A,3,22,14,01,20,32,11,31,30,25,,,,1.9,0.9,1.7*34
$GPGSV,3,1,12,31,88,001,27,14,43,052,37,32,41,316,28,22,37,131,35*74
$GPGSV,3,2,12,01,31,285,33,25,25,062,31,11,23,260,31,30,23,167,19*7C
$GPGSV,3,3,12,20,14,314,26,12,01,031,,16,01,181,,48,36,230,34*7E
$GPRMC,192709.000,A,3352.7206,N,09832.5425,W,0.44,169.37,030412,,,D*71
$GPGGA,192710.000,3352.7205,N,09832.5424,W,2,09,0.9,298.4,M,-23.7,M,1.8,0000*4A
$GPGSA,A,3,22,14,01,20,32,11,31,30,25,,,,1.9,0.9,1.7*34
$GPRMC,192710.000,A,3352.7205,N,09832.5424,W,0.15,158.22,030412,,,D*79
$GPGGA,192711.000,3352.7205,N,09832.5424,W,2,09,0.9,298.1,M,-23.7,M,2.8,0000*4D
$GPGSA,A,3,22,14,01,20,32,11,31,30,25,,,,1.9,0.9,1.7*34
$GPRMC,192711.000,A,3352.7205,N,09832.5424,W,0.06,56.30,030412,,,D*46
$GPGGA,192712.000,3352.7205,N,09832.5423,W,2,09,0.9,298.0,M,-23.7,M,,0000*6C
$GPGSA,A,3,22,14,01,20,32,11,31,30,25,,,,1.9,0.9,1.7*34
$GPRMC,192712.000,A,3352.7205,N,09832.5423,W,0.14,42.88,030412,,,D*47
$GPGGA,192713.000,3352.7205,N,09832.5423,W,2,09,0.9,297.8,M,-23.7,M,,0000*6A
$GPGSA,A,3,22,14,01,20,32,11,31,30,25,,,,1.9,0.9,1.7*34
$GPRMC,192713.000,A,3352.7205,N,09832.5423,W,0.03,91.24,030412,,,D*48
$GPGGA,192714.000,3352.7206,N,09832.5423,W,2,09,0.9,297.7,M,-23.7,M,,0000*61
$GPGSA,A,3,22,14,01,20,32,11,31,30,25,,,,1.9,0.9,1.7*34
$GPGSV,3,1,12,31,88,001,28,14,43,052,37,32,41,316,28,22,37,131,35*7B
$GPGSV,3,2,12,01,31,285,33,25,25,062,32,11,23,260,31,30,23,167,19*7F
$GPGSV,3,3,12,20,14,314,25,12,01,031,17,16,01,181,,48,36,230,33*7C
$GPRMC,192714.000,A,3352.7206,N,09832.5423,W,0.11,13.05,030412,,,D*46
$GPGGA,192715.000,3352.7206,N,09832.5423,W,2,09,0.9,297.6,M,-23.7,M,,0000*61
$GPGSA,A,3,22,14,01,20,32,11,31,30,25,,,,1.9,0.9,1.7*34
$GPRMC,192715.000,A,3352.7206,N,09832.5423,W,0.15,5.34,030412,,,D*76
$GPGGA,192716.000,3352.7206,N,09832.5423,W,2,09,0.9,297.3,M,-23.7,M,1.8,0000*40
$GPGSA,A,3,22,14,01,20,32,11,31,30,25,,,,1.9,0.9,1.7*34
$GPRMC,192716.000,A,3352.7206,N,09832.5423,W,0.18,170.73,030412,,,D*78
$GPGGA,192717.000,3352.7206,N,09832.5423,W,2,09,0.9,297.1,M,-23.7,M,2.8,0000*40
$GPGSA,A,3,22,14,01,20,32,11,31,30,25,,,,1.9,0.9,1.7*34
$GPRMC,192717.000,A,3352.7206,N,09832.5423,W,0.22,180.79,030412,,,D*75
$GPGGA,192718.000,3352.7205,N,09832.5423,W,2,09,0.9,296.9,M,-23.7,M,,0000*61
$GPGSA,A,3,22,14,01,20,32,11,31,30,25,,,,1.9,0.9,1.7*34
$GPRMC,192718.000,A,3352.7205,N,09832.5423,W,0.28,175.32,030412,,,D*76
$GPGGA,192719.000,3352.7204,N,09832.5423,W,2,09,0.9,296.7,M,-23.7,M,,0000*6F
$GPGSA,A,3,22,14,01,20,32,11,31,30,25,,,,1.9,0.9,1.7*34
$GPGSV,3,1,12,31,88,001,28,14,43,052,37,32,41,316,29,22,37,131,35*7A
$GPGSV,3,2,12,01,31,285,33,25,25,062,32,11,23,260,32,30,23,167,19*7C
$GPGSV,3,3,12,20,14,314,25,12,01,031,16,16,01,181,,48,36,230,33*7D
$GPRMC,192719.000,A,3352.7204,N,09832.5423,W,0.12,158.69,030412,,,D*7E
$GPGGA,192720.000,3352.7204,N,09832.5423,W,2,09,0.9,296.5,M,-23.7,M,,0000*67
$GPGSA,A,3,22,14,01,20,32,11,31,30,25,,,,1.9,0.9,1.7*34
$GPRMC,192720.000,A,3352.7204,N,09832.5423,W,0.07,5.92,030412,,,D*7D
$GPGGA,192721.000,3352.7204,N,09832.5423,W,2,09,0.9,296.4,M,-23.7,M,,0000*67
$GPGSA,A,3,22,14,01,20,32,11,31,30,25,,,,1.9,0.9,1.7*34
$GPRMC,192721.000,A,3352.7204,N,09832.5423,W,0.03,24.11,030412,,,D*40
$GPGGA,192722.000,3352.7203,N,09832.5423,W,2,09,0.9,296.2,M,-23.7,M,1.8,0000*42
$GPGSA,A,3,22,14,01,20,32,11,31,30,25,,,,1.9,0.9,1.7*34
$GPRMC,192722.000,A,3352.7203,N,09832.5423,W,0.20,170.36,030412,,,D*70
$GPGGA,192723.000,3352.7203,N,09832.5423,W,2,09,0.9,296.0,M,-23.7,M,2.8,0000*42
$GPGSA,A,3,22,14,01,20,32,11,31,30,25,,,,1.9,0.9,1.7*34
$GPRMC,192723.000,A,3352.7203,N,09832.5423,W,0.02,41.96,030412,,,D*48
$GPGGA,192724.000,3352.7203,N,09832.5423,W,2,09,0.9,296.0,M,-23.7,M,,0000*61
$GPGSA,A,3,22,14,01,20,32,11,31,30,25,,,,1.9,0.9,1.7*34
$GPGSV,3,1,12,31,88,001,29,14,43,052,37,32,41,316,29,22,37,131,35*7B
$GPGSV,3,2,12,01,31,285,33,25,25,062,32,11,23,260,32,30,23,167,20*76
$GPGSV,3,3,12,20,14,314,25,12,01,031,,16,01,181,,48,36,230,34*7D
$GPRMC,192724.000,A,3352.7203,N,09832.5423,W,0.12,10.53,030412,,,D*43
$GPGGA,192725.000,3352.7204,N,09832.5423,W,2,09,0.9,295.9,M,-23.7,M,,0000*6D
$GPGSA,A,3,22,14,01,20,32,11,31,30,25,,,,1.9,0.9,1.7*34
$GPRMC,192725.000,A,3352.7204,N,09832.5423,W,0.12,16.07,030412,,,D*42
$GPGGA,192726.000,3352.7204,N,09832.5423,W,2,09,0.9,295.8,M,-23.7,M,,0000*6F
$GPGSA,A,3,22,14,01,20,32,11,31,30,25,,,,1.9,0.9,1.7*34
$GPRMC,192726.000,A,3352.7204,N,09832.5423,W,0.11,160.35,030412,,,D*73
$GPGGA,192727.000,3352.7203,N,09832.5423,W,2,09,0.9,295.6,M,-23.7,M,1.8,0000*40
$GPGSA,A,3,22,14,01,20,32,11,31,30,25,,,,1.9,0.9,1.7*34
$GPRMC,192727.000,A,3352.7203,N,09832.5423,W,0.22,164.37,030412,,,D*73
$GPGGA,192728.000,3352.7203,N,09832.5423,W,2,09,0.9,295.5,M,-23.7,M,2.8,0000*4F
$GPGSA,A,3,22,14,01,20,32,11,31,30,25,,,,1.9,0.9,1.7*34
$GPRMC,192728.000,A,3352.7203,N,09832.5423,W,0.18,167.59,030412,,,D*7E
$GPGGA,192729.000,3352.7203,N,09832.5423,W,2,09,0.9,295.5,M,-23.7,M,3.8,0000*4F
$GPGSA,A,3,22,14,01,20,32,11,31,30,25,,,,1.9,0.9,1.7*34
$GPGSV,3,1,12,31,88,001,29,14,43,052,37,32,41,316,29,22,37,131,35*7B
$GPGSV,3,2,12,01,31,285,33,25,25,062,32,11,23,260,32,30,23,167,21*77
$GPGSV,3,3,12,20,14,314,26,12,01,031,,16,01,181,,48,36,230,33*79
$GPRMC,192729.000,A,3352.7203,N,09832.5423,W,0.06,34.19,030412,,,D*43
$GPGGA,192730.000,3352.7203,N,09832.5423,W,2,09,0.9,295.5,M,-23.7,M,,0000*62
$GPGSA,A,3,22,14,01,20,32,11,31,30,25,,,,1.9,0.9,1.7*34
$GPRMC,192730.000,A,3352.7203,N,09832.5423,W,0.12,12.89,030412,,,D*43
$GPGGA,192731.000,3352.7203,N,09832.5423,W,2,09,0.9,295.4,M,-23.7,M,,0000*62
$GPGSA,A,3,22,14,01,20,32,11,31,30,25,,,,1.9,0.9,1.7*34
$GPRMC,192731.000,A,3352.7203,N,09832.5423,W,0.15,178.10,030412,,,D*78
$GPGGA,192732.000,3352.7202,N,09832.5424,W,2,09,0.9,295.3,M,-23.7,M,,0000*60
$GPGSA,A,3,22,14,01,20,32,11,31,30,25,,,,1.9,0.9,1.7*34
$GPRMC,192732.000,A,3352.7202,N,09832.5424,W,0.14,179.58,030412,,,D*71
$GPGGA,192733.000,3352.7202,N,09832.5424,W,2,09,0.9,295.2,M,-23.7,M,1.8,0000*47
$GPGSA,A,3,22,14,01,20,32,11,31,30,25,,,,1.9,0.9,1.7*34
$GPRMC,192733.000,A,3352.7202,N,09832.5424,W,0.32,178.63,030412,,,D*7D
$GPGGA,192734.000,3352.7201,N,09832.5424,W,2,09,0.9,295.1,M,-23.7,M,,0000*67
$GPGSA,A,3,22,14,01,20,32,11,31,30,25,,,,1.9,0.9,1.7*34
$GPGSV,3,1,12,31,88,001,29,14,43,052,36,32,41,316,30,22,37,131,35*72
$GPGSV,3,2,12,01,31,285,33,25,25,062,32,11,23,260,32,30,23,167,21*77
$GPGSV,3,3,12,20,14,314,26,12,01,031,,16,01,181,,48,36,230,34*7E
$GPRMC,192734.000,A,3352.7201,N,09832.5424,W,0.32,179.32,030412,,,D*7C
$GPGGA,192735.000,3352.7200,N,09832.5424,W,2,09,0.9,295.0,M,-23.7,M,1.8,0000*41
$GPGSA,A,3,22,14,01,20,32,11,31,30,25,,,,1.9,0.9,1.7*34
$GPRMC,192735.000,A,3352.7200,N,09832.5424,W,0.24,180.08,030412,,,D*74
$GPGGA,192736.000,3352.7200,N,09832.5424,W,2,09,0.9,295.0,M,-23.7,M,,0000*65
$GPGSA,A,3,22,14,01,20,32,11,31,30,25,,,,1.9,0.9,1.7*34
$GPRMC,192736.000,A,3352.7200,N,09832.5424,W,0.10,0.21,030412,,,D*72
$GPGGA,192737.000,3352.7201,N,09832.5424,W,2,09,0.9,295.1,M,-23.7,M,,0000*64
$GPGSA,A,3,22,14,01,20,32,11,31,30,25,,,,1.9,0.9,1.7*34
$GPRMC,192737.000,A,3352.7201,N,09832.5424,W,0.17,9.16,030412,,,D*78
$GPGGA,192738.000,3352.7201,N,09832.5424,W,2,09,0.9,295.1,M,-23.7,M,,0000*6B
$GPGSA,A,3,22,14,01,20,32,11,31,30,25,,,,1.9,0.9,1.7*34
$GPRMC,192738.000,A,3352.7201,N,09832.5424,W,0.09,26.28,030412,,,D*48
$GPGGA,192739.000,3352.7201,N,09832.5424,W,2,09,0.9,295.2,M,-23.7,M,,0000*69
$GPGSA,A,3,22,14,01,20,32,11,31,30,25,,,,1.9,0.9,1.7*34
$GPGSV,3,1,12,31,88,001,30,14,43,052,36,32,41,316,31,22,37,131,35*7B
$GPGSV,3,2,12,01,31,285,33,25,25,062,32,11,23,260,32,30,23,167,22*74
$GPGSV,3,3,12,20,14,314,26,12,01,031,,16,01,181,,48,36,230,33*79
$GPRMC,192739.000,A,3352.7201,N,09832.5424,W,0.18,7.66,030412,,,D*70
$GPGGA,192740.000,3352.7202,N,09832.5424,W,2,09,0.9,295.3,M,-23.7,M,1.8,0000*42
$GPGSA,A,3,22,14,01,20,32,11,31,30,25,,,,1.9,0.9,1.7*34
$GPRMC,192740.000,A,3352.7202,N,09832.5424,W,0.17,12.32,030412,,,D*47
$GPGGA,192741.000,3352.7202,N,09832.5424,W,2,09,0.9,295.2,M,-23.7,M,2.8,0000*41
$GPGSA,A,3,22,14,01,20,32,11,31,30,25,,,,1.9,0.9,1.7*34
$GPRMC,192741.000,A,3352.7202,N,09832.5424,W,0.20,166.56,030412,,,D*72
$GPGGA,192742.000,3352.7201,N,09832.5424,W,2,09,0.9,295.2,M,-23.7,M,,0000*65
$GPGSA,A,3,22,14,01,20,32,11,31,30,25,,,,1.9,0.9,1.7*34
$GPRMC,192742.000,A,3352.7201,N,09832.5424,W,0.30,173.28,030412,,,D*7E
$GPGGA,192743.000,3352.7201,N,09832.5424,W,2,09,0.9,295.1,M,-23.7,M,,0000*67
$GPGSA,A,3,22,14,01,20,32,11,31,30,25,,,,1.9,0.9,1.7*34
$GPRMC,192743.000,A,3352.7201,N,09832.5424,W,0.32,177.08,030412,,,D*7B
$GPGGA,192744.000,3352.7200,N,09832.5424,W,2,09,0.9,295.1,M,-23.7,M,,0000*61
$GPGSA,A,3,22,14,01,20,32,11,31,30,25,,,,1.9,0.9,1.7*34
$GPGSV,3,1,12,31,88,001,30,14,43,052,36,32,41,316,31,22,37,131,35*7B
$GPGSV,3,2,12,01,31,285,34,25,25,062,32,11,23,260,32,30,23,167,21*70
$GPGSV,3,3,12,20,14,314,26,12,01,031,,16,01,181,,48,36,230,34*7E
$GPRMC,192744.000,A,3352.7200,N,09832.5424,W,0.20,178.74,030412,,,D*7A
$GPGGA,192745.000,3352.7202,N,09832.5425,W,2,09,0.9,296.4,M,-23.7,M,1.8,0000*42
$GPGSA,A,3,22,14,01,20,32,11,31,30,25,,,,1.9,0.9,1.7*34
$GPRMC,192745.000,A,3352.7202,N,09832.5425,W,0.11,334.87,030412,,,D*7C
$GPGGA,192746.000,3352.7203,N,09832.5427,W,2,09,0.9,297.5,M,-23.7,M,2.8,0000*41
$GPGSA,A,3,22,14,01,20,32,11,31,30,25,,,,1.9,0.9,1.7*34
$GPRMC,192746.000,A,3352.7203,N,09832.5427,W,0.15,190.05,030412,,,D*7E
$GPGGA,192747.000,3352.7204,N,09832.5428,W,2,09,0.9,298.4,M,-23.7,M,,0000*62
$GPGSA,A,3,22,14,01,20,32,11,31,30,25,,,,1.9,0.9,1.7*34
$GPRMC,192747.000,A,3352.7204,N,09832.5428,W,0.21,187.38,030412,,,D*78
$GPGGA,192748.000,3352.7205,N,09832.5429,W,2,09,0.9,299.4,M,-23.7,M,,0000*6C
$GPGSA,A,3,22,14,01,20,32,11,31,30,25,,,,1.9,0.9,1.7*34
$GPRMC,192748.000,A,3352.7205,N,09832.5429,W,0.11,338.71,030412,,,D*7F
$GPGGA,192749.000,3352.7207,N,09832.5430,W,2,09,0.9,300.3,M,-23.7,M,,0000*61
$GPGSA,A,3,22,14,01,20,32,11,31,30,25,,,,1.9,0.9,1.7*34
$GPGSV,3,1,12,31,88,001,30,14,43,052,35,32,41,316,32,22,37,131,35*7B
$GPGSV,3,2,12,01,31,285,34,25,25,062,32,11,23,260,32,30,23,167,21*70
$GPGSV,3,3,12,20,14,314,26,12,01,031,,16,01,181,,48,36,230,34*7E
$GPRMC,192749.000,A,3352.7207,N,09832.5430,W,0.23,358.07,030412,,,D*72
$GPGGA,192750.000,3352.7208,N,09832.5431,W,2,09,0.9,301.1,M,-23.7,M,,0000*64
$GPGSA,A,3,22,14,01,20,32,11,31,30,25,,,,1.9,0.9,1.7*34
$GPRMC,192750.000,A,3352.7208,N,09832.5431,W,0.23,2.14,030412,,,D*7A
$GPGGA,192751.000,3352.7210,N,09832.5431,W,2,09,0.9,301.9,M,-23.7,M,1.8,0000*43
$GPGSA,A,3,22,14,01,20,32,11,31,30,25,,,,1.9,0.9,1.7*34
$GPRMC,192751.000,A,3352.7210,N,09832.5431,W,0.23,3.74,030412,,,D*75
$GPGGA,192752.000,3352.7211,N,09832.5432,W,2,09,0.9,302.7,M,-23.7,M,2.8,0000*4C
$GPGSA,A,3,22,14,01,20,32,11,31,30,25,,,,1.9,0.9,1.7*34
$GPRMC,192752.000,A,3352.7211,N,09832.5432,W,0.26,4.09,030412,,,D*7C
$GPGGA,192753.000,3352.7213,N,09832.5432,W,2,09,0.9,303.4,M,-23.7,M,3.8,0000*4C
$GPGSA,A,3,22,14,01,20,32,11,31,30,25,,,,1.9,0.9,1.7*34
$GPRMC,192753.000,A,3352.7213,N,09832.5432,W,0.29,0.25,030412,,,D*7A
$GPGGA,192754.000,3352.7214,N,09832.5432,W,2,09,0.9,304.1,M,-23.7,M,,0000*6B
$GPGSA,A,3,22,14,01,20,32,11,31,30,25,,,,1.9,0.9,1.7*34
$GPGSV,3,1,12,31,88,001,30,14,43,052,35,32,41,316,33,22,37,131,34*7B
$GPGSV,3,2,12,01,31,285,34,25,25,062,31,11,23,260,32,30,23,167,21*73
$GPGSV,3,3,12,20,14,314,26,12,01,031,,16,01,181,,48,36,230,34*7E
$GPRMC,192754.000,A,3352.7214,N,09832.5432,W,0.23,0.34,030412,,,D*70
$GPGGA,192755.000,3352.7214,N,09832.5433,W,2,09,0.9,304.6,M,-23.7,M,,0000*6C
$GPGSA,A,3,22,14,01,20,32,11,31,30,25,,,,1.9,0.9,1.7*34
$GPRMC,192755.000,A,3352.7214,N,09832.5433,W,0.17,183.34,030412,,,D*7D
$GPGGA,192756.000,3352.7214,N,09832.5433,W,2,09,0.9,305.1,M,-23.7,M,,0000*69
$GPGSA,A,3,22,14,01,20,32,11,31,30,25,,,,1.9,0.9,1.7*34
$GPRMC,192756.000,A,3352.7214,N,09832.5433,W,0.10,196.88,030412,,,D*7A
$GPGGA,192757.000,3352.7214,N,09832.5434,W,2,09,0.9,305.5,M,-23.7,M,1.8,0000*4C
$GPGSA,A,3,22,14,01,20,32,11,31,30,25,,,,1.9,0.9,1.7*34
$GPRMC,192757.000,A,3352.7214,N,09832.5434,W,0.13,198.26,030412,,,D*75
$GPGGA,192758.000,3352.7214,N,09832.5434,W,2,09,0.9,306.0,M,-23.7,M,2.8,0000*46
$GPGSA,A,3,22,14,01,20,32,11,31,30,25,,,,1.9,0.9,1.7*34
$GPRMC,192758.000,A,3352.7214,N,09832.5434,W,0.07,205.74,030412,,,D*7F
$GPGGA,192759.000,3352.7214,N,09832.5434,W,2,09,0.9,306.4,M,-23.7,M,3.8,0000*42
$GPGSA,A,3,22,14,01,20,32,11,31,30,25,,,,1.9,0.9,1.7*34
$GPRMC,192759.000,A,3352.7214,N,09832.5434,W,0.02,275.60,030412,,,D*79
$GPGGA,192800.000,3352.7214,N,09832.5435,W,2,09,0.9,306.7,M,-23.7,M,,0000*66
$GPGSA,A,3,22,14,01,20,32,11,31,30,25,,,,1.9,0.9,1.7*34
$GPRMC,192800.000,A,3352.7214,N,09832.5435,W,0.20,184.47,030412,,,D*73
$GPGGA,192801.000,3352.7213,N,09832.5435,W,2,09,0.9,307.0,M,-23.7,M,,0000*66
$GPGSA,A,3,22,14,01,20,32,11,31,30,25,,,,1.9,0.9,1.7*34
$GPRMC,192801.000,A,3352.7213,N,09832.5435,W,0.31,177.16,030412,,,D*7D
$GPGGA,192802.000,3352.7213,N,09832.5435,W,2,09,0.9,307.4,M,-23.7,M,,0000*61
$GPGSA,A,3,22,14,01,20,32,11,31,30,25,,,,1.9,0.9,1.7*34
$GPRMC,192802.000,A,3352.7213,N,09832.5435,W,0.07,39.78,030412,,,D*48
$GPGGA,192803.000,3352.7213,N,09832.5435,W,2,09,0.9,307.7,M,-23.7,M,,0000*63
$GPGSA,A,3,22,14,01,20,32,11,31,30,25,,,,1.9,0.9,1.7*34
$GPRMC,192803.000,A,3352.7213,N,09832.5435,W,0.04,117.20,030412,,,D*7A
$GPGGA,192804.000,3352.7213,N,09832.5434,W,2,09,0.9,308.0,M,-23.7,M,1.8,0000*4A
$GPGSA,A,3,22,14,01,20,32,11,31,30,25,,,,1.9,0.9,1.7*34
$GPGSV,3,1,12,31,88,001,31,14,43,052,35,32,41,316,33,22,37,131,34*7A
$GPGSV,3,2,12,01,31,285,34,25,25,062,31,11,23,260,30,30,23,167,20*70
$GPGSV,3,3,12,20,14,314,27,12,01,031,,16,01,181,,48,36,230,33*78
$GPRMC,192804.000,A,3352.7213,N,09832.5434,W,0.18,164.05,030412,,,D*72
$GPGGA,192805.000,3352.7213,N,09832.5434,W,2,09,0.9,308.3,M,-23.7,M,2.8,0000*4B
$GPGSA,A,3,22,14,01,20,32,11,31,30,25,,,,1.9,0.9,1.7*34
$GPRMC,192805.000,A,3352.7213,N,09832.5434,W,0.11,15.10,030412,,,D*49
$GPGGA,192806.000,3352.7214,N,09832.5434,W,2,09,0.9,308.6,M,-23.7,M,,0000*6E
$GPGSA,A,3,22,14,01,20,32,11,31,30,25,,,,1.9,0.9,1.7*34
$GPRMC,192806.000,A,3352.7214,N,09832.5434,W,0.19,3.49,030412,,,D*7E
$GPGGA,192807.000,3352.7214,N,09832.5434,W,2,09,0.9,308.7,M,-23.7,M,,0000*6E
$GPGSA,A,3,22,14,01,20,32,11,31,30,25,,,,1.9,0.9,1.7*34
$GPRMC,192807.000,A,3352.7214,N,09832.5434,W,0.22,178.34,030412,,,D*70
$GPGGA,192808.000,3352.7213,N,09832.5434,W,2,09,0.9,308.8,M,-23.7,M,,0000*69
$GPGSA,A,3,22,14,01,20,32,11,31,30,25,,,,1.9,0.9,1.7*34
$GPRMC,192808.000,A,3352.7213,N,09832.5434,W,0.33,181.45,030412,,,D*78
$GPGGA,192809.000,3352.7213,N,09832.5435,W,2,09,0.9,309.2,M,-23.7,M,0.8,0000*44
$GPGSA,A,3,22,14,01,20,32,11,31,30,25,,,,1.9,0.9,1.7*34
$GPGSV,3,1,12,31,88,001,31,14,43,052,35,32,41,316,34,22,37,131,34*7D
$GPGSV,3,2,12,01,31,285,34,25,25,062,32,11,23,260,30,30,23,167,20*73
$GPGSV,3,3,12,20,14,314,27,12,01,031,,16,01,181,,48,36,230,34*7F
$GPRMC,192809.000,A,3352.7213,N,09832.5435,W,0.06,238.86,030412,,,D*70
$GPGGA,192810.000,3352.7213,N,09832.5436,W,2,09,0.9,309.6,M,-23.7,M,1.8,0000*4A
$GPGSA,A,3,22,14,01,20,32,11,31,30,25,,,,1.9,0.9,1.7*34
$GPRMC,192810.000,A,3352.7213,N,09832.5436,W,0.14,341.66,030412,,,D*79
$GPGGA,192811.000,3352.7212,N,09832.5436,W,2,09,0.9,309.9,M,-23.7,M,2.8,0000*46
$GPGSA,A,3,22,14,01,20,32,11,31,30,25,,,,1.9,0.9,1.7*34
$GPRMC,192811.000,A,3352.7212,N,09832.5436,W,0.07,212.26,030412,,,D*78
$GPGGA,192812.000,3352.7212,N,09832.5437,W,2,09,0.9,310.2,M,-23.7,M,0.8,0000*45
$GPGSA,A,3,22,14,01,20,32,11,31,30,25,,,,1.9,0.9,1.7*34
$GPRMC,192812.000,A,3352.7212,N,09832.5437,W,0.13,357.83,030412,,,D*70
$GPGGA,192813.000,3352.7212,N,09832.5437,W,2,09,0.9,310.4,M,-23.7,M,0.8,0000*42
$GPGSA,A,3,22,14,01,20,32,11,31,30,25,,,,1.9,0.9,1.7*34
$GPRMC,192813.000,A,3352.7212,N,09832.5437,W,0.09,20.33,030412,,,D*42
$GPGGA,192814.000,3352.7212,N,09832.5437,W,2,09,0.9,310.7,M,-23.7,M,0.8,0000*46
$GPGSA,A,3,22,14,01,20,32,11,31,30,25,,,,1.9,0.9,1.7*34
$GPGSV,3,1,12,31,88,001,31,14,43,052,35,32,41,316,34,22,37,131,35*7C
$GPGSV,3,2,12,01,31,285,34,25,25,062,31,11,23,260,30,30,23,167,19*7A
$GPGSV,3,3,12,20,14,314,27,12,01,031,,16,01,181,,48,36,230,34*7F
$GPRMC,192814.000,A,3352.7212,N,09832.5437,W,0.15,164.57,030412,,,D*7B
$GPGGA,192815.000,3352.7211,N,09832.5437,W,2,09,0.9,310.9,M,-23.7,M,1.8,0000*4B
$GPGSA,A,3,22,14,01,20,32,11,31,30,25,,,,1.9,0.9,1.7*34
$GPRMC,192815.000,A,3352.7211,N,09832.5437,W,0.30,169.03,030412,,,D*72
$GPGGA,192816.000,3352.7210,N,09832.5437,W,2,09,0.9,310.8,M,-23.7,M,2.8,0000*4B
$GPGSA,A,3,22,14,01,20,32,11,31,30,25,,,,1.9,0.9,1.7*34
$GPRMC,192816.000,A,3352.7210,N,09832.5437,W,0.37,170.36,030412,,,D*79
$GPGGA,192817.000,3352.7209,N,09832.5437,W,2,09,0.9,311.0,M,-23.7,M,3.8,0000*4A
$GPGSA,A,3,22,14,01,20,32,11,31,30,25,,,,1.9,0.9,1.7*34
$GPRMC,192817.000,A,3352.7209,N,09832.5437,W,0.08,143.91,030412,,,D*71
$GPGGA,192818.000,3352.7209,N,09832.5437,W,2,08,1.1,311.1,M,-23.7,M,0.8,0000*4F
$GPGSA,A,3,22,14,01,20,32,11,31,25,,,,,2.1,1.1,1.8*3A
$GPRMC,192818.000,A,3352.7209,N,09832.5437,W,0.10,181.62,030412,,,D*75
$GPGGA,192819.000,3352.7209,N,09832.5437,W,2,08,1.1,311.2,M,-23.7,M,0.8,0000*4D
$GPGSA,A,3,22,14,01,20,32,11,31,25,,,,,2.1,1.1,1.8*3A
$GPGSV,3,1,12,31,88,001,31,14,43,052,35,32,41,316,34,22,37,131,35*7C
$GPGSV,3,2,12,01,31,285,34,25,25,062,31,11,23,260,29,30,23,167,*7A
$GPGSV,3,3,12,20,14,314,27,12,01,031,,16,01,181,,48,36,230,33*78
$GPRMC,192819.000,A,3352.7209,N,09832.5437,W,0.13,190.21,030412,,,D*70
$GPGGA,192820.000,3352.7209,N,09832.5438,W,2,08,1.1,311.3,M,-23.7,M,0.8,0000*49
$GPGSA,A,3,22,14,01,20,32,11,31,25,,,,,2.1,1.1,1.8*3A
$GPRMC,192820.000,A,3352.7209,N,09832.5438,W,0.12,201.08,030412,,,D*74
$GPGGA,192821.000,3352.7208,N,09832.5438,W,2,08,1.1,311.2,M,-23.7,M,1.8,0000*49
$GPGSA,A,3,22,14,01,20,32,11,31,25,,,,,2.1,1.1,1.8*3A
$GPRMC,192821.000,A,3352.7208,N,09832.5438,W,0.08,214.51,030412,,,D*77
$GPGGA,192822.000,3352.7208,N,09832.5438,W,2,08,1.1,311.3,M,-23.7,M,2.8,0000*48
$GPGSA,A,3,22,14,01,20,32,11,31,25,,,,,2.1,1.1,1.8*3A
$GPRMC,192822.000,A,3352.7208,N,09832.5438,W,0.11,195.74,030412,,,D*71
$GPGGA,192823.000,3352.7208,N,09832.5439,W,2,08,1.1,311.2,M,-23.7,M,3.8,0000*48
$GPGSA,A,3,22,14,01,20,32,11,31,25,,,,,2.1,1.1,1.8*3A
$GPRMC,192823.000,A,3352.7208,N,09832.5439,W,0.11,201.89,030412,,,D*7D
$GPGGA,192824.000,3352.7208,N,09832.5439,W,2,08,1.1,311.2,M,-23.7,M,0.8,0000*4C
$GPGSA,A,3,22,14,01,20,32,11,31,25,,,,,2.1,1.1,1.8*3A
$GPGSV,3,1,12,31,88,001,32,14,43,052,36,32,41,316,35,22,37,131,35*7D
$GPGSV,3,2,12,01,31,285,34,25,25,062,31,11,23,260,30,30,23,167,*72
$GPGSV,3,3,12,20,14,314,28,12,01,031,,16,01,181,,48,36,230,33*77
$GPRMC,192824.000,A,3352.7208,N,09832.5439,W,0.08,169.26,030412,,,D*7A
$GPGGA,192825.000,3352.7208,N,09832.5438,W,2,08,1.1,311.1,M,-23.7,M,0.8,0000*4F
$GPGSA,A,3,22,14,01,20,32,11,31,25,,,,,2.1,1.1,1.8*3A
$GPRMC,192825.000,A,3352.7208,N,09832.5438,W,0.08,130.86,030412,,,D*7C
$GPGGA,192826.000,3352.7208,N,09832.5438,W,2,08,1.1,311.1,M,-23.7,M,0.8,0000*4C
$GPGSA,A,3,22,14,01,20,32,11,31,25,,,,,2.1,1.1,1.8*3A
