$GPGGA,134645.000,3353.7553,N,09832.0305,W,2,05,1.6,280.3,M,-23.7,M,0.8,0000*4E
$GPGSA,A,3,15,29,26,18,27,,,,,,,,3.0,1.6,2.5*36
$GPRMC,134645.000,A,3353.7553,N,09832.0305,W,0.25,333.95,010412,,,D*72
$GPGGA,134646.000,3353.7558,N,09832.0316,W,2,05,1.6,279.7,M,-23.7,M,0.8,0000*46
$GPGSA,A,3,15,29,26,18,27,,,,,,,,3.0,1.6,2.5*36
$GPRMC,134646.000,A,3353.7558,N,09832.0316,W,0.33,310.31,010412,,,D*70
$GPGGA,134647.000,3353.7559,N,09832.0316,W,2,05,1.6,280.3,M,-23.7,M,0.8,0000*44
$GPGSA,A,3,15,29,26,18,27,,,,,,,,3.0,1.6,2.5*36
$GPRMC,134647.000,A,3353.7559,N,09832.0316,W,0.20,123.98,010412,,,D*73
$GPGGA,134648.000,3353.7557,N,09832.0306,W,2,05,1.6,282.0,M,-23.7,M,1.8,0000*44
$GPGSA,A,3,15,29,26,18,27,,,,,,,,3.0,1.6,2.5*36
$GPGSV,3,1,12,15,66,100,26,21,57,326,,18,53,275,24,29,52,185,41*73
$GPGSV,3,2,12,26,32,048,30,22,13,254,18,27,13,117,27,06,10,319,*70
$GPGSV,3,3,12,05,07,060,,09,07,138,31,16,06,300,,30,03,273,*7C
$GPRMC,134648.000,A,3353.7557,N,09832.0306,W,0.73,119.61,010412,,,D*7A
$GPGGA,134649.000,3353.7557,N,09832.0303,W,2,05,1.6,283.1,M,-23.7,M,0.8,0000*41
$GPGSA,A,3,15,29,26,18,27,,,,,,,,3.0,1.6,2.5*36
$GPRMC,134649.000,A,3353.7557,N,09832.0303,W,0.78,120.34,010412,,,D*7F
$GPGGA,134650.000,3353.7557,N,09832.0300,W,2,05,1.6,284.2,M,-23.7,M,1.8,0000*4F
$GPGSA,A,3,15,29,26,18,27,,,,,,,,3.0,1.6,2.5*36
$GPRMC,134650.000,A,3353.7557,N,09832.0300,W,0.38,112.26,010412,,,D*72
$GPGGA,134651.000,3353.7555,N,09832.0289,W,2,05,1.6,286.1,M,-23.7,M,0.8,0000*4C
$GPGSA,A,3,15,29,26,18,27,,,,,,,,3.0,1.6,2.5*36
$GPRMC,134651.000,A,3353.7555,N,09832.0289,W,0.58,110.33,010412,,,D*71
$GPGGA,134652.000,3353.7555,N,09832.0286,W,2,05,1.6,287.3,M,-23.7,M,0.8,0000*43
$GPGSA,A,3,15,29,26,18,27,,,,,,,,3.0,1.6,2.5*36
$GPRMC,134652.000,A,3353.7555,N,09832.0286,W,0.42,94.69,010412,,,D*44
$GPGGA,134653.000,3353.7555,N,09832.0281,W,2,05,1.6,288.5,M,-23.7,M,0.8,0000*4C
$GPGSA,A,3,15,29,26,18,27,,,,,,,,3.0,1.6,2.5*36
$GPGSV,3,1,12,15,66,100,26,21,57,326,,18,53,275,24,29,52,185,41*73
$GPGSV,3,2,12,26,32,048,30,22,13,254,17,27,13,117,27,06,10,319,*7F
$GPGSV,3,3,12,05,07,060,19,09,07,138,31,16,06,300,,30,03,273,*74
$GPRMC,134653.000,A,3353.7555,N,09832.0281,W,0.49,97.25,010412,,,D*42
$GPGGA,134654.000,3353.7555,N,09832.0276,W,2,05,1.6,289.8,M,-23.7,M,1.8,0000*4E
$GPGSA,A,3,15,29,26,18,27,,,,,,,,3.0,1.6,2.5*36
$GPRMC,134654.000,A,3353.7555,N,09832.0276,W,0.46,93.52,010412,,,D*46
$GPGGA,134655.000,3353.7555,N,09832.0273,W,2,06,1.5,291.1,M,-23.7,M,2.8,0000*49
$GPGSA,A,3,15,29,26,18,21,27,,,,,,,2.9,1.5,2.5*3E
$GPRMC,134655.000,A,3353.7555,N,09832.0273,W,0.37,72.38,010412,,,D*47
$GPGGA,134656.000,3353.7555,N,09832.0269,W,2,06,1.5,292.4,M,-23.7,M,3.8,0000*46
$GPGSA,A,3,15,29,26,18,21,27,,,,,,,2.9,1.5,2.5*3E
$GPRMC,134656.000,A,3353.7555,N,09832.0269,W,0.36,56.22,010412,,,D*43
$GPGGA,134657.000,3353.7557,N,09832.0267,W,2,06,1.5,293.7,M,-23.7,M,0.8,0000*4A
$GPGSA,A,3,15,29,26,18,21,27,,,,,,,2.9,1.5,2.5*3E
$GPRMC,134657.000,A,3353.7557,N,09832.0267,W,0.40,46.63,010412,,,D*4B
$GPGGA,134658.000,3353.7558,N,09832.0264,W,2,06,1.5,294.9,M,-23.7,M,0.8,0000*40
$GPGSA,A,3,15,29,26,18,21,27,,,,,,,2.9,1.5,2.5*3E
$GPGSV,3,1,12,15,66,100,26,21,57,326,15,18,53,275,25,29,52,185,41*76
$GPGSV,3,2,12,26,32,048,30,22,13,254,16,27,13,117,28,06,10,319,*71
$GPGSV,3,3,12,05,07,060,20,09,07,138,31,16,06,300,,30,03,273,*7E
$GPRMC,134658.000,A,3353.7558,N,09832.0264,W,0.42,54.85,010412,,,D*41
$GPGGA,134659.000,3353.7558,N,09832.0261,W,2,06,1.5,296.2,M,-23.7,M,0.8,0000*4D
$GPGSA,A,3,15,29,26,18,21,27,,,,,,,2.9,1.5,2.5*3E
$GPRMC,134659.000,A,3353.7558,N,09832.0261,W,0.43,68.69,010412,,,D*49
$GPGGA,134700.000,3353.7558,N,09832.0256,W,2,06,1.5,297.6,M,-23.7,M,1.8,0000*40
$GPGSA,A,3,15,29,26,18,21,27,,,,,,,2.9,1.5,2.5*3E
$GPRMC,134700.000,A,3353.7558,N,09832.0256,W,0.51,74.16,010412,,,D*46
$GPGGA,134701.000,3353.7559,N,09832.0253,W,2,06,1.5,298.8,M,-23.7,M,2.8,0000*47
$GPGSA,A,3,15,29,26,18,21,27,,,,,,,2.9,1.5,2.5*3E
$GPRMC,134701.000,A,3353.7559,N,09832.0253,W,0.68,102.69,010412,,,D*71
$GPGGA,134702.000,3353.7559,N,09832.0253,W,2,06,1.5,299.5,M,-23.7,M,3.8,0000*49
$GPGSA,A,3,15,29,26,18,21,27,,,,,,,2.9,1.5,2.5*3E
$GPRMC,134702.000,A,3353.7559,N,09832.0253,W,0.82,109.96,010412,,,D*7D
$GPGGA,134703.000,3353.7559,N,09832.0251,W,2,06,1.5,300.6,M,-23.7,M,0.8,0000*4B
$GPGSA,A,3,15,29,26,18,21,27,,,,,,,2.9,1.5,2.5*3E
$GPGSV,3,1,12,15,66,100,25,21,57,326,15,18,53,275,24,29,52,185,41*74
$GPGSV,3,2,12,26,32,048,30,22,13,254,17,27,13,117,29,06,10,319,*71
$GPGSV,3,3,12,05,07,060,22,09,07,138,30,16,06,300,,30,03,273,*7D
$GPRMC,134703.000,A,3353.7559,N,09832.0251,W,1.06,118.39,010412,,,D*76
$GPGGA,134704.000,3353.7558,N,09832.0246,W,2,06,1.5,301.9,M,-23.7,M,0.8,0000*45
$GPGSA,A,3,15,29,26,18,21,27,,,,,,,2.9,1.5,2.5*3E
$GPRMC,134704.000,A,3353.7558,N,09832.0246,W,0.97,115.05,010412,,,D*7D
$GPGGA,134705.000,3353.7557,N,09832.0244,W,2,06,1.5,303.0,M,-23.7,M,0.8,0000*42
$GPGSA,A,3,15,29,26,18,21,27,,,,,,,2.9,1.5,2.5*3E
$GPRMC,134705.000,A,3353.7557,N,09832.0244,W,0.89,111.08,010412,,,D*77
$GPGGA,134706.000,3353.7557,N,09832.0240,W,2,06,1.5,304.2,M,-23.7,M,1.8,0000*41
$GPGSA,A,3,15,29,26,18,21,27,,,,,,,2.9,1.5,2.5*3E
$GPRMC,134706.000,A,3353.7557,N,09832.0240,W,0.90,111.72,010412,,,D*75
$GPGGA,134707.000,3353.7558,N,09832.0235,W,2,06,1.5,307.9,M,-23.7,M,2.8,0000*46
$GPGSA,A,3,15,29,26,18,21,27,,,,,,,2.9,1.5,2.5*3E
$GPRMC,134707.000,A,3353.7558,N,09832.0235,W,1.08,109.61,010412,,,D*72
$GPGGA,134708.000,3353.7558,N,09832.0226,W,2,06,1.5,311.7,M,-23.7,M,0.8,0000*40
$GPGSA,A,3,15,29,26,18,21,27,,,,,,,2.9,1.5,2.5*3E
$GPGSV,3,1,12,15,66,100,25,21,57,326,14,18,53,275,24,29,51,185,41*76
$GPGSV,3,2,12,26,31,048,31,22,13,254,20,27,13,116,30,06,10,319,*7E
$GPGSV,3,3,12,09,07,138,29,05,07,060,23,16,06,300,,30,03,273,*74
$GPRMC,134708.000,A,3353.7558,N,09832.0226,W,1.24,111.12,010412,,,D*7C
$GPGGA,134709.000,3353.7559,N,09832.0224,W,2,06,1.5,314.4,M,-23.7,M,0.8,0000*44
$GPGSA,A,3,15,29,26,18,21,27,,,,,,,2.9,1.5,2.5*3E
$GPRMC,134709.000,A,3353.7559,N,09832.0224,W,1.11,101.46,010412,,,D*78
$GPGGA,134710.000,3353.7562,N,09832.0229,W,2,06,1.5,314.9,M,-23.7,M,0.8,0000*44
$GPGSA,A,3,15,29,26,18,21,27,,,,,,,2.9,1.5,2.5*3E
$GPRMC,134710.000,A,3353.7562,N,09832.0229,W,1.02,106.09,010412,,,D*7B
$GPGGA,134711.000,3353.7563,N,09832.0228,W,2,06,1.5,316.5,M,-23.7,M,0.8,0000*4B
$GPGSA,A,3,15,29,26,18,21,27,,,,,,,2.9,1.5,2.5*3E
$GPRMC,134711.000,A,3353.7563,N,09832.0228,W,0.77,95.26,010412,,,D*4F
$GPGGA,134712.000,3353.7565,N,09832.0230,W,2,06,1.5,317.5,M,-23.7,M,1.8,0000*47
$GPGSA,A,3,15,29,26,18,21,27,,,,,,,2.9,1.5,2.5*3E
$GPRMC,134712.000,A,3353.7565,N,09832.0230,W,0.83,100.38,010412,,,D*7A
$GPGGA,134713.000,3353.7566,N,09832.0229,W,2,05,1.6,318.7,M,-23.7,M,2.8,0000*43
$GPGSA,A,3,15,29,26,18,27,,,,,,,,3.0,1.6,2.5*36
$GPGSV,3,1,12,15,66,100,25,21,57,326,,18,53,275,23,29,51,185,41*74
$GPGSV,3,2,12,26,31,048,32,22,13,254,21,27,13,116,30,06,10,319,*7C
$GPGSV,3,3,12,09,07,138,28,05,07,060,24,16,06,300,,30,03,273,*72
$GPRMC,134713.000,A,3353.7566,N,09832.0229,W,0.99,106.25,010412,,,D*71
$GPGGA,134714.000,3353.7568,N,09832.0231,W,2,05,1.6,319.4,M,-23.7,M,0.8,0000*43
$GPGSA,A,3,15,29,26,18,27,,,,,,,,3.0,1.6,2.5*36
$GPRMC,134714.000,A,3353.7568,N,09832.0231,W,0.67,92.06,010412,,,D*4D
$GPGGA,134715.000,3353.7570,N,09832.0235,W,2,05,1.6,319.9,M,-23.7,M,0.8,0000*42
$GPGSA,A,3,15,29,26,18,27,,,,,,,,3.0,1.6,2.5*36
$GPRMC,134715.000,A,3353.7570,N,09832.0235,W,0.84,111.00,010412,,,D*70
$GPGGA,134716.000,3353.7572,N,09832.0241,W,2,05,1.6,319.9,M,-23.7,M,0.8,0000*40
$GPGSA,A,3,15,29,26,18,27,,,,,,,,3.0,1.6,2.5*36
$GPRMC,134716.000,A,3353.7572,N,09832.0241,W,0.60,104.66,010412,,,D*7C
$GPGGA,134717.000,3353.7574,N,09832.0244,W,2,05,1.6,320.1,M,-23.7,M,0.8,0000*40
$GPGSA,A,3,15,29,26,18,27,,,,,,,,3.0,1.6,2.5*36
$GPRMC,134717.000,A,3353.7574,N,09832.0244,W,0.74,110.02,010412,,,D*7C
$GPGGA,134718.000,3353.7576,N,09832.0248,W,2,05,1.6,320.1,M,-23.7,M,1.8,0000*40
$GPGSA,A,3,15,29,26,18,27,,,,,,,,3.0,1.6,2.5*36
$GPGSV,3,1,12,15,66,100,26,21,57,326,,18,53,275,21,29,51,185,42*76
$GPGSV,3,2,12,26,31,048,33,22,13,254,21,27,13,116,29,06,10,319,*75
$GPGSV,3,3,12,09,07,138,28,05,07,060,25,16,06,300,,30,03,273,*73
$GPRMC,134718.000,A,3353.7576,N,09832.0248,W,0.30,91.60,010412,,,D*41
$GPGGA,134719.000,3353.7578,N,09832.0251,W,2,05,1.6,320.2,M,-23.7,M,2.8,0000*47
$GPGSA,A,3,15,29,26,18,27,,,,,,,,3.0,1.6,2.5*36
$GPRMC,134719.000,A,3353.7578,N,09832.0251,W,0.22,62.44,010412,,,D*4F
$GPGGA,134720.000,3353.7581,N,09832.0260,W,2,05,1.6,319.4,M,-23.7,M,3.8,0000*44
$GPGSA,A,3,15,29,26,18,27,,,,,,,,3.0,1.6,2.5*36
$GPRMC,134720.000,A,3353.7581,N,09832.0260,W,0.45,323.64,010412,,,D*74
$GPGGA,134721.000,3353.7583,N,09832.0263,W,2,05,1.6,319.4,M,-23.7,M,0.8,0000*47
$GPGSA,A,3,15,29,26,18,27,,,,,,,,3.0,1.6,2.5*36
$GPRMC,134721.000,A,3353.7583,N,09832.0263,W,0.16,56.77,010412,,,D*41
$GPGGA,134722.000,3353.7584,N,09832.0271,W,2,05,1.6,317.1,M,-23.7,M,0.8,0000*4B
$GPGSA,A,3,15,29,26,18,27,,,,,,,,3.0,1.6,2.5*36
$GPRMC,134722.000,A,3353.7584,N,09832.0271,W,0.14,145.17,010412,,,D*71
$GPGGA,134723.000,3353.7587,N,09832.0283,W,2,05,1.6,314.7,M,-23.7,M,0.8,0000*41
$GPGSA,A,3,15,29,26,18,27,,,,,,,,3.0,1.6,2.5*36
$GPGSV,3,1,12,15,66,100,27,21,57,326,,18,53,275,21,29,51,185,42*77
$GPGSV,3,2,12,26,31,048,33,22,13,254,22,27,13,116,28,06,10,319,*77
$GPGSV,3,3,12,09,07,138,27,05,07,060,25,16,06,300,,30,03,273,*7C
$GPRMC,134723.000,A,3353.7587,N,09832.0283,W,0.34,289.16,010412,,,D*7E
$GPGGA,134724.000,3353.7588,N,09832.0287,W,2,05,1.6,313.5,M,-23.7,M,0.8,0000*48
$GPGSA,A,3,15,29,26,18,27,,,,,,,,3.0,1.6,2.5*36
$GPRMC,134724.000,A,3353.7588,N,09832.0287,W,0.16,264.44,010412,,,D*76
$GPGGA,134725.000,3353.7589,N,09832.0294,W,2,05,1.6,311.9,M,-23.7,M,1.8,0000*45
$GPGSA,A,3,15,29,26,18,27,,,,,,,,3.0,1.6,2.5*36
$GPRMC,134725.000,A,3353.7589,N,09832.0294,W,0.36,274.85,010412,,,D*7A
$GPGGA,134726.000,3353.7592,N,09832.0303,W,2,05,1.6,310.1,M,-23.7,M,2.8,0000*49
$GPGSA,A,3,15,29,26,18,27,,,,,,,,3.0,1.6,2.5*36
$GPRMC,134726.000,A,3353.7592,N,09832.0303,W,0.99,294.98,010412,,,D*7B
$GPGGA,134727.000,3353.7593,N,09832.0307,W,2,05,1.6,309.1,M,-23.7,M,0.8,0000*47
$GPGSA,A,3,15,29,26,18,27,,,,,,,,3.0,1.6,2.5*36
$GPRMC,134727.000,A,3353.7593,N,09832.0307,W,1.24,297.09,010412,,,D*73
$GPGGA,134728.000,3353.7594,N,09832.0309,W,2,05,1.6,308.5,M,-23.7,M,0.8,0000*44
$GPGSA,A,3,15,29,26,18,27,,,,,,,,3.0,1.6,2.5*36
$GPGSV,3,1,12,15,66,100,28,21,57,326,,18,53,275,20,29,51,185,42*79
$GPGSV,3,2,12,26,31,048,34,22,13,254,22,27,13,116,27,06,10,319,*7F
$GPGSV,3,3,12,09,07,138,27,05,07,060,25,16,06,300,,30,03,273,*7C
$GPRMC,134728.000,A,3353.7594,N,09832.0309,W,0.65,289.43,010412,,,D*70
$GPGGA,134729.000,3353.7593,N,09832.0308,W,2,05,1.6,308.4,M,-23.7,M,0.8,0000*42
$GPGSA,A,3,15,29,26,18,27,,,,,,,,3.0,1.6,2.5*36
$GPRMC,134729.000,A,3353.7593,N,09832.0308,W,0.41,277.59,010412,,,D*7B
$GPGGA,134730.000,3353.7592,N,09832.0305,W,2,05,1.6,308.3,M,-23.7,M,1.8,0000*40
$GPGSA,A,3,15,29,26,18,27,,,,,,,,3.0,1.6,2.5*36
$GPRMC,134730.000,A,3353.7592,N,09832.0305,W,0.12,205.48,010412,,,D*7C
$GPGGA,134731.000,3353.7589,N,09832.0300,W,2,05,1.6,308.6,M,-23.7,M,0.8,0000*4A
$GPGSA,A,3,15,29,26,18,27,,,,,,,,3.0,1.6,2.5*36
$GPRMC,134731.000,A,3353.7589,N,09832.0300,W,0.12,255.67,010412,,,D*7A
$GPGGA,134732.000,3353.7584,N,09832.0292,W,2,05,1.6,307.6,M,-23.7,M,1.8,0000*40
$GPGSA,A,3,15,29,26,18,27,,,,,,,,3.0,1.6,2.5*36
$GPRMC,134732.000,A,3353.7584,N,09832.0292,W,0.25,149.96,010412,,,D*7A
$GPGGA,134733.000,3353.7581,N,09832.0284,W,2,05,1.6,308.1,M,-23.7,M,0.8,0000*4A
$GPGSA,A,3,15,29,26,18,27,,,,,,,,3.0,1.6,2.5*36
$GPGSV,3,1,12,15,66,100,28,21,57,326,,18,53,275,20,29,51,185,42*79
$GPGSV,3,2,12,26,31,048,34,22,13,254,21,27,13,116,26,06,10,319,*7D
$GPGSV,3,3,12,09,07,138,28,05,07,060,25,16,06,300,,30,03,273,*73
$GPRMC,134733.000,A,3353.7581,N,09832.0284,W,0.45,133.83,010412,,,D*76
$GPGGA,134734.000,3353.7579,N,09832.0282,W,2,05,1.6,307.4,M,-23.7,M,0.8,0000*46
$GPGSA,A,3,15,29,26,18,27,,,,,,,,3.0,1.6,2.5*36
$GPRMC,134734.000,A,3353.7579,N,09832.0282,W,0.20,137.15,010412,,,D*78
$GPGGA,134735.000,3353.7576,N,09832.0278,W,2,05,1.6,306.8,M,-23.7,M,0.8,0000*40
$GPGSA,A,3,15,29,26,18,27,,,,,,,,3.0,1.6,2.5*36
$GPRMC,134735.000,A,3353.7576,N,09832.0278,W,0.20,139.66,010412,,,D*79
$GPGGA,134736.000,3353.7573,N,09832.0271,W,2,05,1.6,306.5,M,-23.7,M,1.8,0000*43
$GPGSA,A,3,15,29,26,18,27,,,,,,,,3.0,1.6,2.5*36
$GPRMC,134736.000,A,3353.7573,N,09832.0271,W,0.10,296.84,010412,,,D*7F
$GPGGA,134737.000,3353.7572,N,09832.0270,W,2,05,1.6,306.3,M,-23.7,M,0.8,0000*45
$GPGSA,A,3,15,29,26,18,27,,,,,,,,3.0,1.6,2.5*36
$GPRMC,134737.000,A,3353.7572,N,09832.0270,W,0.41,304.72,010412,,,D*79
$GPGGA,134738.000,3353.7571,N,09832.0265,W,2,05,1.6,306.5,M,-23.7,M,1.8,0000*4A
$GPGSA,A,3,15,29,26,18,27,,,,,,,,3.0,1.6,2.5*36
$GPGSV,3,1,12,15,66,100,29,21,57,326,,18,53,275,19,29,51,185,42*72
$GPGSV,3,2,12,26,31,048,34,22,13,254,20,27,13,116,26,06,10,319,*7C
$GPGSV,3,3,12,09,07,138,28,05,07,060,24,16,06,300,,30,03,273,*72
$GPRMC,134738.000,A,3353.7571,N,09832.0265,W,0.02,127.04,010412,,,D*74
$GPGGA,134739.000,3353.7569,N,09832.0261,W,2,05,1.6,306.8,M,-23.7,M,0.8,0000*4A
$GPGSA,A,3,15,29,26,18,27,,,,,,,,3.0,1.6,2.5*36
$GPRMC,134739.000,A,3353.7569,N,09832.0261,W,0.23,131.47,010412,,,D*7B
$GPGGA,134740.000,3353.7570,N,09832.0265,W,2,05,1.6,306.2,M,-23.7,M,0.8,0000*42
$GPGSA,A,3,15,29,26,18,27,,,,,,,,3.0,1.6,2.5*36
$GPRMC,134740.000,A,3353.7570,N,09832.0265,W,0.17,177.46,010412,,,D*7D
$GPGGA,134741.000,3353.7568,N,09832.0262,W,2,05,1.6,305.9,M,-23.7,M,0.8,0000*45
$GPGSA,A,3,15,29,26,18,27,,,,,,,,3.0,1.6,2.5*36
$GPRMC,134741.000,A,3353.7568,N,09832.0262,W,0.13,209.67,010412,,,D*7F
$GPGGA,134742.000,3353.7565,N,09832.0259,W,2,05,1.6,305.8,M,-23.7,M,0.8,0000*42
$GPGSA,A,3,15,29,26,18,27,,,,,,,,3.0,1.6,2.5*36
$GPRMC,134742.000,A,3353.7565,N,09832.0259,W,0.16,273.79,010412,,,D*7E
$GPGGA,134743.000,3353.7564,N,09832.0256,W,2,05,1.6,305.7,M,-23.7,M,1.8,0000*43
$GPGSA,A,3,15,29,26,18,27,,,,,,,,3.0,1.6,2.5*36
$GPGSV,3,1,12,15,66,100,30,21,57,326,15,18,53,275,20,29,51,185,42*74
$GPGSV,3,2,12,26,31,048,34,22,13,254,19,27,13,116,26,06,10,319,*76
$GPGSV,3,3,12,09,07,138,28,05,07,060,23,16,06,300,,30,03,273,*75
$GPRMC,134743.000,A,3353.7564,N,09832.0256,W,0.14,215.06,010412,,,D*7B
$GPGGA,134744.000,3353.7561,N,09832.0254,W,2,06,1.5,305.4,M,-23.7,M,2.8,0000*43
$GPGSA,A,3,15,29,26,18,21,27,,,,,,,2.9,1.5,2.5*3E
$GPRMC,134744.000,A,3353.7561,N,09832.0254,W,0.24,163.54,010412,,,D*7D
$GPGGA,134745.000,3353.7557,N,09832.0245,W,2,06,1.5,305.9,M,-23.7,M,0.8,0000*48
$GPGSA,A,3,15,29,26,18,21,27,,,,,,,2.9,1.5,2.5*3E
$GPRMC,134745.000,A,3353.7557,N,09832.0245,W,0.44,138.75,010412,,,D*72
$GPGGA,134746.000,3353.7555,N,09832.0239,W,2,06,1.5,306.1,M,-23.7,M,0.8,0000*49
$GPGSA,A,3,15,29,26,18,21,27,,,,,,,2.9,1.5,2.5*3E
$GPRMC,134746.000,A,3353.7555,N,09832.0239,W,0.18,144.33,010412,,,D*78
$GPGGA,134747.000,3353.7553,N,09832.0234,W,2,06,1.5,306.3,M,-23.7,M,0.8,0000*41
$GPGSA,A,3,15,29,26,18,21,27,,,,,,,2.9,1.5,2.5*3E
$GPRMC,134747.000,A,3353.7553,N,09832.0234,W,0.56,131.86,010412,,,D*74
$GPGGA,134748.000,3353.7551,N,09832.0230,W,2,06,1.5,306.5,M,-23.7,M,1.8,0000*4F
$GPGSA,A,3,15,29,26,18,21,27,,,,,,,2.9,1.5,2.5*3E
$GPGSV,3,1,12,15,66,099,30,21,57,326,15,18,53,276,22,29,51,185,42*74
$GPGSV,3,2,12,26,31,048,34,22,14,254,18,27,13,116,27,06,10,319,*71
$GPGSV,3,3,12,09,07,138,28,05,07,060,23,16,06,299,,30,03,273,*74
$GPRMC,134748.000,A,3353.7551,N,09832.0230,W,0.20,134.19,010412,,,D*7F
$GPGGA,134749.000,3353.7549,N,09832.0226,W,2,06,1.5,306.6,M,-23.7,M,2.8,0000*40
$GPGSA,A,3,15,29,26,18,21,27,,,,,,,2.9,1.5,2.5*3E
$GPRMC,134749.000,A,3353.7549,N,09832.0226,W,0.03,168.69,010412,,,D*7F
$GPGGA,134750.000,3353.7548,N,09832.0224,W,2,06,1.5,306.5,M,-23.7,M,3.8,0000*49
$GPGSA,A,3,15,29,26,18,21,27,,,,,,,2.9,1.5,2.5*3E
$GPRMC,134750.000,A,3353.7548,N,09832.0224,W,0.06,214.86,010412,,,D*78
$GPGGA,134751.000,3353.7547,N,09832.0221,W,2,06,1.5,306.7,M,-23.7,M,0.8,0000*43
$GPGSA,A,3,15,29,26,18,21,27,,,,,,,2.9,1.5,2.5*3E
$GPRMC,134751.000,A,3353.7547,N,09832.0221,W,0.45,135.00,010412,,,D*7A
$GPGGA,134752.000,3353.7545,N,09832.0218,W,2,06,1.5,306.8,M,-23.7,M,0.8,0000*47
$GPGSA,A,3,15,29,26,18,21,27,,,,,,,2.9,1.5,2.5*3E
$GPRMC,134752.000,A,3353.7545,N,09832.0218,W,0.51,129.64,010412,,,D*7B
$GPGGA,134753.000,3353.7546,N,09832.0220,W,2,06,1.5,306.6,M,-23.7,M,0.8,0000*40
$GPGSA,A,3,15,29,26,18,21,27,,,,,,,2.9,1.5,2.5*3E
$GPGSV,3,1,12,15,66,099,31,21,57,326,14,18,53,276,23,29,51,185,42*75
$GPGSV,3,2,12,26,31,048,34,22,14,254,18,27,13,116,28,06,10,319,*7E
$GPGSV,3,3,12,09,07,138,28,05,07,060,22,16,06,299,,30,03,273,*75
$GPRMC,134753.000,A,3353.7546,N,09832.0220,W,0.13,141.87,010412,,,D*77
$GPGGA,134754.000,3353.7546,N,09832.0219,W,2,06,1.5,306.6,M,-23.7,M,0.8,0000*4D
$GPGSA,A,3,15,29,26,18,21,27,,,,,,,2.9,1.5,2.5*3E
$GPRMC,134754.000,A,3353.7546,N,09832.0219,W,0.01,107.47,010412,,,D*77
$GPGGA,134755.000,3353.7545,N,09832.0217,W,2,06,1.5,306.8,M,-23.7,M,0.8,0000*4F
$GPGSA,A,3,15,29,26,18,21,27,,,,,,,2.9,1.5,2.5*3E
$GPRMC,134755.000,A,3353.7545,N,09832.0217,W,0.16,127.91,010412,,,D*74
$GPGGA,134756.000,3353.7544,N,09832.0214,W,2,06,1.5,307.2,M,-23.7,M,1.8,0000*44
$GPGSA,A,3,15,29,26,18,21,27,,,,,,,2.9,1.5,2.5*3E
$GPRMC,134756.000,A,3353.7544,N,09832.0214,W,0.31,125.77,010412,,,D*7A
$GPGGA,134757.000,3353.7544,N,09832.0212,W,2,05,1.6,307.4,M,-23.7,M,0.8,0000*44
$GPGSA,A,3,15,29,26,18,27,,,,,,,,3.0,1.6,2.5*36
$GPRMC,134757.000,A,3353.7544,N,09832.0212,W,0.30,117.04,010412,,,D*79
$GPGGA,134758.000,3353.7544,N,09832.0212,W,2,05,1.6,307.4,M,-23.7,M,0.8,0000*4B
$GPGSA,A,3,15,29,26,18,27,,,,,,,,3.0,1.6,2.5*36
$GPGSV,3,1,12,15,66,099,31,21,57,326,,18,53,276,24,29,51,185,43*76
$GPGSV,3,2,12,26,31,048,34,22,14,254,18,27,13,116,29,06,10,319,*7F
$GPGSV,3,3,12,09,07,138,28,05,07,060,22,16,06,299,,30,03,273,*75
$GPRMC,134758.000,A,3353.7544,N,09832.0212,W,0.03,301.03,010412,,,D*74
$GPGGA,134759.000,3353.7545,N,09832.0214,W,2,05,1.6,307.1,M,-23.7,M,0.8,0000*48
$GPGSA,A,3,15,29,26,18,27,,,,,,,,3.0,1.6,2.5*36
$GPRMC,134759.000,A,3353.7545,N,09832.0214,W,0.37,306.79,010412,,,D*7F
$GPGGA,134800.000,3353.7545,N,09832.0214,W,2,05,1.6,307.2,M,-23.7,M,1.8,0000*49
$GPGSA,A,3,15,29,26,18,27,,,,,,,,3.0,1.6,2.5*36
$GPRMC,134800.000,A,3353.7545,N,09832.0214,W,0.08,129.23,010412,,,D*70
$GPGGA,134801.000,3353.7545,N,09832.0214,W,2,05,1.6,307.2,M,-23.7,M,2.8,0000*4B
$GPGSA,A,3,15,29,26,18,27,,,,,,,,3.0,1.6,2.5*36
$GPRMC,134801.000,A,3353.7545,N,09832.0214,W,0.10,146.12,010412,,,D*73
$GPGGA,134802.000,3353.7545,N,09832.0214,W,2,05,1.6,307.4,M,-23.7,M,3.8,0000*4F
$GPGSA,A,3,15,29,26,18,27,,,,,,,,3.0,1.6,2.5*36
$GPRMC,134802.000,A,3353.7545,N,09832.0214,W,0.36,131.98,010412,,,D*76
$GPGGA,134803.000,3353.7547,N,09832.0221,W,2,05,1.6,306.6,M,-23.7,M,0.8,0000*4A
$GPGSA,A,3,15,29,26,18,27,,,,,,,,3.0,1.6,2.5*36
$GPGSV,3,1,12,15,66,099,31,21,57,326,,18,53,276,24,29,51,185,42*77
$GPGSV,3,2,12,26,31,048,34,22,14,254,17,27,13,116,30,06,10,319,*78
$GPGSV,3,3,12,09,07,138,28,05,07,060,22,16,06,299,,30,03,273,*75
$GPRMC,134803.000,A,3353.7547,N,09832.0221,W,0.10,185.18,010412,,,D*70
$GPGGA,134804.000,3353.7549,N,09832.0226,W,2,05,1.6,306.0,M,-23.7,M,0.8,0000*42
$GPGSA,A,3,15,29,26,18,27,,,,,,,,3.0,1.6,2.5*36
$GPRMC,134804.000,A,3353.7549,N,09832.0226,W,0.30,302.05,010412,,,D*7D
$GPGGA,134805.000,3353.7550,N,09832.0226,W,2,05,1.6,306.0,M,-23.7,M,0.8,0000*4B
$GPGSA,A,3,15,29,26,18,27,,,,,,,,3.0,1.6,2.5*36
$GPRMC,134805.000,A,3353.7550,N,09832.0226,W,0.43,307.69,010412,,,D*7F
$GPGGA,134806.000,3353.7552,N,09832.0229,W,2,05,1.6,305.7,M,-23.7,M,1.8,0000*40
$GPGSA,A,3,15,29,26,18,27,,,,,,,,3.0,1.6,2.5*36
$GPRMC,134806.000,A,3353.7552,N,09832.0229,W,0.38,303.68,010412,,,D*78
$GPGGA,134807.000,3353.7552,N,09832.0229,W,2,05,1.6,305.9,M,-23.7,M,2.8,0000*4C
$GPGSA,A,3,15,29,26,18,27,,,,,,,,3.0,1.6,2.5*36
$GPRMC,134807.000,A,3353.7552,N,09832.0229,W,0.37,308.29,010412,,,D*78
$GPGGA,134808.000,3353.7552,N,09832.0226,W,2,05,1.6,306.3,M,-23.7,M,3.8,0000*44
$GPGSA,A,3,15,29,26,18,27,,,,,,,,3.0,1.6,2.5*36
$GPGSV,3,1,12,15,66,099,31,21,57,326,,18,53,276,23,29,51,185,42*70
$GPGSV,3,2,12,26,31,048,33,22,14,254,16,27,13,116,31,06,10,319,*7F
$GPGSV,3,3,12,09,07,138,27,05,07,060,22,16,06,299,,30,03,273,*7A
$GPRMC,134808.000,A,3353.7552,N,09832.0226,W,0.45,309.67,010412,,,D*76
$GPGGA,134809.000,3353.7552,N,09832.0223,W,2,05,1.6,306.7,M,-23.7,M,0.8,0000*47
$GPGSA,A,3,15,29,26,18,27,,,,,,,,3.0,1.6,2.5*36
$GPRMC,134809.000,A,3353.7552,N,09832.0223,W,0.11,113.96,010412,,,D*74
$GPGGA,134810.000,3353.7552,N,09832.0224,W,2,05,1.6,306.7,M,-23.7,M,0.8,0000*48
$GPGSA,A,3,15,29,26,18,27,,,,,,,,3.0,1.6,2.5*36
$GPRMC,134810.000,A,3353.7552,N,09832.0224,W,0.31,140.57,010412,,,D*72
$GPGGA,134811.000,3353.7551,N,09832.0221,W,2,05,1.6,307.2,M,-23.7,M,0.8,0000*4B
$GPGSA,A,3,15,29,26,18,27,,,,,,,,3.0,1.6,2.5*36
$GPRMC,134811.000,A,3353.7551,N,09832.0221,W,0.40,135.10,010412,,,D*72
$GPGGA,134812.000,3353.7550,N,09832.0218,W,2,05,1.6,307.6,M,-23.7,M,1.8,0000*46
$GPGSA,A,3,15,29,26,18,27,,,,,,,,3.0,1.6,2.5*36
$GPRMC,134812.000,A,3353.7550,N,09832.0218,W,0.16,128.82,010412,,,D*7E
$GPGGA,134813.000,3353.7550,N,09832.0217,W,2,05,1.6,307.8,M,-23.7,M,0.8,0000*47
$GPGSA,A,3,15,29,26,18,27,,,,,,,,3.0,1.6,2.5*36
$GPGSV,3,1,12,15,66,099,31,21,57,326,,18,53,276,23,29,51,185,42*70
$GPGSV,3,2,12,26,31,048,33,22,14,254,16,27,13,116,32,06,10,319,*7C
$GPGSV,3,3,12,09,07,138,27,05,07,060,21,16,06,299,,30,03,273,*79
$GPRMC,134813.000,A,3353.7550,N,09832.0217,W,0.02,297.59,010412,,,D*74
$GPGGA,134814.000,3353.7548,N,09832.0213,W,2,05,1.6,308.5,M,-23.7,M,1.8,0000*4E
$GPGSA,A,3,15,29,26,18,27,,,,,,,,3.0,1.6,2.5*36
$GPRMC,134814.000,A,3353.7548,N,09832.0213,W,0.45,129.25,010412,,,D*70
$GPGGA,134815.000,3353.7548,N,09832.0211,W,2,05,1.6,308.9,M,-23.7,M,0.8,0000*40
$GPGSA,A,3,15,29,26,18,27,,,,,,,,3.0,1.6,2.5*36
$GPRMC,134815.000,A,3353.7548,N,09832.0211,W,0.41,125.60,010412,,,D*7A
$GPGGA,134816.000,3353.7547,N,09832.0207,W,2,05,1.6,309.5,M,-23.7,M,0.8,0000*46
$GPGSA,A,3,15,29,26,18,27,,,,,,,,3.0,1.6,2.5*36
$GPRMC,134816.000,A,3353.7547,N,09832.0207,W,0.42,117.30,010412,,,D*76
$GPGGA,134817.000,3353.7546,N,09832.0203,W,2,05,1.6,310.2,M,-23.7,M,0.8,0000*4D
$GPGSA,A,3,15,29,26,18,27,,,,,,,,3.0,1.6,2.5*36
$GPRMC,134817.000,A,3353.7546,N,09832.0203,W,0.39,109.66,010412,,,D*72
$GPGGA,134818.000,3353.7547,N,09832.0204,W,2,05,1.6,310.3,M,-23.7,M,1.8,0000*44
$GPGSA,A,3,15,29,26,18,27,,,,,,,,3.0,1.6,2.5*36
$GPGSV,3,1,12,15,66,099,30,21,57,326,,18,53,276,23,29,51,185,42*71
$GPGSV,3,2,12,26,31,048,32,22,14,254,16,27,13,116,32,06,10,319,*7D
$GPGSV,3,3,12,09,07,138,28,05,07,060,21,16,06,299,,30,03,273,*76
$GPRMC,134818.000,A,3353.7547,N,09832.0204,W,0.43,115.98,010412,,,D*7A
$GPGGA,134819.000,3353.7546,N,09832.0199,W,2,05,1.6,311.0,M,-23.7,M,0.8,0000*40
$GPGSA,A,3,15,29,26,18,27,,,,,,,,3.0,1.6,2.5*36
$GPRMC,134819.000,A,3353.7546,N,09832.0199,W,0.48,112.65,010412,,,D*73
$GPGGA,134820.000,3353.7545,N,09832.0195,W,2,05,1.6,311.7,M,-23.7,M,1.8,0000*43
$GPGSA,A,3,15,29,26,18,27,,,,,,,,3.0,1.6,2.5*36
$GPRMC,134820.000,A,3353.7545,N,09832.0195,W,0.65,114.92,010412,,,D*77
$GPGGA,134821.000,3353.7546,N,09832.0196,W,2,05,1.6,311.6,M,-23.7,M,0.8,0000*42
$GPGSA,A,3,15,29,26,18,27,,,,,,,,3.0,1.6,2.5*36
$GPRMC,134821.000,A,3353.7546,N,09832.0196,W,0.13,64.74,010412,,,D*49
$GPGGA,134822.000,3353.7546,N,09832.0196,W,2,05,1.6,311.8,M,-23.7,M,0.8,0000*4F
$GPGSA,A,3,15,29,26,18,27,,,,,,,,3.0,1.6,2.5*36
$GPRMC,134822.000,A,3353.7546,N,09832.0196,W,0.09,4.03,010412,,,D*77
$GPGGA,134823.000,3353.7546,N,09832.0194,W,2,05,1.6,312.1,M,-23.7,M,0.8,0000*46
$GPGSA,A,3,15,29,26,18,27,,,,,,,,3.0,1.6,2.5*36
$GPGSV,3,1,12,15,66,099,30,21,57,326,,18,53,276,22,29,51,185,42*70
$GPGSV,3,2,12,26,31,048,32,22,14,254,15,27,13,116,32,06,10,319,*7E
$GPGSV,3,3,12,09,07,138,29,05,07,060,21,16,06,299,,30,03,273,*77
$GPRMC,134823.000,A,3353.7546,N,09832.0194,W,0.32,117.40,010412,,,D*78
$GPGGA,134824.000,3353.7545,N,09832.0190,W,2,05,1.6,312.7,M,-23.7,M,1.8,0000*41
$GPGSA,A,3,15,29,26,18,27,,,,,,,,3.0,1.6,2.5*36
$GPRMC,134824.000,A,3353.7545,N,09832.0190,W,0.33,113.71,010412,,,D*7F
$GPGGA,134825.000,3353.7545,N,09832.0189,W,2,05,1.6,312.9,M,-23.7,M,0.8,0000*47
$GPGSA,A,3,15,29,26,18,27,,,,,,,,3.0,1.6,2.5*36
$GPRMC,134825.000,A,3353.7545,N,09832.0189,W,0.51,123.45,010412,,,D*76
$GPGGA,134826.000,3353.7545,N,09832.0187,W,2,05,1.6,313.2,M,-23.7,M,0.8,0000*40
$GPGSA,A,3,15,29,26,18,27,,,,,,,,3.0,1.6,2.5*36
$GPRMC,134826.000,A,3353.7545,N,09832.0187,W,0.32,115.93,010412,,,D*70
$GPGGA,134827.000,3353.7542,N,09832.0180,W,2,05,1.6,314.0,M,-23.7,M,0.8,0000*44
$GPGSA,A,3,15,29,26,18,27,,,,,,,,3.0,1.6,2.5*36
$GPRMC,134827.000,A,3353.7542,N,09832.0180,W,0.56,122.22,010412,,,D*7D
$GPGGA,134828.000,3353.7541,N,09832.0175,W,2,05,1.6,314.8,M,-23.7,M,0.8,0000*4A
$GPGSA,A,3,15,29,26,18,27,,,,,,,,3.0,1.6,2.5*36
$GPGSV,3,1,12,15,66,099,30,21,57,326,,18,53,276,22,29,51,185,42*70
$GPGSV,3,2,12,26,31,048,32,22,14,254,14,27,13,116,32,06,10,319,*7F
$GPGSV,3,3,12,09,07,138,29,05,07,060,21,16,06,299,,30,03,273,*77
$GPRMC,134828.000,A,3353.7541,N,09832.0175,W,0.61,114.54,010412,,,D*7B
$GPGGA,134829.000,3353.7541,N,09832.0174,W,2,05,1.6,315.1,M,-23.7,M,0.8,0000*42
$GPGSA,A,3,15,29,26,18,27,,,,,,,,3.0,1.6,2.5*36
$GPRMC,134829.000,A,3353.7541,N,09832.0174,W,0.17,74.93,010412,,,D*46
$GPGGA,134830.000,3353.7542,N,09832.0174,W,2,05,1.6,315.2,M,-23.7,M,1.8,0000*4B
$GPGSA,A,3,15,29,26,18,27,,,,,,,,3.0,1.6,2.5*36
$GPRMC,134830.000,A,3353.7542,N,09832.0174,W,0.13,20.68,010412,,,D*4C
$GPGGA,134831.000,3353.7542,N,09832.0174,W,2,05,1.6,315.4,M,-23.7,M,2.8,0000*4F
$GPGSA,A,3,15,29,26,18,27,,,,,,,,3.0,1.6,2.5*36
$GPRMC,134831.000,A,3353.7542,N,09832.0174,W,0.36,112.38,010412,,,D*7F
$GPGGA,134832.000,3353.7544,N,09832.0177,W,2,05,1.6,315.1,M,-23.7,M,0.8,0000*4E
$GPGSA,A,3,15,29,26,18,27,,,,,,,,3.0,1.6,2.5*36
$GPRMC,134832.000,A,3353.7544,N,09832.0177,W,0.35,116.61,010412,,,D*72
$GPGGA,134833.000,3353.7547,N,09832.0186,W,2,05,1.6,314.1,M,-23.7,M,0.8,0000*43
$GPGSA,A,3,15,29,26,18,27,,,,,,,,3.0,1.6,2.5*36
$GPGSV,3,1,12,15,66,099,30,21,57,326,,18,53,276,21,29,51,185,42*73
$GPGSV,3,2,12,26,31,048,33,22,14,254,13,27,13,116,32,06,10,319,*79
$GPGSV,3,3,12,09,07,138,30,05,07,060,21,16,06,299,,30,03,273,*7F
$GPRMC,134833.000,A,3353.7547,N,09832.0186,W,0.35,312.49,010412,,,D*72
$GPGGA,134834.000,3353.7550,N,09832.0193,W,2,05,1.6,313.4,M,-23.7,M,0.8,0000*44
$GPGSA,A,3,15,29,26,18,27,,,,,,,,3.0,1.6,2.5*36
$GPRMC,134834.000,A,3353.7550,N,09832.0193,W,0.10,257.28,010412,,,D*77
$GPGGA,134835.000,3353.7549,N,09832.0192,W,2,05,1.6,313.6,M,-23.7,M,0.8,0000*4E
$GPGSA,A,3,15,29,26,18,27,,,,,,,,3.0,1.6,2.5*36
$GPRMC,134835.000,A,3353.7549,N,09832.0192,W,0.27,141.36,010412,,,D*70
$GPGGA,134836.000,3353.7551,N,09832.0196,W,2,05,1.6,313.0,M,-23.7,M,1.8,0000*47
$GPGSA,A,3,15,29,26,18,27,,,,,,,,3.0,1.6,2.5*36
$GPRMC,134836.000,A,3353.7551,N,09832.0196,W,0.42,298.80,010412,,,D*77
$GPGGA,134837.000,3353.7555,N,09832.0205,W,2,05,1.6,312.1,M,-23.7,M,2.8,0000*48
$GPGSA,A,3,15,29,26,18,27,,,,,,,,3.0,1.6,2.5*36
$GPRMC,134837.000,A,3353.7555,N,09832.0205,W,0.85,302.10,010412,,,D*7B
$GPGGA,134838.000,3353.7557,N,09832.0212,W,2,05,1.6,311.4,M,-23.7,M,3.8,0000*44
$GPGSA,A,3,15,29,26,18,27,,,,,,,,3.0,1.6,2.5*36
$GPGSV,3,1,12,15,66,099,30,21,57,326,,18,53,276,20,29,51,185,42*72
$GPGSV,3,2,12,26,31,048,34,22,14,254,13,27,13,116,31,06,10,319,*7D
$GPGSV,3,3,12,09,07,138,29,05,07,060,22,16,06,299,,30,03,273,*74
$GPRMC,134838.000,A,3353.7557,N,09832.0212,W,0.45,292.94,010412,,,D*78
$GPGGA,134839.000,3353.7560,N,09832.0219,W,2,05,1.6,310.6,M,-23.7,M,0.8,0000*4A
$GPGSA,A,3,15,29,26,18,27,,,,,,,,3.0,1.6,2.5*36
$GPRMC,134839.000,A,3353.7560,N,09832.0219,W,0.32,282.26,010412,,,D*7E
$GPGGA,134840.000,3353.7563,N,09832.0225,W,2,05,1.6,309.9,M,-23.7,M,0.8,0000*4F
$GPGSA,A,3,15,29,26,18,27,,,,,,,,3.0,1.6,2.5*36
$GPRMC,134840.000,A,3353.7563,N,09832.0225,W,0.38,292.71,010412,,,D*75
$GPGGA,134841.000,3353.7562,N,09832.0223,W,2,05,1.6,310.3,M,-23.7,M,0.8,0000*4B
$GPGSA,A,3,15,29,26,18,27,,,,,,,,3.0,1.6,2.5*36
$GPRMC,134841.000,A,3353.7562,N,09832.0223,W,0.07,270.43,010412,,,D*72
$GPGGA,134842.000,3353.7563,N,09832.0224,W,2,04,3.2,310.3,M,-23.7,M,1.8,0000*48
$GPGSA,A,3,15,29,26,27,,,,,,,,,4.8,3.2,3.5*37
$GPRMC,134842.000,A,3353.7563,N,09832.0224,W,0.34,304.74,010412,,,D*71
$GPGGA,134843.000,3353.7564,N,09832.0225,W,2,04,3.2,310.3,M,-23.7,M,2.8,0000*4C
$GPGSA,A,3,15,29,26,27,,,,,,,,,4.8,3.2,3.5*37
$GPGSV,3,1,12,15,66,099,30,21,57,326,,18,53,276,18,29,51,185,42*79
$GPGSV,3,2,12,26,31,048,34,22,14,254,14,27,13,116,30,06,10,319,*7B
$GPGSV,3,3,12,09,07,138,29,05,07,060,22,16,06,299,,30,03,273,*74
$GPRMC,134843.000,A,3353.7564,N,09832.0225,W,0.27,302.43,010412,,,D*76
$GPGGA,134844.000,3353.7565,N,09832.0227,W,2,04,3.2,310.3,M,-23.7,M,0.8,0000*4A
$GPGSA,A,3,15,29,26,27,,,,,,,,,4.8,3.2,3.5*37
$GPRMC,134844.000,A,3353.7565,N,09832.0227,W,0.31,306.52,010412,,,D*71
$GPGGA,134845.000,3353.7567,N,09832.0231,W,2,05,1.6,309.9,M,-23.7,M,0.8,0000*4B
$GPGSA,A,3,15,29,26,18,27,,,,,,,,3.0,1.6,2.5*36
$GPRMC,134845.000,A,3353.7567,N,09832.0231,W,0.70,301.23,010412,,,D*71
$GPGGA,134846.000,3353.7567,N,09832.0230,W,2,05,1.6,310.2,M,-23.7,M,0.8,0000*4A
$GPGSA,A,3,15,29,26,18,27,,,,,,,,3.0,1.6,2.5*36
$GPRMC,134846.000,A,3353.7567,N,09832.0230,W,0.34,284.06,010412,,,D*78
$GPGGA,134847.000,3353.7564,N,09832.0225,W,2,05,1.6,311.0,M,-23.7,M,0.8,0000*4F
$GPGSA,A,3,15,29,26,18,27,,,,,,,,3.0,1.6,2.5*36
$GPRMC,134847.000,A,3353.7564,N,09832.0225,W,0.24,153.48,010412,,,D*7C
$GPGGA,134848.000,3353.7564,N,09832.0225,W,2,04,3.2,311.1,M,-23.7,M,1.8,0000*47
$GPGSA,A,3,15,29,26,27,,,,,,,,,4.8,3.2,3.5*37
$GPGSV,3,1,12,15,66,099,29,21,57,326,,18,53,276,19,29,51,185,41*73
$GPGSV,3,2,12,26,31,048,34,22,14,254,14,27,13,116,29,06,10,319,*73
$GPGSV,3,3,12,09,07,138,29,05,07,060,23,16,06,299,,30,03,273,*75
$GPRMC,134848.000,A,3353.7564,N,09832.0225,W,0.35,151.68,010412,,,D*73
$GPGGA,134849.000,3353.7563,N,09832.0224,W,2,04,3.2,311.3,M,-23.7,M,2.8,0000*41
$GPGSA,A,3,15,29,26,27,,,,,,,,,4.8,3.2,3.5*37
$GPRMC,134849.000,A,3353.7563,N,09832.0224,W,0.42,142.65,010412,,,D*7B
$GPGGA,134850.000,3353.7562,N,09832.0221,W,2,05,1.6,311.8,M,-23.7,M,3.8,0000*40
$GPGSA,A,3,15,29,26,18,27,,,,,,,,3.0,1.6,2.5*36
$GPRMC,134850.000,A,3353.7562,N,09832.0221,W,0.15,276.09,010412,,,D*7B
$GPGGA,134851.000,3353.7561,N,09832.0218,W,2,05,1.6,312.2,M,-23.7,M,0.8,0000*42
$GPGSA,A,3,15,29,26,18,27,,,,,,,,3.0,1.6,2.5*36
$GPRMC,134851.000,A,3353.7561,N,09832.0218,W,0.05,286.32,010412,,,D*75
$GPGGA,134852.000,3353.7559,N,09832.0214,W,2,05,1.6,312.6,M,-23.7,M,0.8,0000*42
$GPGSA,A,3,15,29,26,18,27,,,,,,,,3.0,1.6,2.5*36
$GPRMC,134852.000,A,3353.7559,N,09832.0214,W,0.24,107.56,010412,,,D*7A
$GPGGA,134853.000,3353.7556,N,09832.0208,W,2,05,1.6,313.1,M,-23.7,M,0.8,0000*47
$GPGSA,A,3,15,29,26,18,27,,,,,,,,3.0,1.6,2.5*36
$GPGSV,3,1,12,15,66,099,29,21,57,326,,18,53,276,20,29,51,185,41*79
$GPGSV,3,2,12,26,31,048,35,22,14,254,15,27,13,116,28,06,10,319,*72
$GPGSV,3,3,12,09,07,138,29,05,07,060,24,16,06,299,,30,03,273,*72
$GPRMC,134853.000,A,3353.7556,N,09832.0208,W,0.45,116.17,010412,,,D*7B
$GPGGA,134854.000,3353.7553,N,09832.0199,W,2,05,1.6,313.9,M,-23.7,M,1.8,0000*47
$GPGSA,A,3,15,29,26,18,27,,,,,,,,3.0,1.6,2.5*36
$GPRMC,134854.000,A,3353.7553,N,09832.0199,W,0.45,110.86,010412,,,D*7C
$GPGGA,134855.000,3353.7550,N,09832.0192,W,2,05,1.6,314.3,M,-23.7,M,2.8,0000*40
$GPGSA,A,3,15,29,26,18,27,,,,,,,,3.0,1.6,2.5*36
$GPRMC,134855.000,A,3353.7550,N,09832.0192,W,0.72,116.81,010412,,,D*70
$GPGGA,134856.000,3353.7550,N,09832.0194,W,2,05,1.6,313.7,M,-23.7,M,3.8,0000*47
$GPGSA,A,3,15,29,26,18,27,,,,,,,,3.0,1.6,2.5*36
$GPRMC,134856.000,A,3353.7550,N,09832.0194,W,0.44,116.02,010412,,,D*7B
$GPGGA,134857.000,3353.7550,N,09832.0196,W,2,05,1.6,313.1,M,-23.7,M,0.8,0000*41
$GPGSA,A,3,15,29,26,18,27,,,,,,,,3.0,1.6,2.5*36
$GPRMC,134857.000,A,3353.7550,N,09832.0196,W,0.19,307.13,010412,,,D*72
$GPGGA,134858.000,3353.7551,N,09832.0198,W,2,05,1.6,312.6,M,-23.7,M,0.8,0000*47
$GPGSA,A,3,15,29,26,18,27,,,,,,,,3.0,1.6,2.5*36
$GPGSV,3,1,12,15,66,099,29,21,57,326,,18,53,276,21,29,51,185,42*7B
$GPGSV,3,2,12,26,31,048,35,22,14,254,16,27,13,116,27,06,10,319,*7E
$GPGSV,3,3,12,09,07,138,29,05,07,060,25,16,06,299,,30,03,273,*73
$GPRMC,134858.000,A,3353.7551,N,09832.0198,W,0.15,284.25,010412,,,D*71
$GPGGA,134859.000,3353.7551,N,09832.0200,W,2,05,1.6,312.7,M,-23.7,M,0.8,0000*45
$GPGSA,A,3,15,29,26,18,27,,,,,,,,3.0,1.6,2.5*36
$GPRMC,134859.000,A,3353.7551,N,09832.0200,W,0.19,152.96,010412,,,D*7E
$GPGGA,134900.000,3353.7552,N,09832.0202,W,2,05,1.6,312.7,M,-23.7,M,0.8,0000*49
$GPGSA,A,3,15,29,26,18,27,,,,,,,,3.0,1.6,2.5*36
$GPRMC,134900.000,A,3353.7552,N,09832.0202,W,0.30,145.05,010412,,,D*75
$GPGGA,134901.000,3353.7554,N,09832.0209,W,2,05,1.6,312.3,M,-23.7,M,0.8,0000*41
$GPGSA,A,3,15,29,26,18,27,,,,,,,,3.0,1.6,2.5*36
$GPRMC,134901.000,A,3353.7554,N,09832.0209,W,0.21,164.24,010412,,,D*79
$GPGGA,134902.000,3353.7555,N,09832.0214,W,2,05,1.6,312.0,M,-23.7,M,0.8,0000*4C
$GPGSA,A,3,15,29,26,18,27,,,,,,,,3.0,1.6,2.5*36
$GPRMC,134902.000,A,3353.7555,N,09832.0214,W,0.19,264.22,010412,,,D*79
$GPGGA,134903.000,3353.7556,N,09832.0215,W,2,05,1.6,312.1,M,-23.7,M,0.8,0000*4E
$GPGSA,A,3,15,29,26,18,27,,,,,,,,3.0,1.6,2.5*36
$GPGSV,3,1,12,15,66,099,30,21,57,326,,18,53,276,22,29,51,185,42*70
$GPGSV,3,2,12,26,31,048,35,22,14,254,16,27,13,116,27,06,10,319,*7E
$GPGSV,3,3,12,09,07,138,29,05,07,060,26,16,06,299,,30,03,273,*70
$GPRMC,134903.000,A,3353.7556,N,09832.0215,W,0.21,139.42,010412,,,D*7C
$GPGGA,134904.000,3353.7556,N,09832.0215,W,2,05,1.6,312.2,M,-23.7,M,0.8,0000*4A
$GPGSA,A,3,15,29,26,18,27,,,,,,,,3.0,1.6,2.5*36
$GPRMC,134904.000,A,3353.7556,N,09832.0215,W,0.20,116.32,010412,,,D*70
$GPGGA,134905.000,3353.7557,N,09832.0217,W,2,05,1.6,312.3,M,-23.7,M,0.8,0000*49
$GPGSA,A,3,15,29,26,18,27,,,,,,,,3.0,1.6,2.5*36
$GPRMC,134905.000,A,3353.7557,N,09832.0217,W,0.23,116.13,010412,,,D*72
$GPGGA,134906.000,3353.7559,N,09832.0220,W,2,05,1.6,312.2,M,-23.7,M,1.8,0000*40
$GPGSA,A,3,15,29,26,18,27,,,,,,,,3.0,1.6,2.6*35
$GPRMC,134906.000,A,3353.7559,N,09832.0220,W,0.06,95.26,010412,,,D*40
$GPGGA,134907.000,3353.7560,N,09832.0222,W,2,05,1.6,312.1,M,-23.7,M,0.8,0000*4B
$GPGSA,A,3,15,29,26,18,27,,,,,,,,3.0,1.6,2.6*35
$GPRMC,134907.000,A,3353.7560,N,09832.0222,W,0.21,314.13,010412,,,D*70
$GPGGA,134908.000,3353.7560,N,09832.0222,W,2,05,1.6,312.4,M,-23.7,M,0.8,0000*41
$GPGSA,A,3,15,29,26,18,27,,,,,,,,3.0,1.6,2.6*35
$GPGSV,3,1,12,15,66,099,30,21,57,326,,18,53,276,23,29,51,185,42*71
$GPGSV,3,2,12,26,31,048,35,22,14,254,16,27,13,116,27,06,10,319,*7E
$GPGSV,3,3,12,09,07,138,29,05,07,060,26,16,06,299,,30,03,273,*70
$GPRMC,134908.000,A,3353.7560,N,09832.0222,W,0.21,318.66,010412,,,D*71
$GPGGA,134909.000,3353.7561,N,09832.0224,W,2,05,1.6,312.4,M,-23.7,M,0.8,0000*47
$GPGSA,A,3,15,29,26,18,27,,,,,,,,3.0,1.6,2.6*35
$GPRMC,134909.000,A,3353.7561,N,09832.0224,W,0.25,299.40,010412,,,D*7F
$GPGGA,134910.000,3353.7563,N,09832.0228,W,2,05,1.6,312.1,M,-23.7,M,0.8,0000*44
$GPGSA,A,3,15,29,26,18,27,,,,,,,,3.0,1.6,2.6*35
$GPRMC,134910.000,A,3353.7563,N,09832.0228,W,0.60,293.12,010412,,,D*75
$GPGGA,134911.000,3353.7563,N,09832.0230,W,2,05,1.6,312.1,M,-23.7,M,0.8,0000*4C
$GPGSA,A,3,15,29,26,18,27,,,,,,,,3.0,1.6,2.6*35
$GPRMC,134911.000,A,3353.7563,N,09832.0230,W,0.39,291.57,010412,,,D*72
$GPGGA,134912.000,3353.7564,N,09832.0231,W,2,05,1.6,312.1,M,-23.7,M,1.8,0000*48
$GPGSA,A,3,15,29,26,18,27,,,,,,,,3.0,1.6,2.6*35
$GPRMC,134912.000,A,3353.7564,N,09832.0231,W,0.15,266.57,010412,,,D*71
$GPGGA,134913.000,3353.7564,N,09832.0233,W,2,05,1.6,312.0,M,-23.7,M,2.8,0000*49
$GPGSA,A,3,15,29,26,18,27,,,,,,,,3.0,1.6,2.6*35
$GPGSV,3,1,12,15,66,099,30,21,57,326,,18,53,276,23,29,51,185,42*71
$GPGSV,3,2,12,26,31,048,36,22,14,254,15,27,13,116,27,06,10,319,*7E
$GPGSV,3,3,12,09,07,138,29,05,07,060,26,16,06,299,,30,03,273,*70
$GPRMC,134913.000,A,3353.7564,N,09832.0233,W,0.24,150.28,010412,,,D*7E
$GPGGA,134914.000,3353.7561,N,09832.0226,W,2,05,1.6,312.7,M,-23.7,M,3.8,0000*49
$GPGSA,A,3,15,29,26,18,27,,,,,,,,3.0,1.6,2.6*35
$GPRMC,134914.000,A,3353.7561,N,09832.0226,W,0.25,141.62,010412,,,D*77
$GPGGA,134915.000,3353.7560,N,09832.0224,W,2,05,1.6,313.0,M,-23.7,M,0.8,0000*4E
$GPGSA,A,3,15,29,26,18,27,,,,,,,,3.0,1.6,2.6*35
$GPRMC,134915.000,A,3353.7560,N,09832.0224,W,0.13,122.50,010412,,,D*74
$GPGGA,134916.000,3353.7560,N,09832.0222,W,2,05,1.6,313.4,M,-23.7,M,0.8,0000*4F
$GPGSA,A,3,15,29,26,18,27,,,,,,,,3.0,1.6,2.6*35
$GPRMC,134916.000,A,3353.7560,N,09832.0222,W,0.07,27.64,010412,,,D*47
$GPGGA,134917.000,3353.7560,N,09832.0220,W,2,05,1.6,313.8,M,-23.7,M,0.8,0000*40
$GPGSA,A,3,15,29,26,18,27,,,,,,,,3.0,1.6,2.6*35
$GPRMC,134917.000,A,3353.7560,N,09832.0220,W,0.22,326.41,010412,,,D*76
$GPGGA,134918.000,3353.7559,N,09832.0216,W,2,05,1.6,314.4,M,-23.7,M,1.8,0000*4A
$GPGSA,A,3,15,29,26,18,27,,,,,,,,3.0,1.6,2.6*35
$GPGSV,3,1,12,15,66,099,31,21,57,326,,18,53,276,24,29,51,185,42*77
$GPGSV,3,2,12,26,31,048,36,22,14,254,,27,13,116,27,06,10,319,*7A
$GPGSV,3,3,12,09,07,138,28,05,07,060,26,16,06,299,,30,03,273,*71
$GPRMC,134918.000,A,3353.7559,N,09832.0216,W,0.12,71.69,010412,,,D*4E
$GPGGA,134919.000,3353.7558,N,09832.0212,W,2,05,1.6,314.9,M,-23.7,M,2.8,0000*40
$GPGSA,A,3,15,29,26,18,27,,,,,,,,3.0,1.6,2.6*35
$GPRMC,134919.000,A,3353.7558,N,09832.0212,W,0.20,87.22,010412,,,D*4D
$GPGGA,134920.000,3353.7557,N,09832.0210,W,2,05,1.6,315.4,M,-23.7,M,3.8,0000*4A
$GPGSA,A,3,15,29,26,18,27,,,,,,,,3.0,1.6,2.6*35
$GPRMC,134920.000,A,3353.7557,N,09832.0210,W,0.17,88.36,010412,,,D*44
$GPGGA,134921.000,3353.7557,N,09832.0208,W,2,05,1.6,315.7,M,-23.7,M,0.8,0000*42
$GPGSA,A,3,15,29,26,18,27,,,,,,,,3.0,1.6,2.6*35
$GPRMC,134921.000,A,3353.7557,N,09832.0208,W,0.10,92.52,010412,,,D*42
$GPGGA,134922.000,3353.7556,N,09832.0207,W,2,05,1.6,315.9,M,-23.7,M,0.8,0000*41
$GPGSA,A,3,15,29,26,18,27,,,,,,,,3.0,1.6,2.6*35
$GPRMC,134922.000,A,3353.7556,N,09832.0207,W,0.16,128.53,010412,,,D*78
$GPGGA,134923.000,3353.7556,N,09832.0207,W,2,05,1.6,316.4,M,-23.7,M,0.8,0000*4E
$GPGSA,A,3,15,29,26,18,27,,,,,,,,3.0,1.6,2.6*35
$GPGSV,3,1,12,15,66,099,31,21,57,326,,18,53,276,25,29,51,185,42*76
$GPGSV,3,2,12,26,31,048,36,22,14,254,,27,13,116,27,06,10,319,*7A
$GPGSV,3,3,12,09,07,138,28,05,07,060,25,16,06,299,,30,03,273,*72
$GPRMC,134923.000,A,3353.7556,N,09832.0207,W,0.08,137.41,010412,,,D*7B
$GPGGA,134924.000,3353.7557,N,09832.0207,W,2,05,1.6,317.0,M,-23.7,M,1.8,0000*4C
$GPGSA,A,3,15,29,26,18,27,,,,,,,,3.0,1.6,2.6*35
$GPRMC,134924.000,A,3353.7557,N,09832.0207,W,0.08,129.42,010412,,,D*71
$GPGGA,134925.000,3353.7557,N,09832.0206,W,2,05,1.6,317.4,M,-23.7,M,2.8,0000*4B
$GPGSA,A,3,15,29,26,18,27,,,,,,,,3.0,1.6,2.6*35
$GPRMC,134925.000,A,3353.7557,N,09832.0206,W,0.15,130.10,010412,,,D*72
$GPGGA,134926.000,3353.7557,N,09832.0206,W,2,05,1.6,317.8,M,-23.7,M,3.8,0000*45
$GPGSA,A,3,15,29,26,18,27,,,,,,,,3.0,1.6,2.6*35
$GPRMC,134926.000,A,3353.7557,N,09832.0206,W,0.10,133.37,010412,,,D*72
$GPGGA,134927.000,3353.7557,N,09832.0205,W,2,05,1.6,318.1,M,-23.7,M,0.8,0000*42
$GPGSA,A,3,15,29,26,18,27,,,,,,,,3.0,1.6,2.6*35
$GPRMC,134927.000,A,3353.7557,N,09832.0205,W,0.21,111.16,010412,,,D*71
$GPGGA,134928.000,3353.7557,N,09832.0204,W,2,06,1.5,318.6,M,-23.7,M,0.8,0000*4B
$GPGSA,A,3,15,29,26,18,21,27,,,,,,,3.0,1.5,2.6*35
$GPGSV,3,1,12,15,66,099,31,21,57,326,15,18,53,276,26,29,51,185,42*71
$GPGSV,3,2,12,26,31,048,36,22,14,254,,27,13,116,27,06,10,319,*7A
$GPGSV,3,3,12,09,07,138,27,05,07,060,25,16,06,299,,30,03,273,*7D
$GPRMC,134928.000,A,3353.7557,N,09832.0204,W,0.32,105.02,010412,,,D*7D
$GPGGA,134929.000,3353.7556,N,09832.0203,W,2,06,1.5,319.0,M,-23.7,M,0.8,0000*4B
$GPGSA,A,3,15,29,26,18,21,27,,,,,,,3.0,1.5,2.6*35
$GPRMC,134929.000,A,3353.7556,N,09832.0203,W,0.37,110.97,010412,,,D*77
$GPGGA,134930.000,3353.7556,N,09832.0202,W,2,06,1.5,319.4,M,-23.7,M,0.8,0000*46
$GPGSA,A,3,15,29,26,18,21,27,,,,,,,3.0,1.5,2.6*35
$GPRMC,134930.000,A,3353.7556,N,09832.0202,W,0.26,95.84,010412,,,D*40
$GPGGA,134931.000,3353.7557,N,09832.0202,W,2,06,1.5,319.7,M,-23.7,M,1.8,0000*44
$GPGSA,A,3,15,29,26,18,21,27,,,,,,,3.0,1.5,2.6*35
$GPRMC,134931.000,A,3353.7557,N,09832.0202,W,0.18,13.48,010412,,,D*43
$GPGGA,134932.000,3353.7558,N,09832.0202,W,2,06,1.5,320.0,M,-23.7,M,2.8,0000*46
$GPGSA,A,3,15,29,26,18,21,27,,,,,,,3.0,1.5,2.6*35
$GPRMC,134932.000,A,3353.7558,N,09832.0202,W,0.20,358.18,010412,,,D*7D
$GPGGA,134933.000,3353.7558,N,09832.0202,W,2,06,1.5,320.2,M,-23.7,M,0.8,0000*47
$GPGSA,A,3,15,29,26,18,21,27,,,,,,,3.0,1.5,2.6*35
$GPGSV,3,1,12,15,66,099,31,21,57,326,17,18,53,276,26,29,51,185,42*73
$GPGSV,3,2,12,26,31,048,36,22,14,254,,27,13,116,27,06,10,319,*7A
$GPGSV,3,3,12,09,07,138,27,05,07,060,24,16,06,299,,30,03,273,*7C
$GPRMC,134933.000,A,3353.7558,N,09832.0202,W,0.19,331.71,010412,,,D*76
$GPGGA,134934.000,3353.7558,N,09832.0203,W,2,06,1.5,320.3,M,-23.7,M,0.8,0000*40
$GPGSA,A,3,15,29,26,18,21,27,,,,,,,3.0,1.5,2.6*35
$GPRMC,134934.000,A,3353.7558,N,09832.0203,W,0.26,127.91,010412,,,D*77
$GPGGA,134935.000,3353.7558,N,09832.0203,W,2,06,1.5,320.4,M,-23.7,M,0.8,0000*46
$GPGSA,A,3,15,29,26,18,21,27,,,,,,,3.0,1.5,2.6*35
$GPRMC,134935.000,A,3353.7558,N,09832.0203,W,0.31,132.02,010412,,,D*7E
$GPGGA,134936.000,3353.7558,N,09832.0203,W,2,06,1.5,320.4,M,-23.7,M,1.8,0000*44
$GPGSA,A,3,15,29,26,18,21,27,,,,,,,3.0,1.5,2.6*35
$GPRMC,134936.000,A,3353.7558,N,09832.0203,W,0.37,133.19,010412,,,D*70
$GPGGA,134937.000,3353.7557,N,09832.0203,W,2,06,1.5,320.4,M,-23.7,M,2.8,0000*49
$GPGSA,A,3,15,29,26,18,21,27,,,,,,,3.0,1.5,2.6*35
$GPRMC,134937.000,A,3353.7557,N,09832.0203,W,0.30,135.83,010412,,,D*7C
$GPGGA,134938.000,3353.7557,N,09832.0204,W,2,06,1.5,320.4,M,-23.7,M,3.8,0000*40
$GPGSA,A,3,15,29,26,18,21,27,,,,,,,3.0,1.5,2.6*35
$GPGSV,3,1,12,15,66,099,31,21,57,326,18,18,53,276,26,29,51,185,42*7C
$GPGSV,3,2,12,26,31,048,35,22,14,254,22,27,13,116,27,06,10,319,*79
$GPGSV,3,3,12,09,07,138,28,05,07,060,24,16,06,299,,30,03,273,*73
$GPRMC,134938.000,A,3353.7557,N,09832.0204,W,0.17,135.20,010412,,,D*78
$GPGGA,134939.000,3353.7557,N,09832.0204,W,2,06,1.5,320.4,M,-23.7,M,0.8,0000*42
$GPGSA,A,3,15,29,26,18,21,27,,,,,,,3.0,1.5,2.6*35
$GPRMC,134939.000,A,3353.7557,N,09832.0204,W,0.33,126.92,010412,,,D*74
$GPGGA,134940.000,3353.7557,N,09832.0204,W,2,06,1.5,320.6,M,-23.7,M,0.8,0000*4E
$GPGSA,A,3,15,29,26,18,21,27,,,,,,,3.0,1.5,2.6*35
$GPRMC,134940.000,A,3353.7557,N,09832.0204,W,0.36,115.24,010412,,,D*72
$GPGGA,134941.000,3353.7557,N,09832.0204,W,2,06,1.5,320.7,M,-23.7,M,0.8,0000*4E
$GPGSA,A,3,15,29,26,18,21,27,,,,,,,3.0,1.5,2.6*35
$GPRMC,134941.000,A,3353.7557,N,09832.0204,W,0.39,116.35,010412,,,D*7F
$GPGGA,134942.000,3353.7557,N,09832.0204,W,2,06,1.5,320.8,M,-23.7,M,1.8,0000*43
$GPGSA,A,3,15,29,26,18,21,27,,,,,,,3.0,1.5,2.6*35
$GPRMC,134942.000,A,3353.7557,N,09832.0204,W,0.38,117.99,010412,,,D*7A
$GPGGA,134943.000,3353.7557,N,09832.0203,W,2,06,1.5,320.9,M,-23.7,M,2.8,0000*47
$GPGSA,A,3,15,29,26,18,21,27,,,,,,,3.0,1.5,2.6*35
$GPGSV,3,1,12,15,66,099,32,21,57,326,18,18,53,276,26,29,51,185,42*7F
$GPGSV,3,2,12,26,31,048,35,22,14,254,22,27,13,116,27,06,10,319,*79
$GPGSV,3,3,12,09,07,138,29,05,07,060,24,16,06,299,,30,03,273,*72
$GPRMC,134943.000,A,3353.7557,N,09832.0203,W,0.38,114.93,010412,,,D*75
$GPGGA,134944.000,3353.7557,N,09832.0204,W,2,06,1.5,321.0,M,-23.7,M,3.8,0000*4E
$GPGSA,A,3,15,29,26,18,21,27,,,,,,,3.0,1.5,2.6*35
$GPRMC,134944.000,A,3353.7557,N,09832.0204,W,0.15,97.06,010412,,,D*4C
$GPGGA,134945.000,3353.7558,N,09832.0205,W,2,06,1.5,321.0,M,-23.7,M,0.8,0000*42
$GPGSA,A,3,15,29,26,18,21,27,,,,,,,3.0,1.5,2.6*35
$GPRMC,134945.000,A,3353.7558,N,09832.0205,W,0.11,334.83,010412,,,D*70
$GPGGA,134946.000,3353.7558,N,09832.0206,W,2,06,1.5,320.9,M,-23.7,M,0.8,0000*4A
$GPGSA,A,3,15,29,26,18,21,27,,,,,,,3.0,1.5,2.6*35
$GPRMC,134946.000,A,3353.7558,N,09832.0206,W,0.20,299.81,010412,,,D*76
$GPGGA,134947.000,3353.7558,N,09832.0207,W,2,06,1.5,320.9,M,-23.7,M,0.8,0000*4A
$GPGSA,A,3,15,29,26,18,21,27,,,,,,,3.0,1.5,2.6*35
$GPRMC,134947.000,A,3353.7558,N,09832.0207,W,0.10,171.41,010412,,,D*7C
$GPGGA,134948.000,3353.7558,N,09832.0206,W,2,06,1.5,320.9,M,-23.7,M,0.8,0000*44
$GPGSA,A,3,15,29,26,18,21,27,,,,,,,3.0,1.5,2.6*35
$GPGSV,3,1,12,15,66,099,32,21,57,326,17,18,53,276,27,29,51,185,42*71
$GPGSV,3,2,12,26,31,048,35,22,14,254,22,27,13,116,27,06,10,319,*79
$GPGSV,3,3,12,09,07,138,29,05,07,060,24,16,06,299,,30,03,273,*72
$GPRMC,134948.000,A,3353.7558,N,09832.0206,W,0.31,147.33,010412,,,D*71
$GPGGA,134949.000,3353.7557,N,09832.0206,W,2,06,1.5,321.0,M,-23.7,M,0.8,0000*42
$GPGSA,A,3,15,29,26,18,21,27,,,,,,,3.0,1.5,2.6*35
$GPRMC,134949.000,A,3353.7557,N,09832.0206,W,0.32,146.19,010412,,,D*75
$GPGGA,134950.000,3353.7555,N,09832.0203,W,2,06,1.5,321.2,M,-23.7,M,1.8,0000*4E
$GPGSA,A,3,15,29,26,18,21,27,,,,,,,3.0,1.5,2.6*35
$GPRMC,134950.000,A,3353.7555,N,09832.0203,W,0.30,139.65,010412,,,D*7B
$GPGGA,134951.000,3353.7554,N,09832.0200,W,2,06,1.5,321.5,M,-23.7,M,0.8,0000*4B
$GPGSA,A,3,15,29,26,18,21,27,,,,,,,3.0,1.5,2.6*35
$GPRMC,134951.000,A,3353.7554,N,09832.0200,W,0.43,130.06,010412,,,D*70
$GPGGA,134952.000,3353.7553,N,09832.0198,W,2,06,1.5,321.4,M,-23.7,M,0.8,0000*4C
$GPGSA,A,3,15,29,26,18,21,27,,,,,,,3.0,1.5,2.6*35
$GPRMC,134952.000,A,3353.7553,N,09832.0198,W,0.40,123.26,010412,,,D*75
$GPGGA,134953.000,3353.7552,N,09832.0195,W,2,06,1.5,321.2,M,-23.7,M,0.8,0000*47
$GPGSA,A,3,15,29,26,18,21,27,,,,,,,3.0,1.5,2.6*35
$GPGSV,3,1,12,15,66,099,32,21,57,326,16,18,53,276,27,29,51,185,42*70
$GPGSV,3,2,12,26,31,048,35,22,14,254,21,27,13,116,27,06,10,319,*7A
$GPGSV,3,3,12,09,07,138,29,05,07,060,24,16,06,299,,30,03,273,*72
$GPRMC,134953.000,A,3353.7552,N,09832.0195,W,0.31,119.78,010412,,,D*7C
$GPGGA,134954.000,3353.7550,N,09832.0193,W,2,06,1.5,321.0,M,-23.7,M,0.8,0000*46
$GPGSA,A,3,15,29,26,18,21,27,,,,,,,3.0,1.5,2.6*35
$GPRMC,134954.000,A,3353.7550,N,09832.0193,W,0.37,120.38,010412,,,D*77
$GPGGA,134955.000,3353.7549,N,09832.0192,W,2,06,1.5,320.7,M,-23.7,M,1.8,0000*49
$GPGSA,A,3,15,29,26,18,21,27,,,,,,,3.0,1.5,2.6*35
$GPRMC,134955.000,A,3353.7549,N,09832.0192,W,0.41,126.67,010412,,,D*72
$GPGGA,134956.000,3353.7548,N,09832.0190,W,2,06,1.5,320.5,M,-23.7,M,2.8,0000*48
$GPGSA,A,3,15,29,26,18,21,27,,,,,,,3.0,1.5,2.6*35
$GPRMC,134956.000,A,3353.7548,N,09832.0190,W,0.18,101.43,010412,,,D*7D
$GPGGA,134957.000,3353.7548,N,09832.0189,W,2,06,1.5,320.1,M,-23.7,M,0.8,0000*47
$GPGSA,A,3,15,29,26,18,21,27,,,,,,,3.0,1.5,2.6*35
$GPRMC,134957.000,A,3353.7548,N,09832.0189,W,0.19,133.21,010412,,,D*70
$GPGGA,134958.000,3353.7546,N,09832.0189,W,2,06,1.5,319.6,M,-23.7,M,0.8,0000*4B
$GPGSA,A,3,15,29,26,18,21,27,,,,,,,3.0,1.5,2.6*35
$GPGSV,3,1,12,15,66,099,32,21,57,326,15,18,53,276,28,29,51,185,42*7C
$GPGSV,3,2,12,26,31,048,34,22,14,254,20,27,13,116,27,06,10,319,*7A
$GPGSV,3,3,12,09,07,138,30,05,07,060,23,16,06,299,,30,03,273,*7D
$GPRMC,134958.000,A,3353.7546,N,09832.0189,W,0.31,152.80,010412,,,D*77
$GPGGA,134959.000,3353.7545,N,09832.0188,W,2,06,1.5,319.0,M,-23.7,M,0.8,0000*4E
$GPGSA,A,3,15,29,26,18,21,27,,,,,,,3.0,1.5,2.6*35
$GPRMC,134959.000,A,3353.7545,N,09832.0188,W,0.32,156.39,010412,,,D*71
$GPGGA,135000.000,3353.7544,N,09832.0188,W,2,06,1.5,318.5,M,-23.7,M,1.8,0000*4E
$GPGSA,A,3,15,29,26,18,21,27,,,,,,,3.0,1.5,2.6*35
$GPRMC,135000.000,A,3353.7544,N,09832.0188,W,0.10,203.31,010412,,,D*7F
$GPGGA,135001.000,3353.7544,N,09832.0189,W,2,06,1.5,318.0,M,-23.7,M,0.8,0000*4A
$GPGSA,A,3,15,29,26,18,21,27,,,,,,,3.0,1.5,2.6*35
$GPRMC,135001.000,A,3353.7544,N,09832.0189,W,0.15,283.40,010412,,,D*74
$GPGGA,135002.000,3353.7543,N,09832.0189,W,2,06,1.5,317.5,M,-23.7,M,0.8,0000*44
$GPGSA,A,3,15,29,26,18,21,27,,,,,,,3.0,1.5,2.6*35
$GPRMC,135002.000,A,3353.7543,N,09832.0189,W,0.16,280.71,010412,,,D*72
$GPGGA,135003.000,3353.7543,N,09832.0189,W,2,06,1.5,317.1,M,-23.7,M,0.8,0000*41
$GPGSA,A,3,15,29,26,18,21,27,,,,,,,3.0,1.5,2.6*35
$GPGSV,3,1,12,15,66,099,32,21,57,326,15,18,53,276,29,29,51,185,43*7C
$GPGSV,3,2,12,26,31,048,34,22,14,254,20,27,13,116,28,06,10,319,*75
$GPGSV,3,3,12,09,07,138,30,05,07,060,23,16,06,299,,30,03,273,*7D
$GPRMC,135003.000,A,3353.7543,N,09832.0189,W,0.11,307.04,010412,,,D*78
$GPGGA,135004.000,3353.7543,N,09832.0189,W,2,06,1.5,316.8,M,-23.7,M,0.8,0000*4E
$GPGSA,A,3,15,29,26,18,21,27,,,,,,,3.0,1.5,2.6*35
$GPRMC,135004.000,A,3353.7543,N,09832.0189,W,0.13,139.25,010412,,,D*71
$GPGGA,135005.000,3353.7542,N,09832.0188,W,2,06,1.5,316.4,M,-23.7,M,0.8,0000*43
$GPGSA,A,3,15,29,26,18,21,27,,,,,,,3.0,1.5,2.6*35
$GPRMC,135005.000,A,3353.7542,N,09832.0188,W,0.22,137.55,010412,,,D*7B
$GPGGA,135006.000,3353.7541,N,09832.0188,W,2,06,1.5,316.0,M,-23.7,M,1.8,0000*46
$GPGSA,A,3,15,29,26,18,21,27,,,,,,,3.0,1.5,2.6*35
$GPRMC,135006.000,A,3353.7541,N,09832.0188,W,0.10,131.79,010412,,,D*72
$GPGGA,135007.000,3353.7541,N,09832.0188,W,2,06,1.5,315.7,M,-23.7,M,0.8,0000*42
$GPGSA,A,3,15,29,26,18,21,27,,,,,,,3.0,1.5,2.6*35
$GPRMC,135007.000,A,3353.7541,N,09832.0188,W,0.07,308.57,010412,,,D*71
$GPGGA,135008.000,3353.7541,N,09832.0188,W,2,06,1.5,315.5,M,-23.7,M,0.8,0000*4F
$GPGSA,A,3,15,29,26,18,21,27,,,,,,,3.0,1.5,2.6*35
$GPGSV,3,1,12,15,66,099,31,21,57,326,15,18,53,276,29,29,51,185,43*7F
$GPGSV,3,2,12,26,31,048,34,22,14,254,19,27,13,116,28,06,10,319,*7F
$GPGSV,3,3,12,09,07,138,30,05,07,060,22,16,06,299,,30,03,273,*7C
$GPRMC,135008.000,A,3353.7541,N,09832.0188,W,0.05,311.10,010412,,,D*77
$GPGGA,135009.000,3353.7541,N,09832.0189,W,2,06,1.5,315.1,M,-23.7,M,0.8,0000*4B
$GPGSA,A,3,15,29,26,18,21,27,,,,,,,3.0,1.5,2.6*35
$GPRMC,135009.000,A,3353.7541,N,09832.0189,W,0.09,219.28,010412,,,D*79
$GPGGA,135010.000,3353.7540,N,09832.0189,W,2,06,1.5,314.7,M,-23.7,M,0.8,0000*45
$GPGSA,A,3,15,29,26,18,21,27,,,,,,,3.0,1.5,2.6*35
$GPRMC,135010.000,A,3353.7540,N,09832.0189,W,0.14,206.44,010412,,,D*78
$GPGGA,135011.000,3353.7540,N,09832.0190,W,2,06,1.5,314.3,M,-23.7,M,0.8,0000*48
$GPGSA,A,3,15,29,26,18,21,27,,,,,,,3.0,1.5,2.6*35
$GPRMC,135011.000,A,3353.7540,N,09832.0190,W,0.24,181.87,010412,,,D*71
$GPGGA,135012.000,3353.7539,N,09832.0191,W,2,06,1.5,313.8,M,-23.7,M,1.8,0000*49
$GPGSA,A,3,15,29,26,18,21,27,,,,,,,3.0,1.5,2.6*35
$GPRMC,135012.000,A,3353.7539,N,09832.0191,W,0.27,181.85,010412,,,D*7C
$GPGGA,135013.000,3353.7538,N,09832.0192,W,2,06,1.5,313.4,M,-23.7,M,2.8,0000*45
$GPGSA,A,3,15,29,26,18,21,27,,,,,,,3.0,1.5,2.6*35
$GPGSV,3,1,12,15,66,099,31,21,57,326,15,18,53,276,29,29,51,185,43*7F
$GPGSV,3,2,12,26,31,048,33,22,14,254,20,27,13,116,29,06,10,319,*73
$GPGSV,3,3,12,09,07,138,29,05,07,060,21,16,06,299,,30,03,273,*77
$GPRMC,135013.000,A,3353.7538,N,09832.0192,W,0.28,179.89,010412,,,D*7B
$GPGGA,135014.000,3353.7538,N,09832.0192,W,2,06,1.5,312.9,M,-23.7,M,3.8,0000*4F
$GPGSA,A,3,15,29,26,18,21,27,,,,,,,3.0,1.5,2.6*35
$GPRMC,135014.000,A,3353.7538,N,09832.0192,W,0.25,187.66,010412,,,D*71
$GPGGA,135015.000,3353.7537,N,09832.0193,W,2,06,1.5,312.6,M,-23.7,M,0.8,0000*4C
$GPGSA,A,3,15,29,26,18,21,27,,,,,,,3.0,1.5,2.6*35
$GPRMC,135015.000,A,3353.7537,N,09832.0193,W,0.22,180.86,010412,,,D*70
$GPGGA,135016.000,3353.7537,N,09832.0193,W,2,06,1.5,312.3,M,-23.7,M,0.8,0000*4A
$GPGSA,A,3,15,29,26,18,21,27,,,,,,,3.0,1.5,2.6*35
$GPRMC,135016.000,A,3353.7537,N,09832.0193,W,0.09,201.55,010412,,,D*7E
$GPGGA,135017.000,3353.7537,N,09832.0193,W,2,06,1.5,312.0,M,-23.7,M,0.8,0000*48
$GPGSA,A,3,15,29,26,18,21,27,,,,,,,3.0,1.5,2.6*35
$GPRMC,135017.000,A,3353.7537,N,09832.0193,W,0.11,173.43,010412,,,D*77
$GPGGA,135018.000,3353.7537,N,09832.0194,W,2,06,1.5,311.8,M,-23.7,M,1.8,0000*4A
$GPGSA,A,3,15,29,26,18,21,27,,,,,,,3.0,1.5,2.6*35
$GPGSV,3,1,12,15,66,099,32,21,57,326,15,18,53,276,29,29,51,185,43*7C
$GPGSV,3,2,12,26,31,048,33,22,14,254,20,27,13,116,29,06,10,319,*73
$GPGSV,3,3,12,09,07,138,29,05,07,060,20,16,06,299,,30,03,273,*76
$GPRMC,135018.000,A,3353.7537,N,09832.0194,W,0.14,164.43,010412,,,D*7C
$GPGGA,135019.000,3353.7537,N,09832.0194,W,2,06,1.5,311.6,M,-23.7,M,2.8,0000*46
$GPGSA,A,3,15,29,26,18,21,27,,,,,,,3.0,1.5,2.6*35
$GPRMC,135019.000,A,3353.7537,N,09832.0194,W,0.11,175.32,010412,,,D*7E
$GPGGA,135020.000,3353.7539,N,09832.0195,W,2,06,1.5,312.5,M,-23.7,M,3.8,0000*42
$GPGSA,A,3,15,29,26,18,21,27,,,,,,,3.0,1.5,2.6*35
$GPRMC,135020.000,A,3353.7539,N,09832.0195,W,0.22,318.83,010412,,,D*78
$GPGGA,135021.000,3353.7540,N,09832.0196,W,2,06,1.5,313.2,M,-23.7,M,0.8,0000*4B
$GPGSA,A,3,15,29,26,18,21,27,,,,,,,3.0,1.5,2.6*35
$GPRMC,135021.000,A,3353.7540,N,09832.0196,W,0.27,314.00,010412,,,D*76
$GPGGA,135022.000,3353.7542,N,09832.0197,W,2,06,1.5,313.8,M,-23.7,M,0.8,0000*41
$GPGSA,A,3,15,29,26,18,21,27,,,,,,,3.0,1.5,2.6*35
$GPRMC,135022.000,A,3353.7542,N,09832.0197,W,0.12,190.63,010412,,,D*7B
$GPGGA,135023.000,3353.7542,N,09832.0198,W,2,06,1.5,314.3,M,-23.7,M,0.8,0000*43
$GPGSA,A,3,15,29,26,18,21,27,,,,,,,3.0,1.5,2.6*35
$GPGSV,3,1,12,15,66,096,32,21,58,327,16,18,54,277,29,29,50,184,43*78
$GPGSV,3,2,12,26,30,047,33,22,14,255,20,27,14,115,30,06,11,319,*71
$GPGSV,3,3,12,09,08,137,28,05,06,061,20,16,06,298,,30,03,272,*77
$GPRMC,135023.000,A,3353.7542,N,09832.0198,W,0.18,168.55,010412,,,D*7D
$GPGGA,135024.000,3353.7543,N,09832.0199,W,2,06,1.5,314.7,M,-23.7,M,1.8,0000*41
$GPGSA,A,3,15,29,26,18,21,27,,,,,,,3.0,1.5,2.6*35
$GPRMC,135024.000,A,3353.7543,N,09832.0199,W,0.11,170.56,010412,,,D*79
$GPGGA,135025.000,3353.7544,N,09832.0199,W,2,06,1.5,315.2,M,-23.7,M,2.8,0000*40
$GPGSA,A,3,15,29,26,18,21,27,,,,,,,3.0,1.5,2.6*35
$GPRMC,135025.000,A,3353.7544,N,09832.0199,W,0.24,155.99,010412,,,D*7D
$GPGGA,135026.000,3353.7544,N,09832.0200,W,2,06,1.5,315.6,M,-23.7,M,3.8,0000*45
$GPGSA,A,3,15,29,26,18,21,27,,,,,,,3.0,1.5,2.6*35
$GPRMC,135026.000,A,3353.7544,N,09832.0200,W,0.28,155.78,010412,,,D*7E
$GPGGA,135027.000,3353.7544,N,09832.0200,W,2,06,1.5,316.0,M,-23.7,M,0.8,0000*42
$GPGSA,A,3,15,29,26,18,21,27,,,,,,,3.0,1.5,2.6*35
$GPRMC,135027.000,A,3353.7544,N,09832.0200,W,0.23,137.53,010412,,,D*79
$GPGGA,135028.000,3353.7545,N,09832.0200,W,2,06,1.5,316.5,M,-23.7,M,0.8,0000*49
$GPGSA,A,3,15,29,26,18,21,27,,,,,,,3.0,1.5,2.6*35
$GPGSV,3,1,12,15,66,096,31,21,58,327,16,18,54,277,29,29,50,184,43*7B
$GPGSV,3,2,12,26,30,047,32,22,14,255,21,27,14,115,31,06,11,319,*70
$GPGSV,3,3,12,09,08,137,28,05,06,061,21,16,06,298,,30,03,272,*76
$GPRMC,135028.000,A,3353.7545,N,09832.0200,W,0.22,125.93,010412,,,D*79
$GPGGA,135029.000,3353.7546,N,09832.0200,W,2,06,1.5,316.9,M,-23.7,M,0.8,0000*47
$GPGSA,A,3,15,29,26,18,21,27,,,,,,,3.0,1.5,2.6*35
$GPRMC,135029.000,A,3353.7546,N,09832.0200,W,0.23,121.91,010412,,,D*7C
$GPGGA,135030.000,3353.7546,N,09832.0200,W,2,06,1.5,317.3,M,-23.7,M,1.8,0000*45
$GPGSA,A,3,15,29,26,18,21,27,,,,,,,3.0,1.5,2.6*35
$GPRMC,135030.000,A,3353.7546,N,09832.0200,W,0.23,123.17,010412,,,D*78
$GPGGA,135031.000,3353.7547,N,09832.0200,W,2,06,1.5,317.6,M,-23.7,M,2.8,0000*43
$GPGSA,A,3,15,29,26,18,21,27,,,,,,,3.0,1.5,2.6*35
$GPRMC,135031.000,A,3353.7547,N,09832.0200,W,0.25,122.48,010412,,,D*75
$GPGGA,135032.000,3353.7548,N,09832.0200,W,2,06,1.5,317.9,M,-23.7,M,3.8,0000*41
$GPGSA,A,3,15,29,26,18,21,27,,,,,,,3.0,1.5,2.6*35
$GPRMC,135032.000,A,3353.7548,N,09832.0200,W,0.10,83.68,010412,,,D*47
$GPGGA,135033.000,3353.7549,N,09832.0201,W,2,06,1.5,318.2,M,-23.7,M,0.8,0000*47
$GPGSA,A,3,15,29,26,18,21,27,,,,,,,3.0,1.5,2.6*35
$GPGSV,3,1,12,15,66,096,31,21,58,327,17,18,54,277,30,29,50,184,43*72
$GPGSV,3,2,12,26,30,047,32,22,14,255,21,27,14,115,32,06,11,319,*73
$GPGSV,3,3,12,09,08,137,28,05,06,061,21,16,06,298,,30,03,272,*76
$GPRMC,135033.000,A,3353.7549,N,09832.0201,W,0.15,340.85,010412,,,D*7C
$GPGGA,135034.000,3353.7550,N,09832.0202,W,2,06,1.5,318.4,M,-23.7,M,0.8,0000*4D
$GPGSA,A,3,15,29,26,18,21,27,,,,,,,3.0,1.5,2.6*35
$GPRMC,135034.000,A,3353.7550,N,09832.0202,W,0.16,323.68,010412,,,D*75
$GPGGA,135035.000,3353.7550,N,09832.0203,W,2,06,1.5,318.7,M,-23.7,M,0.8,0000*4E
$GPGSA,A,3,15,29,26,18,21,27,,,,,,,3.0,1.5,2.6*35
$GPRMC,135035.000,A,3353.7550,N,09832.0203,W,0.18,144.33,010412,,,D*76
$GPGGA,135036.000,3353.7550,N,09832.0203,W,2,06,1.5,318.9,M,-23.7,M,0.8,0000*43
$GPGSA,A,3,15,29,26,18,21,27,,,,,,,3.0,1.5,2.6*35
$GPRMC,135036.000,A,3353.7550,N,09832.0203,W,0.28,143.17,010412,,,D*77
$GPGGA,135037.000,3353.7551,N,09832.0204,W,2,06,1.5,319.1,M,-23.7,M,0.8,0000*4D
$GPGSA,A,3,15,29,26,18,21,27,,,,,,,3.0,1.5,2.6*35
$GPRMC,135037.000,A,3353.7551,N,09832.0204,W,0.03,331.64,010412,,,D*7A
$GPGGA,135038.000,3353.7552,N,09832.0204,W,2,06,1.5,319.3,M,-23.7,M,1.8,0000*42
$GPGSA,A,3,15,29,26,18,21,27,,,,,,,3.0,1.5,2.6*35
$GPGSV,3,1,12,15,66,096,32,21,58,327,17,18,54,277,30,29,50,184,43*71
$GPGSV,3,2,12,26,30,047,32,22,14,255,20,27,14,115,33,06,11,319,*73
$GPGSV,3,3,12,09,08,137,29,05,06,061,22,16,06,298,,30,03,272,*74
$GPRMC,135038.000,A,3353.7552,N,09832.0204,W,0.10,326.67,010412,,,D*71
$GPGGA,135039.000,3353.7552,N,09832.0205,W,2,06,1.5,319.5,M,-23.7,M,0.8,0000*45
$GPGSA,A,3,15,29,26,18,21,27,,,,,,,3.0,1.5,2.6*35
$GPRMC,135039.000,A,3353.7552,N,09832.0205,W,0.17,131.78,010412,,,D*7C
$GPGGA,135040.000,3353.7552,N,09832.0205,W,2,06,1.5,319.6,M,-23.7,M,0.8,0000*48
$GPGSA,A,3,15,29,26,18,21,27,,,,,,,3.0,1.5,2.6*35
$GPRMC,135040.000,A,3353.7552,N,09832.0205,W,0.17,143.99,010412,,,D*78
$GPGGA,135041.000,3353.7552,N,09832.0205,W,2,06,1.5,319.7,M,-23.7,M,0.8,0000*48
$GPGSA,A,3,15,29,26,18,21,27,,,,,,,3.0,1.5,2.6*35
$GPRMC,135041.000,A,3353.7552,N,09832.0205,W,0.24,146.27,010412,,,D*79
$GPGGA,135042.000,3353.7552,N,09832.0205,W,2,06,1.5,319.7,M,-23.7,M,1.8,0000*4A
$GPGSA,A,3,15,29,26,18,21,27,,,,,,,3.0,1.5,2.6*35
$GPRMC,135042.000,A,3353.7552,N,09832.0205,W,0.21,146.86,010412,,,D*74
$GPGGA,135043.000,3353.7552,N,09832.0206,W,2,06,1.5,319.8,M,-23.7,M,2.8,0000*44
$GPGSA,A,3,15,29,26,18,21,27,,,,,,,3.0,1.5,2.6*35
$GPGSV,3,1,12,15,66,096,33,21,58,327,17,18,54,277,30,29,50,184,43*70
$GPGSV,3,2,12,26,30,047,32,22,14,255,19,27,14,115,33,06,11,319,*79
$GPGSV,3,3,12,09,08,137,29,05,06,061,22,16,06,298,,30,03,272,*74
$GPRMC,135043.000,A,3353.7552,N,09832.0206,W,0.13,159.00,010412,,,D*77
$GPGGA,135044.000,3353.7553,N,09832.0206,W,2,06,1.5,319.8,M,-23.7,M,3.8,0000*43
$GPGSA,A,3,15,29,26,18,21,27,,,,,,,3.0,1.5,2.6*35
$GPRMC,135044.000,A,3353.7553,N,09832.0206,W,0.02,195.53,010412,,,D*77
$GPGGA,135045.000,3353.7553,N,09832.0207,W,2,06,1.5,320.0,M,-23.7,M,0.8,0000*42
$GPGSA,A,3,15,29,26,18,21,27,,,,,,,3.0,1.5,2.6*35
$GPRMC,135045.000,A,3353.7553,N,09832.0207,W,0.05,278.00,010412,,,D*76
$GPGGA,135046.000,3353.7554,N,09832.0207,W,2,06,1.5,320.1,M,-23.7,M,0.8,0000*47
$GPGSA,A,3,15,29,26,18,21,27,,,,,,,3.0,1.5,2.6*35
$GPRMC,135046.000,A,3353.7554,N,09832.0207,W,0.08,37.28,010412,,,D*4C
$GPGGA,135047.000,3353.7554,N,09832.0207,W,2,06,1.5,320.3,M,-23.7,M,0.8,0000*44
$GPGSA,A,3,15,29,26,18,21,27,,,,,,,3.0,1.5,2.6*35
$GPRMC,135047.000,A,3353.7554,N,09832.0207,W,0.13,111.80,010412,,,D*70
$GPGGA,135048.000,3353.7555,N,09832.0207,W,2,06,1.5,320.4,M,-23.7,M,1.8,0000*4C
$GPGSA,A,3,15,29,26,18,21,27,,,,,,,3.0,1.5,2.6*35
$GPGSV,3,1,12,15,66,096,33,21,58,327,17,18,54,277,30,29,50,184,43*70
$GPGSV,3,2,12,26,30,047,31,22,14,255,19,27,14,115,33,06,11,319,*7A
$GPGSV,3,3,12,09,08,137,29,05,06,061,23,16,06,298,,30,03,272,*75
$GPRMC,135048.000,A,3353.7555,N,09832.0207,W,0.10,6.67,010412,,,D*73
$GPGGA,135049.000,3353.7555,N,09832.0207,W,2,06,1.5,320.5,M,-23.7,M,2.8,0000*4F
$GPGSA,A,3,15,29,26,18,21,27,,,,,,,3.0,1.5,2.6*35
$GPRMC,135049.000,A,3353.7555,N,09832.0207,W,0.16,351.86,010412,,,D*7A
$GPGGA,135050.000,3353.7556,N,09832.0208,W,2,06,1.5,320.6,M,-23.7,M,3.8,0000*49
$GPGSA,A,3,15,29,26,18,21,27,,,,,,,3.0,1.5,2.6*35
$GPRMC,135050.000,A,3353.7556,N,09832.0208,W,0.18,348.06,010412,,,D*70
$GPGGA,135051.000,3353.7557,N,09832.0208,W,2,06,1.5,320.6,M,-23.7,M,0.8,0000*4A
$GPGSA,A,3,15,29,26,18,21,27,,,,,,,3.0,1.5,2.6*35
