$GPGGA,203719.000,3352.0692,N,09831.8483,W,2,10,0.8,295.9,M,-23.7,M,1.8,0000*4F
$GPGSA,A,3,23,01,30,25,14,11,22,16,20,32,,,1.5,0.8,1.3*39
$GPRMC,203719.000,A,3352.0692,N,09831.8483,W,0.03,129.04,010412,,,D*72
$GPGGA,203720.000,3352.0692,N,09831.8483,W,2,10,0.8,295.9,M,-23.7,M,2.8,0000*46
$GPGSA,A,3,23,01,30,25,14,11,22,16,20,32,,,1.5,0.8,1.3*39
$GPRMC,203720.000,A,3352.0692,N,09831.8483,W,0.04,170.46,010412,,,D*75
$GPGGA,203721.000,3352.0692,N,09831.8484,W,2,10,0.8,295.9,M,-23.7,M,0.8,0000*42
$GPGSA,A,3,23,01,30,25,14,11,22,16,20,32,,,1.5,0.8,1.3*39
$GPRMC,203721.000,A,3352.0692,N,09831.8484,W,0.08,86.53,010412,,,D*43
$GPGGA,203722.000,3352.0691,N,09831.8484,W,2,10,0.8,295.9,M,-23.7,M,0.8,0000*42
$GPGSA,A,3,23,01,30,25,14,11,22,16,20,32,,,1.5,0.8,1.3*39
$GPGSV,3,1,12,32,67,303,37,31,58,030,,30,50,152,43,20,38,309,33*74
$GPGSV,3,2,12,14,27,080,29,16,26,172,35,01,24,254,35,23,14,292,36*73
$GPGSV,3,3,12,25,12,040,28,22,11,145,37,11,10,236,33,51,49,195,42*70
$GPRMC,203722.000,A,3352.0691,N,09831.8484,W,0.08,32.99,010412,,,D*4A
$GPGGA,203723.000,3352.0691,N,09831.8484,W,2,10,0.8,295.9,M,-23.7,M,0.8,0000*43
$GPGSA,A,3,23,01,30,25,14,11,22,16,20,32,,,1.5,0.8,1.3*39
$GPRMC,203723.000,A,3352.0691,N,09831.8484,W,0.12,38.21,010412,,,D*49
$GPGGA,203724.000,3352.0691,N,09831.8484,W,2,10,0.8,295.9,M,-23.7,M,1.8,0000*45
$GPGSA,A,3,23,01,30,25,14,11,22,16,20,32,,,1.5,0.8,1.3*39
$GPRMC,203724.000,A,3352.0691,N,09831.8484,W,0.10,42.26,010412,,,D*46
$GPGGA,203725.000,3352.0691,N,09831.8484,W,2,10,0.8,295.9,M,-23.7,M,2.8,0000*47
$GPGSA,A,3,23,01,30,25,14,11,22,16,20,32,,,1.5,0.8,1.3*39
$GPRMC,203725.000,A,3352.0691,N,09831.8484,W,0.11,51.30,010412,,,D*43
$GPGGA,203726.000,3352.0691,N,09831.8484,W,2,10,0.8,295.9,M,-23.7,M,3.8,0000*45
$GPGSA,A,3,23,01,30,25,14,11,22,16,20,32,,,1.5,0.8,1.3*39
$GPRMC,203726.000,A,3352.0691,N,09831.8484,W,0.11,37.23,010412,,,D*42
$GPGGA,203727.000,3352.0691,N,09831.8484,W,2,10,0.8,295.9,M,-23.7,M,0.8,0000*47
$GPGSA,A,3,23,01,30,25,14,11,22,16,20,32,,,1.5,0.8,1.3*39
$GPGSV,3,1,12,32,67,303,37,31,58,030,,30,50,152,43,20,38,309,33*74
$GPGSV,3,2,12,14,27,080,29,16,26,172,35,01,24,254,35,23,14,292,36*73
$GPGSV,3,3,12,25,12,040,28,22,11,145,37,11,10,236,33,51,49,195,43*71
$GPRMC,203727.000,A,3352.0691,N,09831.8484,W,0.04,20.08,010412,,,D*48
$GPGGA,203728.000,3352.0691,N,09831.8484,W,2,10,0.8,295.9,M,-23.7,M,0.8,0000*48
$GPGSA,A,3,23,01,30,25,14,11,22,16,20,32,,,1.5,0.8,1.3*39
$GPRMC,203728.000,A,3352.0691,N,09831.8484,W,0.05,107.59,010412,,,D*76
$GPGGA,203729.000,3352.0691,N,09831.8484,W,2,10,0.8,295.9,M,-23.7,M,0.8,0000*49
$GPGSA,A,3,23,01,30,25,14,11,22,16,20,32,,,1.5,0.8,1.3*39
$GPRMC,203729.000,A,3352.0691,N,09831.8484,W,0.03,173.55,010412,,,D*7E
$GPGGA,203730.000,3352.0690,N,09831.8485,W,2,10,0.8,295.9,M,-23.7,M,1.8,0000*40
$GPGSA,A,3,23,01,30,25,14,11,22,16,20,32,,,1.5,0.8,1.3*39
$GPRMC,203730.000,A,3352.0690,N,09831.8485,W,0.04,173.10,010412,,,D*70
$GPGGA,203731.000,3352.0690,N,09831.8485,W,2,10,0.8,295.9,M,-23.7,M,2.8,0000*42
$GPGSA,A,3,23,01,30,25,14,11,22,16,20,32,,,1.5,0.8,1.3*39
$GPRMC,203731.000,A,3352.0690,N,09831.8485,W,0.02,148.46,010412,,,D*7C
$GPGGA,203732.000,3352.0689,N,09831.8485,W,2,10,0.8,295.9,M,-23.7,M,0.8,0000*4B
$GPGSA,A,3,23,01,30,25,14,11,22,16,20,32,,,1.5,0.8,1.3*39
$GPGSV,3,1,12,32,67,303,37,31,58,030,,30,50,152,43,20,38,309,32*75
$GPGSV,3,2,12,14,27,080,29,16,26,172,35,01,24,254,35,23,14,292,36*73
$GPGSV,3,3,12,25,12,040,28,22,11,145,37,11,10,236,33,51,49,195,42*70
$GPRMC,203732.000,A,3352.0689,N,09831.8485,W,0.03,167.69,010412,,,D*76
$GPGGA,203733.000,3352.0689,N,09831.8485,W,2,10,0.8,295.9,M,-23.7,M,0.8,0000*4A
$GPGSA,A,3,23,01,30,25,14,11,22,16,20,32,,,1.5,0.8,1.3*39
$GPRMC,203733.000,A,3352.0689,N,09831.8485,W,0.06,89.19,010412,,,D*44
$GPGGA,203734.000,3352.0689,N,09831.8486,W,2,10,0.8,295.9,M,-23.7,M,0.8,0000*4E
$GPGSA,A,3,23,01,30,25,14,11,22,16,20,32,,,1.5,0.8,1.3*39
$GPRMC,203734.000,A,3352.0689,N,09831.8486,W,0.06,5.69,010412,,,D*73
$GPGGA,203735.000,3352.0689,N,09831.8486,W,2,10,0.8,295.8,M,-23.7,M,0.8,0000*4E
$GPGSA,A,3,23,01,30,25,14,11,22,16,20,32,,,1.5,0.8,1.3*39
$GPRMC,203735.000,A,3352.0689,N,09831.8486,W,0.09,36.07,010412,,,D*45
$GPGGA,203736.000,3352.0689,N,09831.8486,W,2,10,0.8,295.8,M,-23.7,M,1.8,0000*4C
$GPGSA,A,3,23,01,30,25,14,11,22,16,20,32,,,1.5,0.8,1.3*39
$GPRMC,203736.000,A,3352.0689,N,09831.8486,W,0.09,34.15,010412,,,D*47
$GPGGA,203737.000,3352.0689,N,09831.8486,W,2,10,0.8,295.8,M,-23.7,M,2.8,0000*4E
$GPGSA,A,3,23,01,30,25,14,11,22,16,20,32,,,1.5,0.8,1.3*39
$GPGSV,3,1,12,32,67,303,37,31,58,030,,30,50,152,44,20,38,309,32*72
$GPGSV,3,2,12,14,27,080,29,16,26,172,35,01,24,254,35,23,14,292,36*73
$GPGSV,3,3,12,25,12,040,28,22,11,145,36,11,10,236,33,51,49,195,42*71
$GPRMC,203737.000,A,3352.0689,N,09831.8486,W,0.08,36.90,010412,,,D*48
$GPGGA,203738.000,3352.0689,N,09831.8486,W,2,10,0.8,295.8,M,-23.7,M,0.8,0000*43
$GPGSA,A,3,23,01,30,25,14,11,22,16,20,32,,,1.5,0.8,1.3*39
$GPRMC,203738.000,A,3352.0689,N,09831.8486,W,0.09,32.08,010412,,,D*43
$GPGGA,203739.000,3352.0688,N,09831.8486,W,2,10,0.8,295.8,M,-23.7,M,0.8,0000*43
$GPGSA,A,3,23,01,30,25,14,11,22,16,20,32,,,1.5,0.8,1.3*39
$GPRMC,203739.000,A,3352.0688,N,09831.8486,W,0.04,55.67,010412,,,D*46
$GPGGA,203740.000,3352.0688,N,09831.8486,W,2,10,0.8,295.9,M,-23.7,M,0.8,0000*4C
$GPGSA,A,3,23,01,30,25,14,11,22,16,20,32,,,1.5,0.8,1.3*39
$GPRMC,203740.000,A,3352.0688,N,09831.8486,W,0.05,120.75,010412,,,D*79
$GPGGA,203741.000,3352.0688,N,09831.8486,W,2,10,0.8,295.9,M,-23.7,M,0.8,0000*4D
$GPGSA,A,3,23,01,30,25,14,11,22,16,20,32,,,1.5,0.8,1.3*39
$GPRMC,203741.000,A,3352.0688,N,09831.8486,W,0.04,170.89,010412,,,D*7F
$GPGGA,203742.000,3352.0687,N,09831.8487,W,2,10,0.8,295.9,M,-23.7,M,1.8,0000*41
$GPGSA,A,3,23,01,30,25,14,11,22,16,20,32,,,1.5,0.8,1.3*39
$GPGSV,3,1,12,32,67,303,37,31,58,030,,30,50,152,44,20,38,309,32*72
$GPGSV,3,2,12,14,27,080,30,16,26,172,35,01,24,254,36,23,14,292,36*78
$GPGSV,3,3,12,25,12,040,28,22,11,145,36,11,10,236,32,51,49,195,42*70
$GPRMC,203742.000,A,3352.0687,N,09831.8487,W,0.04,165.74,010412,,,D*74
$GPGGA,203743.000,3352.0687,N,09831.8487,W,2,10,0.8,295.9,M,-23.7,M,2.8,0000*43
$GPGSA,A,3,23,01,30,25,14,11,22,16,20,32,,,1.5,0.8,1.3*39
$GPRMC,203743.000,A,3352.0687,N,09831.8487,W,0.06,182.47,010412,,,D*7E
$GPGGA,203744.000,3352.0686,N,09831.8487,W,2,10,0.8,295.9,M,-23.7,M,3.8,0000*44
$GPGSA,A,3,23,01,30,25,14,11,22,16,20,32,,,1.5,0.8,1.3*39
$GPRMC,203744.000,A,3352.0686,N,09831.8487,W,0.04,169.30,010412,,,D*7F
$GPGGA,203745.000,3352.0686,N,09831.8487,W,2,10,0.8,295.9,M,-23.7,M,0.8,0000*46
$GPGSA,A,3,23,01,30,25,14,11,22,16,20,32,,,1.5,0.8,1.3*39
$GPRMC,203745.000,A,3352.0686,N,09831.8487,W,0.05,91.25,010412,,,D*4D
$GPGGA,203746.000,3352.0686,N,09831.8487,W,2,10,0.8,295.9,M,-23.7,M,0.8,0000*45
$GPGSA,A,3,23,01,30,25,14,11,22,16,20,32,,,1.5,0.8,1.3*39
$GPRMC,203746.000,A,3352.0686,N,09831.8487,W,0.07,15.49,010412,,,D*4A
$GPGGA,203747.000,3352.0686,N,09831.8487,W,2,10,0.8,295.9,M,-23.7,M,0.8,0000*44
$GPGSA,A,3,23,01,30,25,14,11,22,16,20,32,,,1.5,0.8,1.3*39
$GPGSV,3,1,12,32,67,303,36,31,58,030,,30,50,152,44,20,38,309,32*73
$GPGSV,3,2,12,14,27,080,30,16,26,172,35,01,24,254,36,23,14,292,36*78
$GPGSV,3,3,12,25,12,040,28,22,11,145,35,11,10,236,32,51,49,195,42*73
$GPRMC,203747.000,A,3352.0686,N,09831.8487,W,0.09,47.62,010412,,,D*4B
$GPGGA,203748.000,3352.0686,N,09831.8487,W,2,10,0.8,295.9,M,-23.7,M,0.8,0000*4B
$GPGSA,A,3,23,01,30,25,14,11,22,16,20,32,,,1.5,0.8,1.3*39
$GPRMC,203748.000,A,3352.0686,N,09831.8487,W,0.10,43.63,010412,,,D*49
$GPGGA,203749.000,3352.0686,N,09831.8487,W,2,10,0.8,295.9,M,-23.7,M,1.8,0000*4B
$GPGSA,A,3,23,01,30,25,14,11,22,16,20,32,,,1.5,0.8,1.3*39
$GPRMC,203749.000,A,3352.0686,N,09831.8487,W,0.07,34.66,010412,,,D*4B
$GPGGA,203750.000,3352.0686,N,09831.8487,W,2,10,0.8,295.9,M,-23.7,M,2.8,0000*40
$GPGSA,A,3,23,01,30,25,14,11,22,16,20,32,,,1.5,0.8,1.3*39
$GPRMC,203750.000,A,3352.0686,N,09831.8487,W,0.10,39.39,010412,,,D*42
$GPGGA,203751.000,3352.0686,N,09831.8487,W,2,10,0.8,295.9,M,-23.7,M,0.8,0000*43
$GPGSA,A,3,23,01,30,25,14,11,22,16,20,32,,,1.5,0.8,1.3*39
$GPRMC,203751.000,A,3352.0686,N,09831.8487,W,0.03,356.24,010412,,,D*77
$GPGGA,203752.000,3352.0686,N,09831.8487,W,2,10,0.8,295.9,M,-23.7,M,0.8,0000*40
$GPGSA,A,3,23,01,30,25,14,11,22,16,20,32,,,1.5,0.8,1.3*39
$GPGSV,3,1,12,32,67,303,36,31,58,030,,30,50,152,44,20,38,309,32*73
$GPGSV,3,2,12,14,27,080,30,16,26,172,35,01,24,254,36,23,14,292,36*78
$GPGSV,3,3,12,25,12,040,28,22,11,145,35,11,10,236,32,51,49,195,42*73
$GPRMC,203752.000,A,3352.0686,N,09831.8487,W,0.05,95.41,010412,,,D*4D
$GPGGA,203753.000,3352.0686,N,09831.8487,W,2,10,0.8,295.9,M,-23.7,M,0.8,0000*41
$GPGSA,A,3,23,01,30,25,14,11,22,16,20,32,,,1.5,0.8,1.3*39
$GPRMC,203753.000,A,3352.0686,N,09831.8487,W,0.02,160.59,010412,,,D*79
$GPGGA,203754.000,3352.0685,N,09831.8487,W,2,10,0.8,295.9,M,-23.7,M,0.8,0000*45
$GPGSA,A,3,23,01,30,25,14,11,22,16,20,32,,,1.5,0.8,1.3*39
$GPRMC,203754.000,A,3352.0685,N,09831.8487,W,0.04,187.88,010412,,,D*7E
$GPGGA,203755.000,3352.0685,N,09831.8487,W,2,10,0.8,295.9,M,-23.7,M,1.8,0000*45
$GPGSA,A,3,23,01,30,25,14,11,22,16,20,32,,,1.5,0.8,1.3*39
$GPRMC,203755.000,A,3352.0685,N,09831.8487,W,0.03,184.68,010412,,,D*75
$GPGGA,203756.000,3352.0685,N,09831.8487,W,2,10,0.8,295.9,M,-23.7,M,2.8,0000*45
$GPGSA,A,3,23,01,30,25,14,11,22,16,20,32,,,1.5,0.8,1.3*39
$GPRMC,203756.000,A,3352.0685,N,09831.8487,W,0.02,165.91,010412,,,D*7E
$GPGGA,203757.000,3352.0685,N,09831.8487,W,2,10,0.8,295.9,M,-23.7,M,0.8,0000*46
$GPGSA,A,3,23,01,30,25,14,11,22,16,20,32,,,1.5,0.8,1.3*39
$GPGSV,3,1,12,32,67,303,36,31,58,030,,30,50,152,44,20,38,309,32*73
$GPGSV,3,2,12,14,27,080,29,16,26,172,35,01,24,254,37,23,14,292,36*71
$GPGSV,3,3,12,25,12,040,29,22,11,145,34,11,10,236,31,51,49,195,42*70
$GPRMC,203757.000,A,3352.0685,N,09831.8487,W,0.04,71.34,010412,,,D*42
$GPGGA,203758.000,3352.0685,N,09831.8487,W,2,10,0.8,295.9,M,-23.7,M,0.8,0000*49
$GPGSA,A,3,23,01,30,25,14,11,22,16,20,32,,,1.5,0.8,1.3*39
$GPRMC,203758.000,A,3352.0685,N,09831.8487,W,0.07,354.99,010412,,,D*7D
$GPGGA,203759.000,3352.0685,N,09831.8487,W,2,10,0.8,295.9,M,-23.7,M,0.8,0000*48
$GPGSA,A,3,23,01,30,25,14,11,22,16,20,32,,,1.5,0.8,1.3*39
$GPRMC,203759.000,A,3352.0685,N,09831.8487,W,0.10,24.78,010412,,,D*41
$GPGGA,203800.000,3352.0685,N,09831.8487,W,2,10,0.8,295.9,M,-23.7,M,1.8,0000*4A
$GPGSA,A,3,23,01,30,25,14,11,22,16,20,32,,,1.5,0.8,1.3*39
$GPRMC,203800.000,A,3352.0685,N,09831.8487,W,0.08,13.83,010412,,,D*4B
$GPGGA,203801.000,3352.0685,N,09831.8487,W,2,10,0.8,295.8,M,-23.7,M,0.8,0000*4B
$GPGSA,A,3,23,01,30,25,14,11,22,16,20,32,,,1.5,0.8,1.3*39
$GPRMC,203801.000,A,3352.0685,N,09831.8487,W,0.09,18.42,010412,,,D*4D
$GPGGA,203802.000,3352.0685,N,09831.8487,W,2,10,0.8,295.8,M,-23.7,M,1.8,0000*49
$GPGSA,A,3,23,01,30,25,14,11,22,16,20,32,,,1.5,0.8,1.3*39
$GPGSV,3,1,12,32,67,303,36,31,58,030,,30,50,152,44,20,38,309,32*73
$GPGSV,3,2,12,14,27,080,30,16,26,172,35,01,24,254,37,23,14,292,36*79
$GPGSV,3,3,12,25,12,040,29,22,11,145,34,11,10,236,31,51,49,195,42*70
$GPRMC,203802.000,A,3352.0685,N,09831.8487,W,0.07,16.20,010412,,,D*4A
$GPGGA,203803.000,3352.0685,N,09831.8487,W,2,10,0.8,295.8,M,-23.7,M,0.8,0000*49
$GPGSA,A,3,23,01,30,25,14,11,22,16,20,32,,,1.5,0.8,1.3*39
$GPRMC,203803.000,A,3352.0685,N,09831.8487,W,0.05,25.11,010412,,,D*4B
$GPGGA,203804.000,3352.0685,N,09831.8487,W,2,10,0.8,295.8,M,-23.7,M,0.8,0000*4E
$GPGSA,A,3,23,01,30,25,14,11,22,16,20,32,,,1.5,0.8,1.3*39
$GPRMC,203804.000,A,3352.0685,N,09831.8487,W,0.06,124.26,010412,,,D*7B
$GPGGA,203805.000,3352.0685,N,09831.8487,W,2,10,0.8,295.9,M,-23.7,M,0.8,0000*4E
$GPGSA,A,3,23,01,30,25,14,11,22,16,20,32,,,1.5,0.8,1.3*39
$GPRMC,203805.000,A,3352.0685,N,09831.8487,W,0.05,127.31,010412,,,D*7C
$GPGGA,203806.000,3352.0685,N,09831.8486,W,2,10,0.8,295.9,M,-23.7,M,1.8,0000*4D
$GPGSA,A,3,23,01,30,25,14,11,22,16,20,32,,,1.5,0.8,1.3*39
$GPRMC,203806.000,A,3352.0685,N,09831.8486,W,0.05,147.28,010412,,,D*70
$GPGGA,203807.000,3352.0685,N,09831.8486,W,2,10,0.8,295.9,M,-23.7,M,2.8,0000*4F
$GPGSA,A,3,23,01,30,25,14,11,22,16,20,32,,,1.5,0.8,1.3*39
$GPGSV,3,1,12,32,67,303,36,31,58,030,,30,50,152,44,20,38,309,31*70
$GPGSV,3,2,12,14,27,080,30,16,26,172,35,01,24,254,37,23,14,292,35*7A
$GPGSV,3,3,12,25,12,040,29,22,11,145,34,11,10,236,30,51,49,195,42*71
$GPRMC,203807.000,A,3352.0685,N,09831.8486,W,0.05,146.61,010412,,,D*7D
$GPGGA,203808.000,3352.0684,N,09831.8486,W,2,10,0.8,295.9,M,-23.7,M,0.8,0000*43
$GPGSA,A,3,23,01,30,25,14,11,22,16,20,32,,,1.5,0.8,1.3*39
$GPRMC,203808.000,A,3352.0684,N,09831.8486,W,0.02,123.20,010412,,,D*72
$GPGGA,203809.000,3352.0684,N,09831.8486,W,2,10,0.8,295.9,M,-23.7,M,0.8,0000*42
$GPGSA,A,3,23,01,30,25,14,11,22,16,20,32,,,1.5,0.8,1.3*39
$GPRMC,203809.000,A,3352.0684,N,09831.8486,W,0.07,75.35,010412,,,D*40
$GPGGA,203810.000,3352.0684,N,09831.8486,W,2,10,0.8,295.9,M,-23.7,M,0.8,0000*4A
$GPGSA,A,3,23,01,30,25,14,11,22,16,20,32,,,1.5,0.8,1.3*39
$GPRMC,203810.000,A,3352.0684,N,09831.8486,W,0.06,4.08,010412,,,D*71
$GPGGA,203811.000,3352.0685,N,09831.8486,W,2,10,0.8,295.9,M,-23.7,M,0.8,0000*4A
$GPGSA,A,3,23,01,30,25,14,11,22,16,20,32,,,1.5,0.8,1.3*39
$GPRMC,203811.000,A,3352.0685,N,09831.8486,W,0.07,16.99,010412,,,D*4B
$GPGGA,203812.000,3352.0685,N,09831.8486,W,2,10,0.8,295.9,M,-23.7,M,1.8,0000*48
$GPGSA,A,3,23,01,30,25,14,11,22,16,20,32,,,1.5,0.8,1.3*39
$GPGSV,3,1,12,32,67,303,36,31,58,030,,30,50,152,44,20,38,309,31*70
$GPGSV,3,2,12,14,27,080,31,16,26,172,36,01,24,254,36,23,14,292,35*79
$GPGSV,3,3,12,25,12,040,29,22,11,145,34,11,10,236,30,51,49,195,42*71
$GPRMC,203812.000,A,3352.0685,N,09831.8486,W,0.09,18.75,010412,,,D*4A
$GPGGA,203813.000,3352.0685,N,09831.8486,W,2,10,0.8,295.9,M,-23.7,M,2.8,0000*4A
$GPGSA,A,3,23,01,30,25,14,11,22,16,20,32,,,1.5,0.8,1.3*39
$GPRMC,203813.000,A,3352.0685,N,09831.8486,W,0.10,28.68,010412,,,D*4C
$GPGGA,203814.000,3352.0685,N,09831.8485,W,2,10,0.8,295.9,M,-23.7,M,3.8,0000*4F
$GPGSA,A,3,23,01,30,25,14,11,22,16,20,32,,,1.5,0.8,1.3*39
$GPRMC,203814.000,A,3352.0685,N,09831.8485,W,0.08,30.57,010412,,,D*44
$GPGGA,203815.000,3352.0685,N,09831.8485,W,2,10,0.8,295.9,M,-23.7,M,0.8,0000*4D
$GPGSA,A,3,23,01,30,25,14,11,22,16,20,32,,,1.5,0.8,1.3*39
$GPRMC,203815.000,A,3352.0685,N,09831.8485,W,0.04,20.35,010412,,,D*4C
$GPGGA,203816.000,3352.0685,N,09831.8485,W,2,10,0.8,295.9,M,-23.7,M,0.8,0000*4E
$GPGSA,A,3,23,01,30,25,14,11,22,16,20,32,,,1.5,0.8,1.3*39
$GPRMC,203816.000,A,3352.0685,N,09831.8485,W,0.06,149.03,010412,,,D*76
$GPGGA,203817.000,3352.0685,N,09831.8485,W,2,10,0.8,295.9,M,-23.7,M,0.8,0000*4F
$GPGSA,A,3,23,01,30,25,14,11,22,16,20,32,,,1.5,0.8,1.3*39
$GPGSV,3,1,12,32,67,303,36,31,58,030,,30,50,152,44,20,38,309,31*70
$GPGSV,3,2,12,14,27,080,31,16,26,172,36,01,24,254,36,23,14,292,35*79
$GPGSV,3,3,12,25,12,040,29,22,11,145,34,11,10,236,30,51,49,195,42*71
$GPRMC,203817.000,A,3352.0685,N,09831.8485,W,0.04,117.56,010412,,,D*7E
$GPGGA,203818.000,3352.0685,N,09831.8485,W,2,10,0.8,295.9,M,-23.7,M,0.8,0000*40
$GPGSA,A,3,23,01,30,25,14,11,22,16,20,32,,,1.5,0.8,1.3*39
$GPRMC,203818.000,A,3352.0685,N,09831.8485,W,0.05,154.38,010412,,,D*7F
$GPGGA,203819.000,3352.0685,N,09831.8485,W,2,10,0.8,295.9,M,-23.7,M,0.8,0000*41
$GPGSA,A,3,23,01,30,25,14,11,22,16,20,32,,,1.5,0.8,1.3*39
$GPRMC,203819.000,A,3352.0685,N,09831.8485,W,0.04,136.68,010412,,,D*7E
$GPGGA,203820.000,3352.0685,N,09831.8485,W,2,10,0.8,295.9,M,-23.7,M,1.8,0000*4A
$GPGSA,A,3,23,01,30,25,14,11,22,16,20,32,,,1.5,0.8,1.3*39
$GPRMC,203820.000,A,3352.0685,N,09831.8485,W,0.05,156.69,010412,,,D*72
$GPGGA,203821.000,3352.0685,N,09831.8485,W,2,10,0.8,295.9,M,-23.7,M,0.8,0000*4A
$GPGSA,A,3,23,01,30,25,14,11,22,16,20,32,,,1.5,0.8,1.3*39
$GPRMC,203821.000,A,3352.0685,N,09831.8485,W,0.05,48.46,010412,,,D*40
$GPGGA,203822.000,3352.0685,N,09831.8485,W,2,10,0.8,295.9,M,-23.7,M,0.8,0000*49
$GPGSA,A,3,23,01,30,25,14,11,22,16,20,32,,,1.5,0.8,1.3*39
$GPGSV,3,1,12,32,68,301,36,31,57,030,,30,51,151,44,20,39,309,31*71
$GPGSV,3,2,12,16,27,172,36,14,26,081,30,01,23,253,36,23,14,293,35*78
$GPGSV,3,3,12,25,12,039,29,22,10,145,35,11,09,235,30,51,49,195,42*74
$GPRMC,203822.000,A,3352.0685,N,09831.8485,W,0.09,6.48,010412,,,D*7B
$GPGGA,203823.000,3352.0685,N,09831.8485,W,2,10,0.8,295.9,M,-23.7,M,0.8,0000*48
$GPGSA,A,3,23,01,30,25,14,11,22,16,20,32,,,1.5,0.8,1.3*39
$GPRMC,203823.000,A,3352.0685,N,09831.8485,W,0.09,8.13,010412,,,D*7A
$GPGGA,203824.000,3352.0686,N,09831.8484,W,2,10,0.8,295.8,M,-23.7,M,1.8,0000*4D
$GPGSA,A,3,23,01,30,25,14,11,22,16,20,32,,,1.5,0.8,1.3*39
$GPRMC,203824.000,A,3352.0686,N,09831.8484,W,0.10,9.96,010412,,,D*7B
$GPGGA,203825.000,3352.0686,N,09831.8484,W,2,10,0.8,295.8,M,-23.7,M,0.8,0000*4D
$GPGSA,A,3,23,01,30,25,14,11,22,16,20,32,,,1.5,0.8,1.3*39
$GPRMC,203825.000,A,3352.0686,N,09831.8484,W,0.09,6.92,010412,,,D*79
$GPGGA,203826.000,3352.0686,N,09831.8484,W,2,10,0.8,295.8,M,-23.7,M,1.8,0000*4F
$GPGSA,A,3,23,01,30,25,14,11,22,16,20,32,,,1.5,0.8,1.3*39
$GPRMC,203826.000,A,3352.0686,N,09831.8484,W,0.08,7.91,010412,,,D*79
$GPGGA,203827.000,3352.0686,N,09831.8484,W,2,10,0.8,295.8,M,-23.7,M,0.8,0000*4F
$GPGSA,A,3,23,01,30,25,14,11,22,16,20,32,,,1.5,0.8,1.3*39
$GPGSV,3,1,12,32,68,301,36,31,57,030,,30,51,151,44,20,39,309,32*72
$GPGSV,3,2,12,16,27,172,36,14,26,081,31,01,23,253,36,23,14,293,35*79
$GPGSV,3,3,12,25,12,039,29,22,10,145,35,11,09,235,30,51,49,195,42*74
$GPRMC,203827.000,A,3352.0686,N,09831.8484,W,0.04,17.06,010412,,,D*4B
$GPGGA,203828.000,3352.0686,N,09831.8484,W,2,10,0.8,295.8,M,-23.7,M,0.8,0000*40
$GPGSA,A,3,23,01,30,25,14,11,22,16,20,32,,,1.5,0.8,1.3*39
$GPRMC,203828.000,A,3352.0686,N,09831.8484,W,0.03,158.16,010412,,,D*78
$GPGGA,203829.000,3352.0686,N,09831.8484,W,2,10,0.8,295.8,M,-23.7,M,0.8,0000*41
$GPGSA,A,3,23,01,30,25,14,11,22,16,20,32,,,1.5,0.8,1.3*39
$GPRMC,203829.000,A,3352.0686,N,09831.8484,W,0.05,139.05,010412,,,D*7A
$GPGGA,203830.000,3352.0686,N,09831.8484,W,2,10,0.8,295.8,M,-23.7,M,1.8,0000*48
$GPGSA,A,3,23,01,30,25,14,11,22,16,20,32,,,1.5,0.8,1.3*39
$GPRMC,203830.000,A,3352.0686,N,09831.8484,W,0.04,125.58,010412,,,D*76
$GPGGA,203831.000,3352.0686,N,09831.8484,W,2,10,0.8,295.8,M,-23.7,M,2.8,0000*4A
$GPGSA,A,3,23,01,30,25,14,11,22,16,20,32,,,1.5,0.8,1.3*39
$GPRMC,203831.000,A,3352.0686,N,09831.8484,W,0.04,129.19,010412,,,D*7E
$GPGGA,203832.000,3352.0686,N,09831.8484,W,2,10,0.8,295.8,M,-23.7,M,3.8,0000*48
$GPGSA,A,3,23,01,30,25,14,11,22,16,20,32,,,1.5,0.8,1.3*39
$GPGSV,3,1,12,32,68,301,36,31,57,030,,30,51,151,44,20,39,309,31*71
$GPGSV,3,2,12,16,27,172,35,14,26,081,31,01,23,253,36,23,14,293,35*7A
$GPGSV,3,3,12,25,12,039,29,22,10,145,35,11,09,235,30,51,49,195,42*74
$GPRMC,203832.000,A,3352.0686,N,09831.8484,W,0.04,148.41,010412,,,D*77
$GPGGA,203833.000,3352.0686,N,09831.8484,W,2,10,0.8,295.8,M,-23.7,M,0.8,0000*4A
$GPGSA,A,3,23,01,30,25,14,11,22,16,20,32,,,1.5,0.8,1.3*39
$GPRMC,203833.000,A,3352.0686,N,09831.8484,W,0.07,77.50,010412,,,D*48
$GPGGA,203834.000,3352.0686,N,09831.8483,W,2,10,0.8,295.8,M,-23.7,M,0.8,0000*4A
$GPGSA,A,3,23,01,30,25,14,11,22,16,20,32,,,1.5,0.8,1.3*39
$GPRMC,203834.000,A,3352.0686,N,09831.8483,W,0.10,43.38,010412,,,D*47
$GPGGA,203835.000,3352.0686,N,09831.8483,W,2,10,0.8,295.8,M,-23.7,M,0.8,0000*4B
$GPGSA,A,3,23,01,30,25,14,11,22,16,20,32,,,1.5,0.8,1.3*39
$GPRMC,203835.000,A,3352.0686,N,09831.8483,W,0.08,44.46,010412,,,D*41
$GPGGA,203836.000,3352.0687,N,09831.8483,W,2,10,0.8,295.8,M,-23.7,M,1.8,0000*48
$GPGSA,A,3,23,01,30,25,14,11,22,16,20,32,,,1.5,0.8,1.3*39
$GPRMC,203836.000,A,3352.0687,N,09831.8483,W,0.06,36.02,010412,,,D*48
$GPGGA,203837.000,3352.0687,N,09831.8483,W,2,10,0.8,295.8,M,-23.7,M,0.8,0000*48
$GPGSA,A,3,23,01,30,25,14,11,22,16,20,32,,,1.5,0.8,1.3*39
$GPGSV,3,1,12,32,68,301,36,31,57,030,,30,51,151,44,20,39,309,31*71
$GPGSV,3,2,12,16,27,172,35,14,26,081,31,01,23,253,36,23,14,293,35*7A
$GPGSV,3,3,12,25,12,039,28,22,10,145,36,11,09,235,30,51,49,195,42*76
$GPRMC,203837.000,A,3352.0687,N,09831.8483,W,0.06,49.57,010412,,,D*41
$GPGGA,203838.000,3352.0687,N,09831.8483,W,2,10,0.8,295.8,M,-23.7,M,1.8,0000*46
$GPGSA,A,3,23,01,30,25,14,11,22,16,20,32,,,1.5,0.8,1.3*39
$GPRMC,203838.000,A,3352.0687,N,09831.8483,W,0.05,42.05,010412,,,D*41
$GPGGA,203839.000,3352.0687,N,09831.8483,W,2,10,0.8,295.8,M,-23.7,M,0.8,0000*46
$GPGSA,A,3,23,01,30,25,14,11,22,16,20,32,,,1.5,0.8,1.3*39
$GPRMC,203839.000,A,3352.0687,N,09831.8483,W,0.01,21.46,010412,,,D*46
$GPGGA,203840.000,3352.0687,N,09831.8483,W,2,10,0.8,295.8,M,-23.7,M,0.8,0000*48
$GPGSA,A,3,23,01,30,25,14,11,22,16,20,32,,,1.5,0.8,1.3*39
$GPRMC,203840.000,A,3352.0687,N,09831.8483,W,0.00,209.82,010412,,,D*79
$GPGGA,203841.000,3352.0687,N,09831.8483,W,2,10,0.8,295.7,M,-23.7,M,0.8,0000*46
$GPGSA,A,3,23,01,30,25,14,11,22,16,20,32,,,1.5,0.8,1.3*39
$GPRMC,203841.000,A,3352.0687,N,09831.8483,W,0.03,101.87,010412,,,D*75
$GPGGA,203842.000,3352.0687,N,09831.8483,W,2,10,0.8,295.7,M,-23.7,M,1.8,0000*44
$GPGSA,A,3,23,01,30,25,14,11,22,16,20,32,,,1.5,0.8,1.3*39
$GPGSV,3,1,12,32,68,301,36,31,57,030,,30,51,151,44,20,39,309,31*71
$GPGSV,3,2,12,16,27,172,35,14,26,081,31,01,23,253,36,23,14,293,35*7A
$GPGSV,3,3,12,25,12,039,29,22,10,145,36,11,09,235,30,51,49,195,42*77
$GPRMC,203842.000,A,3352.0687,N,09831.8483,W,0.02,191.80,010412,,,D*79
$GPGGA,203843.000,3352.0687,N,09831.8483,W,2,10,0.8,295.7,M,-23.7,M,0.8,0000*44
$GPGSA,A,3,23,01,30,25,14,11,22,16,20,32,,,1.5,0.8,1.3*39
$GPRMC,203843.000,A,3352.0687,N,09831.8483,W,0.02,66.44,010412,,,D*49
$GPGGA,203844.000,3352.0687,N,09831.8483,W,2,10,0.8,295.6,M,-23.7,M,1.8,0000*43
$GPGSA,A,3,23,01,30,25,14,11,22,16,20,32,,,1.5,0.8,1.3*39
$GPRMC,203844.000,A,3352.0687,N,09831.8483,W,0.00,110.12,010412,,,D*7F
$GPGGA,203845.000,3352.0687,N,09831.8482,W,2,10,0.8,295.6,M,-23.7,M,0.8,0000*42
$GPGSA,A,3,23,01,30,25,14,11,22,16,20,32,,,1.5,0.8,1.3*39
$GPRMC,203845.000,A,3352.0687,N,09831.8482,W,0.06,92.26,010412,,,D*45
$GPGGA,203846.000,3352.0687,N,09831.8482,W,2,10,0.8,295.6,M,-23.7,M,0.8,0000*41
$GPGSA,A,3,23,01,30,25,14,11,22,16,20,32,,,1.5,0.8,1.3*39
$GPRMC,203846.000,A,3352.0687,N,09831.8482,W,0.07,56.31,010412,,,D*49
$GPGGA,203847.000,3352.0687,N,09831.8482,W,2,10,0.8,295.6,M,-23.7,M,0.8,0000*40
$GPGSA,A,3,23,01,30,25,14,11,22,16,20,32,,,1.5,0.8,1.3*39
$GPGSV,3,1,12,32,68,301,36,31,57,030,,30,51,151,44,20,39,309,30*70
$GPGSV,3,2,12,16,27,172,35,14,26,081,31,01,23,253,37,23,14,293,35*7B
$GPGSV,3,3,12,25,12,039,28,22,10,145,36,11,09,235,30,51,49,195,42*76
$GPRMC,203847.000,A,3352.0687,N,09831.8482,W,0.07,55.26,010412,,,D*4D
$GPGGA,203848.000,3352.0687,N,09831.8482,W,2,10,0.8,295.6,M,-23.7,M,1.8,0000*4E
$GPGSA,A,3,23,01,30,25,14,11,22,16,20,32,,,1.5,0.8,1.3*39
$GPRMC,203848.000,A,3352.0687,N,09831.8482,W,0.07,31.74,010412,,,D*47
$GPGGA,203849.000,3352.0687,N,09831.8482,W,2,10,0.8,295.6,M,-23.7,M,0.8,0000*4E
$GPGSA,A,3,23,01,30,25,14,11,22,16,20,32,,,1.5,0.8,1.3*39
$GPRMC,203849.000,A,3352.0687,N,09831.8482,W,0.06,57.08,010412,,,D*4C
$GPGGA,203850.000,3352.0687,N,09831.8482,W,2,10,0.8,295.6,M,-23.7,M,1.8,0000*47
$GPGSA,A,3,23,01,30,25,14,11,22,16,20,32,,,1.5,0.8,1.3*39
$GPRMC,203850.000,A,3352.0687,N,09831.8482,W,0.08,51.89,010412,,,D*45
$GPGGA,203851.000,3352.0687,N,09831.8482,W,2,10,0.8,295.6,M,-23.7,M,0.8,0000*47
$GPGSA,A,3,23,01,30,25,14,11,22,16,20,32,,,1.5,0.8,1.3*39
$GPRMC,203851.000,A,3352.0687,N,09831.8482,W,0.01,268.59,010412,,,D*78
$GPGGA,203852.000,3352.0687,N,09831.8482,W,2,10,0.8,295.6,M,-23.7,M,0.8,0000*44
$GPGSA,A,3,23,01,30,25,14,11,22,16,20,32,,,1.5,0.8,1.3*39
$GPGSV,3,1,12,32,68,301,36,31,57,030,,30,51,151,44,20,39,309,30*70
$GPGSV,3,2,12,16,27,172,35,14,26,081,31,01,23,253,37,23,14,293,35*7B
$GPGSV,3,3,12,25,12,039,28,22,10,145,37,11,09,235,30,51,49,195,42*77
$GPRMC,203852.000,A,3352.0687,N,09831.8482,W,0.02,178.84,010412,,,D*7A
$GPGGA,203853.000,3352.0687,N,09831.8482,W,2,10,0.8,295.6,M,-23.7,M,0.8,0000*45
$GPGSA,A,3,23,01,30,25,14,11,22,16,20,32,,,1.5,0.8,1.3*39
$GPRMC,203853.000,A,3352.0687,N,09831.8482,W,0.01,95.19,010412,,,D*4E
$GPGGA,203854.000,3352.0687,N,09831.8482,W,2,10,0.8,295.6,M,-23.7,M,1.8,0000*43
$GPGSA,A,3,23,01,30,25,14,11,22,16,20,32,,,1.5,0.8,1.3*39
$GPRMC,203854.000,A,3352.0687,N,09831.8482,W,0.02,128.00,010412,,,D*75
$GPGGA,203855.000,3352.0687,N,09831.8482,W,2,10,0.8,295.6,M,-23.7,M,2.8,0000*41
$GPGSA,A,3,23,01,30,25,14,11,22,16,20,32,,,1.5,0.8,1.3*39
$GPRMC,203855.000,A,3352.0687,N,09831.8482,W,0.02,211.30,010412,,,D*7E
$GPGGA,203856.000,3352.0687,N,09831.8482,W,2,10,0.8,295.6,M,-23.7,M,0.8,0000*40
$GPGSA,A,3,23,01,30,25,14,11,22,16,20,32,,,1.5,0.8,1.3*39
$GPRMC,203856.000,A,3352.0687,N,09831.8482,W,0.03,126.71,010412,,,D*7E
$GPGGA,203857.000,3352.0687,N,09831.8481,W,2,10,0.8,295.5,M,-23.7,M,0.8,0000*41
$GPGSA,A,3,23,01,30,25,14,11,22,16,20,32,,,1.5,0.8,1.3*39
$GPGSV,3,1,12,32,68,301,36,31,57,030,,30,51,151,44,20,39,309,30*70
$GPGSV,3,2,12,16,27,172,35,14,26,081,31,01,23,253,37,23,14,293,36*78
$GPGSV,3,3,12,25,12,039,28,22,10,145,37,11,09,235,29,51,49,195,42*7F
$GPRMC,203857.000,A,3352.0687,N,09831.8481,W,0.07,54.40,010412,,,D*4E
$GPGGA,203858.000,3352.0687,N,09831.8481,W,2,10,0.8,295.5,M,-23.7,M,0.8,0000*4E
$GPGSA,A,3,23,01,30,25,14,11,22,16,20,32,,,1.5,0.8,1.3*39
$GPRMC,203858.000,A,3352.0687,N,09831.8481,W,0.08,31.89,010412,,,D*48
$GPGGA,203859.000,3352.0687,N,09831.8481,W,2,10,0.8,295.5,M,-23.7,M,0.8,0000*4F
$GPGSA,A,3,23,01,30,25,14,11,22,16,20,32,,,1.5,0.8,1.3*39
$GPRMC,203859.000,A,3352.0687,N,09831.8481,W,0.08,31.50,010412,,,D*4D
$GPGGA,203900.000,3352.0688,N,09831.8481,W,2,10,0.8,295.5,M,-23.7,M,1.8,0000*4C
$GPGSA,A,3,23,01,30,25,14,11,22,16,20,32,,,1.5,0.8,1.3*39
$GPRMC,203900.000,A,3352.0688,N,09831.8481,W,0.08,32.24,010412,,,D*4F
$GPGGA,203901.000,3352.0688,N,09831.8481,W,2,10,0.8,295.5,M,-23.7,M,2.8,0000*4E
$GPGSA,A,3,23,01,30,25,14,11,22,16,20,32,,,1.5,0.8,1.3*39
$GPRMC,203901.000,A,3352.0688,N,09831.8481,W,0.08,23.35,010412,,,D*4E
$GPGGA,203902.000,3352.0688,N,09831.8481,W,2,09,0.8,295.5,M,-23.7,M,3.8,0000*44
$GPGSA,A,3,23,01,30,25,14,22,16,20,32,,,,1.6,0.8,1.4*3D
$GPGSV,3,1,12,32,68,301,36,31,57,030,,30,51,151,44,20,39,309,30*70
$GPGSV,3,2,12,16,27,172,35,14,26,081,31,01,23,253,37,23,14,293,35*7B
$GPGSV,3,3,12,25,12,039,28,22,10,145,37,11,09,235,29,51,49,195,42*7F
$GPRMC,203902.000,A,3352.0688,N,09831.8481,W,0.07,27.63,010412,,,D*45
$GPGGA,203903.000,3352.0688,N,09831.8481,W,2,09,0.8,295.5,M,-23.7,M,0.8,0000*46
$GPGSA,A,3,23,01,30,25,14,22,16,20,32,,,,1.6,0.8,1.4*3D
$GPRMC,203903.000,A,3352.0688,N,09831.8481,W,0.02,344.77,010412,,,D*72
$GPGGA,203904.000,3352.0688,N,09831.8481,W,2,09,0.8,295.6,M,-23.7,M,0.8,0000*42
$GPGSA,A,3,23,01,30,25,14,22,16,20,32,,,,1.6,0.8,1.4*3D
$GPRMC,203904.000,A,3352.0688,N,09831.8481,W,0.03,186.50,010412,,,D*7D
$GPGGA,203905.000,3352.0688,N,09831.8481,W,2,09,0.8,295.6,M,-23.7,M,0.8,0000*43
$GPGSA,A,3,23,01,30,25,14,22,16,20,32,,,,1.6,0.8,1.4*3D
$GPRMC,203905.000,A,3352.0688,N,09831.8481,W,0.04,149.59,010412,,,D*71
$GPGGA,203906.000,3352.0688,N,09831.8481,W,2,09,0.8,295.6,M,-23.7,M,1.8,0000*41
$GPGSA,A,3,23,01,30,25,14,22,16,20,32,,,,1.6,0.8,1.4*3D
$GPRMC,203906.000,A,3352.0688,N,09831.8481,W,0.04,127.85,010412,,,D*7B
$GPGGA,203907.000,3352.0688,N,09831.8481,W,2,09,0.8,295.6,M,-23.7,M,2.8,0000*43
$GPGSA,A,3,23,01,30,25,14,22,16,20,32,,,,1.6,0.8,1.4*3D
$GPGSV,3,1,12,32,68,301,36,31,57,030,,30,51,151,44,20,39,309,30*70
$GPGSV,3,2,12,16,27,172,36,14,26,081,31,01,23,253,36,23,14,293,35*79
$GPGSV,3,3,12,25,12,039,28,22,10,145,37,11,09,235,30,51,49,195,42*77
$GPRMC,203907.000,A,3352.0688,N,09831.8481,W,0.03,132.14,010412,,,D*71
$GPGGA,203908.000,3352.0688,N,09831.8481,W,2,09,0.8,295.7,M,-23.7,M,0.8,0000*4F
$GPGSA,A,3,23,01,30,25,14,22,16,20,32,,,,1.6,0.8,1.4*3D
$GPRMC,203908.000,A,3352.0688,N,09831.8481,W,0.04,125.78,010412,,,D*75
$GPGGA,203909.000,3352.0688,N,09831.8481,W,2,09,0.8,295.7,M,-23.7,M,0.8,0000*4E
$GPGSA,A,3,23,01,30,25,14,22,16,20,32,,,,1.6,0.8,1.4*3D
$GPRMC,203909.000,A,3352.0688,N,09831.8481,W,0.08,77.86,010412,,,D*4F
$GPGGA,203910.000,3352.0688,N,09831.8481,W,2,09,0.8,295.8,M,-23.7,M,0.8,0000*49
$GPGSA,A,3,23,01,30,25,14,22,16,20,32,,,,1.6,0.8,1.4*3D
$GPRMC,203910.000,A,3352.0688,N,09831.8481,W,0.10,47.96,010412,,,D*4C
$GPGGA,203911.000,3352.0688,N,09831.8481,W,2,09,0.8,295.8,M,-23.7,M,0.8,0000*48
$GPGSA,A,3,23,01,30,25,14,22,16,20,32,,,,1.6,0.8,1.4*3D
$GPRMC,203911.000,A,3352.0688,N,09831.8481,W,0.07,41.39,010412,,,D*48
$GPGGA,203912.000,3352.0688,N,09831.8481,W,2,09,0.8,295.8,M,-23.7,M,1.8,0000*4A
$GPGSA,A,3,23,01,30,25,14,22,16,20,32,,,,1.6,0.8,1.4*3D
$GPGSV,3,1,12,32,68,301,36,31,57,030,,30,51,151,44,20,39,309,29*78
$GPGSV,3,2,12,16,27,172,36,14,26,081,31,01,23,253,36,23,14,293,36*7A
$GPGSV,3,3,12,25,12,039,28,22,10,145,37,11,09,235,30,51,49,195,42*77
$GPRMC,203912.000,A,3352.0688,N,09831.8481,W,0.07,42.92,010412,,,D*49
$GPGGA,203913.000,3352.0688,N,09831.8481,W,2,09,0.8,295.9,M,-23.7,M,2.8,0000*49
$GPGSA,A,3,23,01,30,25,14,22,16,20,32,,,,1.6,0.8,1.4*3D
$GPRMC,203913.000,A,3352.0688,N,09831.8481,W,0.06,38.56,010412,,,D*4C
$GPGGA,203914.000,3352.0688,N,09831.8481,W,2,09,0.8,295.9,M,-23.7,M,3.8,0000*4F
$GPGSA,A,3,23,01,30,25,14,22,16,20,32,,,,1.6,0.8,1.4*3D
$GPRMC,203914.000,A,3352.0688,N,09831.8481,W,0.07,34.83,010412,,,D*4E
$GPGGA,203915.000,3352.0688,N,09831.8481,W,2,09,0.8,296.0,M,-23.7,M,0.8,0000*47
$GPGSA,A,3,23,01,30,25,14,22,16,20,32,,,,1.6,0.8,1.4*3D
$GPRMC,203915.000,A,3352.0688,N,09831.8481,W,0.03,212.33,010412,,,D*76
$GPGGA,203916.000,3352.0688,N,09831.8481,W,2,09,0.8,296.0,M,-23.7,M,0.8,0000*44
$GPGSA,A,3,23,01,30,25,14,22,16,20,32,,,,1.6,0.8,1.4*3D
$GPRMC,203916.000,A,3352.0688,N,09831.8481,W,0.01,224.56,010412,,,D*71
$GPGGA,203917.000,3352.0688,N,09831.8481,W,2,09,0.8,296.0,M,-23.7,M,0.8,0000*45
$GPGSA,A,3,23,01,30,25,14,22,16,20,32,,,,1.6,0.8,1.4*3D
$GPGSV,3,1,12,32,68,301,36,31,57,030,,30,51,151,44,20,39,309,29*78
$GPGSV,3,2,12,16,27,172,36,14,26,081,31,01,23,253,36,23,14,293,36*7A
$GPGSV,3,3,12,25,12,039,28,22,10,145,38,11,09,235,30,51,49,195,42*78
$GPRMC,203917.000,A,3352.0688,N,09831.8481,W,0.02,168.44,010412,,,D*7B
$GPGGA,203918.000,3352.0688,N,09831.8481,W,2,09,0.8,296.0,M,-23.7,M,1.8,0000*4B
$GPGSA,A,3,23,01,30,25,14,22,16,20,32,,,,1.6,0.8,1.4*3D
$GPRMC,203918.000,A,3352.0688,N,09831.8481,W,0.08,206.23,010412,,,D*74
$GPGGA,203919.000,3352.0688,N,09831.8482,W,2,09,0.8,296.0,M,-23.7,M,2.8,0000*4A
$GPGSA,A,3,23,01,30,25,14,22,16,20,32,,,,1.6,0.8,1.4*3D
$GPRMC,203919.000,A,3352.0688,N,09831.8482,W,0.02,200.19,010412,,,D*73
$GPGGA,203920.000,3352.0688,N,09831.8482,W,2,09,0.8,296.1,M,-23.7,M,3.8,0000*40
$GPGSA,A,3,23,01,30,25,14,22,16,20,32,,,,1.6,0.8,1.4*3D
$GPRMC,203920.000,A,3352.0688,N,09831.8482,W,0.03,96.67,010412,,,D*4C
$GPGGA,203921.000,3352.0688,N,09831.8482,W,2,09,0.8,296.1,M,-23.7,M,0.8,0000*42
$GPGSA,A,3,23,01,30,25,14,22,16,20,32,,,,1.6,0.8,1.4*3D
$GPRMC,203921.000,A,3352.0688,N,09831.8482,W,0.07,57.38,010412,,,D*4E
$GPGGA,203922.000,3352.0688,N,09831.8482,W,2,09,0.8,296.1,M,-23.7,M,0.8,0000*41
$GPGSA,A,3,23,01,30,25,14,22,16,20,32,,,,1.6,0.8,1.4*3D
$GPGSV,3,1,12,32,68,301,36,31,57,030,,30,51,151,44,20,39,309,28*79
$GPGSV,3,2,12,16,27,172,36,14,26,081,32,01,23,253,35,23,14,293,36*7A
$GPGSV,3,3,12,25,12,039,28,22,10,145,38,11,09,235,30,51,49,195,42*78
$GPRMC,203922.000,A,3352.0688,N,09831.8482,W,0.11,30.01,010412,,,D*41
$GPGGA,203923.000,3352.0688,N,09831.8482,W,2,09,0.8,296.1,M,-23.7,M,0.8,0000*40
$GPGSA,A,3,23,01,30,25,14,22,16,20,32,,,,1.6,0.8,1.4*3D
$GPRMC,203923.000,A,3352.0688,N,09831.8482,W,0.08,34.62,010412,,,D*49
$GPGGA,203924.000,3352.0689,N,09831.8482,W,2,09,0.8,296.1,M,-23.7,M,0.8,0000*46
$GPGSA,A,3,23,01,30,25,14,22,16,20,32,,,,1.6,0.8,1.4*3D
$GPRMC,203924.000,A,3352.0689,N,09831.8482,W,0.07,25.32,010412,,,D*45
$GPGGA,203925.000,3352.0689,N,09831.8482,W,2,09,0.8,296.1,M,-23.7,M,0.8,0000*47
$GPGSA,A,3,23,01,30,25,14,22,16,20,32,,,,1.6,0.8,1.4*3D
$GPRMC,203925.000,A,3352.0689,N,09831.8482,W,0.08,22.83,010412,,,D*46
$GPGGA,203926.000,3352.0689,N,09831.8482,W,2,09,0.8,296.1,M,-23.7,M,1.8,0000*45
$GPGSA,A,3,23,01,30,25,14,22,16,20,32,,,,1.6,0.8,1.4*3D
$GPRMC,203926.000,A,3352.0689,N,09831.8482,W,0.09,40.86,010412,,,D*45
$GPGGA,203927.000,3352.0689,N,09831.8482,W,2,09,0.8,296.1,M,-23.7,M,0.8,0000*45
$GPGSA,A,3,23,01,30,25,14,22,16,20,32,,,,1.6,0.8,1.4*3D
$GPGSV,3,1,12,32,68,301,36,31,57,030,,30,51,151,44,20,39,309,28*79
$GPGSV,3,2,12,16,27,172,36,14,26,081,32,01,23,253,35,23,14,293,36*7A
$GPGSV,3,3,12,25,12,039,28,22,10,145,38,11,09,235,29,51,49,195,42*70
$GPRMC,203927.000,A,3352.0689,N,09831.8482,W,0.03,359.54,010412,,,D*7A
$GPGGA,203928.000,3352.0689,N,09831.8482,W,2,09,0.8,296.2,M,-23.7,M,0.8,0000*49
$GPGSA,A,3,23,01,30,25,14,22,16,20,32,,,,1.6,0.8,1.4*3D
$GPRMC,203928.000,A,3352.0689,N,09831.8482,W,0.04,138.06,010412,,,D*70
$GPGGA,203929.000,3352.0689,N,09831.8483,W,2,09,0.8,296.2,M,-23.7,M,0.8,0000*49
$GPGSA,A,3,23,01,30,25,14,22,16,20,32,,,,1.6,0.8,1.4*3D
$GPRMC,203929.000,A,3352.0689,N,09831.8483,W,0.05,122.65,010412,,,D*7F
$GPGGA,203930.000,3352.0689,N,09831.8483,W,2,09,0.8,296.2,M,-23.7,M,0.8,0000*41
$GPGSA,A,3,23,01,30,25,14,22,16,20,32,,,,1.6,0.8,1.4*3D
$GPRMC,203930.000,A,3352.0689,N,09831.8483,W,0.07,94.91,010412,,,D*42
$GPGGA,203931.000,3352.0688,N,09831.8483,W,2,09,0.8,296.3,M,-23.7,M,1.8,0000*41
$GPGSA,A,3,23,01,30,25,14,22,16,20,32,,,,1.6,0.8,1.4*3D
$GPRMC,203931.000,A,3352.0688,N,09831.8483,W,0.04,135.66,010412,,,D*73
$GPGGA,203932.000,3352.0688,N,09831.8483,W,2,09,0.8,296.3,M,-23.7,M,2.8,0000*41
$GPGSA,A,3,23,01,30,25,14,22,16,20,32,,,,1.6,0.8,1.4*3D
$GPGSV,3,1,12,32,68,301,35,31,57,030,,30,51,151,44,20,39,309,28*7A
$GPGSV,3,2,12,16,27,172,36,14,26,081,32,01,23,253,35,23,14,293,36*7A
$GPGSV,3,3,12,25,12,039,28,22,10,145,37,11,09,235,29,51,49,195,42*7F
$GPRMC,203932.000,A,3352.0688,N,09831.8483,W,0.05,111.10,010412,,,D*76
$GPGGA,203933.000,3352.0688,N,09831.8483,W,2,09,0.8,296.4,M,-23.7,M,0.8,0000*45
$GPGSA,A,3,23,01,30,25,14,22,16,20,32,,,,1.6,0.8,1.4*3D
$GPRMC,203933.000,A,3352.0688,N,09831.8483,W,0.10,60.56,010412,,,D*46
$GPGGA,203934.000,3352.0688,N,09831.8483,W,2,09,0.8,296.4,M,-23.7,M,0.8,0000*42
$GPGSA,A,3,23,01,30,25,14,22,16,20,32,,,,1.6,0.8,1.4*3D
$GPRMC,203934.000,A,3352.0688,N,09831.8483,W,0.11,48.16,010412,,,D*4E
$GPGGA,203935.000,3352.0689,N,09831.8483,W,2,09,0.8,296.4,M,-23.7,M,0.8,0000*42
$GPGSA,A,3,23,01,30,25,14,22,16,20,32,,,,1.6,0.8,1.4*3D
$GPRMC,203935.000,A,3352.0689,N,09831.8483,W,0.10,41.09,010412,,,D*48
$GPGGA,203936.000,3352.0689,N,09831.8483,W,2,09,0.8,296.5,M,-23.7,M,1.8,0000*41
$GPGSA,A,3,23,01,30,25,14,22,16,20,32,,,,1.6,0.8,1.4*3D
$GPRMC,203936.000,A,3352.0689,N,09831.8483,W,0.11,45.31,010412,,,D*45
$GPGGA,203937.000,3352.0689,N,09831.8483,W,2,09,0.8,296.5,M,-23.7,M,0.8,0000*41
$GPGSA,A,3,23,01,30,25,14,22,16,20,32,,,,1.6,0.8,1.4*3D
$GPGSV,3,1,12,32,68,301,35,31,57,030,,30,51,151,44,20,39,309,28*7A
$GPGSV,3,2,12,16,27,172,36,14,26,081,32,01,23,253,35,23,14,293,36*7A
$GPGSV,3,3,12,25,12,039,28,22,10,145,37,11,09,235,28,51,49,195,42*7E
$GPRMC,203937.000,A,3352.0689,N,09831.8483,W,0.10,45.41,010412,,,D*42
$GPGGA,203938.000,3352.0689,N,09831.8483,W,2,09,0.8,296.5,M,-23.7,M,0.8,0000*4E
$GPGSA,A,3,23,01,30,25,14,22,16,20,32,,,,1.6,0.8,1.4*3D
$GPRMC,203938.000,A,3352.0689,N,09831.8483,W,0.10,38.41,010412,,,D*47
$GPGGA,203939.000,3352.0689,N,09831.8483,W,2,09,0.8,296.6,M,-23.7,M,0.8,0000*4C
$GPGSA,A,3,23,01,30,25,14,22,16,20,32,,,,1.6,0.8,1.4*3D
$GPRMC,203939.000,A,3352.0689,N,09831.8483,W,0.02,84.71,010412,,,D*41
$GPGGA,203940.000,3352.0689,N,09831.8483,W,2,09,0.8,296.6,M,-23.7,M,0.8,0000*42
$GPGSA,A,3,23,01,30,25,14,22,16,20,32,,,,1.6,0.8,1.4*3D
$GPRMC,203940.000,A,3352.0689,N,09831.8483,W,0.02,99.42,010412,,,D*43
$GPGGA,203941.000,3352.0689,N,09831.8484,W,2,09,0.8,296.6,M,-23.7,M,0.8,0000*44
$GPGSA,A,3,23,01,30,25,14,22,16,20,32,,,,1.6,0.8,1.4*3D
$GPRMC,203941.000,A,3352.0689,N,09831.8484,W,0.02,90.00,010412,,,D*4A
$GPGGA,203942.000,3352.0689,N,09831.8484,W,2,09,0.8,296.6,M,-23.7,M,1.8,0000*46
$GPGSA,A,3,23,01,30,25,14,22,16,20,32,,,,1.6,0.8,1.4*3D
$GPGSV,3,1,12,32,68,301,35,31,57,030,,30,51,151,44,20,39,309,28*7A
$GPGSV,3,2,12,16,27,172,36,14,26,081,32,01,23,253,35,23,14,293,36*7A
$GPGSV,3,3,12,25,12,039,28,22,10,145,37,11,09,235,28,51,49,195,42*7E
$GPRMC,203942.000,A,3352.0689,N,09831.8484,W,0.03,98.24,010412,,,D*46
$GPGGA,203943.000,3352.0689,N,09831.8484,W,2,09,0.8,296.6,M,-23.7,M,2.8,0000*44
$GPGSA,A,3,23,01,30,25,14,22,16,20,32,,,,1.6,0.8,1.4*3D
$GPRMC,203943.000,A,3352.0689,N,09831.8484,W,0.02,114.65,010412,,,D*76
$GPGGA,203944.000,3352.0688,N,09831.8484,W,2,09,0.8,296.7,M,-23.7,M,3.8,0000*42
$GPGSA,A,3,23,01,30,25,14,22,16,20,32,,,,1.6,0.8,1.4*3D
$GPRMC,203944.000,A,3352.0688,N,09831.8484,W,0.03,115.31,010412,,,D*71
$GPGGA,203945.000,3352.0688,N,09831.8484,W,2,09,0.8,296.7,M,-23.7,M,0.8,0000*40
$GPGSA,A,3,23,01,30,25,14,22,16,20,32,,,,1.6,0.8,1.4*3D
$GPRMC,203945.000,A,3352.0688,N,09831.8484,W,0.10,63.35,010412,,,D*46
$GPGGA,203946.000,3352.0688,N,09831.8484,W,2,09,0.8,296.7,M,-23.7,M,0.8,0000*43
$GPGSA,A,3,23,01,30,25,14,22,16,20,32,,,,1.6,0.8,1.4*3D
$GPRMC,203946.000,A,3352.0688,N,09831.8484,W,0.10,38.18,010412,,,D*44
$GPGGA,203947.000,3352.0689,N,09831.8485,W,2,09,0.8,296.7,M,-23.7,M,0.8,0000*42
$GPGSA,A,3,23,01,30,25,14,22,16,20,32,,,,1.6,0.8,1.4*3D
$GPGSV,3,1,12,32,68,301,35,31,57,030,,30,51,151,44,20,39,309,28*7A
$GPGSV,3,2,12,16,27,172,36,14,26,081,32,01,23,253,35,23,14,293,37*7B
$GPGSV,3,3,12,25,12,039,28,22,10,145,37,11,09,235,27,51,49,195,42*71
$GPRMC,203947.000,A,3352.0689,N,09831.8485,W,0.13,39.07,010412,,,D*49
$GPGGA,203948.000,3352.0689,N,09831.8485,W,2,09,0.8,296.7,M,-23.7,M,1.8,0000*4C
$GPGSA,A,3,23,01,30,25,14,22,16,20,32,,,,1.6,0.8,1.4*3D
$GPRMC,203948.000,A,3352.0689,N,09831.8485,W,0.07,42.81,010412,,,D*41
$GPGGA,203949.000,3352.0689,N,09831.8485,W,2,09,0.8,296.7,M,-23.7,M,2.8,0000*4E
$GPGSA,A,3,23,01,30,25,14,22,16,20,32,,,,1.6,0.8,1.4*3D
$GPRMC,203949.000,A,3352.0689,N,09831.8485,W,0.09,32.56,010412,,,D*43
$GPGGA,203950.000,3352.0689,N,09831.8485,W,2,09,0.8,296.7,M,-23.7,M,3.8,0000*47
$GPGSA,A,3,23,01,30,25,14,22,16,20,32,,,,1.6,0.8,1.4*3D
$GPRMC,203950.000,A,3352.0689,N,09831.8485,W,0.07,41.48,010412,,,D*4E
$GPGGA,203951.000,3352.0689,N,09831.8485,W,2,09,0.8,296.7,M,-23.7,M,0.8,0000*45
$GPGSA,A,3,23,01,30,25,14,22,16,20,32,,,,1.6,0.8,1.4*3D
$GPRMC,203951.000,A,3352.0689,N,09831.8485,W,0.04,354.47,010412,,,D*74
$GPGGA,203952.000,3352.0689,N,09831.8486,W,2,09,0.8,296.7,M,-23.7,M,0.8,0000*45
$GPGSA,A,3,23,01,30,25,14,22,16,20,32,,,,1.6,0.8,1.4*3D
$GPGSV,3,1,12,32,68,301,35,31,57,030,,30,51,151,44,20,39,309,27*75
$GPGSV,3,2,12,16,27,172,36,14,26,081,33,01,23,253,35,23,14,293,37*7A
$GPGSV,3,3,12,25,12,039,28,22,10,145,37,11,09,235,26,51,49,195,42*70
$GPRMC,203952.000,A,3352.0689,N,09831.8486,W,0.02,156.80,010412,,,D*79
$GPGGA,203953.000,3352.0689,N,09831.8486,W,2,09,0.8,296.7,M,-23.7,M,0.8,0000*44
$GPGSA,A,3,23,01,30,25,14,22,16,20,32,,,,1.6,0.8,1.4*3D
$GPRMC,203953.000,A,3352.0689,N,09831.8486,W,0.05,184.31,010412,,,D*7A
$GPGGA,203954.000,3352.0688,N,09831.8486,W,2,09,0.8,296.8,M,-23.7,M,0.8,0000*4D
$GPGSA,A,3,23,01,30,25,14,22,16,20,32,,,,1.6,0.8,1.4*3D
$GPRMC,203954.000,A,3352.0688,N,09831.8486,W,0.02,218.13,010412,,,D*7D
$GPGGA,203955.000,3352.0688,N,09831.8486,W,2,09,0.8,296.8,M,-23.7,M,1.8,0000*4D
$GPGSA,A,3,23,01,30,25,14,22,16,20,32,,,,1.6,0.8,1.4*3D
$GPRMC,203955.000,A,3352.0688,N,09831.8486,W,0.04,196.91,010412,,,D*75
$GPGGA,203956.000,3352.0688,N,09831.8487,W,2,09,0.8,296.8,M,-23.7,M,2.8,0000*4C
$GPGSA,A,3,23,01,30,25,14,22,16,20,32,,,,1.6,0.8,1.4*3D
$GPRMC,203956.000,A,3352.0688,N,09831.8487,W,0.04,194.42,010412,,,D*7B
$GPGGA,203957.000,3352.0688,N,09831.8487,W,2,09,0.8,296.8,M,-23.7,M,0.8,0000*4F
$GPGSA,A,3,23,01,30,25,14,22,16,20,32,,,,1.6,0.8,1.4*3D
$GPGSV,3,1,12,32,68,301,35,31,57,030,,30,51,151,44,20,39,309,27*75
$GPGSV,3,2,12,16,27,172,35,14,26,081,33,01,23,253,35,23,14,293,37*79
$GPGSV,3,3,12,25,12,039,28,22,10,145,37,11,09,235,26,51,49,195,42*70
$GPRMC,203957.000,A,3352.0688,N,09831.8487,W,0.05,109.42,010412,,,D*7F
$GPGGA,203958.000,3352.0688,N,09831.8487,W,2,09,0.8,296.8,M,-23.7,M,0.8,0000*40
$GPGSA,A,3,23,01,30,25,14,22,16,20,32,,,,1.6,0.8,1.4*3D
$GPRMC,203958.000,A,3352.0688,N,09831.8487,W,0.05,58.83,010412,,,D*48
$GPGGA,203959.000,3352.0688,N,09831.8487,W,2,09,0.8,296.8,M,-23.7,M,0.8,0000*41
$GPGSA,A,3,23,01,30,25,14,22,16,20,32,,,,1.6,0.8,1.4*3D
$GPRMC,203959.000,A,3352.0688,N,09831.8487,W,0.08,61.05,010412,,,D*40
$GPGGA,204000.000,3352.0688,N,09831.8487,W,2,09,0.8,296.9,M,-23.7,M,1.8,0000*43
$GPGSA,A,3,23,01,30,25,14,22,16,20,32,,,,1.6,0.8,1.4*3D
$GPRMC,204000.000,A,3352.0688,N,09831.8487,W,0.08,63.30,010412,,,D*46
$GPGGA,204001.000,3352.0688,N,09831.8487,W,2,09,0.8,296.9,M,-23.7,M,2.8,0000*41
$GPGSA,A,3,23,01,30,25,14,22,16,20,32,,,,1.6,0.8,1.4*3D
$GPRMC,204001.000,A,3352.0688,N,09831.8487,W,0.09,54.32,010412,,,D*40
$GPGGA,204002.000,3352.0688,N,09831.8487,W,2,09,0.8,296.9,M,-23.7,M,0.8,0000*40
$GPGSA,A,3,23,01,30,25,14,22,16,20,32,,,,1.6,0.8,1.4*3D
$GPGSV,3,1,12,32,68,301,35,31,57,030,,30,51,151,44,20,39,309,27*75
$GPGSV,3,2,12,16,27,172,35,14,26,081,32,01,23,253,35,23,14,293,37*78
$GPGSV,3,3,12,25,12,039,28,22,10,145,36,11,09,235,25,51,49,195,42*72
$GPRMC,204002.000,A,3352.0688,N,09831.8487,W,0.07,70.45,010412,,,D*4B
$GPGGA,204003.000,3352.0688,N,09831.8487,W,2,09,0.8,296.9,M,-23.7,M,0.8,0000*41
$GPGSA,A,3,23,01,30,25,14,22,16,20,32,,,,1.6,0.8,1.4*3D
$GPRMC,204003.000,A,3352.0688,N,09831.8487,W,0.02,32.96,010412,,,D*47
$GPGGA,204004.000,3352.0687,N,09831.8487,W,2,09,0.8,296.9,M,-23.7,M,0.8,0000*49
$GPGSA,A,3,23,01,30,25,14,22,16,20,32,,,,1.6,0.8,1.4*3D
$GPRMC,204004.000,A,3352.0687,N,09831.8487,W,0.01,64.47,010412,,,D*43
$GPGGA,204005.000,3352.0687,N,09831.8488,W,2,09,0.8,296.9,M,-23.7,M,0.8,0000*47
$GPGSA,A,3,23,01,30,25,14,22,16,20,32,,,,1.6,0.8,1.4*3D
$GPRMC,204005.000,A,3352.0687,N,09831.8488,W,0.00,187.14,010412,,,D*76
$GPGGA,204006.000,3352.0687,N,09831.8488,W,2,09,0.8,296.9,M,-23.7,M,1.8,0000*45
$GPGSA,A,3,23,01,30,25,14,22,16,20,32,,,,1.6,0.8,1.4*3D
$GPRMC,204006.000,A,3352.0687,N,09831.8488,W,0.03,219.02,010412,,,D*75
$GPGGA,204007.000,3352.0687,N,09831.8488,W,2,09,0.8,296.9,M,-23.7,M,2.8,0000*47
$GPGSA,A,3,23,01,30,25,14,22,16,20,32,,,,1.6,0.8,1.4*3D
$GPGSV,3,1,12,32,68,301,35,31,57,030,,30,51,151,44,20,39,309,27*75
$GPGSV,3,2,12,16,27,172,34,14,26,081,32,01,23,253,36,23,14,293,37*7A
$GPGSV,3,3,12,25,12,039,28,22,10,145,36,11,09,235,25,51,49,195,42*72
$GPRMC,204007.000,A,3352.0687,N,09831.8488,W,0.02,170.75,010412,,,D*79
$GPGGA,204008.000,3352.0686,N,09831.8488,W,2,09,0.8,296.9,M,-23.7,M,3.8,0000*48
$GPGSA,A,3,23,01,30,25,14,22,16,20,32,,,,1.6,0.8,1.4*3D
$GPRMC,204008.000,A,3352.0686,N,09831.8488,W,0.02,237.51,010412,,,D*71
$GPGGA,204009.000,3352.0686,N,09831.8488,W,2,09,0.8,296.9,M,-23.7,M,0.8,0000*4A
$GPGSA,A,3,23,01,30,25,14,22,16,20,32,,,,1.6,0.8,1.4*3D
$GPRMC,204009.000,A,3352.0686,N,09831.8488,W,0.05,96.50,010412,,,D*4F
$GPGGA,204010.000,3352.0686,N,09831.8488,W,2,09,0.8,296.9,M,-23.7,M,0.8,0000*42
$GPGSA,A,3,23,01,30,25,14,22,16,20,32,,,,1.6,0.8,1.4*3D
$GPRMC,204010.000,A,3352.0686,N,09831.8488,W,0.07,57.58,010412,,,D*40
$GPGGA,204011.000,3352.0686,N,09831.8488,W,2,09,0.8,296.9,M,-23.7,M,0.8,0000*43
$GPGSA,A,3,23,01,30,25,14,22,16,20,32,,,,1.6,0.8,1.4*3D
$GPRMC,204011.000,A,3352.0686,N,09831.8488,W,0.06,79.23,010412,,,D*40
$GPGGA,204012.000,3352.0686,N,09831.8488,W,2,09,0.8,296.9,M,-23.7,M,1.8,0000*41
$GPGSA,A,3,23,01,30,25,14,22,16,20,32,,,,1.6,0.8,1.4*3D
$GPGSV,3,1,12,32,68,301,35,31,57,030,,30,51,151,44,20,39,309,27*75
$GPGSV,3,2,12,16,27,172,34,14,26,081,33,01,23,253,35,23,14,293,37*78
$GPGSV,3,3,12,25,12,039,28,22,10,145,36,11,09,235,24,51,49,195,42*73
$GPRMC,204012.000,A,3352.0686,N,09831.8488,W,0.08,55.56,010412,,,D*41
$GPGGA,204013.000,3352.0686,N,09831.8488,W,2,09,0.8,296.9,M,-23.7,M,0.8,0000*41
$GPGSA,A,3,23,01,30,25,14,22,16,20,32,,,,1.6,0.8,1.4*3D
$GPRMC,204013.000,A,3352.0686,N,09831.8488,W,0.06,59.15,010412,,,D*45
$GPGGA,204014.000,3352.0686,N,09831.8488,W,2,09,0.8,296.9,M,-23.7,M,1.8,0000*47
$GPGSA,A,3,23,01,30,25,14,22,16,20,32,,,,1.6,0.8,1.4*3D
$GPRMC,204014.000,A,3352.0686,N,09831.8488,W,0.08,61.79,010412,,,D*4D
$GPGGA,204015.000,3352.0686,N,09831.8488,W,2,09,0.8,297.0,M,-23.7,M,0.8,0000*4F
$GPGSA,A,3,23,01,30,25,14,22,16,20,32,,,,1.6,0.8,1.4*3D
$GPRMC,204015.000,A,3352.0686,N,09831.8488,W,0.01,228.29,010412,,,D*7F
$GPGGA,204016.000,3352.0686,N,09831.8488,W,2,09,0.8,296.9,M,-23.7,M,0.8,0000*44
$GPGSA,A,3,23,01,30,25,14,22,16,20,32,,,,1.6,0.8,1.4*3D
$GPRMC,204016.000,A,3352.0686,N,09831.8488,W,0.01,206.08,010412,,,D*73
$GPGGA,204017.000,3352.0685,N,09831.8489,W,2,09,0.8,296.9,M,-23.7,M,0.8,0000*47
$GPGSA,A,3,23,01,30,25,14,22,16,20,32,,,,1.6,0.8,1.4*3D
$GPGSV,3,1,12,32,68,301,35,31,57,030,,30,51,151,44,20,39,309,28*7A
$GPGSV,3,2,12,16,27,172,34,14,26,081,33,01,23,253,35,23,14,293,37*78
$GPGSV,3,3,12,25,12,039,27,22,10,145,35,11,09,235,19,51,49,195,42*71
$GPRMC,204017.000,A,3352.0685,N,09831.8489,W,0.02,94.17,010412,,,D*44
$GPGGA,204018.000,3352.0685,N,09831.8489,W,2,09,0.8,296.9,M,-23.7,M,1.8,0000*49
$GPGSA,A,3,23,01,30,25,14,22,16,20,32,,,,1.6,0.8,1.4*3D
$GPRMC,204018.000,A,3352.0685,N,09831.8489,W,0.02,136.43,010412,,,D*73
$GPGGA,204019.000,3352.0685,N,09831.8489,W,2,09,0.8,296.9,M,-23.7,M,0.8,0000*49
$GPGSA,A,3,23,01,30,25,14,22,16,20,32,,,,1.6,0.8,1.4*3D
$GPRMC,204019.000,A,3352.0685,N,09831.8489,W,0.01,203.95,010412,,,D*7F
$GPGGA,204020.000,3352.0685,N,09831.8489,W,2,09,0.8,296.9,M,-23.7,M,1.8,0000*42
$GPGSA,A,3,23,01,30,25,14,22,16,20,32,,,,1.6,0.8,1.4*3D
$GPRMC,204020.000,A,3352.0685,N,09831.8489,W,0.02,141.61,010412,,,D*78
$GPGGA,204021.000,3352.0685,N,09831.8489,W,2,09,0.8,296.9,M,-23.7,M,0.8,0000*42
$GPGSA,A,3,23,01,30,25,14,22,16,20,32,,,,1.6,0.8,1.4*3D
$GPRMC,204021.000,A,3352.0685,N,09831.8489,W,0.10,63.16,010412,,,D*4B
$GPGGA,204022.000,3352.0684,N,09831.8489,W,2,09,0.8,296.9,M,-23.7,M,0.8,0000*40
$GPGSA,A,3,23,01,30,25,14,22,16,20,32,,,,1.6,0.8,1.4*3D
$GPGSV,3,1,12,32,68,301,36,31,57,030,,30,51,151,44,20,39,309,28*79
$GPGSV,3,2,12,16,27,172,34,14,26,081,33,01,23,253,35,23,14,293,37*78
$GPGSV,3,3,12,25,12,039,26,22,10,145,35,11,09,235,19,51,49,195,42*70
$GPRMC,204022.000,A,3352.0684,N,09831.8489,W,0.06,67.82,010412,,,D*47
$GPGGA,204023.000,3352.0684,N,09831.8489,W,2,09,0.8,296.9,M,-23.7,M,0.8,0000*41
$GPGSA,A,3,23,01,30,25,14,22,16,20,32,,,,1.6,0.8,1.4*3D
$GPRMC,204023.000,A,3352.0684,N,09831.8489,W,0.11,56.25,010412,,,D*4F
$GPGGA,204024.000,3352.0684,N,09831.8489,W,2,09,0.8,296.9,M,-23.7,M,1.8,0000*47
$GPGSA,A,3,23,01,30,25,14,22,16,20,32,,,,1.6,0.8,1.4*3D
$GPRMC,204024.000,A,3352.0684,N,09831.8489,W,0.08,57.48,010412,,,D*4A
$GPGGA,204025.000,3352.0684,N,09831.8489,W,2,09,0.8,296.9,M,-23.7,M,0.8,0000*47
$GPGSA,A,3,23,01,30,25,14,22,16,20,32,,,,1.6,0.8,1.4*3D
$GPRMC,204025.000,A,3352.0684,N,09831.8489,W,0.08,64.95,010412,,,D*4B
$GPGGA,204026.000,3352.0684,N,09831.8488,W,2,09,0.8,296.9,M,-23.7,M,0.8,0000*45
$GPGSA,A,3,23,01,30,25,14,22,16,20,32,,,,1.6,0.8,1.4*3D
$GPRMC,204026.000,A,3352.0684,N,09831.8488,W,0.11,57.49,010412,,,D*40
$GPGGA,204027.000,3352.0684,N,09831.8489,W,2,09,0.8,296.9,M,-23.7,M,0.8,0000*45
$GPGSA,A,3,23,01,30,25,14,22,16,20,32,,,,1.6,0.8,1.4*3D
$GPGSV,3,1,12,32,68,301,36,31,57,030,,30,51,151,44,20,39,309,28*79
$GPGSV,3,2,12,16,27,172,34,14,26,081,33,01,23,253,34,23,14,293,37*79
$GPGSV,3,3,12,25,12,039,26,22,10,145,34,11,09,235,18,51,49,195,42*70
$GPRMC,204027.000,A,3352.0684,N,09831.8489,W,0.03,15.61,010412,,,D*4F
$GPGGA,204028.000,3352.0684,N,09831.8489,W,2,09,0.8,296.9,M,-23.7,M,0.8,0000*4A
$GPGSA,A,3,23,01,30,25,14,22,16,20,32,,,,1.6,0.8,1.4*3D
$GPRMC,204028.000,A,3352.0684,N,09831.8489,W,0.01,313.79,010412,,,D*7E
$GPGGA,204029.000,3352.0684,N,09831.8489,W,2,09,0.8,296.8,M,-23.7,M,0.8,0000*4A
$GPGSA,A,3,23,01,30,25,14,22,16,20,32,,,,1.6,0.8,1.4*3D
$GPRMC,204029.000,A,3352.0684,N,09831.8489,W,0.01,49.54,010412,,,D*4C
$GPGGA,204030.000,3352.0684,N,09831.8489,W,2,09,0.8,296.8,M,-23.7,M,1.8,0000*43
$GPGSA,A,3,23,01,30,25,14,22,16,20,32,,,,1.6,0.8,1.4*3D
$GPRMC,204030.000,A,3352.0684,N,09831.8489,W,0.03,154.13,010412,,,D*78
$GPGGA,204031.000,3352.0683,N,09831.8489,W,2,09,0.8,296.8,M,-23.7,M,2.8,0000*46
$GPGSA,A,3,23,01,30,25,14,22,16,20,32,,,,1.6,0.8,1.4*3D
$GPRMC,204031.000,A,3352.0683,N,09831.8489,W,0.01,20.31,010412,,,D*4E
$GPGGA,204032.000,3352.0683,N,09831.8489,W,2,09,0.8,296.7,M,-23.7,M,3.8,0000*4B
$GPGSA,A,3,23,01,30,25,14,22,16,20,32,,,,1.6,0.8,1.4*3D
$GPGSV,3,1,12,32,68,301,36,31,57,030,,30,51,151,44,20,39,309,28*79
$GPGSV,3,2,12,16,27,172,34,14,26,081,33,01,23,253,34,23,14,293,37*79
$GPGSV,3,3,12,25,12,039,26,22,10,145,34,11,09,235,18,51,49,195,42*70
$GPRMC,204032.000,A,3352.0683,N,09831.8489,W,0.02,95.87,010412,,,D*4D
$GPGGA,204033.000,3352.0683,N,09831.8489,W,2,09,0.8,296.7,M,-23.7,M,0.8,0000*49
$GPGSA,A,3,23,01,30,25,14,22,16,20,32,,,,1.6,0.8,1.4*3D
$GPRMC,204033.000,A,3352.0683,N,09831.8489,W,0.08,62.43,010412,,,D*46
$GPGGA,204034.000,3352.0683,N,09831.8489,W,2,09,0.8,296.7,M,-23.7,M,0.8,0000*4E
$GPGSA,A,3,23,01,30,25,14,22,16,20,32,,,,1.6,0.8,1.4*3D
$GPRMC,204034.000,A,3352.0683,N,09831.8489,W,0.07,71.67,010412,,,D*4A
$GPGGA,204035.000,3352.0683,N,09831.8489,W,2,09,0.8,296.7,M,-23.7,M,0.8,0000*4F
$GPGSA,A,3,23,01,30,25,14,22,16,20,32,,,,1.6,0.8,1.4*3D
$GPRMC,204035.000,A,3352.0683,N,09831.8489,W,0.10,65.18,010412,,,D*40
$GPGGA,204036.000,3352.0683,N,09831.8489,W,2,09,0.8,296.7,M,-23.7,M,1.8,0000*4D
$GPGSA,A,3,23,01,30,25,14,22,16,20,32,,,,1.6,0.8,1.4*3D
$GPRMC,204036.000,A,3352.0683,N,09831.8489,W,0.08,64.71,010412,,,D*44
$GPGGA,204037.000,3352.0683,N,09831.8489,W,2,09,0.8,296.7,M,-23.7,M,2.8,0000*4F
$GPGSA,A,3,23,01,30,25,14,22,16,20,32,,,,1.6,0.8,1.4*3D
$GPGSV,3,1,12,32,68,301,36,31,57,030,,30,51,151,44,20,39,309,28*79
$GPGSV,3,2,12,16,27,172,34,14,26,081,33,01,23,253,34,23,14,293,37*79
$GPGSV,3,3,12,25,12,039,27,22,10,145,34,11,09,235,17,51,49,195,42*7E
$GPRMC,204037.000,A,3352.0683,N,09831.8489,W,0.10,54.08,010412,,,D*41
$GPGGA,204038.000,3352.0683,N,09831.8489,W,2,09,0.8,296.7,M,-23.7,M,3.8,0000*41
$GPGSA,A,3,23,01,30,25,14,22,16,20,32,,,,1.6,0.8,1.4*3D
$GPRMC,204038.000,A,3352.0683,N,09831.8489,W,0.08,69.28,010412,,,D*4B
$GPGGA,204039.000,3352.0683,N,09831.8489,W,2,09,0.8,296.7,M,-23.7,M,0.8,0000*43
$GPGSA,A,3,23,01,30,25,14,22,16,20,32,,,,1.6,0.8,1.4*3D
$GPRMC,204039.000,A,3352.0683,N,09831.8489,W,0.02,27.45,010412,,,D*41
$GPGGA,204040.000,3352.0683,N,09831.8489,W,2,09,0.8,296.7,M,-23.7,M,0.8,0000*4D
$GPGSA,A,3,23,01,30,25,14,22,16,20,32,,,,1.6,0.8,1.4*3D
$GPRMC,204040.000,A,3352.0683,N,09831.8489,W,0.02,157.20,010412,,,D*7A
$GPGGA,204041.000,3352.0682,N,09831.8489,W,2,09,0.8,296.7,M,-23.7,M,0.8,0000*4D
$GPGSA,A,3,23,01,30,25,14,22,16,20,32,,,,1.6,0.8,1.4*3D
$GPRMC,204041.000,A,3352.0682,N,09831.8489,W,0.03,138.77,010412,,,D*70
$GPGGA,204042.000,3352.0682,N,09831.8489,W,2,09,0.8,296.6,M,-23.7,M,1.8,0000*4E
$GPGSA,A,3,23,01,30,25,14,22,16,20,32,,,,1.6,0.8,1.4*3D
$GPGSV,3,1,12,32,68,301,36,31,57,030,,30,51,151,44,20,39,309,28*79
$GPGSV,3,2,12,16,27,172,35,14,26,081,33,01,23,253,34,23,14,293,37*78
$GPGSV,3,3,12,25,12,039,27,22,10,145,35,11,09,235,17,51,49,195,42*7F
$GPRMC,204042.000,A,3352.0682,N,09831.8489,W,0.02,123.80,010412,,,D*70
$GPGGA,204043.000,3352.0682,N,09831.8489,W,2,09,0.8,296.6,M,-23.7,M,2.8,0000*4C
$GPGSA,A,3,23,01,30,25,14,22,16,20,32,,,,1.6,0.8,1.4*3D
$GPRMC,204043.000,A,3352.0682,N,09831.8489,W,0.03,163.63,010412,,,D*79
$GPGGA,204044.000,3352.0682,N,09831.8489,W,2,09,0.8,296.6,M,-23.7,M,3.8,0000*4A
$GPGSA,A,3,23,01,30,25,14,22,16,20,32,,,,1.6,0.8,1.4*3D
$GPRMC,204044.000,A,3352.0682,N,09831.8489,W,0.03,141.16,010412,,,D*7C
$GPGGA,204045.000,3352.0681,N,09831.8489,W,2,09,0.8,296.6,M,-23.7,M,0.8,0000*4B
$GPGSA,A,3,23,01,30,25,14,22,16,20,32,,,,1.6,0.8,1.4*3D
$GPRMC,204045.000,A,3352.0681,N,09831.8489,W,0.11,84.12,010412,,,D*41
$GPGGA,204046.000,3352.0681,N,09831.8489,W,2,09,0.8,296.6,M,-23.7,M,0.8,0000*48
$GPGSA,A,3,23,01,30,25,14,22,16,20,32,,,,1.6,0.8,1.4*3D
$GPRMC,204046.000,A,3352.0681,N,09831.8489,W,0.09,42.34,010412,,,D*45
$GPGGA,204047.000,3352.0682,N,09831.8489,W,2,09,0.8,296.6,M,-23.7,M,0.8,0000*4A
$GPGSA,A,3,23,01,30,25,14,22,16,20,32,,,,1.6,0.8,1.4*3D
$GPGSV,3,1,12,32,68,301,36,31,57,030,,30,51,151,44,20,39,309,28*79
$GPGSV,3,2,12,16,27,172,35,14,26,081,33,01,23,253,34,23,14,293,37*78
$GPGSV,3,3,12,25,12,039,27,22,10,145,35,11,09,235,19,51,49,195,42*71
$GPRMC,204047.000,A,3352.0682,N,09831.8489,W,0.11,37.56,010412,,,D*48
$GPGGA,204048.000,3352.0682,N,09831.8489,W,2,09,0.8,296.6,M,-23.7,M,1.8,0000*44
$GPGSA,A,3,23,01,30,25,14,22,16,20,32,,,,1.6,0.8,1.4*3D
$GPRMC,204048.000,A,3352.0682,N,09831.8489,W,0.12,51.33,010412,,,D*47
$GPGGA,204049.000,3352.0682,N,09831.8489,W,2,09,0.8,296.6,M,-23.7,M,2.8,0000*46
$GPGSA,A,3,23,01,30,25,14,22,16,20,32,,,,1.6,0.8,1.4*3D
$GPRMC,204049.000,A,3352.0682,N,09831.8489,W,0.13,47.85,010412,,,D*4D
$GPGGA,204050.000,3352.0682,N,09831.8488,W,2,09,0.8,296.6,M,-23.7,M,0.8,0000*4D
$GPGSA,A,3,23,01,30,25,14,22,16,20,32,,,,1.6,0.8,1.4*3D
$GPRMC,204050.000,A,3352.0682,N,09831.8488,W,0.10,51.97,010412,,,D*43
$GPGGA,204051.000,3352.0682,N,09831.8488,W,2,09,0.8,296.6,M,-23.7,M,0.8,0000*4C
$GPGSA,A,3,23,01,30,25,14,22,16,20,32,,,,1.6,0.8,1.4*3D
$GPRMC,204051.000,A,3352.0682,N,09831.8488,W,0.03,40.82,010412,,,D*44
$GPGGA,204052.000,3352.0682,N,09831.8488,W,2,09,0.8,296.5,M,-23.7,M,0.8,0000*4C
$GPGSA,A,3,23,01,30,25,14,22,16,20,32,,,,1.6,0.8,1.4*3D
$GPGSV,3,1,12,32,68,301,36,31,57,030,,30,51,151,44,20,39,309,28*79
$GPGSV,3,2,12,16,27,172,35,14,26,081,33,01,23,253,35,23,14,293,36*78
$GPGSV,3,3,12,25,12,039,27,22,10,145,36,11,09,235,20,51,49,195,42*78
$GPRMC,204052.000,A,3352.0682,N,09831.8488,W,0.02,83.92,010412,,,D*48
$GPGGA,204053.000,3352.0682,N,09831.8489,W,2,09,0.8,296.5,M,-23.7,M,0.8,0000*4C
$GPGSA,A,3,23,01,30,25,14,22,16,20,32,,,,1.6,0.8,1.4*3D
$GPRMC,204053.000,A,3352.0682,N,09831.8489,W,0.03,174.27,010412,,,D*7E
$GPGGA,204054.000,3352.0681,N,09831.8489,W,2,09,0.8,296.5,M,-23.7,M,0.8,0000*48
$GPGSA,A,3,23,01,30,25,14,22,16,20,32,,,,1.6,0.8,1.4*3D
$GPRMC,204054.000,A,3352.0681,N,09831.8489,W,0.02,184.65,010412,,,D*72
$GPGGA,204055.000,3352.0681,N,09831.8489,W,2,09,0.8,296.4,M,-23.7,M,1.8,0000*49
$GPGSA,A,3,23,01,30,25,14,22,16,20,32,,,,1.6,0.8,1.4*3D
$GPRMC,204055.000,A,3352.0681,N,09831.8489,W,0.02,115.00,010412,,,D*78
$GPGGA,204056.000,3352.0681,N,09831.8489,W,2,09,0.8,296.4,M,-23.7,M,2.8,0000*49
$GPGSA,A,3,23,01,30,25,14,22,16,20,32,,,,1.6,0.8,1.4*3D
$GPRMC,204056.000,A,3352.0681,N,09831.8489,W,0.03,194.80,010412,,,D*7B
$GPGGA,204057.000,3352.0681,N,09831.8489,W,2,09,0.8,296.4,M,-23.7,M,0.8,0000*4A
$GPGSA,A,3,23,01,30,25,14,22,16,20,32,,,,1.6,0.8,1.4*3D
$GPGSV,3,1,12,32,68,301,36,31,57,030,,30,51,151,44,20,39,309,28*79
$GPGSV,3,2,12,16,27,172,34,14,26,081,33,01,23,253,35,23,14,293,36*79
$GPGSV,3,3,12,25,12,039,26,22,10,145,36,11,09,235,20,51,49,195,42*79
$GPRMC,204057.000,A,3352.0681,N,09831.8489,W,0.08,74.62,010412,,,D*42
$GPGGA,204058.000,3352.0681,N,09831.8489,W,2,09,0.8,296.4,M,-23.7,M,0.8,0000*45
$GPGSA,A,3,23,01,30,25,14,22,16,20,32,,,,1.6,0.8,1.4*3D
$GPRMC,204058.000,A,3352.0681,N,09831.8489,W,0.09,63.07,010412,,,D*49
$GPGGA,204059.000,3352.0681,N,09831.8489,W,2,09,0.8,296.4,M,-23.7,M,0.8,0000*44
$GPGSA,A,3,23,01,30,25,14,22,16,20,32,,,,1.6,0.8,1.4*3D
$GPRMC,204059.000,A,3352.0681,N,09831.8489,W,0.10,57.46,010412,,,D*42
$GPGGA,204100.000,3352.0681,N,09831.8489,W,2,09,0.8,296.4,M,-23.7,M,0.8,0000*49
$GPGSA,A,3,23,01,30,25,14,22,16,20,32,,,,1.6,0.8,1.4*3D
$GPRMC,204100.000,A,3352.0681,N,09831.8489,W,0.11,60.59,010412,,,D*44
$GPGGA,204101.000,3352.0681,N,09831.8489,W,2,09,0.8,296.4,M,-23.7,M,0.8,0000*48
$GPGSA,A,3,23,01,30,25,14,22,16,20,32,,,,1.6,0.8,1.4*3D
$GPRMC,204101.000,A,3352.0681,N,09831.8489,W,0.10,64.73,010412,,,D*48
$GPGGA,204102.000,3352.0681,N,09831.8488,W,2,09,0.8,296.5,M,-23.7,M,0.8,0000*4B
$GPGSA,A,3,23,01,30,25,14,22,16,20,32,,,,1.6,0.8,1.4*3D
$GPGSV,3,1,12,32,68,301,36,31,57,030,,30,51,151,44,20,39,309,28*79
$GPGSV,3,2,12,16,27,172,34,14,26,081,32,01,23,253,34,23,14,293,35*7A
$GPGSV,3,3,12,25,12,039,26,22,10,145,36,11,09,235,20,51,49,195,42*79
$GPRMC,204102.000,A,3352.0681,N,09831.8488,W,0.11,53.81,010412,,,D*42
$GPGGA,204103.000,3352.0681,N,09831.8488,W,2,09,0.8,296.5,M,-23.7,M,0.8,0000*4A
$GPGSA,A,3,23,01,30,25,14,22,16,20,32,,,,1.6,0.8,1.4*3D
$GPRMC,204103.000,A,3352.0681,N,09831.8488,W,0.02,70.76,010412,,,D*48
$GPGGA,204104.000,3352.0681,N,09831.8488,W,2,09,0.8,296.5,M,-23.7,M,0.8,0000*4D
$GPGSA,A,3,23,01,30,25,14,22,16,20,32,,,,1.6,0.8,1.4*3D
$GPRMC,204104.000,A,3352.0681,N,09831.8488,W,0.04,115.50,010412,,,D*7F
$GPGGA,204105.000,3352.0681,N,09831.8489,W,2,09,0.8,296.5,M,-23.7,M,0.8,0000*4D
$GPGSA,A,3,23,01,30,25,14,22,16,20,32,,,,1.6,0.8,1.4*3D
$GPRMC,204105.000,A,3352.0681,N,09831.8489,W,0.05,188.47,010412,,,D*7C
$GPGGA,204106.000,3352.0681,N,09831.8489,W,2,09,0.8,296.5,M,-23.7,M,1.8,0000*4F
$GPGSA,A,3,23,01,30,25,14,22,16,20,32,,,,1.6,0.8,1.4*3D
$GPRMC,204106.000,A,3352.0681,N,09831.8489,W,0.03,156.35,010412,,,D*7F
$GPGGA,204107.000,3352.0680,N,09831.8489,W,2,09,0.8,296.6,M,-23.7,M,2.8,0000*4F
$GPGSA,A,3,23,01,30,25,14,22,16,20,32,,,,1.6,0.8,1.4*3D
$GPGSV,3,1,12,32,68,301,36,31,57,030,,30,51,151,44,20,39,309,28*79
$GPGSV,3,2,12,16,27,172,34,14,26,081,33,01,23,253,34,23,14,293,35*7B
$GPGSV,3,3,12,25,12,039,26,22,10,145,37,11,09,235,19,51,49,195,42*72
$GPRMC,204107.000,A,3352.0680,N,09831.8489,W,0.05,177.86,010412,,,D*72
$GPGGA,204108.000,3352.0680,N,09831.8489,W,2,09,0.8,296.6,M,-23.7,M,3.8,0000*41
$GPGSA,A,3,23,01,30,25,14,22,16,20,32,,,,1.6,0.8,1.4*3D
$GPRMC,204108.000,A,3352.0680,N,09831.8489,W,0.03,163.35,010412,,,D*76
$GPGGA,204109.000,3352.0680,N,09831.8489,W,2,09,0.8,296.6,M,-23.7,M,0.8,0000*43
$GPGSA,A,3,23,01,30,25,14,22,16,20,32,,,,1.6,0.8,1.4*3D
$GPRMC,204109.000,A,3352.0680,N,09831.8489,W,0.07,88.64,010412,,,D*43
$GPGGA,204110.000,3352.0680,N,09831.8489,W,2,09,0.8,296.5,M,-23.7,M,0.8,0000*48
$GPGSA,A,3,23,01,30,25,14,22,16,20,32,,,,1.6,0.8,1.4*3D
$GPRMC,204110.000,A,3352.0680,N,09831.8489,W,0.06,21.55,010412,,,D*4B
$GPGGA,204111.000,3352.0680,N,09831.8489,W,2,09,0.8,296.5,M,-23.7,M,0.8,0000*49
$GPGSA,A,3,23,01,30,25,14,22,16,20,32,,,,1.6,0.8,1.4*3D
$GPRMC,204111.000,A,3352.0680,N,09831.8489,W,0.09,33.82,010412,,,D*4C
$GPGGA,204112.000,3352.0680,N,09831.8489,W,2,09,0.8,296.5,M,-23.7,M,1.8,0000*4B
$GPGSA,A,3,23,01,30,25,14,22,16,20,32,,,,1.6,0.8,1.4*3D
$GPGSV,3,1,12,32,68,301,36,31,57,030,,30,51,151,44,20,39,309,29*78
$GPGSV,3,2,12,16,27,172,34,14,26,081,33,01,23,253,34,23,14,293,34*7A
$GPGSV,3,3,12,25,12,039,26,22,10,145,37,11,09,235,18,51,49,195,42*73
$GPRMC,204112.000,A,3352.0680,N,09831.8489,W,0.11,34.60,010412,,,D*4D
$GPGGA,204113.000,3352.0680,N,09831.8489,W,2,09,0.8,296.5,M,-23.7,M,0.8,0000*4B
$GPGSA,A,3,23,01,30,25,14,22,16,20,32,,,,1.6,0.8,1.4*3D
$GPRMC,204113.000,A,3352.0680,N,09831.8489,W,0.09,34.47,010412,,,D*40
$GPGGA,204114.000,3352.0681,N,09831.8489,W,2,09,0.8,296.5,M,-23.7,M,1.8,0000*4C
$GPGSA,A,3,23,01,30,25,14,22,16,20,32,,,,1.6,0.8,1.4*3D
$GPRMC,204114.000,A,3352.0681,N,09831.8489,W,0.09,27.89,010412,,,D*46
$GPGGA,204115.000,3352.0681,N,09831.8489,W,2,09,0.8,296.5,M,-23.7,M,0.8,0000*4C
$GPGSA,A,3,23,01,30,25,14,22,16,20,32,,,,1.6,0.8,1.4*3D
$GPRMC,204115.000,A,3352.0681,N,09831.8489,W,0.02,8.26,010412,,,D*74
$GPGGA,204116.000,3352.0680,N,09831.8491,W,2,09,0.8,296.6,M,-23.7,M,0.8,0000*44
$GPGSA,A,3,23,01,30,25,14,22,16,20,32,,,,1.6,0.8,1.4*3D
$GPRMC,204116.000,A,3352.0680,N,09831.8491,W,0.04,184.15,010412,,,D*7C
$GPGGA,204117.000,3352.0679,N,09831.8491,W,2,09,0.8,296.7,M,-23.7,M,0.8,0000*42
$GPGSA,A,3,23,01,30,25,14,22,16,20,32,,,,1.6,0.8,1.4*3D
