$GPGGA,160606.000,3352.4636,N,09831.1882,W,2,10,1.2,288.5,M,-23.7,M,1.8,0000*43
$GPGSA,A,3,15,27,21,14,09,06,03,19,22,18,,,2.2,1.2,1.9*33
$GPRMC,160606.000,A,3352.4636,N,09831.1882,W,0.20,134.38,310312,,,D*73
$GPGGA,160607.000,3352.4636,N,09831.1881,W,2,10,1.2,288.5,M,-23.7,M,2.8,0000*42
$GPGSA,A,3,15,27,21,14,09,06,03,19,22,18,,,2.2,1.2,1.9*33
$GPRMC,160607.000,A,3352.4636,N,09831.1881,W,0.18,142.59,310312,,,D*7C
$GPGGA,160608.000,3352.4635,N,09831.1881,W,2,10,1.2,288.4,M,-23.7,M,3.8,0000*4E
$GPGSA,A,3,15,27,21,14,09,06,03,19,22,18,,,2.2,1.2,1.9*33
$GPRMC,160608.000,A,3352.4635,N,09831.1881,W,0.20,169.73,310312,,,D*7A
$GPGGA,160609.000,3352.4634,N,09831.1881,W,2,10,1.2,288.5,M,-23.7,M,0.8,0000*4C
$GPGSA,A,3,15,27,21,14,09,06,03,19,22,18,,,2.2,1.2,1.9*33
$GPGSV,3,1,11,18,60,039,37,21,59,144,15,22,51,311,27,14,45,229,37*7B
$GPGSV,3,2,11,09,38,077,35,06,28,265,20,27,25,053,34,03,22,276,32*71
$GPGSV,3,3,11,15,20,046,24,19,13,313,32,48,36,230,31*4B
$GPRMC,160609.000,A,3352.4634,N,09831.1881,W,0.22,132.83,310312,,,D*79
$GPGGA,160610.000,3352.4634,N,09831.1880,W,2,10,1.2,288.5,M,-23.7,M,0.8,0000*45
$GPGSA,A,3,15,27,21,14,09,06,03,19,22,18,,,2.2,1.2,1.9*33
$GPRMC,160610.000,A,3352.4634,N,09831.1880,W,0.24,138.99,310312,,,D*77
$GPGGA,160611.000,3352.4634,N,09831.1880,W,2,10,1.2,288.6,M,-23.7,M,0.8,0000*47
$GPGSA,A,3,15,27,21,14,09,06,03,19,22,18,,,2.2,1.2,1.9*33
$GPRMC,160611.000,A,3352.4634,N,09831.1880,W,0.23,165.45,310312,,,D*78
$GPGGA,160612.000,3352.4633,N,09831.1880,W,2,10,1.2,288.7,M,-23.7,M,1.8,0000*43
$GPGSA,A,3,15,27,21,14,09,06,03,19,22,18,,,2.2,1.2,1.9*33
$GPRMC,160612.000,A,3352.4633,N,09831.1880,W,0.19,153.64,310312,,,D*73
$GPGGA,160613.000,3352.4633,N,09831.1880,W,2,10,1.2,288.9,M,-23.7,M,2.8,0000*4F
$GPGSA,A,3,15,27,21,14,09,06,03,19,22,18,,,2.2,1.2,1.9*33
$GPRMC,160613.000,A,3352.4633,N,09831.1880,W,0.05,117.29,310312,,,D*76
$GPGGA,160614.000,3352.4633,N,09831.1880,W,2,10,1.2,288.9,M,-23.7,M,3.8,0000*49
$GPGSA,A,3,15,27,21,14,09,06,03,19,22,18,,,2.2,1.2,1.9*33
$GPGSV,3,1,11,18,60,039,37,21,59,144,15,22,51,311,26,14,45,229,37*7A
$GPGSV,3,2,11,09,38,077,34,06,28,265,20,27,25,053,34,03,22,276,32*70
$GPGSV,3,3,11,15,20,046,24,19,13,313,32,48,36,230,31*4B
$GPRMC,160614.000,A,3352.4633,N,09831.1880,W,0.10,339.74,310312,,,D*73
$GPGGA,160615.000,3352.4633,N,09831.1880,W,2,10,1.2,288.9,M,-23.7,M,0.8,0000*4B
$GPGSA,A,3,15,27,21,14,09,06,03,19,22,18,,,2.2,1.2,1.9*33
$GPRMC,160615.000,A,3352.4633,N,09831.1880,W,0.09,62.39,310312,,,D*4E
$GPGGA,160616.000,3352.4633,N,09831.1880,W,2,10,1.2,288.9,M,-23.7,M,0.8,0000*48
$GPGSA,A,3,15,27,21,14,09,06,03,19,22,18,,,2.2,1.2,1.9*33
$GPRMC,160616.000,A,3352.4633,N,09831.1880,W,0.15,337.98,310312,,,D*78
$GPGGA,160617.000,3352.4633,N,09831.1880,W,2,10,1.2,288.8,M,-23.7,M,0.8,0000*48
$GPGSA,A,3,15,27,21,14,09,06,03,19,22,18,,,2.2,1.2,1.9*33
$GPRMC,160617.000,A,3352.4633,N,09831.1880,W,0.05,12.60,310312,,,D*4B
$GPGGA,160618.000,3352.4633,N,09831.1880,W,2,10,1.2,288.8,M,-23.7,M,0.8,0000*47
$GPGSA,A,3,15,27,21,14,09,06,03,19,22,18,,,2.2,1.2,1.9*33
$GPRMC,160618.000,A,3352.4633,N,09831.1880,W,0.05,33.83,310312,,,D*4A
$GPGGA,160619.000,3352.4633,N,09831.1880,W,2,09,1.2,288.7,M,-23.7,M,1.8,0000*40
$GPGSA,A,3,15,27,21,14,09,03,19,22,18,,,,2.3,1.2,1.9*34
$GPGSV,3,1,11,18,60,039,37,21,59,144,14,22,51,311,26,14,45,230,37*73
$GPGSV,3,2,11,09,38,077,34,06,28,265,11,27,25,053,34,03,22,276,31*71
$GPGSV,3,3,11,15,20,046,24,19,13,313,32,48,36,230,31*4B
$GPRMC,160619.000,A,3352.4633,N,09831.1880,W,0.08,50.12,310312,,,D*4B
$GPGGA,160620.000,3352.4633,N,09831.1879,W,2,09,1.2,288.6,M,-23.7,M,0.8,0000*4C
$GPGSA,A,3,15,27,21,14,09,03,19,22,18,,,,2.3,1.2,1.9*34
$GPRMC,160620.000,A,3352.4633,N,09831.1879,W,0.08,71.04,310312,,,D*43
$GPGGA,160621.000,3352.4633,N,09831.1879,W,2,09,1.2,288.6,M,-23.7,M,0.8,0000*4D
$GPGSA,A,3,15,27,21,14,09,03,19,22,18,,,,2.3,1.2,1.9*34
$GPRMC,160621.000,A,3352.4633,N,09831.1879,W,0.04,83.99,310312,,,D*47
$GPGGA,160622.000,3352.4633,N,09831.1879,W,2,09,1.2,288.5,M,-23.7,M,0.8,0000*4D
$GPGSA,A,3,15,27,21,14,09,03,19,22,18,,,,2.3,1.2,1.9*34
$GPRMC,160622.000,A,3352.4633,N,09831.1879,W,0.03,111.19,310312,,,D*71
$GPGGA,160623.000,3352.4633,N,09831.1879,W,2,09,1.2,288.5,M,-23.7,M,0.8,0000*4C
$GPGSA,A,3,15,27,21,14,09,03,19,22,18,,,,2.3,1.2,1.9*34
$GPRMC,160623.000,A,3352.4633,N,09831.1879,W,0.02,106.32,310312,,,D*7E
$GPGGA,160624.000,3352.4633,N,09831.1879,W,2,09,1.2,288.5,M,-23.7,M,1.8,0000*4A
$GPGSA,A,3,15,27,21,14,09,03,19,22,18,,,,2.3,1.2,1.9*34
$GPGSV,3,1,11,18,60,039,37,21,59,144,12,22,51,311,27,14,45,230,37*74
$GPGSV,3,2,11,09,38,077,34,06,28,265,12,27,25,053,34,03,22,276,31*72
$GPGSV,3,3,11,15,20,046,25,19,13,313,33,48,36,230,31*4B
$GPRMC,160624.000,A,3352.4633,N,09831.1879,W,0.01,71.87,310312,,,D*45
$GPGGA,160625.000,3352.4633,N,09831.1879,W,2,09,1.3,288.5,M,-23.7,M,2.8,0000*49
$GPGSA,A,3,15,27,14,09,06,03,19,22,18,,,,2.3,1.3,1.9*30
$GPRMC,160625.000,A,3352.4633,N,09831.1879,W,0.08,102.79,310312,,,D*79
$GPGGA,160626.000,3352.4633,N,09831.1879,W,2,09,1.3,288.5,M,-23.7,M,3.8,0000*4B
$GPGSA,A,3,15,27,14,09,06,03,19,22,18,,,,2.3,1.3,1.9*30
$GPRMC,160626.000,A,3352.4633,N,09831.1879,W,0.08,105.14,310312,,,D*76
$GPGGA,160627.000,3352.4632,N,09831.1879,W,2,09,1.3,288.4,M,-23.7,M,0.8,0000*49
$GPGSA,A,3,15,27,14,09,06,03,19,22,18,,,,2.3,1.3,1.9*30
$GPRMC,160627.000,A,3352.4632,N,09831.1879,W,0.11,84.46,310312,,,D*41
$GPGGA,160628.000,3352.4632,N,09831.1878,W,2,09,1.3,288.4,M,-23.7,M,0.8,0000*47
$GPGSA,A,3,15,27,14,09,06,03,19,22,18,,,,2.3,1.3,1.9*30
$GPRMC,160628.000,A,3352.4632,N,09831.1878,W,0.10,92.43,310312,,,D*4C
$GPGGA,160629.000,3352.4632,N,09831.1878,W,2,09,1.3,288.4,M,-23.7,M,0.8,0000*46
$GPGSA,A,3,15,27,14,09,06,03,19,22,18,,,,2.3,1.3,1.9*30
$GPGSV,3,1,11,18,60,039,37,21,59,144,11,22,51,311,27,14,45,230,37*77
$GPGSV,3,2,11,09,38,077,34,06,28,265,15,27,25,053,34,03,22,276,31*75
$GPGSV,3,3,11,15,20,046,25,19,13,313,33,48,36,230,31*4B
$GPRMC,160629.000,A,3352.4632,N,09831.1878,W,0.11,88.12,310312,,,D*43
$GPGGA,160630.000,3352.4632,N,09831.1878,W,2,09,1.3,288.3,M,-23.7,M,1.8,0000*48
$GPGSA,A,3,15,27,14,09,06,03,19,22,18,,,,2.3,1.3,1.9*30
$GPRMC,160630.000,A,3352.4632,N,09831.1878,W,0.11,83.68,310312,,,D*4D
$GPGGA,160631.000,3352.4632,N,09831.1878,W,2,10,1.2,288.3,M,-23.7,M,2.8,0000*43
$GPGSA,A,3,15,27,21,14,09,06,03,19,22,18,,,2.2,1.2,1.9*33
$GPRMC,160631.000,A,3352.4632,N,09831.1878,W,0.13,34.32,310312,,,D*4D
$GPGGA,160632.000,3352.4632,N,09831.1878,W,2,10,1.2,288.2,M,-23.7,M,3.8,0000*40
$GPGSA,A,3,15,27,21,14,09,06,03,19,22,18,,,2.2,1.2,1.9*33
$GPRMC,160632.000,A,3352.4632,N,09831.1878,W,0.13,125.44,310312,,,D*7E
$GPGGA,160633.000,3352.4632,N,09831.1877,W,2,10,1.2,288.3,M,-23.7,M,0.8,0000*4C
$GPGSA,A,3,15,27,21,14,09,06,03,19,22,18,,,2.2,1.2,1.9*33
$GPRMC,160633.000,A,3352.4632,N,09831.1877,W,0.20,149.87,310312,,,D*75
$GPGGA,160634.000,3352.4631,N,09831.1877,W,2,10,1.2,288.3,M,-23.7,M,0.8,0000*48
$GPGSA,A,3,15,27,21,14,09,06,03,19,22,18,,,2.2,1.2,1.9*33
$GPGSV,3,1,11,18,60,039,36,21,59,144,14,22,51,311,27,14,45,230,37*73
$GPGSV,3,2,11,09,38,077,34,06,28,265,16,27,25,053,34,03,22,276,30*77
$GPGSV,3,3,11,15,20,046,25,19,13,313,33,48,36,230,31*4B
$GPRMC,160634.000,A,3352.4631,N,09831.1877,W,0.21,173.40,310312,,,D*72
$GPGGA,160635.000,3352.4631,N,09831.1877,W,2,10,1.2,288.4,M,-23.7,M,0.8,0000*4E
$GPGSA,A,3,15,27,21,14,09,06,03,19,22,18,,,2.2,1.2,1.9*33
$GPRMC,160635.000,A,3352.4631,N,09831.1877,W,0.24,151.12,310312,,,D*71
$GPGGA,160636.000,3352.4630,N,09831.1877,W,2,10,1.2,288.4,M,-23.7,M,0.8,0000*4C
$GPGSA,A,3,15,27,21,14,09,06,03,19,22,18,,,2.2,1.2,1.9*33
$GPRMC,160636.000,A,3352.4630,N,09831.1877,W,0.23,152.66,310312,,,D*74
$GPGGA,160637.000,3352.4630,N,09831.1877,W,2,10,1.2,288.5,M,-23.7,M,0.8,0000*4C
$GPGSA,A,3,15,27,21,14,09,06,03,19,22,18,,,2.2,1.2,1.9*33
$GPRMC,160637.000,A,3352.4630,N,09831.1877,W,0.26,169.65,310312,,,D*7B
$GPGGA,160638.000,3352.4629,N,09831.1877,W,2,10,1.2,288.5,M,-23.7,M,1.8,0000*4A
$GPGSA,A,3,15,27,21,14,09,06,03,19,22,18,,,2.2,1.2,1.9*33
$GPRMC,160638.000,A,3352.4629,N,09831.1877,W,0.22,169.41,310312,,,D*7E
$GPGGA,160639.000,3352.4629,N,09831.1877,W,2,10,1.2,288.5,M,-23.7,M,0.8,0000*4A
$GPGSA,A,3,15,27,21,14,09,06,03,19,22,18,,,2.2,1.2,1.9*33
$GPGSV,3,1,11,18,60,039,36,21,59,144,16,22,51,311,28,14,45,230,37*7E
$GPGSV,3,2,11,09,38,077,34,06,28,265,17,27,25,053,34,03,22,276,30*76
$GPGSV,3,3,11,15,20,046,25,19,13,313,33,48,36,230,31*4B
$GPRMC,160639.000,A,3352.4629,N,09831.1877,W,0.22,160.14,310312,,,D*76
$GPGGA,160640.000,3352.4628,N,09831.1877,W,2,10,1.2,288.5,M,-23.7,M,0.8,0000*45
$GPGSA,A,3,15,27,21,14,09,06,03,19,22,18,,,2.2,1.2,1.9*33
$GPRMC,160640.000,A,3352.4628,N,09831.1877,W,0.26,138.38,310312,,,D*7E
$GPGGA,160641.000,3352.4628,N,09831.1876,W,2,10,1.2,288.6,M,-23.7,M,0.8,0000*46
$GPGSA,A,3,15,27,21,14,09,06,03,19,22,18,,,2.2,1.2,1.9*33
$GPRMC,160641.000,A,3352.4628,N,09831.1876,W,0.25,127.50,310312,,,D*7D
$GPGGA,160642.000,3352.4628,N,09831.1876,W,2,10,1.2,288.6,M,-23.7,M,0.8,0000*45
$GPGSA,A,3,15,27,21,14,09,06,03,19,22,18,,,2.2,1.2,1.9*33
$GPRMC,160642.000,A,3352.4628,N,09831.1876,W,0.22,125.64,310312,,,D*7C
$GPGGA,160643.000,3352.4628,N,09831.1876,W,2,10,1.2,288.6,M,-23.7,M,0.8,0000*44
$GPGSA,A,3,15,27,21,14,09,06,03,19,22,18,,,2.2,1.2,1.9*33
$GPRMC,160643.000,A,3352.4628,N,09831.1876,W,0.12,34.03,310312,,,D*4E
$GPGGA,160644.000,3352.4628,N,09831.1876,W,2,10,1.2,288.6,M,-23.7,M,1.8,0000*42
$GPGSA,A,3,15,27,21,14,09,06,03,19,22,18,,,2.2,1.2,1.9*33
$GPGSV,3,1,11,18,60,039,37,21,59,144,17,22,51,311,28,14,45,230,36*7F
$GPGSV,3,2,11,09,38,077,34,06,28,265,16,27,25,053,34,03,22,276,30*77
$GPGSV,3,3,11,15,20,046,25,19,13,313,33,48,36,230,31*4B
$GPRMC,160644.000,A,3352.4628,N,09831.1876,W,0.11,48.08,310312,,,D*4A
$GPGGA,160645.000,3352.4628,N,09831.1876,W,2,10,1.2,288.7,M,-23.7,M,0.8,0000*43
$GPGSA,A,3,15,27,21,14,09,06,03,19,22,18,,,2.2,1.2,1.9*33
$GPRMC,160645.000,A,3352.4628,N,09831.1876,W,0.06,265.21,310312,,,D*7B
$GPGGA,160646.000,3352.4628,N,09831.1876,W,2,10,1.2,288.7,M,-23.7,M,0.8,0000*40
$GPGSA,A,3,15,27,21,14,09,06,03,19,22,18,,,2.2,1.2,1.9*33
$GPRMC,160646.000,A,3352.4628,N,09831.1876,W,0.14,314.61,310312,,,D*78
$GPGGA,160647.000,3352.4628,N,09831.1877,W,2,10,1.2,288.7,M,-23.7,M,0.8,0000*40
$GPGSA,A,3,15,27,21,14,09,06,03,19,22,18,,,2.2,1.2,1.9*33
$GPRMC,160647.000,A,3352.4628,N,09831.1877,W,0.09,289.68,310312,,,D*78
$GPGGA,160648.000,3352.4628,N,09831.1877,W,2,10,1.2,288.7,M,-23.7,M,1.8,0000*4E
$GPGSA,A,3,15,27,21,14,09,06,03,19,22,18,,,2.2,1.2,1.9*33
$GPRMC,160648.000,A,3352.4628,N,09831.1877,W,0.06,256.51,310312,,,D*70
$GPGGA,160649.000,3352.4628,N,09831.1878,W,2,10,1.2,288.7,M,-23.7,M,2.8,0000*43
$GPGSA,A,3,15,27,21,14,09,06,03,19,22,18,,,2.2,1.2,1.9*33
$GPGSV,3,1,11,18,60,039,37,21,59,144,17,22,51,311,28,14,45,230,36*7F
$GPGSV,3,2,11,09,38,077,34,06,28,265,15,27,25,053,34,03,22,276,30*74
$GPGSV,3,3,11,15,20,046,25,19,13,313,33,48,36,230,31*4B
$GPRMC,160649.000,A,3352.4628,N,09831.1878,W,0.07,262.05,310312,,,D*79
$GPGGA,160650.000,3352.4628,N,09831.1878,W,2,10,1.2,288.6,M,-23.7,M,3.8,0000*4B
$GPGSA,A,3,15,27,21,14,09,06,03,19,22,18,,,2.2,1.2,1.9*33
$GPRMC,160650.000,A,3352.4628,N,09831.1878,W,0.10,314.99,310312,,,D*72
$GPGGA,160651.000,3352.4628,N,09831.1878,W,2,10,1.2,288.6,M,-23.7,M,0.8,0000*49
$GPGSA,A,3,15,27,21,14,09,06,03,19,22,18,,,2.2,1.2,1.9*33
$GPRMC,160651.000,A,3352.4628,N,09831.1878,W,0.04,158.75,310312,,,D*7E
$GPGGA,160652.000,3352.4628,N,09831.1878,W,2,10,1.2,288.5,M,-23.7,M,0.8,0000*49
$GPGSA,A,3,15,27,21,14,09,06,03,19,22,18,,,2.2,1.2,1.9*33
$GPRMC,160652.000,A,3352.4628,N,09831.1878,W,0.16,154.14,310312,,,D*75
$GPGGA,160653.000,3352.4628,N,09831.1878,W,2,10,1.2,288.5,M,-23.7,M,0.8,0000*48
$GPGSA,A,3,15,27,21,14,09,06,03,19,22,18,,,2.2,1.2,1.9*33
$GPRMC,160653.000,A,3352.4628,N,09831.1878,W,0.10,2.83,310312,,,D*7E
$GPGGA,160654.000,3352.4628,N,09831.1878,W,2,09,1.2,288.5,M,-23.7,M,1.8,0000*46
$GPGSA,A,3,15,27,21,14,09,03,19,22,18,,,,2.3,1.2,1.9*34
$GPGSV,3,1,11,18,60,039,37,21,59,144,18,22,51,311,28,14,45,230,36*70
$GPGSV,3,2,11,09,38,077,34,06,28,265,,27,25,053,34,03,22,276,31*71
$GPGSV,3,3,11,15,20,046,25,19,13,313,33,48,36,230,31*4B
$GPRMC,160654.000,A,3352.4628,N,09831.1878,W,0.13,128.22,310312,,,D*78
$GPGGA,160655.000,3352.4628,N,09831.1877,W,2,09,1.2,288.5,M,-23.7,M,2.8,0000*4B
$GPGSA,A,3,15,27,21,14,09,03,19,22,18,,,,2.3,1.2,1.9*34
$GPRMC,160655.000,A,3352.4628,N,09831.1877,W,0.19,140.72,310312,,,D*77
$GPGGA,160656.000,3352.4627,N,09831.1877,W,2,09,1.2,288.4,M,-23.7,M,3.8,0000*47
$GPGSA,A,3,15,27,21,14,09,03,19,22,18,,,,2.3,1.2,1.9*34
$GPRMC,160656.000,A,3352.4627,N,09831.1877,W,0.15,134.52,310312,,,D*76
$GPGGA,160657.000,3352.4627,N,09831.1877,W,2,09,1.2,288.5,M,-23.7,M,0.8,0000*44
$GPGSA,A,3,15,27,21,14,09,03,19,22,18,,,,2.3,1.2,1.9*34
$GPRMC,160657.000,A,3352.4627,N,09831.1877,W,0.09,149.23,310312,,,D*76
$GPGGA,160658.000,3352.4627,N,09831.1877,W,2,09,1.2,288.5,M,-23.7,M,0.8,0000*4B
$GPGSA,A,3,15,27,21,14,09,03,19,22,18,,,,2.3,1.2,1.9*34
$GPRMC,160658.000,A,3352.4627,N,09831.1877,W,0.10,340.77,310312,,,D*7B
$GPGGA,160659.000,3352.4627,N,09831.1877,W,2,09,1.2,288.5,M,-23.7,M,0.8,0000*4A
$GPGSA,A,3,15,27,21,14,09,03,19,22,18,,,,2.3,1.2,1.9*34
$GPGSV,3,1,11,18,60,039,37,21,59,144,18,22,51,311,29,14,45,230,36*71
$GPGSV,3,2,11,09,38,077,34,06,28,265,,27,25,053,33,03,22,276,31*76
$GPGSV,3,3,11,15,20,046,26,19,13,313,32,48,36,230,31*49
$GPRMC,160659.000,A,3352.4627,N,09831.1877,W,0.17,147.68,310312,,,D*76
$GPGGA,160700.000,3352.4627,N,09831.1877,W,2,09,1.2,288.5,M,-23.7,M,1.8,0000*46
$GPGSA,A,3,15,27,21,14,09,03,19,22,18,,,,2.3,1.2,1.9*34
$GPRMC,160700.000,A,3352.4627,N,09831.1877,W,0.09,355.63,310312,,,D*7E
$GPGGA,160701.000,3352.4628,N,09831.1877,W,2,09,1.2,288.5,M,-23.7,M,2.8,0000*4B
$GPGSA,A,3,15,27,21,14,09,03,19,22,18,,,,2.3,1.2,1.9*34
$GPRMC,160701.000,A,3352.4628,N,09831.1877,W,0.12,345.55,310312,,,D*7E
$GPGGA,160702.000,3352.4628,N,09831.1878,W,2,09,1.2,288.5,M,-23.7,M,3.8,0000*46
$GPGSA,A,3,15,27,21,14,09,03,19,22,18,,,,2.3,1.2,1.9*34
$GPRMC,160702.000,A,3352.4628,N,09831.1878,W,0.08,357.62,310312,,,D*7E
$GPGGA,160703.000,3352.4628,N,09831.1877,W,2,09,1.2,288.4,M,-23.7,M,0.8,0000*4A
$GPGSA,A,3,15,27,21,14,09,03,19,22,18,,,,2.3,1.2,1.9*34
$GPRMC,160703.000,A,3352.4628,N,09831.1877,W,0.17,140.42,310312,,,D*78
$GPGGA,160704.000,3352.4627,N,09831.1877,W,2,09,1.2,288.3,M,-23.7,M,0.8,0000*45
$GPGSA,A,3,15,27,21,14,09,03,19,22,18,,,,2.3,1.2,1.9*34
$GPGSV,3,1,11,18,60,039,37,21,59,144,18,22,51,311,29,14,45,230,36*71
$GPGSV,3,2,11,09,38,077,33,06,28,265,,27,25,053,33,03,22,276,31*71
$GPGSV,3,3,11,15,20,046,26,19,13,313,32,48,36,230,31*49
$GPRMC,160704.000,A,3352.4627,N,09831.1877,W,0.24,145.66,310312,,,D*73
$GPGGA,160705.000,3352.4627,N,09831.1877,W,2,09,1.2,288.3,M,-23.7,M,0.8,0000*44
$GPGSA,A,3,15,27,21,14,09,03,19,22,18,,,,2.3,1.2,1.9*34
$GPRMC,160705.000,A,3352.4627,N,09831.1877,W,0.25,149.27,310312,,,D*7A
$GPGGA,160706.000,3352.4626,N,09831.1877,W,2,09,1.2,288.3,M,-23.7,M,0.8,0000*46
$GPGSA,A,3,15,27,21,14,09,03,19,22,18,,,,2.3,1.2,1.9*34
$GPRMC,160706.000,A,3352.4626,N,09831.1877,W,0.12,142.66,310312,,,D*72
$GPGGA,160707.000,3352.4626,N,09831.1877,W,2,09,1.2,288.2,M,-23.7,M,1.8,0000*47
$GPGSA,A,3,15,27,21,14,09,03,19,22,18,,,,2.3,1.2,1.9*34
$GPRMC,160707.000,A,3352.4626,N,09831.1877,W,0.05,11.93,310312,,,D*48
$GPGGA,160708.000,3352.4626,N,09831.1876,W,2,09,1.2,288.1,M,-23.7,M,0.8,0000*4B
$GPGSA,A,3,15,27,21,14,09,03,19,22,18,,,,2.3,1.2,1.9*34
$GPRMC,160708.000,A,3352.4626,N,09831.1876,W,0.12,137.87,310312,,,D*70
$GPGGA,160709.000,3352.4626,N,09831.1877,W,2,09,1.2,288.2,M,-23.7,M,0.8,0000*48
$GPGSA,A,3,15,27,21,14,09,03,19,22,18,,,,2.3,1.2,1.9*34
$GPGSV,3,1,11,18,60,039,37,21,59,144,18,22,51,311,29,14,45,230,35*72
$GPGSV,3,2,11,09,38,077,33,06,28,265,,27,25,053,33,03,22,276,31*71
$GPGSV,3,3,11,15,20,046,25,19,13,313,32,48,36,230,31*4A
$GPRMC,160709.000,A,3352.4626,N,09831.1877,W,0.03,10.07,310312,,,D*4C
$GPGGA,160710.000,3352.4626,N,09831.1877,W,2,09,1.2,288.2,M,-23.7,M,0.8,0000*40
$GPGSA,A,3,15,27,21,14,09,03,19,22,18,,,,2.3,1.2,1.9*34
$GPRMC,160710.000,A,3352.4626,N,09831.1877,W,0.03,143.53,310312,,,D*72
$GPGGA,160711.000,3352.4626,N,09831.1877,W,2,09,1.2,288.2,M,-23.7,M,0.8,0000*41
$GPGSA,A,3,15,27,21,14,09,03,19,22,18,,,,2.3,1.2,1.9*34
$GPRMC,160711.000,A,3352.4626,N,09831.1877,W,0.10,143.78,310312,,,D*78
$GPGGA,160712.000,3352.4626,N,09831.1877,W,2,09,1.2,288.2,M,-23.7,M,1.8,0000*43
$GPGSA,A,3,15,27,21,14,09,03,19,22,18,,,,2.3,1.2,1.9*34
$GPRMC,160712.000,A,3352.4626,N,09831.1877,W,0.03,64.51,310312,,,D*46
$GPGGA,160713.000,3352.4626,N,09831.1877,W,2,09,1.2,288.2,M,-23.7,M,2.8,0000*41
$GPGSA,A,3,15,27,21,14,09,03,19,22,18,,,,2.3,1.2,1.9*34
$GPRMC,160713.000,A,3352.4626,N,09831.1877,W,0.12,354.55,310312,,,D*73
$GPGGA,160714.000,3352.4626,N,09831.1877,W,2,09,1.2,288.1,M,-23.7,M,3.8,0000*44
$GPGSA,A,3,15,27,21,14,09,03,19,22,18,,,,2.3,1.2,1.9*34
$GPGSV,3,1,11,18,60,039,37,21,59,144,18,22,51,311,29,14,45,230,35*72
$GPGSV,3,2,11,09,38,077,34,06,28,265,,27,25,053,34,03,22,276,31*71
$GPGSV,3,3,11,15,20,046,25,19,13,313,33,48,36,230,31*4B
$GPRMC,160714.000,A,3352.4626,N,09831.1877,W,0.22,157.80,310312,,,D*7E
$GPGGA,160715.000,3352.4625,N,09831.1877,W,2,09,1.2,288.0,M,-23.7,M,0.8,0000*44
$GPGSA,A,3,15,27,21,14,09,03,19,22,18,,,,2.3,1.2,1.9*34
$GPRMC,160715.000,A,3352.4625,N,09831.1877,W,0.11,18.44,310312,,,D*4E
$GPGGA,160716.000,3352.4625,N,09831.1876,W,2,09,1.2,288.0,M,-23.7,M,0.8,0000*46
$GPGSA,A,3,15,27,21,14,09,03,19,22,18,,,,2.3,1.2,1.9*34
$GPRMC,160716.000,A,3352.4625,N,09831.1876,W,0.20,143.37,310312,,,D*75
$GPGGA,160717.000,3352.4625,N,09831.1876,W,2,09,1.2,287.9,M,-23.7,M,0.8,0000*41
$GPGSA,A,3,15,27,21,14,09,03,19,22,18,,,,2.3,1.2,1.9*34
$GPRMC,160717.000,A,3352.4625,N,09831.1876,W,0.11,137.87,310312,,,D*7E
$GPGGA,160718.000,3352.4624,N,09831.1876,W,2,09,1.2,287.9,M,-23.7,M,1.8,0000*4E
$GPGSA,A,3,15,27,21,14,09,03,19,22,18,,,,2.3,1.2,1.9*34
$GPRMC,160718.000,A,3352.4624,N,09831.1876,W,0.25,155.95,310312,,,D*70
$GPGGA,160719.000,3352.4623,N,09831.1876,W,2,09,1.2,287.8,M,-23.7,M,2.8,0000*4A
$GPGSA,A,3,15,27,21,14,09,03,19,22,18,,,,2.3,1.2,1.9*34
$GPGSV,3,1,11,18,60,039,37,21,59,144,19,22,51,311,29,14,45,230,34*72
$GPGSV,3,2,11,09,38,077,34,06,28,265,,27,25,053,34,03,22,276,32*72
$GPGSV,3,3,11,15,20,046,25,19,13,313,33,48,36,230,31*4B
$GPRMC,160719.000,A,3352.4623,N,09831.1876,W,0.30,157.42,310312,,,D*7A
$GPGGA,160720.000,3352.4623,N,09831.1876,W,2,09,1.2,287.8,M,-23.7,M,3.8,0000*41
$GPGSA,A,3,15,27,21,14,09,03,19,22,18,,,,2.3,1.2,1.9*34
$GPRMC,160720.000,A,3352.4623,N,09831.1876,W,0.07,106.19,310312,,,D*7E
$GPGGA,160721.000,3352.4623,N,09831.1876,W,2,09,1.2,287.8,M,-23.7,M,0.8,0000*43
$GPGSA,A,3,15,27,21,14,09,03,19,22,18,,,,2.3,1.2,1.9*34
$GPRMC,160721.000,A,3352.4623,N,09831.1876,W,0.12,161.22,310312,,,D*72
$GPGGA,160722.000,3352.4622,N,09831.1876,W,2,09,1.2,287.9,M,-23.7,M,0.8,0000*40
$GPGSA,A,3,15,27,21,14,09,03,19,22,18,,,,2.3,1.2,1.9*34
$GPRMC,160722.000,A,3352.4622,N,09831.1876,W,0.04,159.36,310312,,,D*79
$GPGGA,160723.000,3352.4622,N,09831.1876,W,2,09,1.2,287.8,M,-23.7,M,0.8,0000*40
$GPGSA,A,3,15,27,21,14,09,03,19,22,18,,,,2.3,1.2,1.9*34
$GPRMC,160723.000,A,3352.4622,N,09831.1876,W,0.23,161.43,310312,,,D*74
$GPGGA,160724.000,3352.4622,N,09831.1876,W,2,09,1.2,287.8,M,-23.7,M,0.8,0000*47
$GPGSA,A,3,15,27,21,14,09,03,19,22,18,,,,2.3,1.2,1.9*34
$GPGSV,3,1,11,18,60,039,37,21,59,144,19,22,51,311,30,14,45,230,34*7A
$GPGSV,3,2,11,09,38,077,33,06,28,265,,27,25,053,34,03,22,276,32*75
$GPGSV,3,3,11,15,20,046,25,19,13,313,33,48,36,230,31*4B
$GPRMC,160724.000,A,3352.4622,N,09831.1876,W,0.03,80.38,310312,,,D*43
$GPGGA,160725.000,3352.4622,N,09831.1876,W,2,09,1.2,287.8,M,-23.7,M,0.8,0000*46
$GPGSA,A,3,15,27,21,14,09,03,19,22,18,,,,2.3,1.2,1.9*34
$GPRMC,160725.000,A,3352.4622,N,09831.1876,W,0.13,354.94,310312,,,D*7F
$GPGGA,160726.000,3352.4622,N,09831.1876,W,2,09,1.2,287.8,M,-23.7,M,0.8,0000*45
$GPGSA,A,3,15,27,21,14,09,03,19,22,18,,,,2.3,1.2,1.9*34
$GPRMC,160726.000,A,3352.4622,N,09831.1876,W,0.18,352.49,310312,,,D*71
$GPGGA,160727.000,3352.4622,N,09831.1876,W,2,09,1.2,287.7,M,-23.7,M,0.8,0000*4B
$GPGSA,A,3,15,27,21,14,09,03,19,22,18,,,,2.3,1.2,1.9*34
$GPRMC,160727.000,A,3352.4622,N,09831.1876,W,0.19,3.75,310312,,,D*79
$GPGGA,160728.000,3352.4623,N,09831.1877,W,2,09,1.2,287.7,M,-23.7,M,0.8,0000*44
$GPGSA,A,3,15,27,21,14,09,03,19,22,18,,,,2.3,1.2,1.9*34
$GPRMC,160728.000,A,3352.4623,N,09831.1877,W,0.23,359.34,310312,,,D*76
$GPGGA,160729.000,3352.4623,N,09831.1877,W,2,09,1.2,287.7,M,-23.7,M,0.8,0000*45
$GPGSA,A,3,15,27,21,14,09,03,19,22,18,,,,2.3,1.2,1.9*34
$GPGSV,3,1,11,18,60,039,37,21,59,144,19,22,51,311,30,14,45,230,34*7A
$GPGSV,3,2,11,09,38,077,33,06,28,265,,27,25,053,34,03,22,276,32*75
$GPGSV,3,3,11,15,20,046,26,19,13,313,33,48,36,230,31*48
$GPRMC,160729.000,A,3352.4623,N,09831.1877,W,0.23,354.07,310312,,,D*7A
$GPGGA,160730.000,3352.4624,N,09831.1877,W,2,09,1.2,287.6,M,-23.7,M,1.8,0000*4A
$GPGSA,A,3,15,27,21,14,09,03,19,22,18,,,,2.3,1.2,1.9*34
$GPRMC,160730.000,A,3352.4624,N,09831.1877,W,0.24,1.57,310312,,,D*74
$GPGGA,160731.000,3352.4624,N,09831.1877,W,2,09,1.2,287.6,M,-23.7,M,0.8,0000*4A
$GPGSA,A,3,15,27,21,14,09,03,19,22,18,,,,2.3,1.2,1.9*34
$GPRMC,160731.000,A,3352.4624,N,09831.1877,W,0.14,357.44,310312,,,D*74
$GPGGA,160732.000,3352.4624,N,09831.1877,W,2,09,1.2,287.6,M,-23.7,M,1.8,0000*48
$GPGSA,A,3,15,27,21,14,09,03,19,22,18,,,,2.3,1.2,1.9*34
$GPRMC,160732.000,A,3352.4624,N,09831.1877,W,0.06,121.64,310312,,,D*75
$GPGGA,160733.000,3352.4623,N,09831.1877,W,2,09,1.2,287.6,M,-23.7,M,0.8,0000*4F
$GPGSA,A,3,15,27,21,14,09,03,19,22,18,,,,2.3,1.2,1.9*34
$GPRMC,160733.000,A,3352.4623,N,09831.1877,W,0.17,162.02,310312,,,D*74
$GPGGA,160734.000,3352.4622,N,09831.1877,W,2,09,1.2,287.6,M,-23.7,M,0.8,0000*49
$GPGSA,A,3,15,27,21,14,09,03,19,22,18,,,,2.3,1.2,1.9*34
$GPGSV,3,1,11,18,60,039,37,21,59,144,19,22,51,311,30,14,45,230,33*7D
$GPGSV,3,2,11,09,38,077,32,06,28,265,,27,25,053,34,03,22,276,32*74
$GPGSV,3,3,11,15,20,046,27,19,13,313,33,48,36,230,31*49
$GPRMC,160734.000,A,3352.4622,N,09831.1877,W,0.26,165.73,310312,,,D*71
$GPGGA,160735.000,3352.4621,N,09831.1877,W,2,09,1.2,287.6,M,-23.7,M,0.8,0000*4B
$GPGSA,A,3,15,27,21,14,09,03,19,22,18,,,,2.3,1.2,1.9*34
$GPRMC,160735.000,A,3352.4621,N,09831.1877,W,0.08,148.82,310312,,,D*7E
$GPGGA,160736.000,3352.4621,N,09831.1878,W,2,09,1.2,287.5,M,-23.7,M,1.8,0000*45
$GPGSA,A,3,15,27,21,14,09,03,19,22,18,,,,2.3,1.2,1.9*34
$GPRMC,160736.000,A,3352.4621,N,09831.1878,W,0.06,354.31,310312,,,D*7B
$GPGGA,160737.000,3352.4621,N,09831.1878,W,2,10,1.2,287.5,M,-23.7,M,0.8,0000*4D
$GPGSA,A,3,15,27,21,14,09,06,03,19,22,18,,,2.2,1.2,1.9*33
$GPRMC,160737.000,A,3352.4621,N,09831.1878,W,0.09,65.62,310312,,,D*42
$GPGGA,160738.000,3352.4621,N,09831.1878,W,2,10,1.2,287.5,M,-23.7,M,1.8,0000*43
$GPGSA,A,3,15,27,21,14,09,06,03,19,22,18,,,2.2,1.2,1.9*33
$GPRMC,160738.000,A,3352.4621,N,09831.1878,W,0.20,153.80,310312,,,D*7E
$GPGGA,160739.000,3352.4619,N,09831.1878,W,2,10,1.2,287.4,M,-23.7,M,0.8,0000*49
$GPGSA,A,3,15,27,21,14,09,06,03,19,22,18,,,2.2,1.2,1.9*33
$GPGSV,3,1,11,18,60,039,37,21,59,144,20,22,51,311,29,14,45,230,33*7F
$GPGSV,3,2,11,09,38,077,32,06,28,265,19,27,25,053,34,03,22,276,33*7D
$GPGSV,3,3,11,15,20,046,27,19,13,313,33,48,36,230,31*49
$GPRMC,160739.000,A,3352.4619,N,09831.1878,W,0.40,170.72,310312,,,D*7E
$GPGGA,160740.000,3352.4618,N,09831.1877,W,2,10,1.2,287.3,M,-23.7,M,0.8,0000*4E
$GPGSA,A,3,15,27,21,14,09,06,03,19,22,18,,,2.2,1.2,1.9*33
$GPRMC,160740.000,A,3352.4618,N,09831.1877,W,0.18,141.84,310312,,,D*78
$GPGGA,160741.000,3352.4618,N,09831.1877,W,2,10,1.2,287.3,M,-23.7,M,0.8,0000*4F
$GPGSA,A,3,15,27,21,14,09,06,03,19,22,18,,,2.2,1.2,1.9*33
$GPRMC,160741.000,A,3352.4618,N,09831.1877,W,0.05,168.94,310312,,,D*7F
$GPGGA,160742.000,3352.4618,N,09831.1877,W,2,10,1.2,287.3,M,-23.7,M,1.8,0000*4D
$GPGSA,A,3,15,27,21,14,09,06,03,19,22,18,,,2.2,1.2,1.9*33
$GPRMC,160742.000,A,3352.4618,N,09831.1877,W,0.14,0.44,310312,,,D*7E
$GPGGA,160743.000,3352.4618,N,09831.1877,W,2,10,1.2,287.2,M,-23.7,M,2.8,0000*4E
$GPGSA,A,3,15,27,21,14,09,06,03,19,22,18,,,2.2,1.2,1.9*33
$GPRMC,160743.000,A,3352.4618,N,09831.1877,W,0.13,23.35,310312,,,D*4F
$GPGGA,160744.000,3352.4617,N,09831.1877,W,2,10,1.2,287.2,M,-23.7,M,3.8,0000*47
$GPGSA,A,3,15,27,21,14,09,06,03,19,22,18,,,2.2,1.2,1.9*33
$GPGSV,3,1,11,18,60,039,38,21,59,144,20,22,51,311,29,14,45,230,33*70
$GPGSV,3,2,11,09,38,077,33,06,28,265,21,27,25,053,34,03,22,276,33*77
$GPGSV,3,3,11,15,20,046,28,19,13,313,32,48,36,230,31*47
$GPRMC,160744.000,A,3352.4617,N,09831.1877,W,0.08,47.54,310312,,,D*48
$GPGGA,160745.000,3352.4617,N,09831.1877,W,2,10,1.2,287.2,M,-23.7,M,0.8,0000*45
$GPGSA,A,3,15,27,21,14,09,06,03,19,22,18,,,2.2,1.2,1.9*33
$GPRMC,160745.000,A,3352.4617,N,09831.1877,W,0.06,75.70,310312,,,D*40
$GPGGA,160746.000,3352.4617,N,09831.1877,W,2,10,1.2,287.3,M,-23.7,M,0.8,0000*47
$GPGSA,A,3,15,27,21,14,09,06,03,19,22,18,,,2.2,1.2,1.9*33
$GPRMC,160746.000,A,3352.4617,N,09831.1877,W,0.10,81.57,310312,,,D*4A
$GPGGA,160747.000,3352.4616,N,09831.1877,W,2,10,1.2,287.3,M,-23.7,M,0.8,0000*47
$GPGSA,A,3,15,27,21,14,09,06,03,19,22,18,,,2.2,1.2,1.9*33
$GPRMC,160747.000,A,3352.4616,N,09831.1877,W,0.19,157.64,310312,,,D*79
$GPGGA,160748.000,3352.4616,N,09831.1877,W,2,10,1.2,287.3,M,-23.7,M,1.8,0000*49
$GPGSA,A,3,15,27,21,14,09,06,03,19,22,18,,,2.2,1.2,1.9*33
$GPRMC,160748.000,A,3352.4616,N,09831.1877,W,0.09,336.11,310312,,,D*70
$GPGGA,160749.000,3352.4616,N,09831.1877,W,2,10,1.2,287.3,M,-23.7,M,2.8,0000*4B
$GPGSA,A,3,15,27,21,14,09,06,03,19,22,18,,,2.2,1.2,1.9*33
$GPGSV,3,1,11,18,59,040,37,21,58,145,20,22,51,312,29,14,45,230,33*78
$GPGSV,3,2,11,09,38,076,33,06,27,264,23,27,25,052,34,03,22,275,33*78
$GPGSV,3,3,11,15,20,046,28,19,13,313,31,48,36,230,31*44
$GPRMC,160749.000,A,3352.4616,N,09831.1877,W,0.10,145.87,310312,,,D*70
$GPGGA,160750.000,3352.4616,N,09831.1877,W,2,10,1.2,287.3,M,-23.7,M,3.8,0000*42
$GPGSA,A,3,15,27,21,14,09,06,03,19,22,18,,,2.2,1.2,1.9*33
$GPRMC,160750.000,A,3352.4616,N,09831.1877,W,0.04,39.09,310312,,,D*41
$GPGGA,160751.000,3352.4615,N,09831.1877,W,2,10,1.2,287.2,M,-23.7,M,0.8,0000*42
$GPGSA,A,3,15,27,21,14,09,06,03,19,22,18,,,2.2,1.2,1.9*33
$GPRMC,160751.000,A,3352.4615,N,09831.1877,W,0.08,20.71,310312,,,D*48
$GPGGA,160752.000,3352.4615,N,09831.1877,W,2,10,1.2,287.2,M,-23.7,M,0.8,0000*41
$GPGSA,A,3,15,27,21,14,09,06,03,19,22,18,,,2.2,1.2,1.9*33
$GPRMC,160752.000,A,3352.4615,N,09831.1877,W,0.15,124.26,310312,,,D*70
$GPGGA,160753.000,3352.4615,N,09831.1876,W,2,10,1.2,287.1,M,-23.7,M,0.8,0000*42
$GPGSA,A,3,15,27,21,14,09,06,03,19,22,18,,,2.2,1.2,1.9*33
$GPRMC,160753.000,A,3352.4615,N,09831.1876,W,0.02,228.34,310312,,,D*7A
$GPGGA,160754.000,3352.4614,N,09831.1877,W,2,10,1.2,287.1,M,-23.7,M,1.8,0000*44
$GPGSA,A,3,15,27,21,14,09,06,03,19,22,18,,,2.2,1.2,1.9*33
$GPGSV,3,1,11,18,59,040,37,21,58,145,20,22,51,312,30,14,45,230,34*77
$GPGSV,3,2,11,09,38,076,32,06,27,264,23,27,25,052,34,03,22,275,33*79
$GPGSV,3,3,11,15,20,046,28,19,13,313,31,48,36,230,31*44
$GPRMC,160754.000,A,3352.4614,N,09831.1877,W,0.04,298.85,310312,,,D*7A
$GPGGA,160755.000,3352.4614,N,09831.1877,W,2,10,1.2,287.1,M,-23.7,M,2.8,0000*46
$GPGSA,A,3,15,27,21,14,09,06,03,19,22,18,,,2.2,1.2,1.9*33
$GPRMC,160755.000,A,3352.4614,N,09831.1877,W,0.16,130.43,310312,,,D*73
$GPGGA,160756.000,3352.4613,N,09831.1876,W,2,10,1.2,287.0,M,-23.7,M,3.8,0000*43
$GPGSA,A,3,15,27,21,14,09,06,03,19,22,18,,,2.2,1.2,1.9*33
$GPRMC,160756.000,A,3352.4613,N,09831.1876,W,0.29,161.42,310312,,,D*7F
$GPGGA,160757.000,3352.4612,N,09831.1876,W,2,09,1.3,287.0,M,-23.7,M,0.8,0000*49
$GPGSA,A,3,15,27,14,09,06,03,19,22,18,,,,2.3,1.3,1.9*30
$GPRMC,160757.000,A,3352.4612,N,09831.1876,W,0.11,166.33,310312,,,D*75
$GPGGA,160758.000,3352.4612,N,09831.1876,W,2,09,1.3,287.0,M,-23.7,M,0.8,0000*46
$GPGSA,A,3,15,27,14,09,06,03,19,22,18,,,,2.3,1.3,1.9*30
$GPRMC,160758.000,A,3352.4612,N,09831.1876,W,0.10,166.01,310312,,,D*7A
$GPGGA,160759.000,3352.4611,N,09831.1876,W,2,09,1.3,287.0,M,-23.7,M,0.8,0000*44
$GPGSA,A,3,15,27,14,09,06,03,19,22,18,,,,2.3,1.3,1.9*30
$GPGSV,3,1,11,18,59,040,38,21,58,145,,22,51,312,30,14,45,230,34*7A
$GPGSV,3,2,11,09,38,076,32,06,27,264,23,27,25,052,34,03,22,275,33*79
$GPGSV,3,3,11,15,20,046,28,19,13,313,31,48,36,230,31*44
$GPRMC,160759.000,A,3352.4611,N,09831.1876,W,0.13,184.49,310312,,,D*7B
$GPGGA,160800.000,3352.4611,N,09831.1876,W,2,09,1.3,287.0,M,-23.7,M,1.8,0000*46
$GPGSA,A,3,15,27,14,09,06,03,19,22,18,,,,2.3,1.3,1.9*30
$GPRMC,160800.000,A,3352.4611,N,09831.1876,W,0.09,156.72,310312,,,D*74
$GPGGA,160801.000,3352.4611,N,09831.1876,W,2,09,1.3,286.9,M,-23.7,M,2.8,0000*4C
$GPGSA,A,3,15,27,14,09,06,03,19,22,18,,,,2.3,1.3,1.9*30
$GPRMC,160801.000,A,3352.4611,N,09831.1876,W,0.12,167.43,310312,,,D*7F
$GPGGA,160802.000,3352.4610,N,09831.1876,W,2,09,1.3,286.9,M,-23.7,M,0.8,0000*4C
$GPGSA,A,3,15,27,14,09,06,03,19,22,18,,,,2.3,1.3,1.9*30
$GPRMC,160802.000,A,3352.4610,N,09831.1876,W,0.11,164.49,310312,,,D*77
$GPGGA,160803.000,3352.4610,N,09831.1876,W,2,09,1.4,286.9,M,-23.7,M,0.8,0000*4A
$GPGSA,A,3,15,27,14,09,06,03,19,22,18,,,,2.3,1.4,1.9*37
$GPRMC,160803.000,A,3352.4610,N,09831.1876,W,0.10,86.39,310312,,,D*4D
$GPGGA,160804.000,3352.4610,N,09831.1876,W,2,09,1.4,286.9,M,-23.7,M,0.8,0000*4D
$GPGSA,A,3,15,27,14,09,06,03,19,22,18,,,,2.3,1.4,1.9*37
$GPGSV,3,1,11,18,59,040,38,21,58,145,,22,51,312,31,14,45,230,35*7A
$GPGSV,3,2,11,09,38,076,32,06,27,264,23,27,25,052,34,03,22,275,33*79
$GPGSV,3,3,11,15,20,046,28,19,13,313,31,48,36,230,31*44
$GPRMC,160804.000,A,3352.4610,N,09831.1876,W,0.13,54.35,310312,,,D*4A
$GPGGA,160805.000,3352.4611,N,09831.1876,W,2,09,1.4,286.8,M,-23.7,M,0.8,0000*4C
$GPGSA,A,3,15,27,14,09,06,03,19,22,18,,,,2.3,1.4,1.9*37
$GPRMC,160805.000,A,3352.4611,N,09831.1876,W,0.11,47.94,310312,,,D*41
$GPGGA,160806.000,3352.4610,N,09831.1876,W,2,09,1.4,286.8,M,-23.7,M,1.8,0000*4F
$GPGSA,A,3,15,27,14,09,06,03,19,22,18,,,,2.3,1.4,1.9*37
$GPRMC,160806.000,A,3352.4610,N,09831.1876,W,0.02,151.36,310312,,,D*7F
$GPGGA,160807.000,3352.4610,N,09831.1876,W,2,09,1.4,286.7,M,-23.7,M,2.8,0000*42
$GPGSA,A,3,15,27,14,09,06,03,19,22,18,,,,2.3,1.4,1.9*37
$GPRMC,160807.000,A,3352.4610,N,09831.1876,W,0.05,76.22,310312,,,D*48
$GPGGA,160808.000,3352.4610,N,09831.1876,W,2,09,1.4,286.7,M,-23.7,M,0.8,0000*4F
$GPGSA,A,3,15,27,14,09,06,03,19,22,18,,,,2.3,1.4,1.9*37
$GPRMC,160808.000,A,3352.4610,N,09831.1876,W,0.07,74.87,310312,,,D*48
$GPGGA,160809.000,3352.4610,N,09831.1876,W,2,09,1.4,286.7,M,-23.7,M,0.8,0000*4E
$GPGSA,A,3,15,27,14,09,06,03,19,22,18,,,,2.3,1.4,1.9*37
$GPGSV,3,1,11,18,59,040,38,21,58,145,,22,51,312,31,14,45,230,35*7A
$GPGSV,3,2,11,09,38,076,32,06,27,264,24,27,25,052,34,03,22,275,33*7E
$GPGSV,3,3,11,15,20,046,28,19,13,313,31,48,36,230,31*44
$GPRMC,160809.000,A,3352.4610,N,09831.1876,W,0.08,173.22,310312,,,D*7F
$GPGGA,160810.000,3352.4610,N,09831.1876,W,2,09,1.4,286.7,M,-23.7,M,0.8,0000*46
$GPGSA,A,3,15,27,14,09,06,03,19,22,18,,,,2.3,1.4,1.9*37
$GPRMC,160810.000,A,3352.4610,N,09831.1876,W,0.11,153.16,310312,,,D*7A
$GPGGA,160811.000,3352.4610,N,09831.1876,W,2,10,1.2,286.7,M,-23.7,M,0.8,0000*49
$GPGSA,A,3,15,27,21,14,09,06,03,19,22,18,,,2.2,1.2,1.9*33
$GPRMC,160811.000,A,3352.4610,N,09831.1876,W,0.03,150.05,310312,,,D*79
$GPGGA,160812.000,3352.4610,N,09831.1876,W,2,10,1.2,286.8,M,-23.7,M,0.8,0000*45
$GPGSA,A,3,15,27,21,14,09,06,03,19,22,18,,,2.2,1.2,1.9*33
$GPRMC,160812.000,A,3352.4610,N,09831.1876,W,0.04,64.34,310312,,,D*49
$GPGGA,160813.000,3352.4610,N,09831.1876,W,2,10,1.2,286.8,M,-23.7,M,1.8,0000*45
$GPGSA,A,3,15,27,21,14,09,06,03,19,22,18,,,2.2,1.2,1.9*33
$GPRMC,160813.000,A,3352.4610,N,09831.1876,W,0.05,51.43,310312,,,D*4F
$GPGGA,160814.000,3352.4610,N,09831.1875,W,2,10,1.2,286.8,M,-23.7,M,2.8,0000*42
$GPGSA,A,3,15,27,21,14,09,06,03,19,22,18,,,2.2,1.2,1.9*33
$GPGSV,3,1,11,18,59,040,39,21,58,145,14,22,51,312,31,14,45,230,36*7D
$GPGSV,3,2,11,09,38,076,32,06,27,264,25,27,25,052,35,03,22,275,33*7E
$GPGSV,3,3,11,15,20,046,28,19,13,313,32,48,36,230,31*47
$GPRMC,160814.000,A,3352.4610,N,09831.1875,W,0.10,354.19,310312,,,D*76
$GPGGA,160815.000,3352.4610,N,09831.1875,W,2,10,1.2,286.7,M,-23.7,M,0.8,0000*4E
$GPGSA,A,3,15,27,21,14,09,06,03,19,22,18,,,2.2,1.2,1.9*33
$GPRMC,160815.000,A,3352.4610,N,09831.1875,W,0.21,351.76,310312,,,D*79
$GPGGA,160816.000,3352.4611,N,09831.1876,W,2,10,1.2,286.6,M,-23.7,M,0.8,0000*4E
$GPGSA,A,3,15,27,21,14,09,06,03,19,22,18,,,2.2,1.2,1.9*33
$GPRMC,160816.000,A,3352.4611,N,09831.1876,W,0.24,344.96,310312,,,D*77
$GPGGA,160817.000,3352.4611,N,09831.1876,W,2,10,1.2,286.6,M,-23.7,M,0.8,0000*4F
$GPGSA,A,3,15,27,21,14,09,06,03,19,22,18,,,2.2,1.2,1.9*33
$GPRMC,160817.000,A,3352.4611,N,09831.1876,W,0.16,343.44,310312,,,D*7F
$GPGGA,160818.000,3352.4612,N,09831.1876,W,2,10,1.2,286.5,M,-23.7,M,1.8,0000*41
$GPGSA,A,3,15,27,21,14,09,06,03,19,22,18,,,2.2,1.2,1.9*33
$GPRMC,160818.000,A,3352.4612,N,09831.1876,W,0.20,343.82,310312,,,D*7C
$GPGGA,160819.000,3352.4612,N,09831.1876,W,2,09,1.4,286.5,M,-23.7,M,2.8,0000*4D
$GPGSA,A,3,15,27,14,09,06,03,19,22,18,,,,2.3,1.4,1.9*37
$GPGSV,3,1,11,18,59,040,39,21,58,145,,22,52,312,31,14,46,230,36*78
$GPGSV,3,2,11,09,38,075,33,06,27,264,26,27,25,052,35,03,22,275,33*7F
$GPGSV,3,3,11,15,19,046,29,19,14,312,32,48,36,230,31*4A
$GPRMC,160819.000,A,3352.4612,N,09831.1876,W,0.07,340.66,310312,,,D*71
$GPGGA,160820.000,3352.4612,N,09831.1876,W,2,09,1.4,286.4,M,-23.7,M,3.8,0000*47
$GPGSA,A,3,15,27,14,09,06,03,19,22,18,,,,2.3,1.4,1.9*37
$GPRMC,160820.000,A,3352.4612,N,09831.1876,W,0.04,358.35,310312,,,D*77
$GPGGA,160821.000,3352.4612,N,09831.1876,W,2,09,1.4,286.4,M,-23.7,M,0.8,0000*45
$GPGSA,A,3,15,27,14,09,06,03,19,22,18,,,,2.3,1.4,1.9*37
$GPRMC,160821.000,A,3352.4612,N,09831.1876,W,0.06,152.61,310312,,,D*7D
$GPGGA,160822.000,3352.4611,N,09831.1876,W,2,09,1.4,286.5,M,-23.7,M,0.8,0000*44
$GPGSA,A,3,15,27,14,09,06,03,19,22,18,,,,2.3,1.4,1.9*37
$GPRMC,160822.000,A,3352.4611,N,09831.1876,W,0.12,146.12,310312,,,D*79
$GPGGA,160823.000,3352.4611,N,09831.1876,W,2,09,1.4,286.5,M,-23.7,M,0.8,0000*45
$GPGSA,A,3,15,27,14,09,06,03,19,22,18,,,,2.3,1.4,1.9*37
$GPRMC,160823.000,A,3352.4611,N,09831.1876,W,0.12,138.02,310312,,,D*70
$GPGGA,160824.000,3352.4611,N,09831.1876,W,2,09,1.4,286.5,M,-23.7,M,1.8,0000*43
$GPGSA,A,3,15,27,14,09,06,03,19,22,18,,,,2.3,1.4,1.9*37
$GPGSV,3,1,11,18,59,040,38,21,58,145,,22,52,312,30,14,46,230,37*79
$GPGSV,3,2,11,09,38,075,33,06,27,264,26,27,25,052,34,03,22,275,33*7E
$GPGSV,3,3,11,15,19,046,29,19,14,312,33,48,36,230,31*4B
$GPRMC,160824.000,A,3352.4611,N,09831.1876,W,0.10,137.42,310312,,,D*7E
$GPGGA,160825.000,3352.4611,N,09831.1876,W,2,09,1.4,286.5,M,-23.7,M,0.8,0000*43
$GPGSA,A,3,15,27,14,09,06,03,19,22,18,,,,2.3,1.4,1.9*37
$GPRMC,160825.000,A,3352.4611,N,09831.1876,W,0.10,138.00,310312,,,D*76
$GPGGA,160826.000,3352.4611,N,09831.1876,W,2,09,1.4,286.5,M,-23.7,M,0.8,0000*40
$GPGSA,A,3,15,27,14,09,06,03,19,22,18,,,,2.3,1.4,1.9*37
$GPRMC,160826.000,A,3352.4611,N,09831.1876,W,0.11,136.01,310312,,,D*7B
$GPGGA,160827.000,3352.4611,N,09831.1875,W,2,09,1.4,286.4,M,-23.7,M,0.8,0000*43
$GPGSA,A,3,15,27,14,09,06,03,19,22,18,,,,2.3,1.4,1.9*37
$GPRMC,160827.000,A,3352.4611,N,09831.1875,W,0.06,105.36,310312,,,D*7B
$GPGGA,160828.000,3352.4612,N,09831.1876,W,2,09,1.4,286.4,M,-23.7,M,0.8,0000*4C
$GPGSA,A,3,15,27,14,09,06,03,19,22,18,,,,2.3,1.4,1.9*37
$GPRMC,160828.000,A,3352.4612,N,09831.1876,W,0.03,63.25,310312,,,D*42
$GPGGA,160829.000,3352.4612,N,09831.1876,W,2,09,1.4,286.4,M,-23.7,M,0.8,0000*4D
$GPGSA,A,3,15,27,14,09,06,03,19,22,18,,,,2.3,1.4,1.9*37
$GPGSV,3,1,11,18,59,040,38,21,58,145,,22,52,312,29,14,46,230,37*71
$GPGSV,3,2,11,09,38,075,34,06,27,264,27,27,25,052,34,03,22,275,32*79
$GPGSV,3,3,11,15,19,046,29,19,14,312,33,48,36,230,31*4B
$GPRMC,160829.000,A,3352.4612,N,09831.1876,W,0.01,12.73,310312,,,D*44
$GPGGA,160830.000,3352.4613,N,09831.1876,W,2,09,1.4,286.4,M,-23.7,M,0.8,0000*44
$GPGSA,A,3,15,27,14,09,06,03,19,22,18,,,,2.3,1.4,1.9*37
$GPRMC,160830.000,A,3352.4613,N,09831.1876,W,0.01,65.13,310312,,,D*4B
$GPGGA,160831.000,3352.4613,N,09831.1876,W,2,09,1.4,286.4,M,-23.7,M,1.8,0000*44
$GPGSA,A,3,15,27,14,09,06,03,19,22,18,,,,2.3,1.4,1.9*37
$GPRMC,160831.000,A,3352.4613,N,09831.1876,W,0.02,57.07,310312,,,D*4D
$GPGGA,160832.000,3352.4613,N,09831.1876,W,2,09,1.4,286.4,M,-23.7,M,0.8,0000*46
$GPGSA,A,3,15,27,14,09,06,03,19,22,18,,,,2.3,1.4,1.9*37
$GPRMC,160832.000,A,3352.4613,N,09831.1876,W,0.01,40.88,310312,,,D*4C
$GPGGA,160833.000,3352.4613,N,09831.1876,W,2,10,1.2,286.4,M,-23.7,M,0.8,0000*49
$GPGSA,A,3,15,27,21,14,09,06,03,19,22,18,,,2.2,1.2,1.9*33
$GPRMC,160833.000,A,3352.4613,N,09831.1876,W,0.16,160.21,310312,,,D*7B
$GPGGA,160834.000,3352.4613,N,09831.1876,W,2,10,1.2,286.4,M,-23.7,M,0.8,0000*4E
$GPGSA,A,3,15,27,21,14,09,06,03,19,22,18,,,2.2,1.2,1.9*33
$GPGSV,3,1,11,18,59,040,38,21,58,145,18,22,52,312,29,14,46,230,37*78
$GPGSV,3,2,11,09,38,075,34,06,27,264,27,27,25,052,34,03,22,275,32*79
$GPGSV,3,3,11,15,19,046,29,19,14,312,33,48,36,230,31*4B
$GPRMC,160834.000,A,3352.4613,N,09831.1876,W,0.20,154.21,310312,,,D*7E
$GPGGA,160835.000,3352.4613,N,09831.1876,W,2,10,1.2,286.4,M,-23.7,M,0.8,0000*4F
$GPGSA,A,3,15,27,21,14,09,06,03,19,22,18,,,2.2,1.2,1.9*33
$GPRMC,160835.000,A,3352.4613,N,09831.1876,W,0.04,70.73,310312,,,D*49
$GPGGA,160836.000,3352.4614,N,09831.1877,W,2,10,1.2,286.5,M,-23.7,M,1.8,0000*4A
$GPGSA,A,3,15,27,21,14,09,06,03,19,22,18,,,2.2,1.2,1.9*33
$GPRMC,160836.000,A,3352.4614,N,09831.1877,W,0.07,5.49,310312,,,D*74
$GPGGA,160837.000,3352.4614,N,09831.1877,W,2,10,1.2,286.5,M,-23.7,M,2.8,0000*48
$GPGSA,A,3,15,27,21,14,09,06,03,19,22,18,,,2.2,1.2,1.9*33
$GPRMC,160837.000,A,3352.4614,N,09831.1877,W,0.18,149.70,310312,,,D*78
$GPGGA,160838.000,3352.4613,N,09831.1876,W,2,10,1.2,286.5,M,-23.7,M,3.8,0000*40
$GPGSA,A,3,15,27,21,14,09,06,03,19,22,18,,,2.2,1.2,1.9*33
$GPRMC,160838.000,A,3352.4613,N,09831.1876,W,0.24,149.80,310312,,,D*71
$GPGGA,160839.000,3352.4613,N,09831.1876,W,2,10,1.2,286.5,M,-23.7,M,0.8,0000*42
$GPGSA,A,3,15,27,21,14,09,06,03,19,22,18,,,2.2,1.2,1.9*33
$GPGSV,3,1,11,18,59,040,38,21,58,145,18,22,52,312,28,14,46,230,38*76
$GPGSV,3,2,11,09,38,075,34,06,27,264,28,27,25,052,34,03,22,275,32*76
$GPGSV,3,3,11,15,19,046,29,19,14,312,34,48,36,230,31*4C
$GPRMC,160839.000,A,3352.4613,N,09831.1876,W,0.03,22.25,310312,,,D*46
$GPGGA,160840.000,3352.4614,N,09831.1877,W,2,10,1.2,286.5,M,-23.7,M,0.8,0000*4A
$GPGSA,A,3,15,27,21,14,09,06,03,19,22,18,,,2.2,1.2,1.9*33
$GPRMC,160840.000,A,3352.4614,N,09831.1877,W,0.09,339.68,310312,,,D*74
$GPGGA,160841.000,3352.4614,N,09831.1877,W,2,10,1.2,286.5,M,-23.7,M,0.8,0000*4B
$GPGSA,A,3,15,27,21,14,09,06,03,19,22,18,,,2.2,1.2,1.9*33
$GPRMC,160841.000,A,3352.4614,N,09831.1877,W,0.16,336.52,310312,,,D*7D
$GPGGA,160842.000,3352.4615,N,09831.1877,W,2,10,1.2,286.5,M,-23.7,M,1.8,0000*48
$GPGSA,A,3,15,27,21,14,09,06,03,19,22,18,,,2.2,1.2,1.9*33
$GPRMC,160842.000,A,3352.4615,N,09831.1877,W,0.06,171.92,310312,,,D*73
$GPGGA,160843.000,3352.4615,N,09831.1877,W,2,10,1.2,286.5,M,-23.7,M,2.8,0000*4A
$GPGSA,A,3,15,27,21,14,09,06,03,19,22,18,,,2.2,1.2,1.9*33
$GPRMC,160843.000,A,3352.4615,N,09831.1877,W,0.15,166.06,310312,,,D*7B
$GPGGA,160844.000,3352.4614,N,09831.1877,W,2,10,1.2,286.4,M,-23.7,M,3.8,0000*4C
$GPGSA,A,3,15,27,21,14,09,06,03,19,22,18,,,2.2,1.2,1.9*33
$GPGSV,3,1,11,18,59,040,38,21,58,145,17,22,52,312,28,14,46,230,38*79
$GPGSV,3,2,11,09,38,075,34,06,27,264,28,27,25,052,34,03,22,275,32*76
$GPGSV,3,3,11,15,19,046,29,19,14,312,33,48,36,230,31*4B
$GPRMC,160844.000,A,3352.4614,N,09831.1877,W,0.24,162.89,310312,,,D*7C
$GPGGA,160845.000,3352.4614,N,09831.1877,W,2,10,1.2,286.5,M,-23.7,M,0.8,0000*4F
$GPGSA,A,3,15,27,21,14,09,06,03,19,22,18,,,2.2,1.2,1.9*33
$GPRMC,160845.000,A,3352.4614,N,09831.1877,W,0.19,156.45,310312,,,D*74
$GPGGA,160846.000,3352.4614,N,09831.1877,W,2,10,1.2,286.6,M,-23.7,M,0.8,0000*4F
$GPGSA,A,3,15,27,21,14,09,06,03,19,22,18,,,2.2,1.2,1.9*33
$GPRMC,160846.000,A,3352.4614,N,09831.1877,W,0.18,143.18,310312,,,D*7A
$GPGGA,160847.000,3352.4615,N,09831.1877,W,2,10,1.2,286.6,M,-23.7,M,0.8,0000*4F
$GPGSA,A,3,15,27,21,14,09,06,03,19,22,18,,,2.2,1.2,1.9*33
$GPRMC,160847.000,A,3352.4615,N,09831.1877,W,0.14,1.53,310312,,,D*7E
$GPGGA,160848.000,3352.4616,N,09831.1877,W,2,10,1.2,286.7,M,-23.7,M,1.8,0000*43
$GPGSA,A,3,15,27,21,14,09,06,03,19,22,18,,,2.2,1.2,1.9*33
$GPRMC,160848.000,A,3352.4616,N,09831.1877,W,0.17,0.28,310312,,,D*7C
$GPGGA,160849.000,3352.4616,N,09831.1877,W,2,10,1.2,286.7,M,-23.7,M,2.8,0000*41
$GPGSA,A,3,15,27,21,14,09,06,03,19,22,18,,,2.2,1.2,1.9*33
$GPGSV,3,1,11,18,59,041,39,21,58,145,16,22,52,312,29,14,46,231,38*78
$GPGSV,3,2,11,09,38,075,34,06,27,264,28,27,25,052,34,03,22,275,32*76
$GPGSV,3,3,11,15,19,046,30,19,14,312,33,48,36,230,31*43
$GPRMC,160849.000,A,3352.4616,N,09831.1877,W,0.18,348.14,310312,,,D*72
$GPGGA,160850.000,3352.4617,N,09831.1878,W,2,10,1.2,286.7,M,-23.7,M,3.8,0000*46
$GPGSA,A,3,15,27,21,14,09,06,03,19,22,18,,,2.2,1.2,1.9*33
$GPRMC,160850.000,A,3352.4617,N,09831.1878,W,0.15,356.61,310312,,,D*74
$GPGGA,160851.000,3352.4617,N,09831.1878,W,2,10,1.2,286.7,M,-23.7,M,0.8,0000*44
$GPGSA,A,3,15,27,21,14,09,06,03,19,22,18,,,2.2,1.2,1.9*33
$GPRMC,160851.000,A,3352.4617,N,09831.1878,W,0.16,145.29,310312,,,D*7A
$GPGGA,160852.000,3352.4617,N,09831.1877,W,2,10,1.2,286.7,M,-23.7,M,0.8,0000*48
$GPGSA,A,3,15,27,21,14,09,06,03,19,22,18,,,2.2,1.2,1.9*33
$GPRMC,160852.000,A,3352.4617,N,09831.1877,W,0.17,153.20,310312,,,D*79
$GPGGA,160853.000,3352.4617,N,09831.1877,W,2,10,1.2,286.7,M,-23.7,M,0.8,0000*49
$GPGSA,A,3,15,27,21,14,09,06,03,19,22,18,,,2.2,1.2,1.9*33
$GPRMC,160853.000,A,3352.4617,N,09831.1877,W,0.16,156.43,310312,,,D*79
$GPGGA,160854.000,3352.4616,N,09831.1877,W,2,10,1.2,286.7,M,-23.7,M,1.8,0000*4E
$GPGSA,A,3,15,27,21,14,09,06,03,19,22,18,,,2.2,1.2,1.9*33
$GPGSV,3,1,11,18,59,041,39,21,58,145,14,22,52,312,28,14,46,231,38*7B
$GPGSV,3,2,11,09,38,075,34,06,27,264,29,27,25,052,35,03,22,275,32*76
$GPGSV,3,3,11,15,19,046,30,19,14,312,32,48,36,230,31*42
$GPRMC,160854.000,A,3352.4616,N,09831.1877,W,0.21,156.10,310312,,,D*7D
$GPGGA,160855.000,3352.4616,N,09831.1877,W,2,10,1.2,286.7,M,-23.7,M,2.8,0000*4C
$GPGSA,A,3,15,27,21,14,09,06,03,19,22,18,,,2.2,1.2,1.9*33
$GPRMC,160855.000,A,3352.4616,N,09831.1877,W,0.13,159.23,310312,,,D*72
$GPGGA,160856.000,3352.4616,N,09831.1877,W,2,10,1.2,286.7,M,-23.7,M,3.8,0000*4E
$GPGSA,A,3,15,27,21,14,09,06,03,19,22,18,,,2.2,1.2,1.9*33
$GPRMC,160856.000,A,3352.4616,N,09831.1877,W,0.02,270.27,310312,,,D*7D
$GPGGA,160857.000,3352.4617,N,09831.1877,W,2,10,1.2,286.8,M,-23.7,M,0.8,0000*42
$GPGSA,A,3,15,27,21,14,09,06,03,19,22,18,,,2.2,1.2,1.9*33
$GPRMC,160857.000,A,3352.4617,N,09831.1877,W,0.16,343.00,310312,,,D*7C
$GPGGA,160858.000,3352.4617,N,09831.1878,W,2,09,1.4,286.8,M,-23.7,M,0.8,0000*4C
$GPGSA,A,3,15,27,14,09,06,03,19,22,18,,,,2.3,1.4,1.9*37
$GPRMC,160858.000,A,3352.4617,N,09831.1878,W,0.06,25.16,310312,,,D*49
$GPGGA,160859.000,3352.4618,N,09831.1877,W,2,09,1.4,286.9,M,-23.7,M,0.8,0000*4C
$GPGSA,A,3,15,27,14,09,06,03,19,22,18,,,,2.3,1.4,1.9*37
$GPGSV,3,1,11,18,59,041,39,21,58,145,,22,52,312,28,14,46,231,39*7F
$GPGSV,3,2,11,09,38,075,35,06,27,264,28,27,25,052,35,03,22,275,32*76
$GPGSV,3,3,11,15,19,046,30,19,14,312,32,48,36,230,31*42
$GPRMC,160859.000,A,3352.4618,N,09831.1877,W,0.07,42.65,310312,,,D*4C
$GPGGA,160900.000,3352.4618,N,09831.1877,W,2,09,1.4,286.9,M,-23.7,M,0.8,0000*41
$GPGSA,A,3,15,27,14,09,06,03,19,22,18,,,,2.3,1.4,1.9*37
$GPRMC,160900.000,A,3352.4618,N,09831.1877,W,0.07,61.62,310312,,,D*47
$GPGGA,160901.000,3352.4619,N,09831.1877,W,2,09,1.4,287.0,M,-23.7,M,0.8,0000*49
$GPGSA,A,3,15,27,14,09,06,03,19,22,18,,,,2.3,1.4,1.9*37
$GPRMC,160901.000,A,3352.4619,N,09831.1877,W,0.07,55.86,310312,,,D*4A
$GPGGA,160902.000,3352.4619,N,09831.1877,W,2,09,1.4,287.0,M,-23.7,M,1.8,0000*4B
$GPGSA,A,3,15,27,14,09,06,03,19,22,18,,,,2.3,1.4,1.9*37
$GPRMC,160902.000,A,3352.4619,N,09831.1877,W,0.07,61.98,310312,,,D*41
$GPGGA,160903.000,3352.4619,N,09831.1877,W,2,09,1.4,287.0,M,-23.7,M,0.8,0000*4B
$GPGSA,A,3,15,27,14,09,06,03,19,22,18,,,,2.3,1.4,1.9*37
$GPRMC,160903.000,A,3352.4619,N,09831.1877,W,0.10,134.35,310312,,,D*70
$GPGGA,160904.000,3352.4619,N,09831.1877,W,2,09,1.4,286.9,M,-23.7,M,0.8,0000*44
$GPGSA,A,3,15,27,14,09,06,03,19,22,18,,,,2.3,1.4,1.9*37
$GPGSV,3,1,11,18,59,041,39,21,58,145,,22,52,312,29,14,46,231,39*7E
$GPGSV,3,2,11,09,38,075,35,06,27,264,28,27,25,051,35,03,21,275,32*76
$GPGSV,3,3,11,15,19,046,31,19,14,312,32,48,36,230,32*40
$GPRMC,160904.000,A,3352.4619,N,09831.1877,W,0.06,143.78,310312,,,D*79
$GPGGA,160905.000,3352.4619,N,09831.1877,W,2,09,1.4,287.0,M,-23.7,M,0.8,0000*4D
$GPGSA,A,3,15,27,14,09,06,03,19,22,18,,,,2.3,1.4,1.9*37
$GPRMC,160905.000,A,3352.4619,N,09831.1877,W,0.07,153.30,310312,,,D*74
$GPGGA,160906.000,3352.4619,N,09831.1877,W,2,09,1.4,287.0,M,-23.7,M,0.8,0000*4E
$GPGSA,A,3,15,27,14,09,06,03,19,22,18,,,,2.3,1.4,1.9*37
$GPRMC,160906.000,A,3352.4619,N,09831.1877,W,0.06,157.96,310312,,,D*7E
$GPGGA,160907.000,3352.4619,N,09831.1877,W,2,09,1.4,287.0,M,-23.7,M,1.8,0000*4E
$GPGSA,A,3,15,27,14,09,06,03,19,22,18,,,,2.3,1.4,1.9*37
$GPRMC,160907.000,A,3352.4619,N,09831.1877,W,0.07,157.87,310312,,,D*7E
$GPGGA,160908.000,3352.4619,N,09831.1877,W,2,09,1.4,287.0,M,-23.7,M,2.8,0000*42
$GPGSA,A,3,15,27,14,09,06,03,19,22,18,,,,2.3,1.4,1.9*37
$GPRMC,160908.000,A,3352.4619,N,09831.1877,W,0.05,156.27,310312,,,D*78
$GPGGA,160909.000,3352.4619,N,09831.1878,W,2,09,1.4,287.0,M,-23.7,M,0.8,0000*4E
$GPGSA,A,3,15,27,14,09,06,03,19,22,18,,,,2.3,1.4,1.9*37
$GPGSV,3,1,11,18,59,041,39,21,58,145,,22,52,312,29,14,46,231,39*7E
$GPGSV,3,2,11,09,38,075,36,06,27,264,28,27,25,051,35,03,21,275,32*75
$GPGSV,3,3,11,15,19,046,31,19,14,312,32,48,36,230,32*40
$GPRMC,160909.000,A,3352.4619,N,09831.1878,W,0.06,23.76,310312,,,D*42
$GPGGA,160910.000,3352.4620,N,09831.1878,W,2,09,1.4,287.1,M,-23.7,M,0.8,0000*4D
$GPGSA,A,3,15,27,14,09,06,03,19,22,18,,,,2.3,1.4,1.9*37
$GPRMC,160910.000,A,3352.4620,N,09831.1878,W,0.06,57.30,310312,,,D*41
$GPGGA,160911.000,3352.4620,N,09831.1878,W,2,09,1.4,287.1,M,-23.7,M,0.8,0000*4C
$GPGSA,A,3,15,27,14,09,06,03,19,22,18,,,,2.3,1.4,1.9*37
$GPRMC,160911.000,A,3352.4620,N,09831.1878,W,0.06,67.99,310312,,,D*40
$GPGGA,160912.000,3352.4621,N,09831.1878,W,2,09,1.4,287.2,M,-23.7,M,1.8,0000*4C
$GPGSA,A,3,15,27,14,09,06,03,19,22,18,,,,2.3,1.4,1.9*37
$GPRMC,160912.000,A,3352.4621,N,09831.1878,W,0.07,64.72,310312,,,D*45
$GPGGA,160913.000,3352.4621,N,09831.1878,W,2,09,1.4,287.2,M,-23.7,M,2.8,0000*4E
$GPGSA,A,3,15,27,14,09,06,03,19,22,18,,,,2.3,1.4,1.9*37
$GPRMC,160913.000,A,3352.4621,N,09831.1878,W,0.07,67.05,310312,,,D*47
$GPGGA,160914.000,3352.4622,N,09831.1878,W,2,09,1.4,287.2,M,-23.7,M,0.8,0000*48
$GPGSA,A,3,15,27,14,09,06,03,19,22,18,,,,2.3,1.4,1.9*37
$GPGSV,3,1,11,18,59,041,39,21,58,145,,22,52,312,30,14,46,231,39*76
$GPGSV,3,2,11,09,38,075,36,06,27,264,28,27,25,051,35,03,21,275,31*76
$GPGSV,3,3,11,15,19,046,31,19,14,312,32,48,36,230,32*40
$GPRMC,160914.000,A,3352.4622,N,09831.1878,W,0.06,45.51,310312,,,D*43
$GPGGA,160915.000,3352.4622,N,09831.1877,W,2,09,1.4,287.2,M,-23.7,M,0.8,0000*46
$GPGSA,A,3,15,27,14,09,06,03,19,22,18,,,,2.3,1.4,1.9*37
$GPRMC,160915.000,A,3352.4622,N,09831.1877,W,0.10,141.78,310312,,,D*74
$GPGGA,160916.000,3352.4621,N,09831.1877,W,2,09,1.4,287.1,M,-23.7,M,0.8,0000*45
$GPGSA,A,3,15,27,14,09,06,03,19,22,18,,,,2.3,1.4,1.9*37
$GPRMC,160916.000,A,3352.4621,N,09831.1877,W,0.07,151.20,310312,,,D*7E
$GPGGA,160917.000,3352.4622,N,09831.1878,W,2,10,1.2,287.1,M,-23.7,M,0.8,0000*46
$GPGSA,A,3,15,27,21,14,09,06,03,19,22,18,,,2.2,1.2,1.9*33
$GPRMC,160917.000,A,3352.4622,N,09831.1878,W,0.07,160.16,310312,,,D*74
$GPGGA,160918.000,3352.4621,N,09831.1878,W,2,10,1.2,287.1,M,-23.7,M,1.8,0000*4B
$GPGSA,A,3,15,27,21,14,09,06,03,19,22,18,,,2.2,1.2,1.9*33
$GPRMC,160918.000,A,3352.4621,N,09831.1878,W,0.09,155.77,310312,,,D*77
$GPGGA,160919.000,3352.4621,N,09831.1878,W,2,10,1.2,287.1,M,-23.7,M,2.8,0000*49
$GPGSA,A,3,15,27,21,14,09,06,03,19,22,18,,,2.2,1.2,1.9*33
$GPGSV,3,1,11,18,59,041,39,21,58,145,13,22,52,313,30,14,46,231,39*75
$GPGSV,3,2,11,09,38,075,36,06,27,264,29,27,25,051,35,03,21,275,31*77
$GPGSV,3,3,11,15,19,046,31,19,14,312,32,48,36,230,32*40
$GPRMC,160919.000,A,3352.4621,N,09831.1878,W,0.17,157.76,310312,,,D*7A
$GPGGA,160920.000,3352.4621,N,09831.1878,W,2,10,1.2,287.1,M,-23.7,M,3.8,0000*42
$GPGSA,A,3,15,27,21,14,09,06,03,19,22,18,,,2.2,1.2,1.9*33
$GPRMC,160920.000,A,3352.4621,N,09831.1878,W,0.20,154.32,310312,,,D*77
$GPGGA,160921.000,3352.4621,N,09831.1878,W,2,10,1.2,287.1,M,-23.7,M,0.8,0000*40
$GPGSA,A,3,15,27,21,14,09,06,03,19,22,18,,,2.2,1.2,1.9*33
$GPRMC,160921.000,A,3352.4621,N,09831.1878,W,0.12,137.18,310312,,,D*7A
$GPGGA,160922.000,3352.4621,N,09831.1878,W,2,10,1.2,287.2,M,-23.7,M,0.8,0000*40
$GPGSA,A,3,15,27,21,14,09,06,03,19,22,18,,,2.2,1.2,1.9*33
$GPRMC,160922.000,A,3352.4621,N,09831.1878,W,0.12,129.99,310312,,,D*7F
$GPGGA,160923.000,3352.4621,N,09831.1878,W,2,10,1.2,287.2,M,-23.7,M,0.8,0000*41
$GPGSA,A,3,15,27,21,14,09,06,03,19,22,18,,,2.2,1.2,1.9*33
$GPRMC,160923.000,A,3352.4621,N,09831.1878,W,0.13,122.71,310312,,,D*72
$GPGGA,160924.000,3352.4622,N,09831.1877,W,2,10,1.2,287.3,M,-23.7,M,1.8,0000*4A
$GPGSA,A,3,15,27,21,14,09,06,03,19,22,18,,,2.2,1.2,1.9*33
$GPGSV,3,1,11,18,59,041,39,21,58,145,12,22,52,313,31,14,46,231,39*75
$GPGSV,3,2,11,09,38,075,35,06,27,264,29,27,25,051,35,03,21,275,30*75
$GPGSV,3,3,11,15,19,046,31,19,14,312,32,48,36,230,31*43
$GPRMC,160924.000,A,3352.4622,N,09831.1877,W,0.12,120.03,310312,,,D*7F
$GPGGA,160925.000,3352.4622,N,09831.1877,W,2,10,1.2,287.3,M,-23.7,M,0.8,0000*4A
$GPGSA,A,3,15,27,21,14,09,06,03,19,22,18,,,2.2,1.2,1.9*33
$GPRMC,160925.000,A,3352.4622,N,09831.1877,W,0.11,122.84,310312,,,D*70
$GPGGA,160926.000,3352.4622,N,09831.1877,W,2,10,1.2,287.3,M,-23.7,M,1.8,0000*48
$GPGSA,A,3,15,27,21,14,09,06,03,19,22,18,,,2.2,1.2,1.9*33
$GPRMC,160926.000,A,3352.4622,N,09831.1877,W,0.15,128.54,310312,,,D*70
$GPGGA,160927.000,3352.4622,N,09831.1877,W,2,10,1.2,287.3,M,-23.7,M,0.8,0000*48
$GPGSA,A,3,15,27,21,14,09,06,03,19,22,18,,,2.2,1.2,1.9*33
$GPRMC,160927.000,A,3352.4622,N,09831.1877,W,0.21,149.18,310312,,,D*79
$GPGGA,160928.000,3352.4622,N,09831.1877,W,2,09,1.4,287.3,M,-23.7,M,0.8,0000*49
$GPGSA,A,3,15,27,14,09,06,03,19,22,18,,,,2.3,1.4,1.9*37
$GPRMC,160928.000,A,3352.4622,N,09831.1877,W,0.09,155.62,310312,,,D*7C
$GPGGA,160929.000,3352.4622,N,09831.1877,W,2,10,1.2,287.3,M,-23.7,M,0.8,0000*46
$GPGSA,A,3,15,27,21,14,09,06,03,19,22,18,,,2.2,1.2,1.9*33
$GPGSV,3,1,11,18,59,041,39,21,58,145,12,22,52,313,32,14,46,231,39*76
$GPGSV,3,2,11,09,38,075,35,06,27,264,29,27,25,051,35,03,21,275,30*75
$GPGSV,3,3,11,15,19,046,31,19,14,312,33,48,36,230,32*41
$GPRMC,160929.000,A,3352.4622,N,09831.1877,W,0.03,307.21,310312,,,D*75
$GPGGA,160930.000,3352.4622,N,09831.1878,W,2,10,1.2,287.3,M,-23.7,M,0.8,0000*41
$GPGSA,A,3,15,27,21,14,09,06,03,19,22,18,,,2.2,1.2,1.9*33
$GPRMC,160930.000,A,3352.4622,N,09831.1878,W,0.03,184.75,310312,,,D*7A
$GPGGA,160931.000,3352.4622,N,09831.1878,W,2,09,1.4,287.3,M,-23.7,M,1.8,0000*4F
$GPGSA,A,3,15,27,14,09,06,03,19,22,18,,,,2.3,1.4,1.9*37
$GPRMC,160931.000,A,3352.4622,N,09831.1878,W,0.06,157.75,310312,,,D*70
$GPGGA,160932.000,3352.4622,N,09831.1878,W,2,09,1.4,287.2,M,-23.7,M,0.8,0000*4C
$GPGSA,A,3,15,27,14,09,06,03,19,22,18,,,,2.3,1.4,1.9*37
$GPRMC,160932.000,A,3352.4622,N,09831.1878,W,0.08,162.90,310312,,,D*70
$GPGGA,160933.000,3352.4622,N,09831.1878,W,2,09,1.4,287.3,M,-23.7,M,0.8,0000*4C
$GPGSA,A,3,15,27,14,09,06,03,19,22,18,,,,2.3,1.4,1.9*37
$GPRMC,160933.000,A,3352.4622,N,09831.1878,W,0.04,29.05,310312,,,D*4F
$GPGGA,160934.000,3352.4622,N,09831.1878,W,2,09,1.4,287.3,M,-23.7,M,0.8,0000*4B
$GPGSA,A,3,15,27,14,09,06,03,19,22,18,,,,2.3,1.4,1.9*37
$GPGSV,3,1,11,18,59,041,39,21,58,145,,22,52,313,32,14,46,231,39*75
$GPGSV,3,2,11,09,38,075,35,06,27,264,29,27,25,051,35,03,21,275,31*74
$GPGSV,3,3,11,15,19,046,30,19,14,312,33,48,36,230,32*40
$GPRMC,160934.000,A,3352.4622,N,09831.1878,W,0.05,86.47,310312,,,D*4A
$GPGGA,160935.000,3352.4623,N,09831.1878,W,2,09,1.4,287.3,M,-23.7,M,0.8,0000*4B
$GPGSA,A,3,15,27,14,09,06,03,19,22,18,,,,2.3,1.4,1.9*37
$GPRMC,160935.000,A,3352.4623,N,09831.1878,W,0.06,61.05,310312,,,D*46
$GPGGA,160936.000,3352.4623,N,09831.1878,W,2,09,1.4,287.2,M,-23.7,M,1.8,0000*48
$GPGSA,A,3,15,27,14,09,06,03,19,22,18,,,,2.3,1.4,1.9*37
$GPRMC,160936.000,A,3352.4623,N,09831.1878,W,0.07,83.67,310312,,,D*4C
$GPGGA,160937.000,3352.4623,N,09831.1878,W,2,09,1.4,287.2,M,-23.7,M,2.8,0000*4A
$GPGSA,A,3,15,27,14,09,06,03,19,22,18,,,,2.3,1.4,1.9*37
$GPRMC,160937.000,A,3352.4623,N,09831.1878,W,0.07,63.09,310312,,,D*4B
$GPGGA,160938.000,3352.4623,N,09831.1878,W,2,09,1.4,287.2,M,-23.7,M,3.8,0000*44
$GPGSA,A,3,15,27,14,09,06,03,19,22,18,,,,2.3,1.4,1.9*37
$GPRMC,160938.000,A,3352.4623,N,09831.1878,W,0.06,86.52,310312,,,D*40
$GPGGA,160939.000,3352.4623,N,09831.1877,W,2,09,1.4,287.1,M,-23.7,M,0.8,0000*4A
$GPGSA,A,3,15,27,14,09,06,03,19,22,18,,,,2.3,1.4,1.9*37
$GPGSV,3,1,11,18,59,041,39,21,58,145,,22,52,313,33,14,46,231,39*74
$GPGSV,3,2,11,09,38,075,35,06,27,264,28,27,25,051,35,03,21,275,31*75
$GPGSV,3,3,11,15,19,046,30,19,14,312,33,48,36,230,32*40
$GPRMC,160939.000,A,3352.4623,N,09831.1877,W,0.11,146.48,310312,,,D*7E
$GPGGA,160940.000,3352.4623,N,09831.1877,W,2,09,1.4,287.0,M,-23.7,M,0.8,0000*45
$GPGSA,A,3,15,27,14,09,06,03,19,22,18,,,,2.3,1.4,1.9*37
$GPRMC,160940.000,A,3352.4623,N,09831.1877,W,0.08,150.62,310312,,,D*77
$GPGGA,160941.000,3352.4623,N,09831.1877,W,2,09,1.4,287.0,M,-23.7,M,0.8,0000*44
$GPGSA,A,3,15,27,14,09,06,03,19,22,18,,,,2.3,1.4,1.9*37
$GPRMC,160941.000,A,3352.4623,N,09831.1877,W,0.07,159.67,310312,,,D*75
$GPGGA,160942.000,3352.4623,N,09831.1878,W,2,09,1.4,286.9,M,-23.7,M,1.8,0000*41
$GPGSA,A,3,15,27,14,09,06,03,19,22,18,,,,2.3,1.4,1.9*37
$GPRMC,160942.000,A,3352.4623,N,09831.1878,W,0.10,156.40,310312,,,D*75
$GPGGA,160943.000,3352.4623,N,09831.1878,W,2,09,1.4,286.9,M,-23.7,M,2.8,0000*43
$GPGSA,A,3,15,27,14,09,06,03,19,22,18,,,,2.3,1.4,1.9*37
$GPRMC,160943.000,A,3352.4623,N,09831.1878,W,0.08,162.33,310312,,,D*7E
$GPGGA,160944.000,3352.4622,N,09831.1878,W,2,09,1.4,286.8,M,-23.7,M,0.8,0000*46
$GPGSA,A,3,15,27,14,09,06,03,19,22,18,,,,2.3,1.4,1.9*37
$GPGSV,3,1,11,18,59,041,39,21,58,145,,22,52,313,33,14,46,231,39*74
$GPGSV,3,2,11,09,38,075,35,06,27,264,28,27,25,051,35,03,21,275,32*76
$GPGSV,3,3,11,15,19,046,29,19,14,312,33,48,36,230,31*4B
$GPRMC,160944.000,A,3352.4622,N,09831.1878,W,0.06,151.24,310312,,,D*70
$GPGGA,160945.000,3352.4623,N,09831.1878,W,2,09,1.4,286.8,M,-23.7,M,0.8,0000*46
$GPGSA,A,3,15,27,14,09,06,03,19,22,18,,,,2.3,1.4,1.9*37
$GPRMC,160945.000,A,3352.4623,N,09831.1878,W,0.04,65.14,310312,,,D*47
$GPGGA,160946.000,3352.4623,N,09831.1878,W,2,09,1.4,286.8,M,-23.7,M,0.8,0000*45
$GPGSA,A,3,15,27,14,09,06,03,19,22,18,,,,2.3,1.4,1.9*37
$GPRMC,160946.000,A,3352.4623,N,09831.1878,W,0.04,61.32,310312,,,D*44
$GPGGA,160947.000,3352.4623,N,09831.1878,W,2,09,1.4,286.8,M,-23.7,M,0.8,0000*44
$GPGSA,A,3,15,27,14,09,06,03,19,22,18,,,,2.3,1.4,1.9*37
$GPRMC,160947.000,A,3352.4623,N,09831.1878,W,0.06,62.43,310312,,,D*42
$GPGGA,160948.000,3352.4623,N,09831.1877,W,2,09,1.4,286.8,M,-23.7,M,0.8,0000*44
$GPGSA,A,3,15,27,14,09,06,03,19,22,18,,,,2.3,1.4,1.9*37
$GPRMC,160948.000,A,3352.4623,N,09831.1877,W,0.06,73.55,310312,,,D*45
$GPGGA,160949.000,3352.4623,N,09831.1877,W,2,09,1.4,286.7,M,-23.7,M,1.8,0000*4B
$GPGSA,A,3,15,27,14,09,06,03,19,22,18,,,,2.3,1.4,1.9*37
$GPGSV,3,1,11,18,59,042,39,21,57,145,,22,52,313,33,14,46,231,39*78
$GPGSV,3,2,11,09,38,074,35,06,27,263,28,27,25,051,35,03,21,274,32*71
$GPGSV,3,3,11,15,19,046,28,19,14,312,33,48,36,230,32*49
$GPRMC,160949.000,A,3352.4623,N,09831.1877,W,0.06,64.15,310312,,,D*46
$GPGGA,160950.000,3352.4623,N,09831.1877,W,2,09,1.4,286.7,M,-23.7,M,2.8,0000*40
$GPGSA,A,3,15,27,14,09,06,03,19,22,18,,,,2.3,1.4,1.9*37
$GPRMC,160950.000,A,3352.4623,N,09831.1877,W,0.07,61.73,310312,,,D*4A
$GPGGA,160951.000,3352.4623,N,09831.1877,W,2,09,1.4,286.6,M,-23.7,M,0.8,0000*42
$GPGSA,A,3,15,27,14,09,06,03,19,22,18,,,,2.3,1.4,1.9*37
$GPRMC,160951.000,A,3352.4623,N,09831.1877,W,0.10,149.63,310312,,,D*77
$GPGGA,160952.000,3352.4623,N,09831.1877,W,2,09,1.4,286.5,M,-23.7,M,0.8,0000*42
$GPGSA,A,3,15,27,14,09,06,03,19,22,18,,,,2.3,1.4,1.9*37
$GPRMC,160952.000,A,3352.4623,N,09831.1877,W,0.10,160.29,310312,,,D*71
$GPGGA,160953.000,3352.4623,N,09831.1877,W,2,09,1.4,286.5,M,-23.7,M,0.8,0000*43
$GPGSA,A,3,15,27,14,09,06,03,19,22,18,,,,2.3,1.4,1.9*37
$GPRMC,160953.000,A,3352.4623,N,09831.1877,W,0.07,167.36,310312,,,D*7F
$GPGGA,160954.000,3352.4622,N,09831.1877,W,2,09,1.4,286.5,M,-23.7,M,0.8,0000*45
$GPGSA,A,3,15,27,14,09,06,03,19,22,18,,,,2.3,1.4,1.9*37
$GPGSV,3,1,11,18,59,042,39,21,57,145,,22,52,313,33,14,46,231,39*78
$GPGSV,3,2,11,09,38,074,35,06,27,263,28,27,25,051,35,03,21,274,32*71
$GPGSV,3,3,11,15,19,046,27,19,14,312,32,48,36,230,32*47
$GPRMC,160954.000,A,3352.4622,N,09831.1877,W,0.08,172.01,310312,,,D*76
$GPGGA,160955.000,3352.4622,N,09831.1877,W,2,09,1.4,286.4,M,-23.7,M,1.8,0000*44
$GPGSA,A,3,15,27,14,09,06,03,19,22,18,,,,2.3,1.4,1.9*37
$GPRMC,160955.000,A,3352.4622,N,09831.1877,W,0.07,170.54,310312,,,D*7A
$GPGGA,160956.000,3352.4622,N,09831.1877,W,2,09,1.4,286.4,M,-23.7,M,2.8,0000*44
$GPGSA,A,3,15,27,14,09,06,03,19,22,18,,,,2.3,1.4,1.9*37
$GPRMC,160956.000,A,3352.4622,N,09831.1877,W,0.08,167.49,310312,,,D*7C
$GPGGA,160957.000,3352.4622,N,09831.1877,W,2,09,1.4,286.4,M,-23.7,M,0.8,0000*47
$GPGSA,A,3,15,27,14,09,06,03,19,22,18,,,,2.3,1.4,1.9*37
$GPRMC,160957.000,A,3352.4622,N,09831.1877,W,0.04,42.69,310312,,,D*45
$GPGGA,160958.000,3352.4622,N,09831.1877,W,2,09,1.4,286.4,M,-23.7,M,0.8,0000*48
$GPGSA,A,3,15,27,14,09,06,03,19,22,18,,,,2.3,1.4,1.9*37
$GPRMC,160958.000,A,3352.4622,N,09831.1877,W,0.06,74.34,310312,,,D*45
$GPGGA,160959.000,3352.4622,N,09831.1877,W,2,09,1.4,286.3,M,-23.7,M,0.8,0000*4E
$GPGSA,A,3,15,27,14,09,06,03,19,22,18,,,,2.3,1.4,1.9*37
$GPGSV,3,1,11,18,59,042,39,21,57,145,,22,52,313,33,14,46,231,38*79
$GPGSV,3,2,11,09,38,074,35,06,27,263,28,27,25,051,35,03,21,274,32*71
$GPGSV,3,3,11,15,19,046,27,19,14,312,32,48,36,230,31*44
$GPRMC,160959.000,A,3352.4622,N,09831.1877,W,0.09,78.53,310312,,,D*46
$GPGGA,161000.000,3352.4622,N,09831.1877,W,2,09,1.4,286.3,M,-23.7,M,1.8,0000*4B
$GPGSA,A,3,15,27,14,09,06,03,19,22,18,,,,2.3,1.4,1.9*37
$GPRMC,161000.000,A,3352.4622,N,09831.1877,W,0.08,66.23,310312,,,D*4B
$GPGGA,161001.000,3352.4622,N,09831.1877,W,2,09,1.4,286.3,M,-23.7,M,0.8,0000*4B
$GPGSA,A,3,15,27,14,09,06,03,19,22,18,,,,2.3,1.4,1.9*37
$GPRMC,161001.000,A,3352.4622,N,09831.1877,W,0.09,74.33,310312,,,D*49
$GPGGA,161002.000,3352.4622,N,09831.1876,W,2,09,1.4,286.2,M,-23.7,M,1.8,0000*49
$GPGSA,A,3,15,27,14,09,06,03,19,22,18,,,,2.3,1.4,1.9*37
$GPRMC,161002.000,A,3352.4622,N,09831.1876,W,0.09,81.55,310312,,,D*41
$GPGGA,161003.000,3352.4622,N,09831.1876,W,2,09,1.4,286.2,M,-23.7,M,0.8,0000*49
$GPGSA,A,3,15,27,14,09,06,03,19,22,18,,,,2.3,1.4,1.9*37
$GPRMC,161003.000,A,3352.4622,N,09831.1876,W,0.11,142.75,310312,,,D*75
$GPGGA,161004.000,3352.4622,N,09831.1876,W,2,09,1.4,286.1,M,-23.7,M,0.8,0000*4D
$GPGSA,A,3,15,27,14,09,06,03,19,22,18,,,,2.3,1.4,1.9*37
$GPGSV,3,1,11,18,59,042,38,21,57,145,,22,52,313,33,14,46,231,38*78
$GPGSV,3,2,11,09,38,074,35,06,27,263,27,27,25,051,35,03,21,274,32*7E
$GPGSV,3,3,11,15,19,046,26,19,14,312,32,48,36,230,31*45
$GPRMC,161004.000,A,3352.4622,N,09831.1876,W,0.08,151.54,310312,,,D*7B
$GPGGA,161005.000,3352.4622,N,09831.1876,W,2,09,1.4,286.1,M,-23.7,M,0.8,0000*4C
$GPGSA,A,3,15,27,14,09,06,03,19,22,18,,,,2.3,1.4,1.9*37
$GPRMC,161005.000,A,3352.4622,N,09831.1876,W,0.09,170.72,310312,,,D*7C
