$GPGGA,114231.000,3353.7478,N,09832.0220,W,2,07,1.9,352.4,M,-23.7,M,2.8,0000*43
$GPGSA,A,3,29,15,05,12,25,26,02,,,,,,4.8,1.9,4.4*3E
$GPRMC,114231.000,A,3353.7478,N,09832.0220,W,0.14,162.38,300312,,,D*7F
$GPGGA,114232.000,3353.7481,N,09832.0221,W,2,07,1.9,352.1,M,-23.7,M,3.8,0000*43
$GPGSA,A,3,29,15,05,12,25,26,02,,,,,,4.8,1.9,4.4*3E
$GPGSV,3,1,12,05,59,044,39,29,55,320,29,25,38,239,28,26,29,126,29*75
$GPGSV,3,2,12,02,29,070,28,12,22,195,25,15,16,168,33,21,16,280,*74
$GPGSV,3,3,12,18,08,224,,10,04,044,,30,00,326,,51,49,195,46*78
$GPRMC,114232.000,A,3353.7481,N,09832.0221,W,0.21,197.03,300312,,,D*7F
$GPGGA,114233.000,3353.7486,N,09832.0224,W,2,07,1.9,350.9,M,-23.7,M,0.8,0000*49
$GPGSA,A,3,29,15,05,12,25,26,02,,,,,,4.8,1.9,4.4*3E
$GPRMC,114233.000,A,3353.7486,N,09832.0224,W,0.09,178.57,300312,,,D*76
$GPGGA,114234.000,3353.7490,N,09832.0225,W,2,07,1.9,349.8,M,-23.7,M,0.8,0000*41
$GPGSA,A,3,29,15,05,12,25,26,02,,,,,,4.8,1.9,4.4*3E
$GPRMC,114234.000,A,3353.7490,N,09832.0225,W,0.08,160.98,300312,,,D*7C
$GPGGA,114235.000,3353.7494,N,09832.0227,W,2,07,1.9,348.4,M,-23.7,M,0.8,0000*4B
$GPGSA,A,3,29,15,05,12,25,26,02,,,,,,4.8,1.9,4.4*3E
$GPRMC,114235.000,A,3353.7494,N,09832.0227,W,0.03,132.26,300312,,,D*72
$GPGGA,114236.000,3353.7498,N,09832.0227,W,2,07,1.9,347.0,M,-23.7,M,1.8,0000*4E
$GPGSA,A,3,29,15,05,12,25,26,02,,,,,,4.8,1.9,4.4*3E
$GPRMC,114236.000,A,3353.7498,N,09832.0227,W,0.04,35.92,300312,,,D*43
$GPGGA,114237.000,3353.7502,N,09832.0227,W,2,07,1.9,345.5,M,-23.7,M,0.8,0000*4B
$GPGSA,A,3,29,15,05,12,25,26,02,,,,,,4.8,1.9,4.4*3E
$GPGSV,3,1,12,05,59,044,39,29,55,320,29,25,38,239,29,26,29,126,29*74
$GPGSV,3,2,12,02,29,070,27,12,22,195,24,15,16,168,33,21,16,280,*7A
$GPGSV,3,3,12,18,08,224,,10,04,044,,30,00,326,,51,49,195,39*70
$GPRMC,114237.000,A,3353.7502,N,09832.0227,W,0.10,352.91,300312,,,D*74
$GPGGA,114238.000,3353.7506,N,09832.0227,W,2,07,1.9,343.8,M,-23.7,M,1.8,0000*4A
$GPGSA,A,3,29,15,05,12,25,26,02,,,,,,4.8,1.9,4.4*3E
$GPRMC,114238.000,A,3353.7506,N,09832.0227,W,0.18,326.81,300312,,,D*75
$GPGGA,114239.000,3353.7510,N,09832.0228,W,2,07,1.9,342.1,M,-23.7,M,0.8,0000*4A
$GPGSA,A,3,29,15,05,12,25,26,02,,,,,,4.8,1.9,4.4*3E
$GPRMC,114239.000,A,3353.7510,N,09832.0228,W,0.40,354.51,300312,,,D*79
$GPGGA,114240.000,3353.7515,N,09832.0229,W,2,07,1.9,340.3,M,-23.7,M,0.8,0000*40
$GPGSA,A,3,29,15,05,12,25,26,02,,,,,,4.8,1.9,4.4*3E
$GPRMC,114240.000,A,3353.7515,N,09832.0229,W,0.36,331.65,300312,,,D*76
$GPGGA,114241.000,3353.7523,N,09832.0229,W,2,07,1.9,336.7,M,-23.7,M,0.8,0000*41
$GPGSA,A,3,29,15,05,12,25,26,02,,,,,,4.8,1.9,4.4*3E
$GPRMC,114241.000,A,3353.7523,N,09832.0229,W,0.55,343.76,300312,,,D*70
$GPGGA,114242.000,3353.7534,N,09832.0229,W,2,07,1.9,331.9,M,-23.7,M,0.8,0000*4D
$GPGSA,A,3,29,15,05,12,25,26,02,,,,,,4.8,1.9,4.4*3E
$GPGSV,3,1,12,05,59,044,39,29,55,320,29,25,38,239,30,26,29,126,30*74
$GPGSV,3,2,12,02,29,070,26,12,22,195,23,15,16,168,33,21,16,280,*7C
$GPGSV,3,3,12,18,08,224,,10,04,044,,30,00,326,,51,49,195,39*70
$GPRMC,114242.000,A,3353.7534,N,09832.0229,W,0.81,352.39,300312,,,D*77
$GPGGA,114243.000,3353.7541,N,09832.0230,W,2,07,1.9,328.8,M,-23.7,M,0.8,0000*4F
$GPGSA,A,3,29,15,05,12,25,26,02,,,,,,4.8,1.9,4.4*3E
$GPRMC,114243.000,A,3353.7541,N,09832.0230,W,0.85,347.79,300312,,,D*78
$GPGGA,114244.000,3353.7545,N,09832.0231,W,2,07,1.9,327.0,M,-23.7,M,1.8,0000*4B
$GPGSA,A,3,29,15,05,12,25,26,02,,,,,,4.8,1.9,4.4*3E
$GPRMC,114244.000,A,3353.7545,N,09832.0231,W,0.89,346.27,300312,,,D*7C
$GPGGA,114245.000,3353.7547,N,09832.0231,W,2,07,1.9,326.2,M,-23.7,M,0.8,0000*4A
$GPGSA,A,3,29,15,05,12,25,26,02,,,,,,4.8,1.9,4.4*3E
$GPRMC,114245.000,A,3353.7547,N,09832.0231,W,0.77,341.45,300312,,,D*7D
$GPGGA,114246.000,3353.7549,N,09832.0232,W,2,07,1.9,325.4,M,-23.7,M,0.8,0000*41
$GPGSA,A,3,29,15,05,12,25,26,02,,,,,,4.8,1.9,4.4*3E
$GPRMC,114246.000,A,3353.7549,N,09832.0232,W,0.74,344.42,300312,,,D*72
$GPGGA,114247.000,3353.7550,N,09832.0233,W,2,07,1.9,324.8,M,-23.7,M,0.8,0000*44
$GPGSA,A,3,29,15,05,12,25,26,02,,,,,,4.8,1.9,4.4*3E
$GPGSV,3,1,12,05,59,044,39,29,55,320,29,25,38,239,30,26,29,126,30*74
$GPGSV,3,2,12,02,29,070,26,12,22,195,23,15,16,168,33,21,16,280,20*7E
$GPGSV,3,3,12,18,08,224,,10,04,044,,30,00,326,,51,49,195,39*70
$GPRMC,114247.000,A,3353.7550,N,09832.0233,W,0.73,340.34,300312,,,D*78
$GPGGA,114248.000,3353.7551,N,09832.0233,W,2,07,1.9,324.6,M,-23.7,M,1.8,0000*45
$GPGSA,A,3,29,15,05,12,25,26,02,,,,,,4.8,1.9,4.4*3E
$GPRMC,114248.000,A,3353.7551,N,09832.0233,W,0.75,343.53,300312,,,D*72
$GPGGA,114249.000,3353.7551,N,09832.0234,W,2,07,1.9,324.5,M,-23.7,M,0.8,0000*41
$GPGSA,A,3,29,15,05,12,25,26,02,,,,,,4.8,1.9,4.4*3E
$GPRMC,114249.000,A,3353.7551,N,09832.0234,W,0.62,345.10,300312,,,D*73
$GPGGA,114250.000,3353.7551,N,09832.0234,W,2,07,1.9,324.6,M,-23.7,M,1.8,0000*4B
$GPGSA,A,3,29,15,05,12,25,26,02,,,,,,4.8,1.9,4.4*3E
$GPRMC,114250.000,A,3353.7551,N,09832.0234,W,0.57,347.92,300312,,,D*75
$GPGGA,114251.000,3353.7551,N,09832.0234,W,2,07,1.9,324.8,M,-23.7,M,0.8,0000*45
$GPGSA,A,3,29,15,05,12,25,26,02,,,,,,4.8,1.9,4.4*3E
$GPRMC,114251.000,A,3353.7551,N,09832.0234,W,0.52,335.48,300312,,,D*73
$GPGGA,114252.000,3353.7550,N,09832.0234,W,2,07,1.9,325.2,M,-23.7,M,0.8,0000*4C
$GPGSA,A,3,29,15,05,12,25,26,02,,,,,,4.8,1.9,4.4*3E
$GPGSV,3,1,12,05,59,044,39,29,55,320,29,25,38,239,30,26,29,126,29*7C
$GPGSV,3,2,12,02,29,070,27,12,22,195,22,15,16,168,33,21,16,280,20*7E
$GPGSV,3,3,12,18,08,224,,10,04,044,,30,00,326,,51,49,195,39*70
$GPRMC,114252.000,A,3353.7550,N,09832.0234,W,0.66,350.01,300312,,,D*78
$GPGGA,114253.000,3353.7550,N,09832.0235,W,2,07,1.9,325.6,M,-23.7,M,0.8,0000*48
$GPGSA,A,3,29,15,05,12,25,26,02,,,,,,4.8,1.9,4.4*3E
$GPRMC,114253.000,A,3353.7550,N,09832.0235,W,0.47,332.80,300312,,,D*76
$GPGGA,114254.000,3353.7549,N,09832.0235,W,2,07,1.9,326.2,M,-23.7,M,1.8,0000*41
$GPGSA,A,3,29,15,05,12,25,26,02,,,,,,4.8,1.9,4.4*3E
$GPRMC,114254.000,A,3353.7549,N,09832.0235,W,0.43,336.26,300312,,,D*75
$GPGGA,114255.000,3353.7549,N,09832.0235,W,2,07,1.9,326.7,M,-23.7,M,2.8,0000*46
$GPGSA,A,3,29,15,05,12,25,26,02,,,,,,4.8,1.9,4.4*3E
$GPRMC,114255.000,A,3353.7549,N,09832.0235,W,0.48,349.00,300312,,,D*73
$GPGGA,114256.000,3353.7548,N,09832.0235,W,2,07,1.9,327.2,M,-23.7,M,3.8,0000*41
$GPGSA,A,3,29,15,05,12,25,26,02,,,,,,4.8,1.9,4.4*3E
$GPRMC,114256.000,A,3353.7548,N,09832.0235,W,0.48,349.45,300312,,,D*70
$GPGGA,114257.000,3353.7549,N,09832.0235,W,2,07,1.9,326.7,M,-23.7,M,0.8,0000*46
$GPGSA,A,3,29,15,05,12,25,26,02,,,,,,4.8,1.9,4.4*3E
$GPGSV,3,1,12,05,59,044,39,29,55,320,29,25,38,239,30,26,29,126,30*74
$GPGSV,3,2,12,02,29,070,28,12,22,195,22,15,16,168,33,21,16,280,21*70
$GPGSV,3,3,12,18,08,224,,10,04,044,,30,00,326,,51,49,195,39*70
$GPRMC,114257.000,A,3353.7549,N,09832.0235,W,0.25,338.57,300312,,,D*7E
$GPGGA,114258.000,3353.7551,N,09832.0235,W,2,07,1.9,325.9,M,-23.7,M,0.8,0000*4D
$GPGSA,A,3,29,15,05,12,25,26,02,,,,,,4.8,1.9,4.4*3E
$GPRMC,114258.000,A,3353.7551,N,09832.0235,W,0.38,357.26,300312,,,D*7B
$GPGGA,114259.000,3353.7553,N,09832.0234,W,2,07,1.9,324.8,M,-23.7,M,0.8,0000*4F
$GPGSA,A,3,29,15,05,12,25,26,02,,,,,,4.8,1.9,4.4*3E
$GPRMC,114259.000,A,3353.7553,N,09832.0234,W,0.24,343.05,300312,,,D*70
$GPGGA,114300.000,3353.7555,N,09832.0234,W,2,07,1.9,324.0,M,-23.7,M,1.8,0000*4D
$GPGSA,A,3,29,15,05,12,25,26,02,,,,,,4.8,1.9,4.4*3E
$GPRMC,114300.000,A,3353.7555,N,09832.0234,W,0.25,341.10,300312,,,D*7C
$GPGGA,114301.000,3353.7556,N,09832.0234,W,2,07,1.9,323.3,M,-23.7,M,2.8,0000*48
$GPGSA,A,3,29,15,05,12,25,26,02,,,,,,4.8,1.9,4.4*3E
$GPRMC,114301.000,A,3353.7556,N,09832.0234,W,0.37,353.11,300312,,,D*7F
$GPGGA,114302.000,3353.7557,N,09832.0233,W,2,07,1.9,322.7,M,-23.7,M,3.8,0000*49
$GPGSA,A,3,29,15,05,12,25,26,02,,,,,,4.8,1.9,4.4*3E
$GPGSV,3,1,12,05,59,044,39,29,55,320,29,25,38,239,30,26,29,126,31*75
$GPGSV,3,2,12,02,29,070,28,12,22,195,21,15,16,168,33,21,16,280,21*73
$GPGSV,3,3,12,18,08,224,20,10,04,044,,30,00,326,,51,49,195,39*72
$GPRMC,114302.000,A,3353.7557,N,09832.0233,W,0.34,348.56,300312,,,D*70
$GPGGA,114303.000,3353.7558,N,09832.0233,W,2,07,1.9,322.3,M,-23.7,M,0.8,0000*40
$GPGSA,A,3,29,15,05,12,25,26,02,,,,,,4.8,1.9,4.4*3E
$GPRMC,114303.000,A,3353.7558,N,09832.0233,W,0.46,351.26,300312,,,D*74
$GPGGA,114304.000,3353.7559,N,09832.0234,W,2,07,1.9,321.8,M,-23.7,M,0.8,0000*49
$GPGSA,A,3,29,15,05,12,25,26,02,,,,,,4.8,1.9,4.4*3E
$GPRMC,114304.000,A,3353.7559,N,09832.0234,W,0.41,341.26,300312,,,D*73
$GPGGA,114305.000,3353.7560,N,09832.0234,W,2,07,1.9,321.5,M,-23.7,M,0.8,0000*4F
$GPGSA,A,3,29,15,05,12,25,26,02,,,,,,4.8,1.9,4.4*3E
$GPRMC,114305.000,A,3353.7560,N,09832.0234,W,0.45,337.38,300312,,,D*72
$GPGGA,114306.000,3353.7560,N,09832.0234,W,2,07,1.9,321.2,M,-23.7,M,1.8,0000*4A
$GPGSA,A,3,29,15,05,12,25,26,02,,,,,,4.8,1.9,4.4*3E
$GPRMC,114306.000,A,3353.7560,N,09832.0234,W,0.42,336.61,300312,,,D*7B
$GPGGA,114307.000,3353.7560,N,09832.0235,W,2,07,1.9,321.2,M,-23.7,M,0.8,0000*4B
$GPGSA,A,3,29,15,05,12,25,26,02,,,,,,4.8,1.9,4.4*3E
$GPGSV,3,1,12,05,59,044,39,29,55,320,29,25,38,239,30,26,29,126,31*75
$GPGSV,3,2,12,02,29,070,28,12,22,195,21,15,16,168,33,21,16,280,22*70
$GPGSV,3,3,12,18,08,224,19,10,04,044,15,30,00,326,,51,49,195,39*7C
$GPRMC,114307.000,A,3353.7560,N,09832.0235,W,0.33,318.84,300312,,,D*7A
$GPGGA,114308.000,3353.7560,N,09832.0235,W,2,07,1.9,321.2,M,-23.7,M,1.8,0000*45
$GPGSA,A,3,29,15,05,12,25,26,02,,,,,,4.8,1.9,4.4*3E
$GPRMC,114308.000,A,3353.7560,N,09832.0235,W,0.43,343.35,300312,,,D*76
$GPGGA,114309.000,3353.7560,N,09832.0235,W,2,07,1.9,321.4,M,-23.7,M,0.8,0000*43
$GPGSA,A,3,29,15,05,12,25,26,02,,,,,,4.8,1.9,4.4*3E
$GPRMC,114309.000,A,3353.7560,N,09832.0235,W,0.25,319.85,300312,,,D*73
$GPGGA,114310.000,3353.7558,N,09832.0234,W,2,07,1.9,321.9,M,-23.7,M,0.8,0000*4C
$GPGSA,A,3,29,15,05,12,25,26,02,,,,,,4.8,1.9,4.4*3E
$GPRMC,114310.000,A,3353.7558,N,09832.0234,W,0.28,352.85,300312,,,D*73
$GPGGA,114311.000,3353.7556,N,09832.0233,W,2,07,1.9,322.4,M,-23.7,M,0.8,0000*4A
$GPGSA,A,3,29,15,05,12,25,26,02,,,,,,4.8,1.9,4.4*3E
$GPRMC,114311.000,A,3353.7556,N,09832.0233,W,0.14,338.83,300312,,,D*7E
$GPGGA,114312.000,3353.7554,N,09832.0232,W,2,07,1.9,322.9,M,-23.7,M,1.8,0000*46
$GPGSA,A,3,29,15,05,12,25,26,02,,,,,,4.8,1.9,4.4*3E
$GPGSV,3,1,12,05,59,044,38,29,55,320,29,25,38,239,30,26,29,126,32*77
$GPGSV,3,2,12,02,29,070,30,12,22,195,22,15,16,168,33,21,16,280,22*7A
$GPGSV,3,3,12,18,08,224,,10,04,044,16,30,00,326,,51,49,195,40*79
$GPRMC,114312.000,A,3353.7554,N,09832.0232,W,0.09,321.05,300312,,,D*74
$GPGGA,114313.000,3353.7552,N,09832.0231,W,2,07,1.9,323.5,M,-23.7,M,2.8,0000*4C
$GPGSA,A,3,29,15,05,12,25,26,02,,,,,,4.8,1.9,4.4*3E
$GPRMC,114313.000,A,3353.7552,N,09832.0231,W,0.05,348.91,300312,,,D*7E
$GPGGA,114314.000,3353.7549,N,09832.0229,W,2,07,1.9,324.2,M,-23.7,M,0.8,0000*4A
$GPGSA,A,3,29,15,05,12,25,26,02,,,,,,4.8,1.9,4.4*3E
$GPRMC,114314.000,A,3353.7549,N,09832.0229,W,0.14,11.76,300312,,,D*4C
$GPGGA,114315.000,3353.7547,N,09832.0228,W,2,07,1.9,324.8,M,-23.7,M,0.8,0000*4E
$GPGSA,A,3,29,15,05,12,25,26,02,,,,,,4.8,1.9,4.4*3E
$GPRMC,114315.000,A,3353.7547,N,09832.0228,W,0.09,350.77,300312,,,D*79
$GPGGA,114316.000,3353.7545,N,09832.0227,W,2,07,1.9,325.4,M,-23.7,M,0.8,0000*4D
$GPGSA,A,3,29,15,05,12,25,26,02,,,,,,4.8,1.9,4.4*3E
$GPRMC,114316.000,A,3353.7545,N,09832.0227,W,0.07,273.94,300312,,,D*74
$GPGGA,114317.000,3353.7543,N,09832.0226,W,2,07,1.9,325.9,M,-23.7,M,0.8,0000*46
$GPGSA,A,3,29,15,05,12,25,26,02,,,,,,4.8,1.9,4.4*3E
$GPGSV,3,1,12,05,59,044,38,29,55,320,29,25,38,239,30,26,29,126,32*77
$GPGSV,3,2,12,02,29,070,30,12,22,195,22,15,16,168,34,21,16,280,22*7D
$GPGSV,3,3,12,18,08,224,,10,04,044,17,30,00,326,,51,49,195,39*76
$GPRMC,114317.000,A,3353.7543,N,09832.0226,W,0.11,246.88,300312,,,D*7E
$GPGGA,114318.000,3353.7542,N,09832.0225,W,2,07,1.9,326.4,M,-23.7,M,1.8,0000*44
$GPGSA,A,3,29,15,05,12,25,26,02,,,,,,4.8,1.9,4.4*3E
$GPRMC,114318.000,A,3353.7542,N,09832.0225,W,0.06,304.84,300312,,,D*7E
$GPGGA,114319.000,3353.7540,N,09832.0225,W,2,07,1.9,326.8,M,-23.7,M,2.8,0000*48
$GPGSA,A,3,29,15,05,12,25,26,02,,,,,,4.8,1.9,4.4*3E
$GPRMC,114319.000,A,3353.7540,N,09832.0225,W,0.06,266.39,300312,,,D*7E
$GPGGA,114320.000,3353.7539,N,09832.0224,W,2,07,1.9,327.2,M,-23.7,M,3.8,0000*47
$GPGSA,A,3,29,15,05,12,25,26,02,,,,,,4.8,1.9,4.4*3E
$GPRMC,114320.000,A,3353.7539,N,09832.0224,W,0.06,300.60,300312,,,D*76
$GPGGA,114321.000,3353.7538,N,09832.0223,W,2,07,1.9,327.6,M,-23.7,M,0.8,0000*47
$GPGSA,A,3,29,15,05,12,25,26,02,,,,,,4.8,1.9,4.4*3E
$GPRMC,114321.000,A,3353.7538,N,09832.0223,W,0.07,33.53,300312,,,D*43
$GPGGA,114322.000,3353.7537,N,09832.0221,W,2,07,1.9,327.9,M,-23.7,M,0.8,0000*46
$GPGSA,A,3,29,15,05,12,25,26,02,,,,,,4.8,1.9,4.4*3E
$GPGSV,3,1,12,05,58,043,38,29,57,320,29,25,37,238,31,26,30,125,33*76
$GPGSV,3,2,12,02,29,071,29,12,21,195,24,15,17,168,34,21,17,280,22*71
$GPGSV,3,3,12,18,09,224,,10,03,044,18,30,01,325,,51,49,195,39*7D
$GPRMC,114322.000,A,3353.7537,N,09832.0221,W,0.08,74.12,300312,,,D*44
$GPGGA,114323.000,3353.7537,N,09832.0222,W,2,07,1.9,328.0,M,-23.7,M,0.8,0000*42
$GPGSA,A,3,29,15,05,12,25,26,02,,,,,,4.8,1.9,4.4*3E
$GPRMC,114323.000,A,3353.7537,N,09832.0222,W,0.01,31.10,300312,,,D*4C
$GPGGA,114324.000,3353.7538,N,09832.0223,W,2,07,1.9,327.9,M,-23.7,M,0.8,0000*4D
$GPGSA,A,3,29,15,05,12,25,26,02,,,,,,4.8,1.9,4.4*3E
$GPRMC,114324.000,A,3353.7538,N,09832.0223,W,0.02,198.92,300312,,,D*7E
$GPGGA,114325.000,3353.7539,N,09832.0223,W,2,07,1.9,327.8,M,-23.7,M,1.8,0000*4D
$GPGSA,A,3,29,15,05,12,25,26,02,,,,,,4.8,1.9,4.4*3E
$GPRMC,114325.000,A,3353.7539,N,09832.0223,W,0.08,194.55,300312,,,D*73
$GPGGA,114326.000,3353.7539,N,09832.0224,W,2,07,1.9,327.8,M,-23.7,M,2.8,0000*4A
$GPGSA,A,3,29,15,05,12,25,26,02,,,,,,4.8,1.9,4.4*3E
$GPRMC,114326.000,A,3353.7539,N,09832.0224,W,0.04,25.08,300312,,,D*48
$GPGGA,114327.000,3353.7540,N,09832.0225,W,2,07,1.9,327.7,M,-23.7,M,0.8,0000*49
$GPGSA,A,3,29,15,05,12,25,26,02,,,,,,4.8,1.9,4.4*3E
$GPGSV,3,1,12,05,58,043,39,29,57,320,29,25,37,238,31,26,30,125,33*77
$GPGSV,3,2,12,02,29,071,29,12,21,195,25,15,17,168,34,21,17,280,22*70
$GPGSV,3,3,12,18,09,224,,10,03,044,18,30,01,325,,51,49,195,39*7D
$GPRMC,114327.000,A,3353.7540,N,09832.0225,W,0.06,296.53,300312,,,D*70
$GPGGA,114328.000,3353.7540,N,09832.0224,W,2,07,1.9,327.6,M,-23.7,M,0.8,0000*46
$GPGSA,A,3,29,15,05,12,25,26,02,,,,,,4.8,1.9,4.4*3E
$GPRMC,114328.000,A,3353.7540,N,09832.0224,W,0.06,311.28,300312,,,D*7C
$GPGGA,114329.000,3353.7540,N,09832.0224,W,2,07,1.9,327.6,M,-23.7,M,0.8,0000*47
$GPGSA,A,3,29,15,05,12,25,26,02,,,,,,4.8,1.9,4.4*3E
$GPRMC,114329.000,A,3353.7540,N,09832.0224,W,0.08,323.48,300312,,,D*74
$GPGGA,114330.000,3353.7539,N,09832.0223,W,2,07,1.9,327.7,M,-23.7,M,1.8,0000*46
$GPGSA,A,3,29,15,05,12,25,26,02,,,,,,4.8,1.9,4.4*3E
$GPRMC,114330.000,A,3353.7539,N,09832.0223,W,0.09,316.19,300312,,,D*76
$GPGGA,114331.000,3353.7538,N,09832.0222,W,2,07,1.9,327.8,M,-23.7,M,0.8,0000*49
$GPGSA,A,3,29,15,05,12,25,26,02,,,,,,4.8,1.9,4.4*3E
$GPRMC,114331.000,A,3353.7538,N,09832.0222,W,0.09,331.93,300312,,,D*70
$GPGGA,114332.000,3353.7537,N,09832.0222,W,2,07,1.9,327.9,M,-23.7,M,0.8,0000*44
$GPGSA,A,3,29,15,05,12,25,26,02,,,,,,4.8,1.9,4.4*3E
$GPGSV,3,1,12,05,58,043,39,29,57,320,29,25,37,238,31,26,30,125,33*77
$GPGSV,3,2,12,02,29,071,29,12,21,195,27,15,17,168,34,21,17,280,23*73
$GPGSV,3,3,12,18,09,224,,10,03,044,19,30,01,325,,51,49,195,39*7C
$GPRMC,114332.000,A,3353.7537,N,09832.0222,W,0.07,328.84,300312,,,D*7C
$GPGGA,114333.000,3353.7537,N,09832.0221,W,2,07,1.9,328.1,M,-23.7,M,0.8,0000*41
$GPGSA,A,3,29,15,05,12,25,26,02,,,,,,4.8,1.9,4.4*3E
$GPRMC,114333.000,A,3353.7537,N,09832.0221,W,0.08,342.38,300312,,,D*7A
$GPGGA,114334.000,3353.7536,N,09832.0220,W,2,07,1.9,328.3,M,-23.7,M,0.8,0000*44
$GPGSA,A,3,29,15,05,12,25,26,02,,,,,,4.8,1.9,4.4*3E
$GPRMC,114334.000,A,3353.7536,N,09832.0220,W,0.04,27.06,300312,,,D*4C
$GPGGA,114335.000,3353.7535,N,09832.0219,W,2,07,1.9,328.5,M,-23.7,M,0.8,0000*4A
$GPGSA,A,3,29,15,05,12,25,26,02,,,,,,4.8,1.9,4.4*3E
$GPRMC,114335.000,A,3353.7535,N,09832.0219,W,0.03,72.19,300312,,,D*4D
$GPGGA,114336.000,3353.7534,N,09832.0218,W,2,07,1.9,328.7,M,-23.7,M,1.8,0000*4A
$GPGSA,A,3,29,15,05,12,25,26,02,,,,,,4.8,1.9,4.4*3E
$GPRMC,114336.000,A,3353.7534,N,09832.0218,W,0.02,56.50,300312,,,D*44
$GPGGA,114337.000,3353.7533,N,09832.0218,W,2,07,1.9,328.9,M,-23.7,M,0.8,0000*43
$GPGSA,A,3,29,15,05,12,25,26,02,,,,,,4.8,1.9,4.4*3E
$GPGSV,3,1,12,05,58,043,39,29,57,320,29,25,37,238,30,26,30,125,33*76
$GPGSV,3,2,12,02,29,071,29,12,21,195,28,15,17,168,35,21,17,280,23*7D
$GPGSV,3,3,12,18,09,224,,10,03,044,20,30,01,325,,51,49,195,39*76
$GPRMC,114337.000,A,3353.7533,N,09832.0218,W,0.00,28.14,300312,,,D*49
$GPGGA,114338.000,3353.7531,N,09832.0217,W,2,07,1.9,329.1,M,-23.7,M,1.8,0000*49
$GPGSA,A,3,29,15,05,12,25,26,02,,,,,,4.8,1.9,4.4*3E
$GPRMC,114338.000,A,3353.7531,N,09832.0217,W,0.02,129.66,300312,,,D*7C
$GPGGA,114339.000,3353.7530,N,09832.0217,W,2,07,1.9,329.3,M,-23.7,M,0.8,0000*4A
$GPGSA,A,3,29,15,05,12,25,26,02,,,,,,4.8,1.9,4.4*3E
$GPRMC,114339.000,A,3353.7530,N,09832.0217,W,0.04,237.35,300312,,,D*70
$GPGGA,114340.000,3353.7529,N,09832.0216,W,2,07,1.9,329.5,M,-23.7,M,0.8,0000*4B
$GPGSA,A,3,29,15,05,12,25,26,02,,,,,,4.8,1.9,4.4*3E
$GPRMC,114340.000,A,3353.7529,N,09832.0216,W,0.07,268.10,300312,,,D*79
$GPGGA,114341.000,3353.7528,N,09832.0216,W,2,07,1.9,329.7,M,-23.7,M,0.8,0000*49
$GPGSA,A,3,29,15,05,12,25,26,02,,,,,,4.8,1.9,4.4*3E
$GPRMC,114341.000,A,3353.7528,N,09832.0216,W,0.06,295.69,300312,,,D*74
$GPGGA,114342.000,3353.7528,N,09832.0216,W,2,07,1.9,330.0,M,-23.7,M,1.8,0000*44
$GPGSA,A,3,29,15,05,12,25,26,02,,,,,,4.8,1.9,4.4*3E
$GPGSV,3,1,12,05,58,043,39,29,57,320,29,25,37,238,30,26,30,125,32*77
$GPGSV,3,2,12,02,29,071,29,12,21,195,29,15,17,168,35,21,17,280,22*7D
$GPGSV,3,3,12,18,09,224,23,10,03,044,20,30,01,325,,51,49,195,39*77
$GPRMC,114342.000,A,3353.7528,N,09832.0216,W,0.07,292.43,300312,,,D*79
$GPGGA,114343.000,3353.7526,N,09832.0216,W,2,07,1.9,330.0,M,-23.7,M,2.8,0000*48
$GPGSA,A,3,29,15,05,12,25,26,02,,,,,,4.8,1.9,4.4*3E
$GPRMC,114343.000,A,3353.7526,N,09832.0216,W,0.08,279.81,300312,,,D*72
$GPGGA,114344.000,3353.7525,N,09832.0216,W,2,07,1.9,330.2,M,-23.7,M,3.8,0000*4F
$GPGSA,A,3,29,15,05,12,25,26,02,,,,,,4.8,1.9,4.4*3E
$GPRMC,114344.000,A,3353.7525,N,09832.0216,W,0.12,357.28,300312,,,D*73
$GPGGA,114345.000,3353.7529,N,09832.0218,W,2,07,1.9,329.5,M,-23.7,M,0.8,0000*40
$GPGSA,A,3,29,15,05,12,25,26,02,,,,,,4.8,1.9,4.4*3E
$GPRMC,114345.000,A,3353.7529,N,09832.0218,W,0.17,358.83,300312,,,D*7B
$GPGGA,114346.000,3353.7532,N,09832.0219,W,2,07,1.9,328.7,M,-23.7,M,0.8,0000*4B
$GPGSA,A,3,29,15,05,12,25,26,02,,,,,,4.8,1.9,4.4*3E
$GPRMC,114346.000,A,3353.7532,N,09832.0219,W,0.15,358.05,300312,,,D*7F
$GPGGA,114347.000,3353.7534,N,09832.0221,W,2,07,1.9,328.1,M,-23.7,M,0.8,0000*41
$GPGSA,A,3,29,15,05,12,25,26,02,,,,,,4.8,1.9,4.4*3E
$GPGSV,3,1,12,05,58,043,39,29,57,320,29,25,37,238,30,26,30,125,33*76
$GPGSV,3,2,12,02,29,071,22,12,21,195,30,15,17,168,35,21,17,280,22*7E
$GPGSV,3,3,12,18,09,224,22,10,03,044,21,30,01,325,,51,49,195,39*77
$GPRMC,114347.000,A,3353.7534,N,09832.0221,W,0.16,302.66,300312,,,D*7A
$GPGGA,114348.000,3353.7537,N,09832.0222,W,2,07,1.9,327.2,M,-23.7,M,1.8,0000*43
$GPGSA,A,3,29,15,05,12,25,26,02,,,,,,4.8,1.9,4.4*3E
$GPRMC,114348.000,A,3353.7537,N,09832.0222,W,0.17,350.45,300312,,,D*72
$GPGGA,114349.000,3353.7540,N,09832.0223,W,2,07,1.9,326.1,M,-23.7,M,2.8,0000*42
$GPGSA,A,3,29,15,05,12,25,26,02,,,,,,4.8,1.9,4.4*3E
$GPRMC,114349.000,A,3353.7540,N,09832.0223,W,0.22,8.47,300312,,,D*78
$GPGGA,114350.000,3353.7542,N,09832.0223,W,2,07,1.9,325.3,M,-23.7,M,3.8,0000*48
$GPGSA,A,3,29,15,05,12,25,26,02,,,,,,4.8,1.9,4.4*3E
$GPRMC,114350.000,A,3353.7542,N,09832.0223,W,0.23,326.41,300312,,,D*7A
$GPGGA,114351.000,3353.7545,N,09832.0225,W,2,07,1.9,324.4,M,-23.7,M,0.8,0000*4D
$GPGSA,A,3,29,15,05,12,25,26,02,,,,,,4.8,1.9,4.4*3E
$GPRMC,114351.000,A,3353.7545,N,09832.0225,W,0.28,308.90,300312,,,D*71
$GPGGA,114352.000,3353.7547,N,09832.0226,W,2,07,1.9,323.4,M,-23.7,M,0.8,0000*48
$GPGSA,A,3,29,15,05,12,25,26,02,,,,,,4.8,1.9,4.4*3E
$GPGSV,3,1,12,05,58,043,39,29,57,320,29,25,37,238,30,26,30,125,33*76
$GPGSV,3,2,12,02,29,071,22,12,21,195,30,15,17,168,35,21,17,280,22*7E
$GPGSV,3,3,12,18,09,224,22,10,03,044,21,30,01,325,,51,49,195,40*79
$GPRMC,114352.000,A,3353.7547,N,09832.0226,W,0.34,307.11,300312,,,D*78
$GPGGA,114353.000,3353.7551,N,09832.0227,W,2,07,1.9,321.7,M,-23.7,M,0.8,0000*4E
$GPGSA,A,3,29,15,05,12,25,26,02,,,,,,4.8,1.9,4.4*3E
$GPRMC,114353.000,A,3353.7551,N,09832.0227,W,0.35,353.72,300312,,,D*7A
$GPGGA,114354.000,3353.7554,N,09832.0228,W,2,07,1.9,320.3,M,-23.7,M,0.8,0000*46
$GPGSA,A,3,29,15,05,12,25,26,02,,,,,,4.8,1.9,4.4*3E
$GPRMC,114354.000,A,3353.7554,N,09832.0228,W,0.43,333.69,300312,,,D*7A
$GPGGA,114355.000,3353.7558,N,09832.0229,W,2,07,1.9,318.4,M,-23.7,M,1.8,0000*47
$GPGSA,A,3,29,15,05,12,25,26,02,,,,,,4.8,1.9,4.4*3E
$GPRMC,114355.000,A,3353.7558,N,09832.0229,W,0.46,350.97,300312,,,D*77
$GPGGA,114356.000,3353.7562,N,09832.0230,W,2,07,1.9,316.6,M,-23.7,M,2.8,0000*4A
$GPGSA,A,3,29,15,05,12,25,26,02,,,,,,4.8,1.9,4.4*3E
$GPRMC,114356.000,A,3353.7562,N,09832.0230,W,0.54,343.03,300312,,,D*79
$GPGGA,114357.000,3353.7566,N,09832.0231,W,2,07,1.9,315.0,M,-23.7,M,0.8,0000*49
$GPGSA,A,3,29,15,05,12,25,26,02,,,,,,4.8,1.9,4.4*3E
$GPGSV,3,1,12,05,58,043,39,29,57,320,29,25,37,238,30,26,30,125,33*76
$GPGSV,3,2,12,02,29,071,22,12,21,195,30,15,17,168,36,21,17,280,20*7F
$GPGSV,3,3,12,18,09,224,23,10,03,044,21,30,01,325,,51,49,195,39*76
$GPRMC,114357.000,A,3353.7566,N,09832.0231,W,0.57,339.32,300312,,,D*71
$GPGGA,114358.000,3353.7571,N,09832.0232,W,2,07,1.9,312.8,M,-23.7,M,0.8,0000*4C
$GPGSA,A,3,29,15,05,12,25,26,02,,,,,,4.8,1.9,4.4*3E
$GPRMC,114358.000,A,3353.7571,N,09832.0232,W,0.64,1.83,300312,,,D*79
$GPGGA,114359.000,3353.7574,N,09832.0232,W,2,07,1.9,311.0,M,-23.7,M,0.8,0000*43
$GPGSA,A,3,29,15,05,12,25,26,02,,,,,,4.8,1.9,4.4*3E
$GPRMC,114359.000,A,3353.7574,N,09832.0232,W,0.59,348.02,300312,,,D*74
$GPGGA,114400.000,3353.7578,N,09832.0232,W,2,07,1.9,309.2,M,-23.7,M,1.8,0000*4E
$GPGSA,A,3,29,15,05,12,25,26,02,,,,,,4.8,1.9,4.4*3E
$GPRMC,114400.000,A,3353.7578,N,09832.0232,W,0.66,344.05,300312,,,D*74
$GPGGA,114401.000,3353.7582,N,09832.0233,W,2,07,1.9,307.4,M,-23.7,M,2.8,0000*40
$GPGSA,A,3,29,15,05,12,25,26,02,,,,,,4.8,1.9,4.4*3E
$GPRMC,114401.000,A,3353.7582,N,09832.0233,W,0.67,344.33,300312,,,D*75
$GPGGA,114402.000,3353.7586,N,09832.0234,W,2,07,1.9,305.4,M,-23.7,M,3.8,0000*43
$GPGSA,A,3,29,15,05,12,25,26,02,,,,,,4.8,1.9,4.4*3E
$GPGSV,3,1,12,05,58,043,39,29,57,320,30,25,37,238,30,26,30,125,33*7E
$GPGSV,3,2,12,02,29,071,21,12,21,195,30,15,17,168,36,21,17,280,*7E
$GPGSV,3,3,12,18,09,224,23,10,03,044,20,30,01,325,,51,49,195,39*77
$GPRMC,114402.000,A,3353.7586,N,09832.0234,W,0.68,344.27,300312,,,D*7F
$GPGGA,114403.000,3353.7589,N,09832.0234,W,2,07,1.9,303.5,M,-23.7,M,0.8,0000*49
$GPGSA,A,3,29,15,05,12,25,26,02,,,,,,4.8,1.9,4.4*3E
$GPRMC,114403.000,A,3353.7589,N,09832.0234,W,0.70,339.10,300312,,,D*76
$GPGGA,114404.000,3353.7594,N,09832.0235,W,2,07,1.9,301.0,M,-23.7,M,0.8,0000*44
$GPGSA,A,3,29,15,05,12,25,26,02,,,,,,4.8,1.9,4.4*3E
$GPRMC,114404.000,A,3353.7594,N,09832.0235,W,0.79,344.73,300312,,,D*7A
$GPGGA,114405.000,3353.7599,N,09832.0236,W,2,07,1.9,298.9,M,-23.7,M,0.8,0000*43
$GPGSA,A,3,29,15,05,12,25,26,02,,,,,,4.8,1.9,4.4*3E
$GPRMC,114405.000,A,3353.7599,N,09832.0236,W,0.84,342.91,300312,,,D*7D
$GPGGA,114406.000,3353.7603,N,09832.0237,W,2,07,1.9,296.6,M,-23.7,M,1.8,0000*41
$GPGSA,A,3,29,15,05,12,25,26,02,,,,,,4.8,1.9,4.4*3E
$GPRMC,114406.000,A,3353.7603,N,09832.0237,W,0.87,343.48,300312,,,D*79
$GPGGA,114407.000,3353.7608,N,09832.0238,W,2,07,1.9,294.5,M,-23.7,M,2.8,0000*46
$GPGSA,A,3,29,15,05,12,25,26,02,,,,,,4.8,1.9,4.4*3E
$GPGSV,3,1,12,05,58,043,38,29,57,320,31,25,37,238,30,26,30,125,33*7E
$GPGSV,3,2,12,02,29,071,20,12,21,195,30,15,17,168,36,21,17,280,*7F
$GPGSV,3,3,12,18,09,224,23,10,03,044,20,30,01,325,,51,49,195,39*77
$GPRMC,114407.000,A,3353.7608,N,09832.0238,W,0.88,341.49,300312,,,D*70
$GPGGA,114408.000,3353.7612,N,09832.0239,W,2,07,1.9,292.2,M,-23.7,M,3.8,0000*43
$GPGSA,A,3,29,15,05,12,25,26,02,,,,,,4.8,1.9,4.4*3E
$GPRMC,114408.000,A,3353.7612,N,09832.0239,W,0.92,342.16,300312,,,D*77
$GPGGA,114409.000,3353.7617,N,09832.0239,W,2,07,1.9,289.9,M,-23.7,M,0.8,0000*45
$GPGSA,A,3,29,15,05,12,25,26,02,,,,,,4.8,1.9,4.4*3E
$GPRMC,114409.000,A,3353.7617,N,09832.0239,W,0.93,349.66,300312,,,D*7E
$GPGGA,114410.000,3353.7621,N,09832.0240,W,2,07,1.9,287.6,M,-23.7,M,0.8,0000*47
$GPGSA,A,3,29,15,05,12,25,26,02,,,,,,4.8,1.9,4.4*3E
$GPRMC,114410.000,A,3353.7621,N,09832.0240,W,0.93,349.05,300312,,,D*78
$GPGGA,114411.000,3353.7626,N,09832.0240,W,2,07,1.9,285.1,M,-23.7,M,0.8,0000*44
$GPGSA,A,3,29,15,05,12,25,26,02,,,,,,4.8,1.9,4.4*3E
$GPRMC,114411.000,A,3353.7626,N,09832.0240,W,0.95,349.72,300312,,,D*78
$GPGGA,114412.000,3353.7631,N,09832.0240,W,2,07,1.9,282.7,M,-23.7,M,0.8,0000*40
$GPGSA,A,3,29,15,05,12,25,26,02,,,,,,4.8,1.9,4.4*3E
$GPGSV,3,1,12,05,58,043,38,29,57,320,31,25,37,238,30,26,30,125,34*79
$GPGSV,3,2,12,02,29,071,19,12,21,195,29,15,17,168,37,21,17,280,*7C
$GPGSV,3,3,12,18,09,224,22,10,03,044,20,30,01,325,,51,49,195,39*76
$GPRMC,114412.000,A,3353.7631,N,09832.0240,W,0.96,349.72,300312,,,D*7E
$GPGGA,114413.000,3353.7635,N,09832.0241,W,2,07,1.9,280.4,M,-23.7,M,0.8,0000*45
$GPGSA,A,3,29,15,05,12,25,26,02,,,,,,4.8,1.9,4.4*3E
$GPRMC,114413.000,A,3353.7635,N,09832.0241,W,0.97,347.42,300312,,,D*76
$GPGGA,114414.000,3353.7640,N,09832.0241,W,2,07,1.9,277.6,M,-23.7,M,1.8,0000*4B
$GPGSA,A,3,29,15,05,12,25,26,02,,,,,,4.8,1.9,4.4*3E
$GPRMC,114414.000,A,3353.7640,N,09832.0241,W,1.03,353.93,300312,,,D*76
$GPGGA,114415.000,3353.7646,N,09832.0242,W,2,07,1.9,274.9,M,-23.7,M,0.8,0000*42
$GPGSA,A,3,29,15,05,12,25,26,02,,,,,,4.8,1.9,4.4*3E
$GPRMC,114415.000,A,3353.7646,N,09832.0242,W,1.05,350.16,300312,,,D*7A
$GPGGA,114416.000,3353.7651,N,09832.0243,W,2,07,1.9,272.3,M,-23.7,M,0.8,0000*4A
$GPGSA,A,3,29,15,05,12,25,26,02,,,,,,4.8,1.9,4.4*3E
$GPRMC,114416.000,A,3353.7651,N,09832.0243,W,1.09,346.07,300312,,,D*75
$GPGGA,114417.000,3353.7655,N,09832.0244,W,2,07,1.9,269.9,M,-23.7,M,0.8,0000*48
$GPGSA,A,3,29,15,05,12,25,26,02,,,,,,4.8,1.9,4.4*3E
$GPGSV,3,1,12,05,58,043,38,29,57,320,31,25,37,238,29,26,30,125,34*71
$GPGSV,3,2,12,02,29,071,19,12,21,195,29,15,17,168,37,21,17,280,*7C
$GPGSV,3,3,12,18,09,224,22,10,03,044,21,30,01,325,,51,49,195,39*77
$GPRMC,114417.000,A,3353.7655,N,09832.0244,W,1.12,345.48,300312,,,D*75
$GPGGA,114418.000,3353.7660,N,09832.0245,W,2,07,1.9,267.6,M,-23.7,M,0.8,0000*41
$GPGSA,A,3,29,15,05,12,25,26,02,,,,,,4.8,1.9,4.4*3E
$GPRMC,114418.000,A,3353.7660,N,09832.0245,W,1.15,345.03,300312,,,D*75
$GPGGA,114419.000,3353.7664,N,09832.0246,W,2,07,1.9,265.2,M,-23.7,M,1.8,0000*40
$GPGSA,A,3,29,15,05,12,25,26,02,,,,,,4.8,1.9,4.4*3E
$GPRMC,114419.000,A,3353.7664,N,09832.0246,W,1.13,346.54,300312,,,D*74
$GPGGA,114420.000,3353.7669,N,09832.0247,W,2,07,1.9,262.8,M,-23.7,M,2.8,0000*48
$GPGSA,A,3,29,15,05,12,25,26,02,,,,,,4.8,1.9,4.4*3E
$GPRMC,114420.000,A,3353.7669,N,09832.0247,W,1.16,345.77,300312,,,D*75
$GPGGA,114421.000,3353.7673,N,09832.0247,W,2,07,1.9,260.6,M,-23.7,M,0.8,0000*4C
$GPGSA,A,3,29,15,05,12,25,26,02,,,,,,4.8,1.9,4.4*3E
$GPRMC,114421.000,A,3353.7673,N,09832.0247,W,1.17,348.96,300312,,,D*7C
$GPGGA,114422.000,3353.7677,N,09832.0247,W,2,07,1.9,258.6,M,-23.7,M,0.8,0000*40
$GPGSA,A,3,29,15,05,12,25,26,02,,,,,,4.8,1.9,4.4*3E
$GPGSV,3,1,12,05,58,043,38,29,57,320,31,25,37,238,29,26,30,125,33*76
$GPGSV,3,2,12,02,29,071,20,12,21,195,29,15,17,168,37,21,17,280,*76
$GPGSV,3,3,12,18,09,224,21,10,03,044,21,30,01,325,,51,49,195,39*74
$GPRMC,114422.000,A,3353.7677,N,09832.0247,W,1.11,348.13,300312,,,D*70
$GPGGA,114423.000,3353.7681,N,09832.0248,W,2,07,1.9,256.6,M,-23.7,M,0.8,0000*49
$GPGSA,A,3,29,15,05,12,25,26,02,,,,,,4.8,1.9,4.4*3E
$GPRMC,114423.000,A,3353.7681,N,09832.0248,W,1.09,349.31,300312,,,D*7F
$GPGGA,114424.000,3353.7685,N,09832.0248,W,2,07,1.9,254.5,M,-23.7,M,1.8,0000*4A
$GPGSA,A,3,29,15,05,12,25,26,02,,,,,,4.8,1.9,4.4*3E
$GPRMC,114424.000,A,3353.7685,N,09832.0248,W,1.09,349.26,300312,,,D*7A
$GPGGA,114425.000,3353.7689,N,09832.0248,W,2,07,1.9,251.9,M,-23.7,M,2.8,0000*4D
$GPGSA,A,3,29,15,05,12,25,26,02,,,,,,4.8,1.9,4.4*3E
$GPRMC,114425.000,A,3353.7689,N,09832.0248,W,1.14,354.39,300312,,,D*79
$GPGGA,114426.000,3353.7693,N,09832.0249,W,2,07,1.9,249.9,M,-23.7,M,3.8,0000*4C
$GPGSA,A,3,29,15,05,12,25,26,02,,,,,,4.8,1.9,4.4*3E
$GPRMC,114426.000,A,3353.7693,N,09832.0249,W,1.12,347.27,300312,,,D*7B
$GPGGA,114427.000,3353.7697,N,09832.0249,W,2,07,1.9,247.9,M,-23.7,M,0.8,0000*44
$GPGSA,A,3,29,15,05,12,25,26,02,,,,,,4.8,1.9,4.4*3E
$GPGSV,3,1,12,05,58,043,38,29,57,320,31,25,37,238,29,26,30,125,27*73
$GPGSV,3,2,12,02,29,071,21,12,21,195,29,15,17,168,38,21,17,280,*78
$GPGSV,3,3,12,18,09,224,20,10,03,044,20,30,01,325,,51,49,195,39*74
$GPRMC,114427.000,A,3353.7697,N,09832.0249,W,1.09,345.02,300312,,,D*71
$GPGGA,114428.000,3353.7700,N,09832.0250,W,2,07,1.9,246.1,M,-23.7,M,0.8,0000*45
$GPGSA,A,3,29,15,05,12,25,26,02,,,,,,4.8,1.9,4.4*3E
$GPRMC,114428.000,A,3353.7700,N,09832.0250,W,1.13,343.76,300312,,,D*77
$GPGGA,114429.000,3353.7703,N,09832.0250,W,2,07,1.9,244.3,M,-23.7,M,0.8,0000*47
$GPGSA,A,3,29,15,05,12,25,26,02,,,,,,4.8,1.9,4.4*3E
$GPRMC,114429.000,A,3353.7703,N,09832.0250,W,1.11,345.82,300312,,,D*7A
$GPGGA,114430.000,3353.7706,N,09832.0250,W,2,07,1.9,242.6,M,-23.7,M,1.8,0000*48
$GPGSA,A,3,29,15,05,12,25,26,02,,,,,,4.8,1.9,4.4*3E
$GPRMC,114430.000,A,3353.7706,N,09832.0250,W,1.12,343.93,300312,,,D*72
$GPGGA,114431.000,3353.7710,N,09832.0251,W,2,07,1.9,240.8,M,-23.7,M,2.8,0000*40
$GPGSA,A,3,29,15,05,12,25,26,02,,,,,,4.8,1.9,4.4*3E
$GPRMC,114431.000,A,3353.7710,N,09832.0251,W,1.04,344.37,300312,,,D*7B
$GPGGA,114432.000,3353.7715,N,09832.0251,W,2,07,1.9,238.1,M,-23.7,M,0.8,0000*42
$GPGSA,A,3,29,15,05,12,25,26,02,,,,,,4.8,1.9,4.4*3E
$GPGSV,3,1,12,05,58,043,38,29,57,320,31,25,37,238,28,26,30,125,27*72
$GPGSV,3,2,12,02,29,071,22,12,21,195,29,15,17,168,38,21,17,280,*7B
$GPGSV,3,3,12,18,09,224,18,10,03,044,20,30,01,325,,51,49,195,39*7F
$GPRMC,114432.000,A,3353.7715,N,09832.0251,W,1.14,355.60,300312,,,D*7E
$GPGGA,114433.000,3353.7719,N,09832.0251,W,2,07,1.9,236.2,M,-23.7,M,0.8,0000*42
$GPGSA,A,3,29,15,05,12,25,26,02,,,,,,4.8,1.9,4.4*3E
$GPRMC,114433.000,A,3353.7719,N,09832.0251,W,1.10,348.51,300312,,,D*79
$GPGGA,114434.000,3353.7722,N,09832.0251,W,2,07,1.9,234.4,M,-23.7,M,0.8,0000*49
$GPGSA,A,3,29,15,05,12,25,26,02,,,,,,4.8,1.9,4.4*3E
$GPRMC,114434.000,A,3353.7722,N,09832.0251,W,1.08,347.95,300312,,,D*78
$GPGGA,114435.000,3353.7725,N,09832.0251,W,2,07,1.9,232.6,M,-23.7,M,0.8,0000*4B
$GPGSA,A,3,29,15,05,12,25,26,02,,,,,,4.8,1.9,4.4*3E
$GPRMC,114435.000,A,3353.7725,N,09832.0251,W,1.06,347.56,300312,,,D*7F
$GPGGA,114436.000,3353.7728,N,09832.0252,W,2,07,1.9,231.1,M,-23.7,M,1.8,0000*43
$GPGSA,A,3,29,15,05,12,25,26,02,,,,,,4.8,1.9,4.4*3E
$GPRMC,114436.000,A,3353.7728,N,09832.0252,W,1.03,342.62,300312,,,D*75
$GPGGA,114437.000,3353.7730,N,09832.0252,W,2,07,1.9,229.7,M,-23.7,M,2.8,0000*47
$GPGSA,A,3,29,15,05,12,25,26,02,,,,,,4.8,1.9,4.4*3E
$GPGSV,3,1,12,05,58,043,38,29,57,320,31,25,37,238,28,26,30,125,27*72
$GPGSV,3,2,12,02,29,071,24,12,21,195,29,15,17,168,38,21,17,280,*7D
$GPGSV,3,3,12,18,09,224,,10,03,044,21,30,01,325,,51,49,195,39*77
$GPRMC,114437.000,A,3353.7730,N,09832.0252,W,1.01,345.42,300312,,,D*7A
$GPGGA,114438.000,3353.7732,N,09832.0252,W,2,07,1.9,228.2,M,-23.7,M,3.8,0000*4F
$GPGSA,A,3,29,15,05,12,25,26,02,,,,,,4.8,1.9,4.4*3E
$GPRMC,114438.000,A,3353.7732,N,09832.0252,W,0.98,344.54,300312,,,D*70
$GPGGA,114439.000,3353.7735,N,09832.0252,W,2,07,1.9,226.8,M,-23.7,M,0.8,0000*4E
$GPGSA,A,3,29,15,05,12,25,26,02,,,,,,4.8,1.9,4.4*3E
$GPRMC,114439.000,A,3353.7735,N,09832.0252,W,0.97,341.85,300312,,,D*70
$GPGGA,114440.000,3353.7737,N,09832.0253,W,2,07,1.9,225.4,M,-23.7,M,0.8,0000*4C
$GPGSA,A,3,29,15,05,12,25,26,02,,,,,,4.8,1.9,4.4*3E
$GPRMC,114440.000,A,3353.7737,N,09832.0253,W,0.98,339.70,300312,,,D*77
$GPGGA,114441.000,3353.7740,N,09832.0254,W,2,07,1.9,224.0,M,-23.7,M,0.8,0000*4F
$GPGSA,A,3,29,15,05,12,25,26,02,,,,,,4.8,1.9,4.4*3E
$GPRMC,114441.000,A,3353.7740,N,09832.0254,W,1.02,340.20,300312,,,D*78
$GPGGA,114442.000,3353.7742,N,09832.0254,W,2,07,1.9,222.7,M,-23.7,M,0.8,0000*4F
$GPGSA,A,3,29,15,05,12,25,26,02,,,,,,4.8,1.9,4.4*3E
$GPGSV,3,1,12,05,58,043,38,29,57,320,30,25,37,238,27,26,30,125,27*7C
$GPGSV,3,2,12,02,29,071,25,12,21,195,29,15,17,168,38,21,17,280,*7C
$GPGSV,3,3,12,18,09,224,,10,03,044,21,30,01,325,,51,49,195,39*77
$GPRMC,114442.000,A,3353.7742,N,09832.0254,W,0.97,340.64,300312,,,D*74
$GPGGA,114443.000,3353.7745,N,09832.0255,W,2,07,1.9,221.4,M,-23.7,M,1.8,0000*49
$GPGSA,A,3,29,15,05,12,25,26,02,,,,,,4.8,1.9,4.4*3E
$GPRMC,114443.000,A,3353.7745,N,09832.0255,W,0.97,339.46,300312,,,D*7D
$GPGGA,114444.000,3353.7747,N,09832.0255,W,2,07,1.9,220.3,M,-23.7,M,0.8,0000*4B
$GPGSA,A,3,29,15,05,12,25,26,02,,,,,,4.8,1.9,4.4*3E
$GPRMC,114444.000,A,3353.7747,N,09832.0255,W,0.95,341.69,300312,,,D*78
$GPGGA,114445.000,3353.7749,N,09832.0255,W,2,07,1.9,219.1,M,-23.7,M,0.8,0000*4C
$GPGSA,A,3,29,15,05,12,25,26,02,,,,,,4.8,1.9,4.4*3E
$GPRMC,114445.000,A,3353.7749,N,09832.0255,W,0.88,342.96,300312,,,D*78
$GPGGA,114446.000,3353.7751,N,09832.0255,W,2,07,1.9,218.0,M,-23.7,M,0.8,0000*46
$GPGSA,A,3,29,15,05,12,25,26,02,,,,,,4.8,1.9,4.4*3E
$GPRMC,114446.000,A,3353.7751,N,09832.0255,W,0.82,345.03,300312,,,D*73
$GPGGA,114447.000,3353.7746,N,09832.0255,W,2,07,1.9,220.3,M,-23.7,M,0.8,0000*49
$GPGSA,A,3,29,15,05,12,25,26,02,,,,,,4.8,1.9,4.4*3E
$GPGSV,3,1,12,05,58,043,38,29,57,320,30,25,37,238,27,26,30,125,27*7C
$GPGSV,3,2,12,02,29,071,27,12,21,195,28,15,17,168,38,21,17,280,*7F
$GPGSV,3,3,12,18,09,224,19,10,03,044,21,30,01,325,,51,49,195,39*7F
$GPRMC,114447.000,A,3353.7746,N,09832.0255,W,0.73,341.65,300312,,,D*7E
$GPGGA,114448.000,3353.7748,N,09832.0255,W,2,07,1.9,219.3,M,-23.7,M,1.8,0000*43
$GPGSA,A,3,29,15,05,12,25,26,02,,,,,,4.8,1.9,4.4*3E
$GPRMC,114448.000,A,3353.7748,N,09832.0255,W,0.68,343.65,300312,,,D*77
$GPGGA,114449.000,3353.7736,N,09832.0259,W,2,07,1.9,224.4,M,-23.7,M,2.8,0000*4D
$GPGSA,A,3,29,15,05,12,25,26,02,,,,,,4.8,1.9,4.4*3E
$GPRMC,114449.000,A,3353.7736,N,09832.0259,W,0.64,330.38,300312,,,D*73
$GPGGA,114450.000,3353.7731,N,09832.0264,W,2,07,1.9,226.1,M,-23.7,M,3.8,0000*4A
$GPGSA,A,3,29,15,05,12,25,26,02,,,,,,4.8,1.9,4.4*3E
$GPRMC,114450.000,A,3353.7731,N,09832.0264,W,0.60,329.38,300312,,,D*7E
$GPGGA,114451.000,3353.7719,N,09832.0267,W,2,07,1.9,231.5,M,-23.7,M,0.8,0000*43
$GPGSA,A,3,29,15,05,12,25,26,02,,,,,,4.8,1.9,4.4*3E
$GPRMC,114451.000,A,3353.7719,N,09832.0267,W,0.51,328.73,300312,,,D*7A
$GPGGA,114452.000,3353.7716,N,09832.0271,W,2,07,1.9,232.9,M,-23.7,M,0.8,0000*47
$GPGSA,A,3,29,15,05,12,25,26,02,,,,,,4.8,1.9,4.4*3E
$GPGSV,3,1,12,05,58,043,38,29,57,320,29,25,37,238,26,26,30,125,26*74
$GPGSV,3,2,12,02,29,071,28,12,21,195,28,15,17,168,38,21,17,280,*70
$GPGSV,3,3,12,18,09,224,19,10,03,044,21,30,01,325,,51,49,195,39*7F
$GPRMC,114452.000,A,3353.7716,N,09832.0271,W,0.55,320.81,300312,,,D*70
$GPGGA,114453.000,3353.7707,N,09832.0271,W,2,07,1.9,237.2,M,-23.7,M,0.8,0000*48
$GPGSA,A,3,29,15,05,12,25,26,02,,,,,,4.8,1.9,4.4*3E
$GPRMC,114453.000,A,3353.7707,N,09832.0271,W,0.47,333.06,300312,,,D*7F
$GPGGA,114454.000,3353.7701,N,09832.0276,W,0,06,,239.9,M,-23.7,M,,0000*48
$GPGSA,A,1,29,15,05,12,25,26,,,,,,,,,*14
$GPRMC,114454.000,V,3353.7701,N,09832.0276,W,,,300312,,,N*62
$GPGGA,114455.000,3353.7695,N,09832.0281,W,0,06,,242.5,M,-23.7,M,,0000*4D
$GPGSA,A,1,29,15,05,12,25,26,,,,,,,,,*14
$GPRMC,114455.000,V,3353.7695,N,09832.0281,W,,,300312,,,N*67
$GPGGA,114456.000,3353.7683,N,09832.0280,W,2,07,1.9,248.3,M,-23.7,M,3.8,0000*44
$GPGSA,A,3,29,15,05,12,25,26,02,,,,,,4.8,1.9,4.4*3E
$GPRMC,114456.000,A,3353.7683,N,09832.0280,W,0.32,7.45,300312,,,D*78
$GPGGA,114457.000,3353.7647,N,09832.0277,W,2,07,1.9,266.2,M,-23.7,M,0.8,0000*4B
$GPGSA,A,3,29,15,05,12,25,26,02,,,,,,4.8,1.9,4.4*3E
$GPGSV,3,1,12,05,58,043,38,29,57,320,28,25,37,238,26,26,30,125,26*75
$GPGSV,3,2,12,02,29,071,31,12,21,195,27,15,17,168,38,21,17,280,*77
$GPGSV,3,3,12,18,09,224,19,10,03,044,21,30,01,325,,51,49,195,39*7F
$GPRMC,114457.000,A,3353.7647,N,09832.0277,W,0.18,151.82,300312,,,D*78
$GPGGA,114458.000,3353.7624,N,09832.0275,W,2,07,1.9,276.9,M,-23.7,M,0.8,0000*49
$GPGSA,A,3,29,15,05,12,25,26,02,,,,,,4.8,1.9,4.4*3E
$GPRMC,114458.000,A,3353.7624,N,09832.0275,W,0.34,160.16,300312,,,D*71
$GPGGA,114459.000,3353.7612,N,09832.0274,W,2,07,1.9,282.9,M,-23.7,M,0.8,0000*47
$GPGSA,A,3,29,15,05,12,25,26,02,,,,,,4.8,1.9,4.4*3E
$GPRMC,114459.000,A,3353.7612,N,09832.0274,W,0.48,165.42,300312,,,D*7B
$GPGGA,114500.000,3353.7600,N,09832.0273,W,2,07,1.9,289.0,M,-23.7,M,0.8,0000*4C
$GPGSA,A,3,29,15,05,12,25,26,02,,,,,,4.8,1.9,4.4*3E
$GPRMC,114500.000,A,3353.7600,N,09832.0273,W,0.55,159.75,300312,,,D*75
$GPGGA,114501.000,3353.7591,N,09832.0274,W,2,07,1.9,292.5,M,-23.7,M,1.8,0000*4F
$GPGSA,A,3,29,15,05,12,25,26,02,,,,,,4.8,1.9,4.4*3E
$GPRMC,114501.000,A,3353.7591,N,09832.0274,W,0.60,163.28,300312,,,D*7F
$GPGGA,114502.000,3353.7578,N,09832.0275,W,2,07,1.9,297.7,M,-23.7,M,2.8,0000*4E
$GPGSA,A,3,29,15,05,12,25,26,02,,,,,,4.8,1.9,4.4*3E
$GPGSV,3,1,12,05,58,043,38,29,57,320,28,25,37,238,25,26,30,125,26*76
$GPGSV,3,2,12,02,29,071,31,12,21,195,26,15,17,168,38,21,17,280,*76
$GPGSV,3,3,12,18,09,224,19,10,03,044,21,30,01,325,,51,49,195,39*7F
$GPRMC,114502.000,A,3353.7578,N,09832.0275,W,0.65,168.19,300312,,,D*76
$GPGGA,114503.000,3353.7572,N,09832.0275,W,2,07,1.9,300.6,M,-23.7,M,0.8,0000*49
$GPGSA,A,3,29,15,05,12,25,26,02,,,,,,4.8,1.9,4.4*3E
$GPRMC,114503.000,A,3353.7572,N,09832.0275,W,0.60,163.26,300312,,,D*7F
$GPGGA,114504.000,3353.7568,N,09832.0276,W,2,07,1.9,302.8,M,-23.7,M,0.8,0000*4A
$GPGSA,A,3,29,15,05,12,25,26,02,,,,,,4.8,1.9,4.4*3E
$GPRMC,114504.000,A,3353.7568,N,09832.0276,W,0.56,171.48,300312,,,D*7E
$GPGGA,114505.000,3353.7565,N,09832.0277,W,2,07,1.9,303.4,M,-23.7,M,0.8,0000*4A
$GPGSA,A,3,29,15,05,12,25,26,02,,,,,,4.8,1.9,4.4*3E
$GPRMC,114505.000,A,3353.7565,N,09832.0277,W,0.50,166.59,300312,,,D*73
$GPGGA,114506.000,3353.7557,N,09832.0274,W,2,07,1.9,306.7,M,-23.7,M,1.8,0000*4C
$GPGSA,A,3,29,15,05,12,25,26,02,,,,,,4.8,1.9,4.4*3E
$GPRMC,114506.000,A,3353.7557,N,09832.0274,W,0.64,172.48,300312,,,D*70
$GPGGA,114507.000,3353.7548,N,09832.0270,W,2,07,1.9,310.3,M,-23.7,M,2.8,0000*47
$GPGSA,A,3,29,15,05,12,25,26,02,,,,,,4.8,1.9,4.4*3E
$GPGSV,3,1,12,29,57,320,28,05,57,043,38,25,36,237,26,26,31,124,25*77
$GPGSV,3,2,12,02,28,072,31,12,20,194,21,15,18,167,38,21,17,281,*72
$GPGSV,3,3,12,18,10,225,,10,02,044,20,30,01,325,,51,49,195,39*7E
$GPRMC,114507.000,A,3353.7548,N,09832.0270,W,0.69,154.19,300312,,,D*76
$GPGGA,114508.000,3353.7539,N,09832.0267,W,2,07,1.9,314.3,M,-23.7,M,3.8,0000*4D
$GPGSA,A,3,29,15,05,12,25,26,02,,,,,,4.8,1.9,4.4*3E
$GPRMC,114508.000,A,3353.7539,N,09832.0267,W,0.79,160.52,300312,,,D*70
$GPGGA,114509.000,3353.7530,N,09832.0264,W,2,07,1.9,317.9,M,-23.7,M,0.8,0000*4C
$GPGSA,A,3,29,15,05,12,25,26,02,,,,,,4.8,1.9,4.4*3E
$GPRMC,114509.000,A,3353.7530,N,09832.0264,W,0.89,158.98,300312,,,D*79
$GPGGA,114510.000,3353.7523,N,09832.0261,W,2,07,1.9,321.1,M,-23.7,M,0.8,0000*4E
$GPGSA,A,3,29,15,05,12,25,26,02,,,,,,4.8,1.9,4.4*3E
$GPRMC,114510.000,A,3353.7523,N,09832.0261,W,0.95,149.41,300312,,,D*7F
$GPGGA,114511.000,3353.7516,N,09832.0259,W,2,07,1.9,323.9,M,-23.7,M,0.8,0000*48
$GPGSA,A,3,29,15,05,12,25,26,02,,,,,,4.8,1.9,4.4*3E
$GPRMC,114511.000,A,3353.7516,N,09832.0259,W,1.03,158.01,300312,,,D*79
$GPGGA,114512.000,3353.7510,N,09832.0257,W,2,07,1.9,326.5,M,-23.7,M,1.8,0000*4B
$GPGSA,A,3,29,15,05,12,25,26,02,,,,,,4.8,1.9,4.4*3E
$GPGSV,3,1,12,29,57,320,28,05,57,043,38,25,36,237,26,26,31,124,25*77
$GPGSV,3,2,12,02,28,072,32,12,20,194,20,15,18,167,38,21,17,281,21*73
$GPGSV,3,3,12,18,10,225,,10,02,044,20,30,01,325,,51,49,195,39*7E
$GPRMC,114512.000,A,3353.7510,N,09832.0257,W,1.02,160.16,300312,,,D*7E
$GPGGA,114513.000,3353.7504,N,09832.0256,W,2,07,1.9,328.7,M,-23.7,M,0.8,0000*43
$GPGSA,A,3,29,15,05,12,25,26,02,,,,,,4.8,1.9,4.4*3E
$GPRMC,114513.000,A,3353.7504,N,09832.0256,W,1.03,161.22,300312,,,D*7C
$GPGGA,114514.000,3353.7499,N,09832.0254,W,2,07,1.9,330.7,M,-23.7,M,1.8,0000*4B
$GPGSA,A,3,29,15,05,12,25,26,02,,,,,,4.8,1.9,4.4*3E
$GPRMC,114514.000,A,3353.7499,N,09832.0254,W,1.04,158.72,300312,,,D*74
$GPGGA,114515.000,3353.7495,N,09832.0253,W,2,07,1.9,332.4,M,-23.7,M,0.8,0000*41
$GPGSA,A,3,29,15,05,12,25,26,02,,,,,,4.8,1.9,4.4*3E
$GPRMC,114515.000,A,3353.7495,N,09832.0253,W,0.94,158.18,300312,,,D*7A
$GPGGA,114516.000,3353.7492,N,09832.0252,W,2,07,1.9,333.7,M,-23.7,M,0.8,0000*46
$GPGSA,A,3,29,15,05,12,25,26,02,,,,,,4.8,1.9,4.4*3E
$GPRMC,114516.000,A,3353.7492,N,09832.0252,W,0.84,154.38,300312,,,D*70
$GPGGA,114517.000,3353.7489,N,09832.0252,W,2,07,1.9,334.8,M,-23.7,M,0.8,0000*45
$GPGSA,A,3,29,15,05,12,25,26,02,,,,,,4.8,1.9,4.4*3E
$GPGSV,3,1,12,29,57,320,28,05,57,043,37,25,36,237,26,26,31,124,25*78
$GPGSV,3,2,12,02,28,072,32,12,20,194,20,15,18,167,38,21,17,281,21*73
$GPGSV,3,3,12,18,10,225,,10,02,044,20,30,01,325,,51,49,195,39*7E
$GPRMC,114517.000,A,3353.7489,N,09832.0252,W,0.81,159.52,300312,,,D*7F
$GPGGA,114518.000,3353.7487,N,09832.0251,W,2,07,1.9,335.7,M,-23.7,M,0.8,0000*49
$GPGSA,A,3,29,15,05,12,25,26,02,,,,,,4.8,1.9,4.4*3E
$GPRMC,114518.000,A,3353.7487,N,09832.0251,W,0.75,161.08,300312,,,D*72
$GPGGA,114519.000,3353.7486,N,09832.0251,W,2,07,1.9,336.5,M,-23.7,M,1.8,0000*49
$GPGSA,A,3,29,15,05,12,25,26,02,,,,,,4.8,1.9,4.4*3E
$GPRMC,114519.000,A,3353.7486,N,09832.0251,W,0.72,161.15,300312,,,D*79
$GPGGA,114520.000,3353.7484,N,09832.0251,W,2,07,1.9,337.0,M,-23.7,M,0.8,0000*44
$GPGSA,A,3,29,15,05,12,25,26,02,,,,,,4.8,1.9,4.4*3E
$GPRMC,114520.000,A,3353.7484,N,09832.0251,W,0.67,161.09,300312,,,D*78
$GPGGA,114521.000,3353.7483,N,09832.0251,W,2,07,1.9,337.5,M,-23.7,M,0.8,0000*47
$GPGSA,A,3,29,15,05,12,25,26,02,,,,,,4.8,1.9,4.4*3E
$GPRMC,114521.000,A,3353.7483,N,09832.0251,W,0.69,158.79,300312,,,D*7D
$GPGGA,114522.000,3353.7482,N,09832.0250,W,2,07,1.9,338.0,M,-23.7,M,0.8,0000*4E
$GPGSA,A,3,29,15,05,12,25,26,02,,,,,,4.8,1.9,4.4*3E
$GPGSV,3,1,12,29,57,320,29,05,57,043,37,25,36,237,27,26,31,124,26*7B
$GPGSV,3,2,12,02,28,072,32,12,20,194,20,15,18,167,38,21,17,281,21*73
$GPGSV,3,3,12,18,10,225,,10,02,044,20,30,01,325,,51,49,195,39*7E
$GPRMC,114522.000,A,3353.7482,N,09832.0250,W,0.68,143.94,300312,,,D*76
$GPGGA,114523.000,3353.7481,N,09832.0250,W,2,07,1.9,338.4,M,-23.7,M,0.8,0000*48
$GPGSA,A,3,29,15,05,12,25,26,02,,,,,,4.8,1.9,4.4*3E
$GPRMC,114523.000,A,3353.7481,N,09832.0250,W,0.65,146.08,300312,,,D*79
$GPGGA,114524.000,3353.7480,N,09832.0249,W,2,07,1.9,338.7,M,-23.7,M,1.8,0000*44
$GPGSA,A,3,29,15,05,12,25,26,02,,,,,,4.8,1.9,4.4*3E
$GPRMC,114524.000,A,3353.7480,N,09832.0249,W,0.63,144.27,300312,,,D*7E
$GPGGA,114525.000,3353.7480,N,09832.0249,W,2,07,1.9,338.9,M,-23.7,M,2.8,0000*48
$GPGSA,A,3,29,15,05,12,25,26,02,,,,,,4.8,1.9,4.4*3E
$GPRMC,114525.000,A,3353.7480,N,09832.0249,W,0.56,151.09,300312,,,D*71
$GPGGA,114526.000,3353.7479,N,09832.0249,W,2,07,1.9,338.9,M,-23.7,M,3.8,0000*4C
$GPGSA,A,3,29,15,05,12,25,26,02,,,,,,4.8,1.9,4.4*3E
$GPRMC,114526.000,A,3353.7479,N,09832.0249,W,0.53,165.67,300312,,,D*7E
$GPGGA,114527.000,3353.7480,N,09832.0250,W,2,07,1.9,338.8,M,-23.7,M,0.8,0000*41
$GPGSA,A,3,29,15,05,12,25,26,02,,,,,,4.8,1.9,4.4*3E
$GPGSV,3,1,12,29,57,320,29,05,57,043,37,25,36,237,28,26,31,124,28*7A
$GPGSV,3,2,12,02,28,072,33,12,20,194,20,15,18,167,39,21,17,281,20*72
$GPGSV,3,3,12,18,10,225,,10,02,044,20,30,01,325,,51,49,195,39*7E
$GPRMC,114527.000,A,3353.7480,N,09832.0250,W,0.38,168.72,300312,,,D*75
$GPGGA,114528.000,3353.7480,N,09832.0251,W,2,07,1.9,338.5,M,-23.7,M,0.8,0000*42
$GPGSA,A,3,29,15,05,12,25,26,02,,,,,,4.8,1.9,4.4*3E
$GPRMC,114528.000,A,3353.7480,N,09832.0251,W,0.27,154.14,300312,,,D*7A
$GPGGA,114529.000,3353.7481,N,09832.0252,W,2,07,1.9,338.2,M,-23.7,M,0.8,0000*46
$GPGSA,A,3,29,15,05,12,25,26,02,,,,,,4.8,1.9,4.4*3E
$GPRMC,114529.000,A,3353.7481,N,09832.0252,W,0.20,134.17,300312,,,D*7B
$GPGGA,114530.000,3353.7483,N,09832.0253,W,2,07,1.9,337.8,M,-23.7,M,1.8,0000*49
$GPGSA,A,3,29,15,05,12,25,26,02,,,,,,4.8,1.9,4.4*3E
$GPRMC,114530.000,A,3353.7483,N,09832.0253,W,0.16,180.47,300312,,,D*7F
$GPGGA,114531.000,3353.7484,N,09832.0255,W,2,07,1.9,337.2,M,-23.7,M,2.8,0000*40
$GPGSA,A,3,29,15,05,12,25,26,02,,,,,,4.8,1.9,4.4*3E
$GPRMC,114531.000,A,3353.7484,N,09832.0255,W,0.13,204.70,300312,,,D*71
$GPGGA,114532.000,3353.7486,N,09832.0256,W,2,06,2.0,336.7,M,-23.7,M,0.8,0000*4F
$GPGSA,A,3,29,15,05,12,26,02,,,,,,,4.9,2.0,4.4*32
$GPGSV,3,1,12,29,57,320,29,05,57,043,37,25,36,237,,26,31,124,30*79
$GPGSV,3,2,12,02,28,072,33,12,20,194,20,15,18,167,39,21,17,281,20*72
$GPGSV,3,3,12,18,10,225,,10,02,044,19,30,01,325,,51,49,195,39*74
$GPRMC,114532.000,A,3353.7486,N,09832.0256,W,0.08,196.80,300312,,,D*7E
$GPGGA,114533.000,3353.7487,N,09832.0257,W,2,06,2.0,336.2,M,-23.7,M,0.8,0000*4B
$GPGSA,A,3,29,15,05,12,26,02,,,,,,,4.9,2.0,4.4*32
$GPRMC,114533.000,A,3353.7487,N,09832.0257,W,0.17,94.72,300312,,,D*4F
$GPGGA,114534.000,3353.7488,N,09832.0257,W,2,07,1.9,335.6,M,-23.7,M,0.8,0000*4F
$GPGSA,A,3,29,15,05,12,25,26,02,,,,,,4.8,1.9,4.4*3E
$GPRMC,114534.000,A,3353.7488,N,09832.0257,W,0.17,93.66,300312,,,D*45
$GPGGA,114535.000,3353.7489,N,09832.0257,W,2,07,1.9,335.2,M,-23.7,M,0.8,0000*4B
$GPGSA,A,3,29,15,05,12,25,26,02,,,,,,4.8,1.9,4.4*3E
$GPRMC,114535.000,A,3353.7489,N,09832.0257,W,0.12,108.81,300312,,,D*7A
$GPGGA,114536.000,3353.7490,N,09832.0256,W,2,07,1.9,334.8,M,-23.7,M,1.8,0000*4B
$GPGSA,A,3,29,15,05,12,25,26,02,,,,,,4.8,1.9,4.4*3E
$GPRMC,114536.000,A,3353.7490,N,09832.0256,W,0.08,193.33,300312,,,D*70
$GPGGA,114537.000,3353.7491,N,09832.0254,W,2,07,1.9,334.4,M,-23.7,M,2.8,0000*46
$GPGSA,A,3,29,15,05,12,25,26,02,,,,,,4.8,1.9,4.4*3E
$GPGSV,3,1,12,29,57,320,29,05,57,043,37,25,36,237,30,26,31,124,30*7A
$GPGSV,3,2,12,02,28,072,33,12,20,194,21,15,18,167,39,21,17,281,20*73
$GPGSV,3,3,12,18,10,225,,10,02,044,19,30,01,325,,51,49,195,39*74
$GPRMC,114537.000,A,3353.7491,N,09832.0254,W,0.03,120.24,300312,,,D*77
$GPGGA,114538.000,3353.7492,N,09832.0255,W,2,07,1.9,333.8,M,-23.7,M,0.8,0000*42
$GPGSA,A,3,29,15,05,12,25,26,02,,,,,,4.8,1.9,4.4*3E
$GPRMC,114538.000,A,3353.7492,N,09832.0255,W,0.03,281.83,300312,,,D*7F
$GPGGA,114539.000,3353.7493,N,09832.0257,W,2,07,1.9,333.0,M,-23.7,M,0.8,0000*48
$GPGSA,A,3,29,15,05,12,25,26,02,,,,,,4.8,1.9,4.4*3E
$GPRMC,114539.000,A,3353.7493,N,09832.0257,W,0.14,320.17,300312,,,D*7C
$GPGGA,114540.000,3353.7495,N,09832.0259,W,2,07,1.9,332.3,M,-23.7,M,0.8,0000*4C
$GPGSA,A,3,29,15,05,12,25,26,02,,,,,,4.8,1.9,4.4*3E
$GPRMC,114540.000,A,3353.7495,N,09832.0259,W,0.24,306.18,300312,,,D*72
$GPGGA,114541.000,3353.7497,N,09832.0260,W,2,07,1.9,331.6,M,-23.7,M,0.8,0000*43
$GPGSA,A,3,29,15,05,12,25,26,02,,,,,,4.8,1.9,4.4*3E
$GPRMC,114541.000,A,3353.7497,N,09832.0260,W,0.25,324.87,300312,,,D*7C
$GPGGA,114542.000,3353.7499,N,09832.0262,W,2,07,1.9,330.9,M,-23.7,M,1.8,0000*43
$GPGSA,A,3,29,15,05,12,25,26,02,,,,,,4.8,1.9,4.4*3E
$GPGSV,3,1,12,29,57,320,30,05,57,043,36,25,36,237,30,26,31,124,31*72
$GPGSV,3,2,12,02,28,072,33,12,20,194,23,15,18,167,39,21,17,281,19*7B
$GPGSV,3,3,12,18,10,225,,10,02,044,19,30,01,325,,51,49,195,39*74
$GPRMC,114542.000,A,3353.7499,N,09832.0262,W,0.30,342.06,300312,,,D*7E
$GPGGA,114543.000,3353.7501,N,09832.0263,W,2,07,1.9,330.1,M,-23.7,M,2.8,0000*48
$GPGSA,A,3,29,15,05,12,25,26,02,,,,,,4.8,1.9,4.4*3E
$GPRMC,114543.000,A,3353.7501,N,09832.0263,W,0.30,340.26,300312,,,D*7E
$GPGGA,114544.000,3353.7503,N,09832.0264,W,2,07,1.9,329.4,M,-23.7,M,3.8,0000*46
$GPGSA,A,3,29,15,05,12,25,26,02,,,,,,4.8,1.9,4.4*3E
$GPRMC,114544.000,A,3353.7503,N,09832.0264,W,0.34,325.38,300312,,,D*74
$GPGGA,114545.000,3353.7504,N,09832.0265,W,2,07,1.9,328.7,M,-23.7,M,0.8,0000*40
$GPGSA,A,3,29,15,05,12,25,26,02,,,,,,4.8,1.9,4.4*3E
$GPRMC,114545.000,A,3353.7504,N,09832.0265,W,0.25,332.34,300312,,,D*79
$GPGGA,114546.000,3353.7505,N,09832.0266,W,2,07,1.9,328.2,M,-23.7,M,0.8,0000*44
$GPGSA,A,3,29,15,05,12,25,26,02,,,,,,4.8,1.9,4.4*3E
$GPRMC,114546.000,A,3353.7505,N,09832.0266,W,0.23,333.42,300312,,,D*7E
$GPGGA,114547.000,3353.7506,N,09832.0267,W,2,07,1.9,327.7,M,-23.7,M,0.8,0000*4D
$GPGSA,A,3,29,15,05,12,25,26,02,,,,,,4.8,1.9,4.4*3E
$GPGSV,3,1,12,29,57,320,30,05,57,043,36,25,36,237,30,26,31,124,31*72
$GPGSV,3,2,12,02,28,072,33,12,20,194,24,15,18,167,39,21,17,281,19*7C
$GPGSV,3,3,12,18,10,225,,10,02,044,19,30,01,325,,51,49,195,39*74
$GPRMC,114547.000,A,3353.7506,N,09832.0267,W,0.20,338.48,300312,,,D*7F
$GPGGA,114548.000,3353.7507,N,09832.0267,W,2,07,1.9,327.3,M,-23.7,M,0.8,0000*47
$GPGSA,A,3,29,15,05,12,25,26,02,,,,,,4.8,1.9,4.4*3E
$GPRMC,114548.000,A,3353.7507,N,09832.0267,W,0.24,338.89,300312,,,D*78
$GPGGA,114549.000,3353.7507,N,09832.0267,W,2,07,1.9,326.9,M,-23.7,M,1.8,0000*4C
$GPGSA,A,3,29,15,05,12,25,26,02,,,,,,4.8,1.9,4.4*3E
$GPRMC,114549.000,A,3353.7507,N,09832.0267,W,0.20,339.07,300312,,,D*7A
$GPGGA,114550.000,3353.7508,N,09832.0268,W,2,07,1.9,326.6,M,-23.7,M,2.8,0000*48
$GPGSA,A,3,29,15,05,12,25,26,02,,,,,,4.8,1.9,4.4*3E
$GPRMC,114550.000,A,3353.7508,N,09832.0268,W,0.22,336.12,300312,,,D*7B
$GPGGA,114551.000,3353.7508,N,09832.0268,W,2,07,1.9,326.3,M,-23.7,M,0.8,0000*4E
$GPGSA,A,3,29,15,05,12,25,26,02,,,,,,4.8,1.9,4.4*3E
$GPRMC,114551.000,A,3353.7508,N,09832.0268,W,0.28,330.38,300312,,,D*7E
$GPGGA,114552.000,3353.7509,N,09832.0269,W,2,07,1.9,325.9,M,-23.7,M,0.8,0000*44
$GPGSA,A,3,29,15,05,12,25,26,02,,,,,,4.8,1.9,4.4*3E
$GPGSV,3,1,12,29,58,320,30,05,57,043,36,25,36,237,30,26,31,123,30*7B
$GPGSV,3,2,12,02,28,072,34,12,20,194,25,15,18,167,39,21,18,281,17*7B
$GPGSV,3,3,12,18,10,225,,10,02,044,19,30,02,325,,51,49,195,39*77
$GPRMC,114552.000,A,3353.7509,N,09832.0269,W,0.32,325.76,300312,,,D*78
$GPGGA,114553.000,3353.7510,N,09832.0270,W,2,07,1.9,325.6,M,-23.7,M,0.8,0000*4A
$GPGSA,A,3,29,15,05,12,25,26,02,,,,,,4.8,1.9,4.4*3E
$GPRMC,114553.000,A,3353.7510,N,09832.0270,W,0.35,332.16,300312,,,D*7E
$GPGGA,114554.000,3353.7511,N,09832.0270,W,2,07,1.9,325.3,M,-23.7,M,1.8,0000*48
$GPGSA,A,3,29,15,05,12,25,26,02,,,,,,4.8,1.9,4.4*3E
$GPRMC,114554.000,A,3353.7511,N,09832.0270,W,0.35,334.14,300312,,,D*7C
$GPGGA,114555.000,3353.7512,N,09832.0271,W,2,07,1.9,325.0,M,-23.7,M,2.8,0000*4B
$GPGSA,A,3,29,15,05,12,25,26,02,,,,,,4.8,1.9,4.4*3E
$GPRMC,114555.000,A,3353.7512,N,09832.0271,W,0.32,336.38,300312,,,D*74
$GPGGA,114556.000,3353.7512,N,09832.0271,W,2,07,1.9,324.7,M,-23.7,M,0.8,0000*4C
$GPGSA,A,3,29,15,05,12,25,26,02,,,,,,4.8,1.9,4.4*3E
$GPRMC,114556.000,A,3353.7512,N,09832.0271,W,0.35,332.27,300312,,,D*7A
$GPGGA,114557.000,3353.7513,N,09832.0271,W,2,07,1.9,324.6,M,-23.7,M,0.8,0000*4D
$GPGSA,A,3,29,15,05,12,25,26,02,,,,,,4.8,1.9,4.4*3E
$GPGSV,3,1,12,29,58,320,31,05,57,043,36,25,36,237,30,26,31,123,30*7A
$GPGSV,3,2,12,02,28,072,34,12,20,194,26,15,18,167,39,21,18,281,17*78
$GPGSV,3,3,12,18,10,225,,10,02,044,18,30,02,325,,51,49,195,39*76
$GPRMC,114557.000,A,3353.7513,N,09832.0271,W,0.24,342.19,300312,,,D*70
$GPGGA,114558.000,3353.7513,N,09832.0271,W,2,07,1.9,324.4,M,-23.7,M,0.8,0000*40
$GPGSA,A,3,29,15,05,12,25,26,02,,,,,,4.8,1.9,4.4*3E
$GPRMC,114558.000,A,3353.7513,N,09832.0271,W,0.20,345.75,300312,,,D*76
$GPGGA,114559.000,3353.7513,N,09832.0271,W,2,07,1.9,324.3,M,-23.7,M,0.8,0000*46
$GPGSA,A,3,29,15,05,12,25,26,02,,,,,,4.8,1.9,4.4*3E
$GPRMC,114559.000,A,3353.7513,N,09832.0271,W,0.17,344.52,300312,,,D*77
$GPGGA,114600.000,3353.7513,N,09832.0271,W,2,07,1.9,324.2,M,-23.7,M,1.8,0000*49
$GPGSA,A,3,29,15,05,12,25,26,02,,,,,,4.8,1.9,4.4*3E
$GPRMC,114600.000,A,3353.7513,N,09832.0271,W,0.16,337.32,300312,,,D*7B
$GPGGA,114601.000,3353.7513,N,09832.0271,W,2,07,1.9,324.1,M,-23.7,M,0.8,0000*4A
$GPGSA,A,3,29,15,05,12,25,26,02,,,,,,4.8,1.9,4.4*3E
$GPRMC,114601.000,A,3353.7513,N,09832.0271,W,0.14,341.13,300312,,,D*7A
$GPGGA,114602.000,3353.7513,N,09832.0271,W,2,07,1.9,324.0,M,-23.7,M,1.8,0000*49
$GPGSA,A,3,29,15,05,12,25,26,02,,,,,,4.8,1.9,4.4*3E
$GPGSV,3,1,12,29,58,320,31,05,57,043,36,25,36,237,29,26,31,123,30*72
$GPGSV,3,2,12,02,28,072,34,12,20,194,26,15,18,167,40,21,18,281,17*76
$GPGSV,3,3,12,18,10,225,,10,02,044,17,30,02,325,,51,49,195,39*79
$GPRMC,114602.000,A,3353.7513,N,09832.0271,W,0.14,343.66,300312,,,D*79
$GPGGA,114603.000,3353.7513,N,09832.0271,W,2,07,1.9,323.9,M,-23.7,M,0.8,0000*47
$GPGSA,A,3,29,15,05,12,25,26,02,,,,,,4.8,1.9,4.4*3E
$GPRMC,114603.000,A,3353.7513,N,09832.0271,W,0.22,328.57,300312,,,D*72
$GPGGA,114604.000,3353.7513,N,09832.0271,W,2,07,1.9,323.8,M,-23.7,M,0.8,0000*41
$GPGSA,A,3,29,15,05,12,25,26,02,,,,,,4.8,1.9,4.4*3E
$GPRMC,114604.000,A,3353.7513,N,09832.0271,W,0.26,321.81,300312,,,D*73
$GPGGA,114605.000,3353.7513,N,09832.0271,W,2,07,1.9,323.7,M,-23.7,M,0.8,0000*4F
$GPGSA,A,3,29,15,05,12,25,26,02,,,,,,4.8,1.9,4.4*3E
$GPRMC,114605.000,A,3353.7513,N,09832.0271,W,0.26,334.89,300312,,,D*7E
$GPGGA,114606.000,3353.7514,N,09832.0271,W,2,07,1.9,323.6,M,-23.7,M,1.8,0000*4B
$GPGSA,A,3,29,15,05,12,25,26,02,,,,,,4.8,1.9,4.4*3E
$GPRMC,114606.000,A,3353.7514,N,09832.0271,W,0.28,329.82,300312,,,D*73
$GPGGA,114607.000,3353.7514,N,09832.0271,W,2,07,1.9,323.5,M,-23.7,M,2.8,0000*4A
$GPGSA,A,3,29,15,05,12,25,26,02,,,,,,4.8,1.9,4.4*3E
$GPGSV,3,1,12,29,58,320,31,05,57,043,36,25,36,237,29,26,31,123,30*72
$GPGSV,3,2,12,02,28,072,34,12,20,194,26,15,18,167,40,21,18,281,16*77
$GPGSV,3,3,12,18,10,225,20,10,02,044,16,30,02,325,,51,49,195,39*7A
$GPRMC,114607.000,A,3353.7514,N,09832.0271,W,0.26,333.89,300312,,,D*7C
$GPGGA,114608.000,3353.7515,N,09832.0272,W,2,07,1.9,323.4,M,-23.7,M,0.8,0000*44
$GPGSA,A,3,29,15,05,12,25,26,02,,,,,,4.8,1.9,4.4*3E
$GPRMC,114608.000,A,3353.7515,N,09832.0272,W,0.27,330.71,300312,,,D*74
$GPGGA,114609.000,3353.7515,N,09832.0271,W,2,07,1.9,323.4,M,-23.7,M,0.8,0000*46
$GPGSA,A,3,29,15,05,12,25,26,02,,,,,,4.8,1.9,4.4*3E
$GPRMC,114609.000,A,3353.7515,N,09832.0271,W,0.19,349.60,300312,,,D*75
$GPGGA,114610.000,3353.7515,N,09832.0271,W,2,07,1.9,323.4,M,-23.7,M,0.8,0000*4E
$GPGSA,A,3,29,15,05,12,25,26,02,,,,,,4.8,1.9,4.4*3E
$GPRMC,114610.000,A,3353.7515,N,09832.0271,W,0.15,347.88,300312,,,D*79
$GPGGA,114611.000,3353.7514,N,09832.0271,W,2,07,1.9,323.5,M,-23.7,M,0.8,0000*4F
$GPGSA,A,3,29,15,05,12,25,26,02,,,,,,4.8,1.9,4.4*3E
$GPRMC,114611.000,A,3353.7514,N,09832.0271,W,0.12,346.24,300312,,,D*79
$GPGGA,114612.000,3353.7514,N,09832.0270,W,2,07,1.9,323.6,M,-23.7,M,1.8,0000*4F
$GPGSA,A,3,29,15,05,12,25,26,02,,,,,,4.8,1.9,4.4*3E
$GPGSV,3,1,12,29,58,320,31,05,57,043,35,25,36,237,30,26,31,123,30*79
$GPGSV,3,2,12,02,28,072,34,12,20,194,26,15,18,167,40,21,18,281,16*77
$GPGSV,3,3,12,18,10,225,20,10,02,044,15,30,02,325,,51,49,195,39*79
$GPRMC,114612.000,A,3353.7514,N,09832.0270,W,0.09,350.26,300312,,,D*74
$GPGGA,114613.000,3353.7513,N,09832.0270,W,2,07,1.9,323.7,M,-23.7,M,2.8,0000*4B
$GPGSA,A,3,29,15,05,12,25,26,02,,,,,,4.8,1.9,4.4*3E
$GPRMC,114613.000,A,3353.7513,N,09832.0270,W,0.07,351.61,300312,,,D*7E
$GPGGA,114614.000,3353.7513,N,09832.0270,W,2,07,1.9,323.8,M,-23.7,M,3.8,0000*42
$GPGSA,A,3,29,15,05,12,25,26,02,,,,,,4.8,1.9,4.4*3E
$GPRMC,114614.000,A,3353.7513,N,09832.0270,W,0.08,326.78,300312,,,D*7E
$GPGGA,114615.000,3353.7513,N,09832.0269,W,2,07,1.9,323.9,M,-23.7,M,0.8,0000*49
$GPGSA,A,3,29,15,05,12,25,26,02,,,,,,4.8,1.9,4.4*3E
$GPRMC,114615.000,A,3353.7513,N,09832.0269,W,0.16,333.14,300312,,,D*76
$GPGGA,114616.000,3353.7513,N,09832.0269,W,2,07,1.9,324.0,M,-23.7,M,0.8,0000*44
$GPGSA,A,3,29,15,05,12,25,26,02,,,,,,4.8,1.9,4.4*3E
$GPRMC,114616.000,A,3353.7513,N,09832.0269,W,0.17,323.93,300312,,,D*7A
$GPGGA,114617.000,3353.7513,N,09832.0269,W,2,07,1.9,324.0,M,-23.7,M,0.8,0000*45
$GPGSA,A,3,29,15,05,12,25,26,02,,,,,,4.8,1.9,4.4*3E
$GPGSV,3,1,12,29,58,320,31,05,57,043,35,25,36,236,30,26,31,123,30*78
$GPGSV,3,2,12,02,28,072,33,12,20,194,26,15,19,167,41,21,18,281,16*70
$GPGSV,3,3,12,18,10,225,21,10,02,044,15,30,02,325,,51,49,195,39*78
$GPRMC,114617.000,A,3353.7513,N,09832.0269,W,0.20,335.13,300312,,,D*70
$GPGGA,114618.000,3353.7513,N,09832.0269,W,2,07,1.9,324.1,M,-23.7,M,1.8,0000*4A
$GPGSA,A,3,29,15,05,12,25,26,02,,,,,,4.8,1.9,4.4*3E
$GPRMC,114618.000,A,3353.7513,N,09832.0269,W,0.20,333.09,300312,,,D*72
$GPGGA,114619.000,3353.7513,N,09832.0269,W,2,07,1.9,324.1,M,-23.7,M,2.8,0000*48
$GPGSA,A,3,29,15,05,12,25,26,02,,,,,,4.8,1.9,4.4*3E
$GPRMC,114619.000,A,3353.7513,N,09832.0269,W,0.19,339.60,300312,,,D*7C
$GPGGA,114620.000,3353.7514,N,09832.0269,W,2,07,1.9,324.1,M,-23.7,M,3.8,0000*44
$GPGSA,A,3,29,15,05,12,25,26,02,,,,,,4.8,1.9,4.4*3E
$GPRMC,114620.000,A,3353.7514,N,09832.0269,W,0.22,321.19,300312,,,D*7E
$GPGGA,114621.000,3353.7514,N,09832.0270,W,2,07,1.9,324.0,M,-23.7,M,0.8,0000*4F
$GPGSA,A,3,29,15,05,12,25,26,02,,,,,,4.8,1.9,4.4*3E
$GPRMC,114621.000,A,3353.7514,N,09832.0270,W,0.11,338.77,300312,,,D*77
$GPGGA,114622.000,3353.7514,N,09832.0269,W,2,07,1.9,324.0,M,-23.7,M,0.8,0000*44
$GPGSA,A,3,29,15,05,12,25,26,02,,,,,,4.8,1.9,4.4*3E
$GPGSV,3,1,12,29,58,320,31,05,57,043,35,25,36,236,30,26,31,123,30*78
$GPGSV,3,2,12,02,28,072,33,12,20,194,25,15,19,167,41,21,18,281,15*70
$GPGSV,3,3,12,18,10,225,22,10,02,044,14,30,02,325,,51,49,195,39*7A
$GPRMC,114622.000,A,3353.7514,N,09832.0269,W,0.09,350.05,300312,,,D*7E
$GPGGA,114623.000,3353.7514,N,09832.0269,W,2,07,1.9,324.0,M,-23.7,M,0.8,0000*45
$GPGSA,A,3,29,15,05,12,25,26,02,,,,,,4.8,1.9,4.4*3E
$GPRMC,114623.000,A,3353.7514,N,09832.0269,W,0.05,324.36,300312,,,D*70
$GPGGA,114624.000,3353.7514,N,09832.0269,W,2,07,1.9,323.9,M,-23.7,M,1.8,0000*4D
$GPGSA,A,3,29,15,05,12,25,26,02,,,,,,4.8,1.9,4.4*3E
$GPRMC,114624.000,A,3353.7514,N,09832.0269,W,0.06,332.27,300312,,,D*73
$GPGGA,114625.000,3353.7514,N,09832.0269,W,2,07,1.9,323.9,M,-23.7,M,2.8,0000*4F
$GPGSA,A,3,29,15,05,12,25,26,02,,,,,,4.8,1.9,4.4*3E
$GPRMC,114625.000,A,3353.7514,N,09832.0269,W,0.07,328.41,300312,,,D*78
$GPGGA,114626.000,3353.7514,N,09832.0269,W,2,07,1.9,323.9,M,-23.7,M,3.8,0000*4D
$GPGSA,A,3,29,15,05,12,25,26,02,,,,,,4.8,1.9,4.4*3E
$GPRMC,114626.000,A,3353.7514,N,09832.0269,W,0.05,324.96,300312,,,D*7F
$GPGGA,114627.000,3353.7514,N,09832.0269,W,2,07,1.9,323.9,M,-23.7,M,0.8,0000*4F
$GPGSA,A,3,29,15,05,12,25,26,02,,,,,,4.8,1.9,4.4*3E
$GPGSV,3,1,12,29,58,320,31,05,57,043,34,25,36,236,30,26,31,123,30*79
$GPGSV,3,2,12,02,28,072,33,12,20,194,25,15,19,167,41,21,18,281,15*70
$GPGSV,3,3,12,18,10,225,23,10,02,044,12,30,02,325,,51,49,195,39*7D
$GPRMC,114627.000,A,3353.7514,N,09832.0269,W,0.14,327.78,300312,,,D*7D
$GPGGA,114628.000,3353.7514,N,09832.0269,W,2,07,1.9,323.9,M,-23.7,M,0.8,0000*40
$GPGSA,A,3,29,15,05,12,25,26,02,,,,,,4.8,1.9,4.4*3E
$GPRMC,114628.000,A,3353.7514,N,09832.0269,W,0.17,326.54,300312,,,D*7E
$GPGGA,114629.000,3353.7514,N,09832.0269,W,2,07,1.9,323.9,M,-23.7,M,0.8,0000*41
$GPGSA,A,3,29,15,05,12,25,26,02,,,,,,4.8,1.9,4.4*3E
$GPRMC,114629.000,A,3353.7514,N,09832.0269,W,0.20,330.90,300312,,,D*74
$GPGGA,114630.000,3353.7515,N,09832.0269,W,2,07,1.9,323.9,M,-23.7,M,1.8,0000*49
$GPGSA,A,3,29,15,05,12,25,26,02,,,,,,4.8,1.9,4.4*3E
$GPRMC,114630.000,A,3353.7515,N,09832.0269,W,0.20,333.88,300312,,,D*77
$GPGGA,114631.000,3353.7515,N,09832.0269,W,2,07,1.9,323.9,M,-23.7,M,2.8,0000*4B
$GPGSA,A,3,29,15,05,12,25,26,02,,,,,,4.8,1.9,4.4*3E
$GPRMC,114631.000,A,3353.7515,N,09832.0269,W,0.20,337.00,300312,,,D*72
$GPGGA,114632.000,3353.7516,N,09832.0269,W,2,07,1.9,323.9,M,-23.7,M,3.8,0000*4A
$GPGSA,A,3,29,15,05,12,25,26,02,,,,,,4.8,1.9,4.4*3E
$GPGSV,3,1,12,29,58,320,31,05,57,043,34,25,36,236,30,26,31,123,31*78
$GPGSV,3,2,12,02,28,072,33,12,20,194,24,15,19,167,41,21,18,281,16*72
$GPGSV,3,3,12,18,10,225,23,10,02,044,,30,02,325,,51,49,195,39*7E
$GPRMC,114632.000,A,3353.7516,N,09832.0269,W,0.21,330.73,300312,,,D*70
$GPGGA,114633.000,3353.7516,N,09832.0269,W,2,07,1.9,323.9,M,-23.7,M,0.8,0000*48
$GPGSA,A,3,29,15,05,12,25,26,02,,,,,,4.8,1.9,4.4*3E
