$GPGGA,054155.000,3353.7474,N,09832.0266,W,1,07,1.1,305.8,M,-23.7,M,,0000*68
$GPGSA,A,3,01,27,28,17,04,08,20,,,,,,2.1,1.1,1.8*3E
$GPRMC,054155.000,A,3353.7474,N,09832.0266,W,0.34,109.80,020412,,,A*7A
$GPGGA,054156.000,3353.7473,N,09832.0264,W,1,07,1.1,306.1,M,-23.7,M,,0000*64
$GPGSA,A,3,01,27,28,17,04,08,20,,,,,,2.1,1.1,1.8*3E
$GPRMC,054156.000,A,3353.7473,N,09832.0264,W,0.36,116.75,020412,,,A*7A
$GPGGA,054157.000,3353.7473,N,09832.0263,W,1,07,1.1,306.4,M,-23.7,M,,0000*67
$GPGSA,A,3,01,27,28,17,04,08,20,,,,,,2.1,1.1,1.8*3E
$GPGSV,3,1,12,17,69,344,35,28,63,058,34,04,34,191,32,08,33,164,36*74
$GPGSV,3,2,12,27,33,311,22,01,22,043,28,09,15,320,,26,12,238,*73
$GPGSV,3,3,12,20,12,089,27,15,07,281,,02,07,204,,11,04,044,*70
$GPRMC,054157.000,A,3353.7473,N,09832.0263,W,0.06,129.98,020412,,,A*70
$GPGGA,054158.000,3353.7473,N,09832.0263,W,1,07,1.1,306.7,M,-23.7,M,,0000*6B
$GPGSA,A,3,01,27,28,17,04,08,20,,,,,,2.1,1.1,1.8*3E
$GPRMC,054158.000,A,3353.7473,N,09832.0263,W,0.14,297.33,020412,,,A*7B
$GPGGA,054159.000,3353.7473,N,09832.0262,W,1,08,0.9,307.1,M,-23.7,M,,0000*6A
$GPGSA,A,3,01,26,27,28,17,04,08,20,,,,,1.7,0.9,1.4*3A
$GPRMC,054159.000,A,3353.7473,N,09832.0262,W,0.16,74.88,020412,,,A*46
$GPGGA,054200.000,3353.7473,N,09832.0261,W,1,08,0.9,307.4,M,-23.7,M,,0000*63
$GPGSA,A,3,01,26,27,28,17,04,08,20,,,,,1.7,0.9,1.4*3A
$GPRMC,054200.000,A,3353.7473,N,09832.0261,W,0.18,74.41,020412,,,A*41
$GPGGA,054201.000,3353.7472,N,09832.0260,W,1,08,0.9,307.8,M,-23.7,M,,0000*6E
$GPGSA,A,3,01,26,27,28,17,04,08,20,,,,,1.7,0.9,1.4*3A
$GPRMC,054201.000,A,3353.7472,N,09832.0260,W,0.26,129.36,020412,,,A*74
$GPGGA,054202.000,3353.7472,N,09832.0259,W,1,08,0.9,308.1,M,-23.7,M,,0000*61
$GPGSA,A,3,01,26,27,28,17,04,08,20,,,,,1.7,0.9,1.4*3A
$GPGSV,3,1,12,17,69,344,35,28,63,058,34,04,34,191,32,08,33,164,36*74
$GPGSV,3,2,12,27,33,311,22,01,22,043,27,09,15,320,,26,12,238,16*7B
$GPGSV,3,3,12,20,12,089,26,15,07,281,,02,07,204,,11,04,044,*71
$GPRMC,054202.000,A,3353.7472,N,09832.0259,W,0.05,263.88,020412,,,A*74
$GPGGA,054203.000,3353.7471,N,09832.0257,W,1,08,0.9,308.5,M,-23.7,M,,0000*69
$GPGSA,A,3,01,26,27,28,17,04,08,20,,,,,1.7,0.9,1.4*3A
$GPRMC,054203.000,A,3353.7471,N,09832.0257,W,0.34,107.84,020412,,,A*77
$GPGGA,054204.000,3353.7470,N,09832.0256,W,1,08,0.9,308.7,M,-23.7,M,,0000*6C
$GPGSA,A,3,01,26,27,28,17,04,08,20,,,,,1.7,0.9,1.4*3A
$GPRMC,054204.000,A,3353.7470,N,09832.0256,W,0.35,130.13,020412,,,A*7B
$GPGGA,054205.000,3353.7470,N,09832.0255,W,1,08,0.9,309.0,M,-23.7,M,,0000*68
$GPGSA,A,3,01,26,27,28,17,04,08,20,,,,,1.7,0.9,1.4*3A
$GPRMC,054205.000,A,3353.7470,N,09832.0255,W,0.25,111.93,020412,,,A*73
$GPGGA,054206.000,3353.7470,N,09832.0253,W,1,08,0.9,309.2,M,-23.7,M,,0000*6F
$GPGSA,A,3,01,26,27,28,17,04,08,20,,,,,1.7,0.9,1.4*3A
$GPRMC,054206.000,A,3353.7470,N,09832.0253,W,0.22,80.55,020412,,,A*42
$GPGGA,054207.000,3353.7469,N,09832.0252,W,1,08,0.9,309.5,M,-23.7,M,,0000*60
$GPGSA,A,3,01,26,27,28,17,04,08,20,,,,,1.7,0.9,1.4*3A
$GPGSV,3,1,12,17,69,344,35,28,63,058,34,04,34,191,31,08,33,164,36*77
$GPGSV,3,2,12,27,33,311,22,01,22,043,27,09,15,320,,26,12,238,16*7B
$GPGSV,3,3,12,20,12,089,26,15,07,281,,02,07,204,,11,04,044,*71
$GPRMC,054207.000,A,3353.7469,N,09832.0252,W,0.20,116.67,020412,,,A*77
$GPGGA,054208.000,3353.7469,N,09832.0251,W,1,08,0.9,309.7,M,-23.7,M,,0000*6E
$GPGSA,A,3,01,26,27,28,17,04,08,20,,,,,1.7,0.9,1.4*3A
$GPRMC,054208.000,A,3353.7469,N,09832.0251,W,0.23,87.82,020412,,,A*4A
$GPGGA,054209.000,3353.7469,N,09832.0250,W,1,08,0.9,309.9,M,-23.7,M,,0000*60
$GPGSA,A,3,01,26,27,28,17,04,08,20,,,,,1.7,0.9,1.4*3A
$GPRMC,054209.000,A,3353.7469,N,09832.0250,W,0.10,154.40,020412,,,A*7B
$GPGGA,054210.000,3353.7469,N,09832.0250,W,1,08,0.9,310.0,M,-23.7,M,,0000*69
$GPGSA,A,3,01,26,27,28,17,04,08,20,,,,,1.7,0.9,1.4*3A
$GPRMC,054210.000,A,3353.7469,N,09832.0250,W,0.16,279.33,020412,,,A*7D
$GPGGA,054211.000,3353.7468,N,09832.0250,W,1,08,0.9,310.1,M,-23.7,M,,0000*68
$GPGSA,A,3,01,26,27,28,17,04,08,20,,,,,1.7,0.9,1.4*3A
$GPRMC,054211.000,A,3353.7468,N,09832.0250,W,0.04,77.06,020412,,,A*44
$GPGGA,054212.000,3353.7468,N,09832.0247,W,1,08,0.9,310.3,M,-23.7,M,,0000*6F
$GPGSA,A,3,01,26,27,28,17,04,08,20,,,,,1.7,0.9,1.4*3A
$GPGSV,3,1,12,17,69,344,35,28,63,058,33,04,34,191,31,08,33,164,36*70
$GPGSV,3,2,12,27,33,311,22,01,22,043,27,09,15,320,,26,12,238,16*7B
$GPGSV,3,3,12,20,12,089,26,15,07,281,15,02,07,204,19,11,04,044,*7D
$GPRMC,054212.000,A,3353.7468,N,09832.0247,W,0.51,107.17,020412,,,A*77
$GPGGA,054213.000,3353.7468,N,09832.0246,W,1,08,0.9,310.5,M,-23.7,M,,0000*69
$GPGSA,A,3,01,26,27,28,17,04,08,20,,,,,1.7,0.9,1.4*3A
$GPRMC,054213.000,A,3353.7468,N,09832.0246,W,0.45,95.42,020412,,,A*48
$GPGGA,054214.000,3353.7467,N,09832.0244,W,1,08,0.9,310.8,M,-23.7,M,,0000*6E
$GPGSA,A,3,01,26,27,28,17,04,08,20,,,,,1.7,0.9,1.4*3A
$GPRMC,054214.000,A,3353.7467,N,09832.0244,W,0.45,101.64,020412,,,A*7A
$GPGGA,054215.000,3353.7467,N,09832.0242,W,1,08,0.9,311.0,M,-23.7,M,,0000*60
$GPGSA,A,3,01,26,27,28,17,04,08,20,,,,,1.7,0.9,1.4*3A
$GPRMC,054215.000,A,3353.7467,N,09832.0242,W,0.30,102.05,020412,,,A*7B
$GPGGA,054216.000,3353.7466,N,09832.0241,W,1,08,0.9,311.3,M,-23.7,M,,0000*62
$GPGSA,A,3,01,26,27,28,17,04,08,20,,,,,1.7,0.9,1.4*3A
$GPRMC,054216.000,A,3353.7466,N,09832.0241,W,0.16,106.12,020412,,,A*7C
$GPGGA,054217.000,3353.7466,N,09832.0240,W,1,08,0.9,311.5,M,-23.7,M,,0000*64
$GPGSA,A,3,01,26,27,28,17,04,08,20,,,,,1.7,0.9,1.4*3A
$GPGSV,3,1,12,17,69,344,35,28,63,058,33,04,34,191,30,08,33,164,35*72
$GPGSV,3,2,12,27,33,311,23,01,22,043,27,09,15,320,,26,12,238,17*7B
$GPGSV,3,3,12,20,12,089,26,15,07,281,14,02,07,204,19,11,04,044,*7C
$GPRMC,054217.000,A,3353.7466,N,09832.0240,W,0.19,153.98,020412,,,A*71
$GPGGA,054218.000,3353.7465,N,09832.0240,W,1,08,0.9,311.6,M,-23.7,M,,0000*6B
$GPGSA,A,3,01,26,27,28,17,04,08,20,,,,,1.7,0.9,1.4*3A
$GPRMC,054218.000,A,3353.7465,N,09832.0240,W,0.09,143.03,020412,,,A*7F
$GPGGA,054219.000,3353.7465,N,09832.0239,W,1,08,0.9,311.8,M,-23.7,M,,0000*6A
$GPGSA,A,3,01,26,27,28,17,04,08,20,,,,,1.7,0.9,1.4*3A
$GPRMC,054219.000,A,3353.7465,N,09832.0239,W,0.09,140.41,020412,,,A*75
$GPGGA,054220.000,3353.7464,N,09832.0239,W,1,08,0.9,311.8,M,-23.7,M,,0000*61
$GPGSA,A,3,01,26,27,28,17,04,08,20,,,,,1.7,0.9,1.4*3A
$GPRMC,054220.000,A,3353.7464,N,09832.0239,W,0.01,142.08,020412,,,A*79
$GPGGA,054221.000,3353.7464,N,09832.0239,W,1,08,0.9,311.9,M,-23.7,M,,0000*61
$GPGSA,A,3,01,26,27,28,17,04,08,20,,,,,1.7,0.9,1.4*3A
$GPRMC,054221.000,A,3353.7464,N,09832.0239,W,0.25,280.62,020412,,,A*7F
$GPGGA,054222.000,3353.7464,N,09832.0239,W,1,08,0.9,312.0,M,-23.7,M,,0000*68
$GPGSA,A,3,01,26,27,28,17,04,08,20,,,,,1.7,0.9,1.4*3A
$GPGSV,3,1,12,17,69,344,34,28,63,058,34,04,34,191,30,08,33,164,35*74
$GPGSV,3,2,12,27,33,311,24,01,22,043,28,09,15,320,,26,12,238,19*7D
$GPGSV,3,3,12,20,12,089,26,15,07,281,14,02,07,204,20,11,04,044,*76
$GPRMC,054222.000,A,3353.7464,N,09832.0239,W,0.01,14.78,020412,,,A*4E
$GPGGA,054223.000,3353.7463,N,09832.0239,W,1,08,0.9,312.0,M,-23.7,M,,0000*6E
$GPGSA,A,3,01,26,27,28,17,04,08,20,,,,,1.7,0.9,1.4*3A
$GPRMC,054223.000,A,3353.7463,N,09832.0239,W,0.11,241.94,020412,,,A*79
$GPGGA,054224.000,3353.7463,N,09832.0237,W,1,08,0.9,312.1,M,-23.7,M,,0000*66
$GPGSA,A,3,01,26,27,28,17,04,08,20,,,,,1.7,0.9,1.4*3A
$GPRMC,054224.000,A,3353.7463,N,09832.0237,W,0.23,99.48,020412,,,A*47
$GPGGA,054225.000,3353.7463,N,09832.0236,W,1,08,0.9,312.2,M,-23.7,M,,0000*65
$GPGSA,A,3,01,26,27,28,17,04,08,20,,,,,1.7,0.9,1.4*3A
$GPRMC,054225.000,A,3353.7463,N,09832.0236,W,0.36,92.97,020412,,,A*4A
$GPGGA,054226.000,3353.7462,N,09832.0234,W,1,08,0.9,312.3,M,-23.7,M,,0000*64
$GPGSA,A,3,01,26,27,28,17,04,08,20,,,,,1.7,0.9,1.4*3A
$GPRMC,054226.000,A,3353.7462,N,09832.0234,W,0.30,91.79,020412,,,A*4F
$GPGGA,054227.000,3353.7462,N,09832.0234,W,1,08,0.9,312.4,M,-23.7,M,,0000*62
$GPGSA,A,3,01,26,27,28,17,04,08,20,,,,,1.7,0.9,1.4*3A
$GPGSV,3,1,12,17,69,344,34,28,63,058,33,04,34,191,29,08,33,164,35*7B
$GPGSV,3,2,12,27,33,311,25,01,22,043,28,09,15,320,,26,12,238,19*7C
$GPGSV,3,3,12,20,12,089,25,15,07,281,,02,07,204,21,11,04,044,*71
$GPRMC,054227.000,A,3353.7462,N,09832.0234,W,0.05,186.40,020412,,,A*75
$GPGGA,054228.000,3353.7461,N,09832.0234,W,1,08,0.9,312.5,M,-23.7,M,,0000*6F
$GPGSA,A,3,01,26,27,28,17,04,08,20,,,,,1.7,0.9,1.4*3A
$GPRMC,054228.000,A,3353.7461,N,09832.0234,W,0.29,252.62,020412,,,A*7D
$GPGGA,054229.000,3353.7461,N,09832.0233,W,1,08,0.9,312.7,M,-23.7,M,,0000*6B
$GPGSA,A,3,01,26,27,28,17,04,08,20,,,,,1.7,0.9,1.4*3A
$GPRMC,054229.000,A,3353.7461,N,09832.0233,W,0.05,296.12,020412,,,A*7A
$GPGGA,054230.000,3353.7460,N,09832.0232,W,1,08,0.9,313.0,M,-23.7,M,,0000*65
$GPGSA,A,3,01,26,27,28,17,04,08,20,,,,,1.7,0.9,1.4*3A
$GPRMC,054230.000,A,3353.7460,N,09832.0232,W,0.32,93.66,020412,,,A*42
$GPGGA,054231.000,3353.7460,N,09832.0230,W,1,08,0.9,313.3,M,-23.7,M,,0000*65
$GPGSA,A,3,01,26,27,28,17,04,08,20,,,,,1.7,0.9,1.4*3A
$GPRMC,054231.000,A,3353.7460,N,09832.0230,W,0.36,90.58,020412,,,A*4B
$GPGGA,054232.000,3353.7459,N,09832.0227,W,1,08,0.9,313.7,M,-23.7,M,,0000*6E
$GPGSA,A,3,01,26,27,28,17,04,08,20,,,,,1.7,0.9,1.4*3A
$GPGSV,3,1,12,17,69,344,34,28,63,058,33,04,34,191,29,08,33,164,35*7B
$GPGSV,3,2,12,27,33,311,25,01,22,043,28,09,15,320,,26,12,238,19*7C
$GPGSV,3,3,12,20,12,089,24,15,07,281,,02,07,204,20,11,04,044,*71
$GPRMC,054232.000,A,3353.7459,N,09832.0227,W,0.48,93.46,020412,,,A*41
$GPGGA,054233.000,3353.7458,N,09832.0226,W,1,08,0.9,314.2,M,-23.7,M,,0000*6D
$GPGSA,A,3,01,26,27,28,17,04,08,20,,,,,1.7,0.9,1.4*3A
$GPRMC,054233.000,A,3353.7458,N,09832.0226,W,0.16,130.14,020412,,,A*74
$GPGGA,054234.000,3353.7457,N,09832.0225,W,1,08,0.9,314.6,M,-23.7,M,,0000*62
$GPGSA,A,3,01,26,27,28,17,04,08,20,,,,,1.7,0.9,1.4*3A
$GPRMC,054234.000,A,3353.7457,N,09832.0225,W,0.13,189.12,020412,,,A*7E
$GPGGA,054235.000,3353.7456,N,09832.0225,W,1,08,0.9,315.0,M,-23.7,M,,0000*65
$GPGSA,A,3,01,26,27,28,17,04,08,20,,,,,1.7,0.9,1.4*3A
$GPRMC,054235.000,A,3353.7456,N,09832.0225,W,0.14,235.54,020412,,,A*7F
$GPGGA,054236.000,3353.7455,N,09832.0223,W,1,08,0.9,315.5,M,-23.7,M,,0000*66
$GPGSA,A,3,01,26,27,28,17,04,08,20,,,,,1.7,0.9,1.4*3A
$GPRMC,054236.000,A,3353.7455,N,09832.0223,W,0.21,92.39,020412,,,A*4B
$GPGGA,054237.000,3353.7454,N,09832.0222,W,1,08,0.9,315.9,M,-23.7,M,,0000*6B
$GPGSA,A,3,01,26,27,28,17,04,08,20,,,,,1.7,0.9,1.4*3A
$GPGSV,3,1,12,17,69,344,34,28,63,058,33,04,34,191,29,08,33,164,35*7B
$GPGSV,3,2,12,27,33,311,26,01,22,043,28,09,15,320,,26,12,238,18*7E
$GPGSV,3,3,12,20,12,089,24,15,07,281,,02,07,204,20,11,04,044,*71
$GPRMC,054237.000,A,3353.7454,N,09832.0222,W,0.07,137.91,020412,,,A*72
$GPGGA,054238.000,3353.7453,N,09832.0222,W,1,08,0.9,316.2,M,-23.7,M,,0000*6B
$GPGSA,A,3,01,26,27,28,17,04,08,20,,,,,1.7,0.9,1.4*3A
$GPRMC,054238.000,A,3353.7453,N,09832.0222,W,0.22,247.75,020412,,,A*73
$GPGGA,054239.000,3353.7452,N,09832.0221,W,1,08,0.9,316.6,M,-23.7,M,,0000*6C
$GPGSA,A,3,01,26,27,28,17,04,08,20,,,,,1.7,0.9,1.4*3A
$GPRMC,054239.000,A,3353.7452,N,09832.0221,W,0.03,152.88,020412,,,A*76
$GPGGA,054240.000,3353.7452,N,09832.0220,W,1,08,0.9,316.9,M,-23.7,M,,0000*6C
$GPGSA,A,3,01,26,27,28,17,04,08,20,,,,,1.7,0.9,1.4*3A
$GPRMC,054240.000,A,3353.7452,N,09832.0220,W,0.06,141.00,020412,,,A*7E
$GPGGA,054241.000,3353.7451,N,09832.0219,W,1,08,0.9,317.3,M,-23.7,M,,0000*6F
$GPGSA,A,3,01,26,27,28,17,04,08,20,,,,,1.7,0.9,1.4*3A
$GPRMC,054241.000,A,3353.7451,N,09832.0219,W,0.08,74.70,020412,,,A*48
$GPGGA,054242.000,3353.7451,N,09832.0219,W,1,08,0.9,317.6,M,-23.7,M,,0000*69
$GPGSA,A,3,01,26,27,28,17,04,08,20,,,,,1.7,0.9,1.4*3A
$GPGSV,3,1,12,17,69,348,34,28,62,061,33,04,35,191,28,27,33,310,26*72
$GPGSV,3,2,12,08,31,164,34,01,21,043,24,09,16,320,,20,13,088,24*7F
$GPGSV,3,3,12,26,12,237,19,02,08,205,20,15,06,280,,32,03,063,*73
$GPRMC,054242.000,A,3353.7451,N,09832.0219,W,0.02,125.67,020412,,,A*72
$GPGGA,054243.000,3353.7450,N,09832.0218,W,1,08,0.9,317.8,M,-23.7,M,,0000*66
$GPGSA,A,3,01,26,27,28,17,04,08,20,,,,,1.7,0.9,1.4*3A
$GPRMC,054243.000,A,3353.7450,N,09832.0218,W,0.11,95.49,020412,,,A*47
$GPGGA,054244.000,3353.7450,N,09832.0218,W,1,08,0.9,317.9,M,-23.7,M,,0000*60
$GPGSA,A,3,01,26,27,28,17,04,08,20,,,,,1.7,0.9,1.4*3A
$GPRMC,054244.000,A,3353.7450,N,09832.0218,W,0.21,262.13,020412,,,A*76
$GPGGA,054245.000,3353.7449,N,09832.0218,W,1,08,0.9,318.1,M,-23.7,M,,0000*6E
$GPGSA,A,3,01,26,27,28,17,04,08,20,,,,,1.7,0.9,1.4*3A
$GPRMC,054245.000,A,3353.7449,N,09832.0218,W,0.14,133.54,020412,,,A*7D
$GPGGA,054246.000,3353.7449,N,09832.0217,W,1,08,0.9,318.2,M,-23.7,M,,0000*61
$GPGSA,A,3,01,26,27,28,17,04,08,20,,,,,1.7,0.9,1.4*3A
$GPRMC,054246.000,A,3353.7449,N,09832.0217,W,0.16,90.76,020412,,,A*4B
$GPGGA,054247.000,3353.7449,N,09832.0216,W,1,08,0.9,318.4,M,-23.7,M,,0000*67
$GPGSA,A,3,01,26,27,28,17,04,08,20,,,,,1.7,0.9,1.4*3A
$GPGSV,3,1,12,17,69,348,34,28,62,061,33,04,35,191,28,27,33,310,26*72
$GPGSV,3,2,12,08,31,164,35,01,21,043,24,09,16,320,,20,13,088,24*7E
$GPGSV,3,3,12,26,12,237,20,02,08,205,20,15,06,280,14,32,03,063,*7C
$GPRMC,054247.000,A,3353.7449,N,09832.0216,W,0.33,66.40,020412,,,A*40
$GPGGA,054248.000,3353.7449,N,09832.0215,W,1,08,0.9,318.5,M,-23.7,M,,0000*6A
$GPGSA,A,3,01,26,27,28,17,04,08,20,,,,,1.7,0.9,1.4*3A
$GPRMC,054248.000,A,3353.7449,N,09832.0215,W,0.27,66.19,020412,,,A*45
$GPGGA,054249.000,3353.7449,N,09832.0215,W,1,08,0.9,318.6,M,-23.7,M,,0000*68
$GPGSA,A,3,01,26,27,28,17,04,08,20,,,,,1.7,0.9,1.4*3A
$GPRMC,054249.000,A,3353.7449,N,09832.0215,W,0.15,265.97,020412,,,A*72
$GPGGA,054250.000,3353.7448,N,09832.0216,W,1,08,0.9,318.7,M,-23.7,M,,0000*63
$GPGSA,A,3,01,26,27,28,17,04,08,20,,,,,1.7,0.9,1.4*3A
$GPRMC,054250.000,A,3353.7448,N,09832.0216,W,0.27,261.97,020412,,,A*7D
$GPGGA,054251.000,3353.7448,N,09832.0217,W,1,08,0.9,318.8,M,-23.7,M,,0000*6C
$GPGSA,A,3,01,26,27,28,17,04,08,20,,,,,1.7,0.9,1.4*3A
$GPRMC,054251.000,A,3353.7448,N,09832.0217,W,0.21,264.01,020412,,,A*71
$GPGGA,054252.000,3353.7448,N,09832.0218,W,1,08,0.9,318.8,M,-23.7,M,,0000*60
$GPGSA,A,3,01,26,27,28,17,04,08,20,,,,,1.7,0.9,1.4*3A
$GPGSV,3,1,12,17,69,348,34,28,62,061,32,04,35,191,28,27,33,310,27*72
$GPGSV,3,2,12,08,31,164,35,01,21,043,25,09,16,320,,20,13,088,23*78
$GPGSV,3,3,12,26,12,237,22,02,08,205,21,15,06,280,13,32,03,063,*78
$GPRMC,054252.000,A,3353.7448,N,09832.0218,W,0.16,253.01,020412,,,A*7D
$GPGGA,054253.000,3353.7448,N,09832.0217,W,1,08,0.9,318.7,M,-23.7,M,,0000*61
$GPGSA,A,3,01,26,27,28,17,04,08,20,,,,,1.7,0.9,1.4*3A
$GPRMC,054253.000,A,3353.7448,N,09832.0217,W,0.26,85.70,020412,,,A*4F
$GPGGA,054254.000,3353.7448,N,09832.0217,W,1,08,0.9,318.7,M,-23.7,M,,0000*66
$GPGSA,A,3,01,26,27,28,17,04,08,20,,,,,1.7,0.9,1.4*3A
$GPRMC,054254.000,A,3353.7448,N,09832.0217,W,0.02,94.02,020412,,,A*4B
$GPGGA,054255.000,3353.7448,N,09832.0218,W,1,08,0.9,318.6,M,-23.7,M,,0000*69
$GPGSA,A,3,01,26,27,28,17,04,08,20,,,,,1.7,0.9,1.4*3A
$GPRMC,054255.000,A,3353.7448,N,09832.0218,W,0.24,269.41,020412,,,A*76
$GPGGA,054256.000,3353.7448,N,09832.0219,W,1,08,0.9,318.5,M,-23.7,M,,0000*68
$GPGSA,A,3,01,26,27,28,17,04,08,20,,,,,1.7,0.9,1.4*3A
$GPRMC,054256.000,A,3353.7448,N,09832.0219,W,0.38,262.39,020412,,,A*7D
$GPGGA,054257.000,3353.7448,N,09832.0220,W,1,08,0.9,318.4,M,-23.7,M,,0000*62
$GPGSA,A,3,01,26,27,28,17,04,08,20,,,,,1.7,0.9,1.4*3A
$GPGSV,3,1,12,17,69,348,34,28,62,061,32,04,35,191,27,27,33,310,27*7D
$GPGSV,3,2,12,08,31,164,35,01,21,043,26,09,16,320,,20,13,088,23*7B
$GPGSV,3,3,12,26,12,237,22,02,08,205,21,15,06,280,15,32,03,063,*7E
$GPRMC,054257.000,A,3353.7448,N,09832.0220,W,0.05,332.73,020412,,,A*72
$GPGGA,054258.000,3353.7448,N,09832.0220,W,1,08,0.9,318.3,M,-23.7,M,,0000*6A
$GPGSA,A,3,01,26,27,28,17,04,08,20,,,,,1.7,0.9,1.4*3A
$GPRMC,054258.000,A,3353.7448,N,09832.0220,W,0.05,326.07,020412,,,A*7B
$GPGGA,054259.000,3353.7448,N,09832.0220,W,1,08,0.9,318.3,M,-23.7,M,,0000*6B
$GPGSA,A,3,01,26,27,28,17,04,08,20,,,,,1.7,0.9,1.4*3A
$GPRMC,054259.000,A,3353.7448,N,09832.0220,W,0.11,47.50,020412,,,A*49
$GPGGA,054300.000,3353.7448,N,09832.0221,W,1,08,0.9,318.1,M,-23.7,M,,0000*65
$GPGSA,A,3,01,26,27,28,17,04,08,20,,,,,1.7,0.9,1.4*3A
$GPRMC,054300.000,A,3353.7448,N,09832.0221,W,0.23,263.62,020412,,,A*71
$GPGGA,054301.000,3353.7448,N,09832.0222,W,1,08,0.9,317.9,M,-23.7,M,,0000*60
$GPGSA,A,3,01,26,27,28,17,04,08,20,,,,,1.7,0.9,1.4*3A
$GPRMC,054301.000,A,3353.7448,N,09832.0222,W,0.10,243.28,020412,,,A*7F
$GPGGA,054302.000,3353.7449,N,09832.0222,W,1,08,0.9,317.7,M,-23.7,M,,0000*6C
$GPGSA,A,3,01,26,27,28,17,04,08,20,,,,,1.7,0.9,1.4*3A
$GPGSV,3,1,12,17,69,348,34,28,62,061,32,04,35,191,27,27,33,310,27*7D
$GPGSV,3,2,12,08,31,164,35,01,21,043,27,09,16,320,,20,13,088,23*7A
$GPGSV,3,3,12,26,12,237,21,02,08,205,11,15,06,280,14,32,03,063,*7F
$GPRMC,054302.000,A,3353.7449,N,09832.0222,W,0.16,84.43,020412,,,A*4F
$GPGGA,054303.000,3353.7449,N,09832.0221,W,1,08,0.9,317.5,M,-23.7,M,,0000*6C
$GPGSA,A,3,01,26,27,28,17,04,08,20,,,,,1.7,0.9,1.4*3A
$GPRMC,054303.000,A,3353.7449,N,09832.0221,W,0.22,68.12,020412,,,A*4C
$GPGGA,054304.000,3353.7449,N,09832.0221,W,1,08,0.9,317.3,M,-23.7,M,,0000*6D
$GPGSA,A,3,01,26,27,28,17,04,08,20,,,,,1.7,0.9,1.4*3A
$GPRMC,054304.000,A,3353.7449,N,09832.0221,W,0.21,76.84,020412,,,A*48
$GPGGA,054305.000,3353.7450,N,09832.0220,W,1,08,0.9,317.2,M,-23.7,M,,0000*64
$GPGSA,A,3,01,26,27,28,17,04,08,20,,,,,1.7,0.9,1.4*3A
$GPRMC,054305.000,A,3353.7450,N,09832.0220,W,0.24,72.70,020412,,,A*4A
$GPGGA,054306.000,3353.7450,N,09832.0220,W,1,08,0.9,317.1,M,-23.7,M,,0000*64
$GPGSA,A,3,01,26,27,28,17,04,08,20,,,,,1.7,0.9,1.4*3A
$GPRMC,054306.000,A,3353.7450,N,09832.0220,W,0.17,65.13,020412,,,A*4A
$GPGGA,054307.000,3353.7451,N,09832.0220,W,1,08,0.9,317.1,M,-23.7,M,,0000*64
$GPGSA,A,3,01,26,27,28,17,04,08,20,,,,,1.7,0.9,1.4*3A
$GPGSV,3,1,12,17,69,348,34,28,62,061,32,04,35,191,28,27,33,310,27*72
$GPGSV,3,2,12,08,31,164,35,01,21,043,28,09,16,320,,20,13,088,23*75
$GPGSV,3,3,12,26,12,237,14,02,08,205,,15,06,280,,32,03,063,*7C
$GPRMC,054307.000,A,3353.7451,N,09832.0220,W,0.26,71.69,020412,,,A*40
$GPGGA,054308.000,3353.7451,N,09832.0219,W,1,08,0.9,317.1,M,-23.7,M,,0000*61
$GPGSA,A,3,01,26,27,28,17,04,08,20,,,,,1.7,0.9,1.4*3A
$GPRMC,054308.000,A,3353.7451,N,09832.0219,W,0.25,80.73,020412,,,A*43
$GPGGA,054309.000,3353.7451,N,09832.0220,W,1,08,0.9,317.1,M,-23.7,M,,0000*6A
$GPGSA,A,3,01,26,27,28,17,04,08,20,,,,,1.7,0.9,1.4*3A
$GPRMC,054309.000,A,3353.7451,N,09832.0220,W,0.05,142.05,020412,,,A*74
$GPGGA,054310.000,3353.7451,N,09832.0221,W,1,08,0.9,317.1,M,-23.7,M,,0000*63
$GPGSA,A,3,01,26,27,28,17,04,08,20,,,,,1.7,0.9,1.4*3A
$GPRMC,054310.000,A,3353.7451,N,09832.0221,W,0.23,261.56,020412,,,A*7D
$GPGGA,054311.000,3353.7451,N,09832.0222,W,1,08,0.9,317.0,M,-23.7,M,,0000*60
$GPGSA,A,3,01,26,27,28,17,04,08,20,,,,,1.7,0.9,1.4*3A
$GPRMC,054311.000,A,3353.7451,N,09832.0222,W,0.27,262.00,020412,,,A*7B
$GPGGA,054312.000,3353.7451,N,09832.0223,W,1,08,0.9,316.9,M,-23.7,M,,0000*6A
$GPGSA,A,3,01,26,27,28,17,04,08,20,,,,,1.7,0.9,1.4*3A
$GPGSV,3,1,12,17,69,348,34,28,62,061,32,04,35,191,28,27,33,310,27*72
$GPGSV,3,2,12,08,31,164,35,01,21,043,29,09,16,320,,20,13,088,24*73
$GPGSV,3,3,12,26,12,237,15,02,08,205,,15,06,280,,32,03,063,*7D
$GPRMC,054312.000,A,3353.7451,N,09832.0223,W,0.08,252.01,020412,,,A*76
$GPGGA,054313.000,3353.7451,N,09832.0224,W,1,08,0.9,316.8,M,-23.7,M,,0000*6D
$GPGSA,A,3,01,26,27,28,17,04,08,20,,,,,1.7,0.9,1.4*3A
$GPRMC,054313.000,A,3353.7451,N,09832.0224,W,0.11,250.64,020412,,,A*79
$GPGGA,054314.000,3353.7451,N,09832.0225,W,1,08,0.9,316.6,M,-23.7,M,,0000*65
$GPGSA,A,3,01,26,27,28,17,04,08,20,,,,,1.7,0.9,1.4*3A
$GPRMC,054314.000,A,3353.7451,N,09832.0225,W,0.18,262.22,020412,,,A*75
$GPGGA,054315.000,3353.7451,N,09832.0226,W,1,08,0.9,316.4,M,-23.7,M,,0000*65
$GPGSA,A,3,01,26,27,28,17,04,08,20,,,,,1.7,0.9,1.4*3A
$GPRMC,054315.000,A,3353.7451,N,09832.0226,W,0.37,268.49,020412,,,A*7D
$GPGGA,054316.000,3353.7451,N,09832.0227,W,1,08,0.9,316.3,M,-23.7,M,,0000*60
$GPGSA,A,3,01,26,27,28,17,04,08,20,,,,,1.7,0.9,1.4*3A
$GPRMC,054316.000,A,3353.7451,N,09832.0227,W,0.09,268.38,020412,,,A*74
$GPGGA,054317.000,3353.7451,N,09832.0228,W,1,08,0.9,316.2,M,-23.7,M,,0000*6F
$GPGSA,A,3,01,26,27,28,17,04,08,20,,,,,1.7,0.9,1.4*3A
$GPGSV,3,1,12,17,69,348,34,28,62,061,32,04,35,191,28,27,33,310,27*72
$GPGSV,3,2,12,08,31,164,36,01,21,043,29,09,16,320,,20,13,088,24*70
$GPGSV,3,3,12,26,12,237,16,02,08,205,,15,06,280,,32,03,063,*7E
$GPRMC,054317.000,A,3353.7451,N,09832.0228,W,0.04,63.08,020412,,,A*4D
$GPGGA,054318.000,3353.7452,N,09832.0227,W,1,08,0.9,316.1,M,-23.7,M,,0000*6F
$GPGSA,A,3,01,26,27,28,17,04,08,20,,,,,1.7,0.9,1.4*3A
$GPRMC,054318.000,A,3353.7452,N,09832.0227,W,0.24,89.92,020412,,,A*4B
$GPGGA,054319.000,3353.7452,N,09832.0227,W,1,08,0.9,316.2,M,-23.7,M,,0000*6D
$GPGSA,A,3,01,26,27,28,17,04,08,20,,,,,1.7,0.9,1.4*3A
$GPRMC,054319.000,A,3353.7452,N,09832.0227,W,0.18,87.38,020412,,,A*4B
$GPGGA,054320.000,3353.7452,N,09832.0226,W,1,08,0.9,316.2,M,-23.7,M,,0000*66
$GPGSA,A,3,01,26,27,28,17,04,08,20,,,,,1.7,0.9,1.4*3A
$GPRMC,054320.000,A,3353.7452,N,09832.0226,W,0.29,81.73,020412,,,A*4B
$GPGGA,054321.000,3353.7452,N,09832.0227,W,1,08,0.9,316.2,M,-23.7,M,,0000*66
$GPGSA,A,3,01,26,27,28,17,04,08,20,,,,,1.7,0.9,1.4*3A
$GPRMC,054321.000,A,3353.7452,N,09832.0227,W,0.11,240.82,020412,,,A*71
$GPGGA,054322.000,3353.7451,N,09832.0228,W,1,08,0.9,316.3,M,-23.7,M,,0000*68
$GPGSA,A,3,01,26,27,28,17,04,08,20,,,,,1.7,0.9,1.4*3A
$GPGSV,3,1,12,17,69,348,34,28,62,061,32,04,35,191,28,27,33,310,27*72
$GPGSV,3,2,12,08,31,164,36,01,21,043,29,09,16,320,,20,13,088,24*70
$GPGSV,3,3,12,26,12,237,16,02,08,205,,15,06,280,,32,03,063,*7E
$GPRMC,054322.000,A,3353.7451,N,09832.0228,W,0.17,249.82,020412,,,A*71
$GPGGA,054323.000,3353.7451,N,09832.0229,W,1,08,0.9,316.3,M,-23.7,M,,0000*68
$GPGSA,A,3,01,26,27,28,17,04,08,20,,,,,1.7,0.9,1.4*3A
$GPRMC,054323.000,A,3353.7451,N,09832.0229,W,0.12,254.19,020412,,,A*7A
$GPGGA,054324.000,3353.7451,N,09832.0230,W,1,08,0.9,316.3,M,-23.7,M,,0000*67
$GPGSA,A,3,01,26,27,28,17,04,08,20,,,,,1.7,0.9,1.4*3A
$GPRMC,054324.000,A,3353.7451,N,09832.0230,W,0.14,246.36,020412,,,A*7D
$GPGGA,054325.000,3353.7451,N,09832.0231,W,1,08,0.9,316.2,M,-23.7,M,,0000*66
$GPGSA,A,3,01,26,27,28,17,04,08,20,,,,,1.7,0.9,1.4*3A
$GPRMC,054325.000,A,3353.7451,N,09832.0231,W,0.18,258.91,020412,,,A*73
$GPGGA,054326.000,3353.7451,N,09832.0232,W,1,08,0.9,316.2,M,-23.7,M,,0000*66
$GPGSA,A,3,01,26,27,28,17,04,08,20,,,,,1.7,0.9,1.4*3A
$GPRMC,054326.000,A,3353.7451,N,09832.0232,W,0.16,257.73,020412,,,A*7E
$GPGGA,054327.000,3353.7451,N,09832.0233,W,1,08,0.9,316.2,M,-23.7,M,,0000*66
$GPGSA,A,3,01,26,27,28,17,04,08,20,,,,,1.7,0.9,1.4*3A
$GPGSV,3,1,12,17,69,348,34,28,62,061,32,04,35,191,28,27,33,310,27*72
$GPGSV,3,2,12,08,31,164,36,01,21,043,29,09,16,320,,20,13,088,25*71
$GPGSV,3,3,12,26,12,237,15,02,08,205,19,15,06,280,,32,03,063,*75
$GPRMC,054327.000,A,3353.7451,N,09832.0233,W,0.21,255.92,020412,,,A*77
$GPGGA,054328.000,3353.7451,N,09832.0233,W,1,07,1.1,316.1,M,-23.7,M,,0000*6C
$GPGSA,A,3,01,27,28,17,04,08,20,,,,,,2.1,1.1,1.8*3E
$GPRMC,054328.000,A,3353.7451,N,09832.0233,W,0.09,123.94,020412,,,A*76
$GPGGA,054329.000,3353.7451,N,09832.0233,W,1,07,1.1,316.1,M,-23.7,M,,0000*6D
$GPGSA,A,3,01,27,28,17,04,08,20,,,,,,2.1,1.1,1.8*3E
$GPRMC,054329.000,A,3353.7451,N,09832.0233,W,0.05,273.60,020412,,,A*76
$GPGGA,054330.000,3353.7451,N,09832.0234,W,1,07,1.1,316.0,M,-23.7,M,,0000*63
$GPGSA,A,3,01,27,28,17,04,08,20,,,,,,2.1,1.1,1.8*3E
$GPRMC,054330.000,A,3353.7451,N,09832.0234,W,0.01,229.06,020412,,,A*72
$GPGGA,054331.000,3353.7451,N,09832.0234,W,1,07,1.1,316.0,M,-23.7,M,,0000*62
$GPGSA,A,3,01,27,28,17,04,08,20,,,,,,2.1,1.1,1.8*3E
$GPRMC,054331.000,A,3353.7451,N,09832.0234,W,0.00,184.02,020412,,,A*72
$GPGGA,054332.000,3353.7451,N,09832.0235,W,1,07,1.1,315.9,M,-23.7,M,,0000*6A
$GPGSA,A,3,01,27,28,17,04,08,20,,,,,,2.1,1.1,1.8*3E
$GPGSV,3,1,12,17,69,348,34,28,62,061,32,04,35,191,28,27,33,310,26*73
$GPGSV,3,2,12,08,31,164,36,01,21,043,30,09,16,320,,20,13,088,26*7A
$GPGSV,3,3,12,26,12,237,,02,08,205,20,15,06,280,,32,03,063,*7B
$GPRMC,054332.000,A,3353.7451,N,09832.0235,W,0.01,244.41,020412,,,A*79
$GPGGA,054333.000,3353.7451,N,09832.0235,W,1,07,1.1,315.8,M,-23.7,M,,0000*6A
$GPGSA,A,3,01,27,28,17,04,08,20,,,,,,2.1,1.1,1.8*3E
$GPRMC,054333.000,A,3353.7451,N,09832.0235,W,0.01,192.70,020412,,,A*72
$GPGGA,054334.000,3353.7451,N,09832.0236,W,1,07,1.1,315.8,M,-23.7,M,,0000*6E
$GPGSA,A,3,01,27,28,17,04,08,20,,,,,,2.1,1.1,1.8*3E
$GPRMC,054334.000,A,3353.7451,N,09832.0236,W,0.04,104.35,020412,,,A*7D
$GPGGA,054335.000,3353.7451,N,09832.0236,W,1,07,1.1,315.8,M,-23.7,M,,0000*6F
$GPGSA,A,3,01,27,28,17,04,08,20,,,,,,2.1,1.1,1.8*3E
$GPRMC,054335.000,A,3353.7451,N,09832.0236,W,0.10,93.01,020412,,,A*41
$GPGGA,054336.000,3353.7451,N,09832.0236,W,1,07,1.1,315.9,M,-23.7,M,,0000*6D
$GPGSA,A,3,01,27,28,17,04,08,20,,,,,,2.1,1.1,1.8*3E
$GPRMC,054336.000,A,3353.7451,N,09832.0236,W,0.08,113.79,020412,,,A*7D
$GPGGA,054337.000,3353.7451,N,09832.0236,W,1,07,1.1,315.9,M,-23.7,M,,0000*6C
$GPGSA,A,3,01,27,28,17,04,08,20,,,,,,2.1,1.1,1.8*3E
$GPGSV,3,1,12,17,69,348,34,28,62,061,31,04,35,191,28,27,33,310,26*70
$GPGSV,3,2,12,08,31,164,36,01,21,043,31,09,16,320,,20,13,088,25*78
$GPGSV,3,3,12,26,12,237,,02,08,205,20,15,06,280,,32,03,063,*7B
$GPRMC,054337.000,A,3353.7451,N,09832.0236,W,0.04,330.19,020412,,,A*75
$GPGGA,054338.000,3353.7451,N,09832.0236,W,1,07,1.1,316.0,M,-23.7,M,,0000*69
$GPGSA,A,3,01,27,28,17,04,08,20,,,,,,2.1,1.1,1.8*3E
$GPRMC,054338.000,A,3353.7451,N,09832.0236,W,0.02,145.15,020412,,,A*70
$GPGGA,054339.000,3353.7451,N,09832.0236,W,1,07,1.1,316.0,M,-23.7,M,,0000*68
$GPGSA,A,3,01,27,28,17,04,08,20,,,,,,2.1,1.1,1.8*3E
$GPRMC,054339.000,A,3353.7451,N,09832.0236,W,0.11,94.85,020412,,,A*47
$GPGGA,054340.000,3353.7452,N,09832.0237,W,1,07,1.1,316.0,M,-23.7,M,,0000*64
$GPGSA,A,3,01,27,28,17,04,08,20,,,,,,2.1,1.1,1.8*3E
$GPRMC,054340.000,A,3353.7452,N,09832.0237,W,0.01,349.81,020412,,,A*7D
$GPGGA,054341.000,3353.7452,N,09832.0238,W,1,07,1.1,315.9,M,-23.7,M,,0000*60
$GPGSA,A,3,01,27,28,17,04,08,20,,,,,,2.1,1.1,1.8*3E
$GPRMC,054341.000,A,3353.7452,N,09832.0238,W,0.09,300.65,020412,,,A*7C
$GPGGA,054342.000,3353.7452,N,09832.0239,W,1,07,1.1,315.8,M,-23.7,M,,0000*63
$GPGSA,A,3,01,27,28,17,04,08,20,,,,,,2.1,1.1,1.8*3E
$GPGSV,3,1,12,17,69,348,34,28,62,061,31,04,35,191,29,27,33,310,26*71
$GPGSV,3,2,12,08,31,164,36,01,21,043,31,09,16,320,,20,13,088,26*7B
$GPGSV,3,3,12,26,12,237,,02,08,205,,15,06,280,,32,03,063,*79
$GPRMC,054342.000,A,3353.7452,N,09832.0239,W,0.02,39.19,020412,,,A*47
$GPGGA,054343.000,3353.7452,N,09832.0239,W,1,08,0.9,315.8,M,-23.7,M,,0000*64
$GPGSA,A,3,01,26,27,28,17,04,08,20,,,,,1.7,0.9,1.4*3A
$GPRMC,054343.000,A,3353.7452,N,09832.0239,W,0.14,87.32,020412,,,A*4D
$GPGGA,054344.000,3353.7453,N,09832.0239,W,1,08,0.9,315.8,M,-23.7,M,,0000*62
$GPGSA,A,3,01,26,27,28,17,04,08,20,,,,,1.7,0.9,1.4*3A
$GPRMC,054344.000,A,3353.7453,N,09832.0239,W,0.26,83.30,020412,,,A*4C
$GPGGA,054345.000,3353.7453,N,09832.0239,W,1,08,0.9,315.9,M,-23.7,M,,0000*62
$GPGSA,A,3,01,26,27,28,17,04,08,20,,,,,1.7,0.9,1.4*3A
$GPRMC,054345.000,A,3353.7453,N,09832.0239,W,0.05,162.53,020412,,,A*77
$GPGGA,054346.000,3353.7453,N,09832.0241,W,1,08,0.9,315.9,M,-23.7,M,,0000*6E
$GPGSA,A,3,01,26,27,28,17,04,08,20,,,,,1.7,0.9,1.4*3A
$GPRMC,054346.000,A,3353.7453,N,09832.0241,W,0.30,277.60,020412,,,A*7A
$GPGGA,054347.000,3353.7453,N,09832.0242,W,1,08,0.9,316.0,M,-23.7,M,,0000*66
$GPGSA,A,3,01,26,27,28,17,04,08,20,,,,,1.7,0.9,1.4*3A
$GPGSV,3,1,12,17,69,348,34,28,62,061,31,04,35,191,29,27,33,310,24*73
$GPGSV,3,2,12,08,31,164,36,01,21,043,31,09,16,320,,20,13,088,27*7A
$GPGSV,3,3,12,26,12,237,18,02,08,205,,15,06,280,,32,03,063,*70
$GPRMC,054347.000,A,3353.7453,N,09832.0242,W,0.18,267.13,020412,,,A*77
$GPGGA,054348.000,3353.7453,N,09832.0244,W,1,08,0.9,316.0,M,-23.7,M,,0000*6F
$GPGSA,A,3,01,26,27,28,17,04,08,20,,,,,1.7,0.9,1.4*3A
$GPRMC,054348.000,A,3353.7453,N,09832.0244,W,0.41,287.38,020412,,,A*75
$GPGGA,054349.000,3353.7454,N,09832.0245,W,1,08,0.9,316.0,M,-23.7,M,,0000*68
$GPGSA,A,3,01,26,27,28,17,04,08,20,,,,,1.7,0.9,1.4*3A
$GPRMC,054349.000,A,3353.7454,N,09832.0245,W,0.37,305.31,020412,,,A*71
$GPGGA,054350.000,3353.7454,N,09832.0246,W,1,08,0.9,316.0,M,-23.7,M,,0000*63
$GPGSA,A,3,01,26,27,28,17,04,08,20,,,,,1.7,0.9,1.4*3A
$GPRMC,054350.000,A,3353.7454,N,09832.0246,W,0.20,264.07,020412,,,A*7F
$GPGGA,054351.000,3353.7454,N,09832.0247,W,1,08,0.9,316.0,M,-23.7,M,,0000*63
$GPGSA,A,3,01,26,27,28,17,04,08,20,,,,,1.7,0.9,1.4*3A
$GPRMC,054351.000,A,3353.7454,N,09832.0247,W,0.13,243.83,020412,,,A*76
$GPGGA,054352.000,3353.7454,N,09832.0248,W,1,08,0.9,316.0,M,-23.7,M,,0000*6F
$GPGSA,A,3,01,26,27,28,17,04,08,20,,,,,1.7,0.9,1.4*3A
$GPGSV,3,1,12,17,69,348,34,28,62,061,31,04,35,191,28,27,33,310,23*75
$GPGSV,3,2,12,08,31,164,36,01,21,043,31,09,16,320,,20,13,088,26*7B
$GPGSV,3,3,12,26,12,237,19,02,08,205,,15,06,280,,32,03,063,*71
$GPRMC,054352.000,A,3353.7454,N,09832.0248,W,0.08,343.07,020412,,,A*7D
$GPGGA,054353.000,3353.7454,N,09832.0248,W,1,08,0.9,316.1,M,-23.7,M,,0000*6F
$GPGSA,A,3,01,26,27,28,17,04,08,20,,,,,1.7,0.9,1.4*3A
$GPRMC,054353.000,A,3353.7454,N,09832.0248,W,0.04,0.23,020412,,,A*72
$GPGGA,054354.000,3353.7454,N,09832.0248,W,1,08,0.9,316.1,M,-23.7,M,,0000*68
$GPGSA,A,3,01,26,27,28,17,04,08,20,,,,,1.7,0.9,1.4*3A
$GPRMC,054354.000,A,3353.7454,N,09832.0248,W,0.09,212.58,020412,,,A*75
$GPGGA,054355.000,3353.7454,N,09832.0249,W,1,08,0.9,316.1,M,-23.7,M,,0000*68
$GPGSA,A,3,01,26,27,28,17,04,08,20,,,,,1.7,0.9,1.4*3A
$GPRMC,054355.000,A,3353.7454,N,09832.0249,W,0.08,209.35,020412,,,A*75
$GPGGA,054356.000,3353.7454,N,09832.0250,W,1,08,0.9,315.9,M,-23.7,M,,0000*68
$GPGSA,A,3,01,26,27,28,17,04,08,20,,,,,1.7,0.9,1.4*3A
$GPRMC,054356.000,A,3353.7454,N,09832.0250,W,0.38,286.07,020412,,,A*7B
$GPGGA,054357.000,3353.7454,N,09832.0251,W,1,08,0.9,315.8,M,-23.7,M,,0000*69
$GPGSA,A,3,01,26,27,28,17,04,08,20,,,,,1.7,0.9,1.4*3A
$GPGSV,3,1,12,17,69,348,34,28,62,061,31,04,35,191,28,27,33,310,23*75
$GPGSV,3,2,12,08,31,164,36,01,21,043,31,09,16,320,,20,13,088,25*78
$GPGSV,3,3,12,26,12,237,19,02,08,205,17,15,06,280,,32,03,063,*77
$GPRMC,054357.000,A,3353.7454,N,09832.0251,W,0.31,295.95,020412,,,A*7B
$GPGGA,054358.000,3353.7455,N,09832.0252,W,1,08,0.9,315.6,M,-23.7,M,,0000*6A
$GPGSA,A,3,01,26,27,28,17,04,08,20,,,,,1.7,0.9,1.4*3A
$GPRMC,054358.000,A,3353.7455,N,09832.0252,W,0.19,271.29,020412,,,A*71
$GPGGA,054359.000,3353.7455,N,09832.0251,W,1,08,0.9,315.4,M,-23.7,M,,0000*6A
$GPGSA,A,3,01,26,27,28,17,04,08,20,,,,,1.7,0.9,1.4*3A
$GPRMC,054359.000,A,3353.7455,N,09832.0251,W,0.40,97.24,020412,,,A*48
$GPGGA,054400.000,3353.7455,N,09832.0250,W,1,08,0.9,315.1,M,-23.7,M,,0000*65
$GPGSA,A,3,01,26,27,28,17,04,08,20,,,,,1.7,0.9,1.4*3A
$GPRMC,054400.000,A,3353.7455,N,09832.0250,W,0.39,95.64,020412,,,A*4A
$GPGGA,054401.000,3353.7455,N,09832.0249,W,1,08,0.9,315.0,M,-23.7,M,,0000*6D
$GPGSA,A,3,01,26,27,28,17,04,08,20,,,,,1.7,0.9,1.4*3A
$GPRMC,054401.000,A,3353.7455,N,09832.0249,W,0.41,95.43,020412,,,A*49
$GPGGA,054402.000,3353.7455,N,09832.0249,W,1,08,0.9,314.8,M,-23.7,M,,0000*67
$GPGSA,A,3,01,26,27,28,17,04,08,20,,,,,1.7,0.9,1.4*3A
$GPGSV,3,1,12,17,69,348,34,28,62,061,30,04,35,191,27,27,33,310,23*7B
$GPGSV,3,2,12,08,31,164,37,01,21,043,31,09,16,320,,20,13,088,24*78
$GPGSV,3,3,12,26,12,237,18,02,08,205,17,15,06,280,,32,03,063,*76
$GPRMC,054402.000,A,3353.7455,N,09832.0249,W,0.06,71.52,020412,,,A*43
$GPGGA,054403.000,3353.7455,N,09832.0249,W,1,08,0.9,314.8,M,-23.7,M,,0000*66
$GPGSA,A,3,01,26,27,28,17,04,08,20,,,,,1.7,0.9,1.4*3A
$GPRMC,054403.000,A,3353.7455,N,09832.0249,W,0.32,103.54,020412,,,A*77
$GPGGA,054404.000,3353.7455,N,09832.0249,W,1,08,0.9,314.8,M,-23.7,M,,0000*61
$GPGSA,A,3,01,26,27,28,17,04,08,20,,,,,1.7,0.9,1.4*3A
$GPRMC,054404.000,A,3353.7455,N,09832.0249,W,0.05,101.31,020412,,,A*75
$GPGGA,054405.000,3353.7455,N,09832.0249,W,1,08,0.9,314.8,M,-23.7,M,,0000*60
$GPGSA,A,3,01,26,27,28,17,04,08,20,,,,,1.7,0.9,1.4*3A
$GPRMC,054405.000,A,3353.7455,N,09832.0249,W,0.21,98.88,020412,,,A*41
$GPGGA,054406.000,3353.7456,N,09832.0248,W,1,08,0.9,314.9,M,-23.7,M,,0000*60
$GPGSA,A,3,01,26,27,28,17,04,08,20,,,,,1.7,0.9,1.4*3A
$GPRMC,054406.000,A,3353.7456,N,09832.0248,W,0.23,73.88,020412,,,A*47
$GPGGA,054407.000,3353.7456,N,09832.0248,W,1,08,0.9,315.0,M,-23.7,M,,0000*69
$GPGSA,A,3,01,26,27,28,17,04,08,20,,,,,1.7,0.9,1.4*3A
$GPGSV,3,1,12,17,69,348,34,28,62,061,30,04,35,191,26,27,33,310,22*7B
$GPGSV,3,2,12,08,31,164,37,01,21,043,31,09,16,320,,20,13,088,25*79
$GPGSV,3,3,12,26,12,237,18,02,08,205,17,15,06,280,,32,03,063,*76
$GPRMC,054407.000,A,3353.7456,N,09832.0248,W,0.24,59.07,020412,,,A*4E
$GPGGA,054408.000,3353.7456,N,09832.0247,W,1,08,0.9,315.2,M,-23.7,M,,0000*6B
$GPGSA,A,3,01,26,27,28,17,04,08,20,,,,,1.7,0.9,1.4*3A
$GPRMC,054408.000,A,3353.7456,N,09832.0247,W,0.43,90.23,020412,,,A*4C
$GPGGA,054409.000,3353.7455,N,09832.0247,W,1,08,0.9,315.3,M,-23.7,M,,0000*68
$GPGSA,A,3,01,26,27,28,17,04,08,20,,,,,1.7,0.9,1.4*3A
$GPRMC,054409.000,A,3353.7455,N,09832.0247,W,0.12,134.03,020412,,,A*77
$GPGGA,054410.000,3353.7455,N,09832.0248,W,1,08,0.9,315.5,M,-23.7,M,,0000*69
$GPGSA,A,3,01,26,27,28,17,04,08,20,,,,,1.7,0.9,1.4*3A
$GPRMC,054410.000,A,3353.7455,N,09832.0248,W,0.14,63.59,020412,,,A*4A
$GPGGA,054411.000,3353.7455,N,09832.0248,W,1,08,0.9,315.7,M,-23.7,M,,0000*6A
$GPGSA,A,3,01,26,27,28,17,04,08,20,,,,,1.7,0.9,1.4*3A
$GPRMC,054411.000,A,3353.7455,N,09832.0248,W,0.15,129.57,020412,,,A*7B
$GPGGA,054412.000,3353.7454,N,09832.0249,W,1,08,0.9,315.8,M,-23.7,M,,0000*66
$GPGSA,A,3,01,26,27,28,17,04,08,20,,,,,1.7,0.9,1.4*3A
$GPGSV,3,1,12,17,69,348,34,28,62,061,30,04,35,191,25,27,33,310,22*78
$GPGSV,3,2,12,08,31,164,36,01,21,043,31,09,16,320,,20,13,088,27*7A
$GPGSV,3,3,12,26,12,237,18,02,08,205,17,15,06,280,,32,03,063,*76
$GPRMC,054412.000,A,3353.7454,N,09832.0249,W,0.07,192.39,020412,,,A*73
$GPGGA,054413.000,3353.7454,N,09832.0249,W,1,08,0.9,315.9,M,-23.7,M,,0000*66
$GPGSA,A,3,01,26,27,28,17,04,08,20,,,,,1.7,0.9,1.4*3A
$GPRMC,054413.000,A,3353.7454,N,09832.0249,W,0.11,119.38,020412,,,A*77
$GPGGA,054414.000,3353.7454,N,09832.0251,W,1,08,0.9,315.9,M,-23.7,M,,0000*68
$GPGSA,A,3,01,26,27,28,17,04,08,20,,,,,1.7,0.9,1.4*3A
$GPRMC,054414.000,A,3353.7454,N,09832.0251,W,0.30,293.55,020412,,,A*70
$GPGGA,054415.000,3353.7454,N,09832.0253,W,1,08,0.9,315.9,M,-23.7,M,,0000*6B
$GPGSA,A,3,01,26,27,28,17,04,08,20,,,,,1.7,0.9,1.4*3A
$GPRMC,054415.000,A,3353.7454,N,09832.0253,W,0.27,296.33,020412,,,A*70
$GPGGA,054416.000,3353.7454,N,09832.0255,W,1,08,0.9,315.8,M,-23.7,M,,0000*6F
$GPGSA,A,3,01,26,27,28,17,04,08,20,,,,,1.7,0.9,1.4*3A
$GPRMC,054416.000,A,3353.7454,N,09832.0255,W,0.19,251.43,020412,,,A*74
$GPGGA,054417.000,3353.7454,N,09832.0255,W,1,08,0.9,315.8,M,-23.7,M,,0000*6E
$GPGSA,A,3,01,26,27,28,17,04,08,20,,,,,1.7,0.9,1.4*3A
$GPGSV,3,1,12,17,69,348,35,28,62,061,30,04,35,191,22,27,33,310,23*7F
$GPGSV,3,2,12,08,31,164,37,01,21,043,31,09,16,320,,20,13,088,27*7B
$GPGSV,3,3,12,26,12,237,20,02,08,205,17,15,06,280,,32,03,063,*7D
$GPRMC,054417.000,A,3353.7454,N,09832.0255,W,0.17,170.14,020412,,,A*79
$GPGGA,054418.000,3353.7453,N,09832.0256,W,1,08,0.9,315.8,M,-23.7,M,,0000*65
$GPGSA,A,3,01,26,27,28,17,04,08,20,,,,,1.7,0.9,1.4*3A
$GPRMC,054418.000,A,3353.7453,N,09832.0256,W,0.23,144.71,020412,,,A*71
$GPGGA,054419.000,3353.7453,N,09832.0256,W,1,08,0.9,315.9,M,-23.7,M,,0000*65
$GPGSA,A,3,01,26,27,28,17,04,08,20,,,,,1.7,0.9,1.4*3A
$GPRMC,054419.000,A,3353.7453,N,09832.0256,W,0.19,104.79,020412,,,A*75
$GPGGA,054420.000,3353.7452,N,09832.0255,W,1,08,0.9,316.0,M,-23.7,M,,0000*67
$GPGSA,A,3,01,26,27,28,17,04,08,20,,,,,1.7,0.9,1.4*3A
$GPRMC,054420.000,A,3353.7452,N,09832.0255,W,0.46,116.57,020412,,,A*78
$GPGGA,054421.000,3353.7452,N,09832.0254,W,1,08,0.9,316.2,M,-23.7,M,,0000*65
$GPGSA,A,3,01,26,27,28,17,04,08,20,,,,,1.7,0.9,1.4*3A
$GPRMC,054421.000,A,3353.7452,N,09832.0254,W,0.29,110.46,020412,,,A*77
$GPGGA,054422.000,3353.7452,N,09832.0254,W,1,08,0.9,316.4,M,-23.7,M,,0000*60
$GPGSA,A,3,01,26,27,28,17,04,08,20,,,,,1.7,0.9,1.4*3A
$GPGSV,3,1,12,17,69,348,35,28,62,061,30,04,35,191,23,27,33,310,23*7E
$GPGSV,3,2,12,08,31,164,37,01,21,043,31,09,16,320,,20,13,088,28*74
$GPGSV,3,3,12,26,12,237,20,02,08,205,17,15,06,280,,32,03,063,*7D
$GPRMC,054422.000,A,3353.7452,N,09832.0254,W,0.12,108.01,020412,,,A*76
$GPGGA,054423.000,3353.7452,N,09832.0254,W,1,08,0.9,316.6,M,-23.7,M,,0000*63
$GPGSA,A,3,01,26,27,28,17,04,08,20,,,,,1.7,0.9,1.4*3A
$GPRMC,054423.000,A,3353.7452,N,09832.0254,W,0.10,7.73,020412,,,A*7E
$GPGGA,054424.000,3353.7452,N,09832.0255,W,1,08,0.9,316.8,M,-23.7,M,,0000*6B
$GPGSA,A,3,01,26,27,28,17,04,08,20,,,,,1.7,0.9,1.4*3A
$GPRMC,054424.000,A,3353.7452,N,09832.0255,W,0.10,229.96,020412,,,A*7D
$GPGGA,054425.000,3353.7452,N,09832.0256,W,1,08,0.9,316.8,M,-23.7,M,,0000*69
$GPGSA,A,3,01,26,27,28,17,04,08,20,,,,,1.7,0.9,1.4*3A
$GPRMC,054425.000,A,3353.7452,N,09832.0256,W,0.23,270.74,020412,,,A*7F
$GPGGA,054426.000,3353.7451,N,09832.0256,W,1,08,0.9,316.9,M,-23.7,M,,0000*68
$GPGSA,A,3,01,26,27,28,17,04,08,20,,,,,1.7,0.9,1.4*3A
$GPRMC,054426.000,A,3353.7451,N,09832.0256,W,0.12,129.03,020412,,,A*72
$GPGGA,054427.000,3353.7451,N,09832.0255,W,1,08,0.9,317.0,M,-23.7,M,,0000*62
$GPGSA,A,3,01,26,27,28,17,04,08,20,,,,,1.7,0.9,1.4*3A
$GPGSV,3,1,12,17,69,348,35,28,62,061,30,04,35,191,23,27,33,310,22*7F
$GPGSV,3,2,12,08,31,164,37,01,21,043,31,09,16,320,,20,13,088,28*74
$GPGSV,3,3,12,26,12,237,20,02,08,205,17,15,06,280,,32,03,063,*7D
$GPRMC,054427.000,A,3353.7451,N,09832.0255,W,0.42,107.31,020412,,,A*78
$GPGGA,054428.000,3353.7451,N,09832.0254,W,1,08,0.9,317.1,M,-23.7,M,,0000*6D
$GPGSA,A,3,01,26,27,28,17,04,08,20,,,,,1.7,0.9,1.4*3A
$GPRMC,054428.000,A,3353.7451,N,09832.0254,W,0.37,79.18,020412,,,A*47
$GPGGA,054429.000,3353.7451,N,09832.0253,W,1,08,0.9,317.2,M,-23.7,M,,0000*68
$GPGSA,A,3,01,26,27,28,17,04,08,20,,,,,1.7,0.9,1.4*3A
$GPRMC,054429.000,A,3353.7451,N,09832.0253,W,0.33,57.54,020412,,,A*41
$GPGGA,054430.000,3353.7452,N,09832.0254,W,1,07,1.1,317.2,M,-23.7,M,,0000*62
$GPGSA,A,3,01,27,28,17,04,08,20,,,,,,2.1,1.1,1.8*3E
$GPRMC,054430.000,A,3353.7452,N,09832.0254,W,0.13,40.34,020412,,,A*4F
$GPGGA,054431.000,3353.7452,N,09832.0254,W,1,08,0.9,317.2,M,-23.7,M,,0000*65
$GPGSA,A,3,01,26,27,28,17,04,08,20,,,,,1.7,0.9,1.4*3A
$GPRMC,054431.000,A,3353.7452,N,09832.0254,W,0.12,11.94,020412,,,A*41
$GPGGA,054432.000,3353.7452,N,09832.0254,W,1,08,0.9,317.3,M,-23.7,M,,0000*67
$GPGSA,A,3,01,26,27,28,17,04,08,20,,,,,1.7,0.9,1.4*3A
$GPGSV,3,1,12,17,69,348,35,28,62,061,30,04,35,191,21,27,33,310,22*7D
$GPGSV,3,2,12,08,31,164,37,01,21,043,31,09,16,320,,20,13,088,28*74
$GPGSV,3,3,12,26,12,237,12,02,08,205,17,15,06,280,,32,03,063,*7C
$GPRMC,054432.000,A,3353.7452,N,09832.0254,W,0.10,106.62,020412,,,A*7E
$GPGGA,054433.000,3353.7452,N,09832.0254,W,1,08,0.9,317.3,M,-23.7,M,,0000*66
$GPGSA,A,3,01,26,27,28,17,04,08,20,,,,,1.7,0.9,1.4*3A
$GPRMC,054433.000,A,3353.7452,N,09832.0254,W,0.28,121.93,020412,,,A*7F
$GPGGA,054434.000,3353.7452,N,09832.0253,W,1,08,0.9,317.4,M,-23.7,M,,0000*61
$GPGSA,A,3,01,26,27,28,17,04,08,20,,,,,1.7,0.9,1.4*3A
$GPRMC,054434.000,A,3353.7452,N,09832.0253,W,0.52,101.04,020412,,,A*7E
$GPGGA,054435.000,3353.7452,N,09832.0252,W,1,08,0.9,317.6,M,-23.7,M,,0000*63
$GPGSA,A,3,01,26,27,28,17,04,08,20,,,,,1.7,0.9,1.4*3A
$GPRMC,054435.000,A,3353.7452,N,09832.0252,W,0.41,93.60,020412,,,A*44
$GPGGA,054436.000,3353.7452,N,09832.0252,W,1,08,0.9,317.8,M,-23.7,M,,0000*6E
$GPGSA,A,3,01,26,27,28,17,04,08,20,,,,,1.7,0.9,1.4*3A
$GPRMC,054436.000,A,3353.7452,N,09832.0252,W,0.15,107.55,020412,,,A*7C
$GPGGA,054437.000,3353.7451,N,09832.0251,W,1,08,0.9,318.1,M,-23.7,M,,0000*69
$GPGSA,A,3,01,26,27,28,17,04,08,20,,,,,1.7,0.9,1.4*3A
$GPGSV,3,1,12,17,69,348,35,28,62,061,31,04,35,191,22,27,33,310,22*7F
$GPGSV,3,2,12,08,31,164,37,01,21,043,31,09,16,320,,20,13,088,29*75
$GPGSV,3,3,12,26,12,237,14,02,08,205,17,15,06,280,,32,03,063,*7A
$GPRMC,054437.000,A,3353.7451,N,09832.0251,W,0.39,114.98,020412,,,A*70
$GPGGA,054438.000,3353.7451,N,09832.0248,W,1,08,0.9,318.4,M,-23.7,M,,0000*6B
$GPGSA,A,3,01,26,27,28,17,04,08,20,,,,,1.7,0.9,1.4*3A
$GPRMC,054438.000,A,3353.7451,N,09832.0248,W,0.73,101.47,020412,,,A*7F
$GPGGA,054439.000,3353.7450,N,09832.0247,W,1,08,0.9,318.7,M,-23.7,M,,0000*67
$GPGSA,A,3,01,26,27,28,17,04,08,20,,,,,1.7,0.9,1.4*3A
$GPRMC,054439.000,A,3353.7450,N,09832.0247,W,0.53,94.70,020412,,,A*4B
$GPGGA,054440.000,3353.7450,N,09832.0246,W,1,08,0.9,319.0,M,-23.7,M,,0000*6E
$GPGSA,A,3,01,26,27,28,17,04,08,20,,,,,1.7,0.9,1.4*3A
$GPRMC,054440.000,A,3353.7450,N,09832.0246,W,0.31,95.00,020412,,,A*46
$GPGGA,054441.000,3353.7449,N,09832.0243,W,1,08,0.9,319.3,M,-23.7,M,,0000*61
$GPGSA,A,3,01,26,27,28,17,04,08,20,,,,,1.7,0.9,1.4*3A
$GPRMC,054441.000,A,3353.7449,N,09832.0243,W,0.73,101.83,020412,,,A*7B
$GPGGA,054442.000,3353.7449,N,09832.0242,W,1,08,0.9,319.5,M,-23.7,M,,0000*65
$GPGSA,A,3,01,26,27,28,17,04,08,20,,,,,1.7,0.9,1.4*3A
$GPGSV,3,1,12,17,69,348,35,28,62,061,31,04,35,191,22,27,33,310,16*78
$GPGSV,3,2,12,08,31,164,37,01,21,043,31,09,16,320,,20,13,088,28*74
$GPGSV,3,3,12,26,12,237,19,02,08,205,17,15,06,280,19,32,03,063,*7F
$GPRMC,054442.000,A,3353.7449,N,09832.0242,W,0.45,105.33,020412,,,A*73
$GPGGA,054443.000,3353.7448,N,09832.0240,W,1,08,0.9,319.8,M,-23.7,M,,0000*6A
$GPGSA,A,3,01,26,27,28,17,04,08,20,,,,,1.7,0.9,1.4*3A
$GPRMC,054443.000,A,3353.7448,N,09832.0240,W,0.73,114.11,020412,,,A*74
$GPGGA,054444.000,3353.7446,N,09832.0237,W,1,08,0.9,320.2,M,-23.7,M,,0000*63
$GPGSA,A,3,01,26,27,28,17,04,08,20,,,,,1.7,0.9,1.4*3A
$GPRMC,054444.000,A,3353.7446,N,09832.0237,W,0.94,112.61,020412,,,A*75
$GPGGA,054445.000,3353.7445,N,09832.0235,W,1,08,0.9,320.6,M,-23.7,M,,0000*67
$GPGSA,A,3,01,26,27,28,17,04,08,20,,,,,1.7,0.9,1.4*3A
$GPRMC,054445.000,A,3353.7445,N,09832.0235,W,0.86,115.08,020412,,,A*7E
$GPGGA,054446.000,3353.7444,N,09832.0233,W,1,08,0.9,321.0,M,-23.7,M,,0000*64
$GPGSA,A,3,01,26,27,28,17,04,08,20,,,,,1.7,0.9,1.4*3A
$GPRMC,054446.000,A,3353.7444,N,09832.0233,W,0.58,113.21,020412,,,A*74
$GPGGA,054447.000,3353.7444,N,09832.0232,W,1,08,0.9,321.4,M,-23.7,M,,0000*60
$GPGSA,A,3,01,26,27,28,17,04,08,20,,,,,1.7,0.9,1.4*3A
$GPGSV,3,1,12,17,69,348,35,28,62,061,31,04,35,191,17,27,33,310,15*7D
$GPGSV,3,2,12,08,31,164,37,01,21,043,31,09,16,320,,20,13,088,28*74
$GPGSV,3,3,12,26,12,237,20,02,08,205,17,15,06,280,17,32,03,063,*7B
$GPRMC,054447.000,A,3353.7444,N,09832.0232,W,0.32,95.35,020412,,,A*42
$GPGGA,054448.000,3353.7443,N,09832.0230,W,1,08,0.9,321.9,M,-23.7,M,,0000*67
$GPGSA,A,3,01,26,27,28,17,04,08,20,,,,,1.7,0.9,1.4*3A
$GPRMC,054448.000,A,3353.7443,N,09832.0230,W,0.26,102.41,020412,,,A*71
$GPGGA,054449.000,3353.7443,N,09832.0229,W,1,08,0.9,322.3,M,-23.7,M,,0000*67
$GPGSA,A,3,01,26,27,28,17,04,08,20,,,,,1.7,0.9,1.4*3A
$GPRMC,054449.000,A,3353.7443,N,09832.0229,W,0.21,115.91,020412,,,A*74
$GPGGA,054450.000,3353.7443,N,09832.0228,W,1,08,0.9,322.7,M,-23.7,M,,0000*6A
$GPGSA,A,3,01,26,27,28,17,04,08,20,,,,,1.7,0.9,1.4*3A
$GPRMC,054450.000,A,3353.7443,N,09832.0228,W,0.35,73.37,020412,,,A*45
$GPGGA,054451.000,3353.7443,N,09832.0226,W,1,08,0.9,323.1,M,-23.7,M,,0000*62
$GPGSA,A,3,01,26,27,28,17,04,08,20,,,,,1.7,0.9,1.4*3A
$GPRMC,054451.000,A,3353.7443,N,09832.0226,W,0.43,85.30,020412,,,A*45
$GPGGA,054452.000,3353.7443,N,09832.0225,W,1,08,0.9,323.6,M,-23.7,M,,0000*65
$GPGSA,A,3,01,26,27,28,17,04,08,20,,,,,1.7,0.9,1.4*3A
$GPGSV,3,1,12,17,69,348,35,28,62,061,31,04,35,191,18,27,33,310,16*71
$GPGSV,3,2,12,08,31,164,37,01,21,043,30,09,16,320,,20,13,088,28*75
$GPGSV,3,3,12,26,12,237,19,02,08,205,16,15,06,280,17,32,03,063,*70
$GPRMC,054452.000,A,3353.7443,N,09832.0225,W,0.05,316.45,020412,,,A*7C
$GPGGA,054453.000,3353.7442,N,09832.0225,W,1,05,2.6,323.9,M,-23.7,M,,0000*6A
$GPGSA,A,3,01,28,17,08,20,,,,,,,,4.0,2.6,3.0*36
$GPRMC,054453.000,A,3353.7442,N,09832.0225,W,0.15,291.54,020412,,,A*73
$GPGGA,054454.000,3353.7442,N,09832.0224,W,1,08,0.9,324.2,M,-23.7,M,,0000*60
$GPGSA,A,3,01,26,27,28,17,04,08,20,,,,,1.7,0.9,1.4*3A
$GPRMC,054454.000,A,3353.7442,N,09832.0224,W,0.07,203.35,020412,,,A*7A
$GPGGA,054455.000,3353.7442,N,09832.0222,W,1,08,0.9,324.5,M,-23.7,M,,0000*60
$GPGSA,A,3,01,26,27,28,17,04,08,20,,,,,1.7,0.9,1.4*3A
$GPRMC,054455.000,A,3353.7442,N,09832.0222,W,0.29,84.58,020412,,,A*47
$GPGGA,054456.000,3353.7441,N,09832.0220,W,1,08,0.9,324.9,M,-23.7,M,,0000*6E
$GPGSA,A,3,01,26,27,28,17,04,08,20,,,,,1.7,0.9,1.4*3A
$GPRMC,054456.000,A,3353.7441,N,09832.0220,W,0.57,99.27,020412,,,A*48
$GPGGA,054457.000,3353.7440,N,09832.0217,W,1,08,0.9,325.2,M,-23.7,M,,0000*60
$GPGSA,A,3,01,26,27,28,17,04,08,20,,,,,1.7,0.9,1.4*3A
$GPGSV,3,1,12,17,69,348,35,28,62,061,31,04,35,191,22,27,33,310,16*78
$GPGSV,3,2,12,08,31,164,37,01,21,043,30,09,16,320,,20,13,088,28*75
$GPGSV,3,3,12,26,12,237,18,02,08,205,16,15,06,280,18,32,03,063,*7E
$GPRMC,054457.000,A,3353.7440,N,09832.0217,W,0.88,106.41,020412,,,A*79
$GPGGA,054458.000,3353.7439,N,09832.0215,W,1,08,0.9,325.4,M,-23.7,M,,0000*65
$GPGSA,A,3,01,26,27,28,17,04,08,20,,,,,1.7,0.9,1.4*3A
$GPRMC,054458.000,A,3353.7439,N,09832.0215,W,0.59,120.80,020412,,,A*7F
$GPGGA,054459.000,3353.7438,N,09832.0214,W,1,08,0.9,325.6,M,-23.7,M,,0000*66
$GPGSA,A,3,01,26,27,28,17,04,08,20,,,,,1.7,0.9,1.4*3A
$GPRMC,054459.000,A,3353.7438,N,09832.0214,W,0.47,119.10,020412,,,A*72
$GPGGA,054500.000,3353.7437,N,09832.0212,W,1,08,0.9,325.8,M,-23.7,M,,0000*6C
$GPGSA,A,3,01,26,27,28,17,04,08,20,,,,,1.7,0.9,1.4*3A
$GPRMC,054500.000,A,3353.7437,N,09832.0212,W,0.59,113.46,020412,,,A*70
$GPGGA,054501.000,3353.7436,N,09832.0211,W,1,08,0.9,326.0,M,-23.7,M,,0000*64
$GPGSA,A,3,01,26,27,28,17,04,08,20,,,,,1.7,0.9,1.4*3A
$GPRMC,054501.000,A,3353.7436,N,09832.0211,W,0.68,100.62,020412,,,A*75
$GPGGA,054502.000,3353.7435,N,09832.0209,W,1,08,0.9,326.2,M,-23.7,M,,0000*6F
$GPGSA,A,3,01,26,27,28,17,04,08,20,,,,,1.7,0.9,1.4*3A
$GPGSV,3,1,12,17,69,348,35,28,62,061,31,04,35,191,22,27,33,310,16*78
$GPGSV,3,2,12,08,31,164,37,01,21,043,30,09,16,320,,20,13,088,28*75
$GPGSV,3,3,12,26,12,237,17,02,08,205,16,15,06,280,19,32,03,063,*70
$GPRMC,054502.000,A,3353.7435,N,09832.0209,W,0.61,96.73,020412,,,A*4B
$GPGGA,054503.000,3353.7435,N,09832.0209,W,1,08,0.9,326.3,M,-23.7,M,,0000*6F
$GPGSA,A,3,01,26,27,28,17,04,08,20,,,,,1.7,0.9,1.4*3A
$GPRMC,054503.000,A,3353.7435,N,09832.0209,W,0.06,190.91,020412,,,A*70
$GPGGA,054504.000,3353.7435,N,09832.0211,W,1,08,0.9,326.3,M,-23.7,M,,0000*61
$GPGSA,A,3,01,26,27,28,17,04,08,20,,,,,1.7,0.9,1.4*3A
$GPRMC,054504.000,A,3353.7435,N,09832.0211,W,0.37,287.23,020412,,,A*70
$GPGGA,054505.000,3353.7435,N,09832.0213,W,1,08,0.9,326.2,M,-23.7,M,,0000*63
$GPGSA,A,3,01,26,27,28,17,04,08,20,,,,,1.7,0.9,1.4*3A
$GPRMC,054505.000,A,3353.7435,N,09832.0213,W,0.55,282.77,020412,,,A*73
$GPGGA,054506.000,3353.7435,N,09832.0216,W,1,08,0.9,326.0,M,-23.7,M,,0000*67
$GPGSA,A,3,01,26,27,28,17,04,08,20,,,,,1.7,0.9,1.4*3A
$GPRMC,054506.000,A,3353.7435,N,09832.0216,W,0.49,276.75,020412,,,A*71
$GPGGA,054507.000,3353.7436,N,09832.0218,W,1,08,0.9,325.7,M,-23.7,M,,0000*6F
$GPGSA,A,3,01,26,27,28,17,04,08,20,,,,,1.7,0.9,1.4*3A
$GPGSV,3,1,12,17,69,348,35,28,62,061,32,04,35,191,22,27,33,310,15*78
$GPGSV,3,2,12,08,31,164,36,01,21,043,30,09,16,320,,20,13,088,28*74
$GPGSV,3,3,12,26,12,237,16,02,08,205,16,15,06,280,19,32,03,063,*71
$GPRMC,054507.000,A,3353.7436,N,09832.0218,W,0.59,285.43,020412,,,A*75
$GPGGA,054508.000,3353.7436,N,09832.0220,W,1,08,0.9,325.3,M,-23.7,M,,0000*6F
$GPGSA,A,3,01,26,27,28,17,04,08,20,,,,,1.7,0.9,1.4*3A
$GPRMC,054508.000,A,3353.7436,N,09832.0220,W,0.53,292.03,020412,,,A*79
$GPGGA,054509.000,3353.7437,N,09832.0223,W,1,08,0.9,325.0,M,-23.7,M,,0000*6F
$GPGSA,A,3,01,26,27,28,17,04,08,20,,,,,1.7,0.9,1.4*3A
$GPRMC,054509.000,A,3353.7437,N,09832.0223,W,0.46,305.70,020412,,,A*75
$GPGGA,054510.000,3353.7437,N,09832.0225,W,1,08,0.9,324.6,M,-23.7,M,,0000*66
$GPGSA,A,3,01,26,27,28,17,04,08,20,,,,,1.7,0.9,1.4*3A
$GPRMC,054510.000,A,3353.7437,N,09832.0225,W,0.44,299.25,020412,,,A*7D
$GPGGA,054511.000,3353.7438,N,09832.0227,W,1,08,0.9,324.3,M,-23.7,M,,0000*6F
$GPGSA,A,3,01,26,27,28,17,04,08,20,,,,,1.7,0.9,1.4*3A
$GPRMC,054511.000,A,3353.7438,N,09832.0227,W,0.39,308.51,020412,,,A*71
$GPGGA,054512.000,3353.7438,N,09832.0229,W,1,08,0.9,324.0,M,-23.7,M,,0000*61
$GPGSA,A,3,01,26,27,28,17,04,08,20,,,,,1.7,0.9,1.4*3A
$GPGSV,3,1,12,17,69,348,35,28,62,061,32,04,35,191,22,27,33,310,14*79
$GPGSV,3,2,12,08,31,164,36,01,21,043,30,09,16,320,,20,13,088,28*74
$GPGSV,3,3,12,26,12,237,17,02,08,205,17,15,06,280,19,32,03,063,*71
$GPRMC,054512.000,A,3353.7438,N,09832.0229,W,0.41,285.29,020412,,,A*78
$GPGGA,054513.000,3353.7438,N,09832.0231,W,1,08,0.9,323.7,M,-23.7,M,,0000*69
$GPGSA,A,3,01,26,27,28,17,04,08,20,,,,,1.7,0.9,1.4*3A
$GPRMC,054513.000,A,3353.7438,N,09832.0231,W,0.39,291.95,020412,,,A*7D
$GPGGA,054514.000,3353.7438,N,09832.0233,W,1,08,0.9,323.4,M,-23.7,M,,0000*6F
$GPGSA,A,3,01,26,27,28,17,04,08,20,,,,,1.7,0.9,1.4*3A
$GPRMC,054514.000,A,3353.7438,N,09832.0233,W,0.53,281.08,020412,,,A*71
$GPGGA,054515.000,3353.7439,N,09832.0237,W,1,08,0.9,323.0,M,-23.7,M,,0000*6F
$GPGSA,A,3,01,26,27,28,17,04,08,20,,,,,1.7,0.9,1.4*3A
$GPRMC,054515.000,A,3353.7439,N,09832.0237,W,0.85,282.78,020412,,,A*7A
$GPGGA,054516.000,3353.7439,N,09832.0240,W,1,08,0.9,322.5,M,-23.7,M,,0000*68
$GPGSA,A,3,01,26,27,28,17,04,08,20,,,,,1.7,0.9,1.4*3A
$GPRMC,054516.000,A,3353.7439,N,09832.0240,W,0.78,276.97,020412,,,A*71
$GPGGA,054517.000,3353.7439,N,09832.0243,W,1,08,0.9,322.1,M,-23.7,M,,0000*6E
$GPGSA,A,3,01,26,27,28,17,04,08,20,,,,,1.7,0.9,1.4*3A
$GPGSV,3,1,12,17,69,348,35,28,62,061,32,04,35,191,22,27,33,310,15*78
$GPGSV,3,2,12,08,31,164,37,01,21,043,30,09,16,320,,20,13,088,28*75
$GPGSV,3,3,12,26,12,237,16,02,08,205,17,15,06,280,18,32,03,063,*71
$GPRMC,054517.000,A,3353.7439,N,09832.0243,W,0.56,277.30,020412,,,A*73
$GPGGA,054518.000,3353.7439,N,09832.0244,W,1,08,0.9,321.8,M,-23.7,M,,0000*6C
$GPGSA,A,3,01,26,27,28,17,04,08,20,,,,,1.7,0.9,1.4*3A
$GPRMC,054518.000,A,3353.7439,N,09832.0244,W,0.07,328.38,020412,,,A*7C
$GPGGA,054519.000,3353.7439,N,09832.0243,W,1,06,2.1,321.6,M,-23.7,M,,0000*60
$GPGSA,A,3,01,28,17,04,08,20,,,,,,,3.4,2.1,2.6*31
$GPRMC,054519.000,A,3353.7439,N,09832.0243,W,0.47,89.18,020412,,,A*44
$GPGGA,054520.000,3353.7438,N,09832.0241,W,1,08,0.9,321.5,M,-23.7,M,,0000*6E
$GPGSA,A,3,01,26,27,28,17,04,08,20,,,,,1.7,0.9,1.4*3A
$GPRMC,054520.000,A,3353.7438,N,09832.0241,W,0.70,101.81,020412,,,A*78
$GPGGA,054521.000,3353.7438,N,09832.0239,W,1,08,0.9,321.5,M,-23.7,M,,0000*60
$GPGSA,A,3,01,26,27,28,17,04,08,20,,,,,1.7,0.9,1.4*3A
$GPRMC,054521.000,A,3353.7438,N,09832.0239,W,0.72,109.97,020412,,,A*7B
$GPGGA,054522.000,3353.7438,N,09832.0238,W,1,08,0.9,321.5,M,-23.7,M,,0000*62
$GPGSA,A,3,01,26,27,28,17,04,08,20,,,,,1.7,0.9,1.4*3A
$GPGSV,3,1,12,17,69,348,34,28,62,061,32,04,35,191,23,27,33,310,16*7B
$GPGSV,3,2,12,08,31,164,37,01,21,043,29,09,16,320,,20,13,088,29*7C
$GPGSV,3,3,12,26,12,237,18,02,08,205,16,15,06,280,18,32,03,063,*7E
$GPRMC,054522.000,A,3353.7438,N,09832.0238,W,0.22,96.70,020412,,,A*42
$GPGGA,054523.000,3353.7438,N,09832.0239,W,1,08,0.9,321.5,M,-23.7,M,,0000*62
$GPGSA,A,3,01,26,27,28,17,04,08,20,,,,,1.7,0.9,1.4*3A
$GPRMC,054523.000,A,3353.7438,N,09832.0239,W,0.07,280.78,020412,,,A*78
$GPGGA,054524.000,3353.7438,N,09832.0240,W,1,08,0.9,321.4,M,-23.7,M,,0000*6A
$GPGSA,A,3,01,26,27,28,17,04,08,20,,,,,1.7,0.9,1.4*3A
$GPRMC,054524.000,A,3353.7438,N,09832.0240,W,0.13,258.72,020412,,,A*7B
$GPGGA,054525.000,3353.7438,N,09832.0240,W,1,08,0.9,321.3,M,-23.7,M,,0000*6C
$GPGSA,A,3,01,26,27,28,17,04,08,20,,,,,1.7,0.9,1.4*3A
$GPRMC,054525.000,A,3353.7438,N,09832.0240,W,0.14,233.48,020412,,,A*79
$GPGGA,054526.000,3353.7438,N,09832.0241,W,1,05,2.6,321.2,M,-23.7,M,,0000*6F
$GPGSA,A,3,01,28,17,08,20,,,,,,,,4.0,2.6,3.0*36
$GPRMC,054526.000,A,3353.7438,N,09832.0241,W,0.13,273.79,020412,,,A*7A
$GPGGA,054527.000,3353.7438,N,09832.0242,W,1,05,2.6,321.1,M,-23.7,M,,0000*6E
$GPGSA,A,3,01,28,17,08,20,,,,,,,,4.0,2.6,3.0*36
$GPGSV,3,1,12,17,69,348,35,28,62,061,32,04,35,191,10,27,33,310,17*7B
$GPGSV,3,2,12,08,31,164,37,01,21,043,28,09,16,320,,20,13,088,29*7D
$GPGSV,3,3,12,26,12,237,18,02,08,205,17,15,06,280,19,32,03,063,*7E
$GPRMC,054527.000,A,3353.7438,N,09832.0242,W,0.20,330.71,020412,,,A*76
$GPGGA,054528.000,3353.7439,N,09832.0243,W,1,05,2.6,321.0,M,-23.7,M,,0000*60
$GPGSA,A,3,01,28,17,08,20,,,,,,,,4.0,2.6,3.0*36
$GPRMC,054528.000,A,3353.7439,N,09832.0243,W,0.28,324.54,020412,,,A*73
$GPGGA,054529.000,3353.7439,N,09832.0243,W,1,08,0.9,320.8,M,-23.7,M,,0000*68
$GPGSA,A,3,01,26,27,28,17,04,08,20,,,,,1.7,0.9,1.4*3A
$GPRMC,054529.000,A,3353.7439,N,09832.0243,W,0.07,295.70,020412,,,A*72
$GPGGA,054530.000,3353.7439,N,09832.0244,W,1,06,2.1,320.7,M,-23.7,M,,0000*6C
$GPGSA,A,3,01,28,17,04,08,20,,,,,,,3.4,2.1,2.6*31
$GPRMC,054530.000,A,3353.7439,N,09832.0244,W,0.08,162.88,020412,,,A*7E
$GPGGA,054531.000,3353.7439,N,09832.0244,W,1,08,0.9,320.6,M,-23.7,M,,0000*68
$GPGSA,A,3,01,26,27,28,17,04,08,20,,,,,1.7,0.9,1.4*3A
$GPRMC,054531.000,A,3353.7439,N,09832.0244,W,0.39,125.26,020412,,,A*7A
$GPGGA,054532.000,3353.7438,N,09832.0244,W,1,08,0.9,320.5,M,-23.7,M,,0000*69
$GPGSA,A,3,01,26,27,28,17,04,08,20,,,,,1.7,0.9,1.4*3A
$GPGSV,3,1,12,17,69,348,35,28,62,061,32,04,35,191,20,27,33,310,18*77
$GPGSV,3,2,12,08,31,164,37,01,21,043,28,09,16,320,,20,13,088,29*7D
$GPGSV,3,3,12,26,12,237,19,02,08,205,22,15,06,280,18,32,03,063,*78
$GPRMC,054532.000,A,3353.7438,N,09832.0244,W,0.27,136.45,020412,,,A*70
$GPGGA,054533.000,3353.7437,N,09832.0244,W,1,08,0.9,320.4,M,-23.7,M,,0000*66
$GPGSA,A,3,01,26,27,28,17,04,08,20,,,,,1.7,0.9,1.4*3A
$GPRMC,054533.000,A,3353.7437,N,09832.0244,W,0.22,163.81,020412,,,A*73
$GPGGA,054534.000,3353.7437,N,09832.0246,W,1,08,0.9,320.2,M,-23.7,M,,0000*65
$GPGSA,A,3,01,26,27,28,17,04,08,20,,,,,1.7,0.9,1.4*3A
$GPRMC,054534.000,A,3353.7437,N,09832.0246,W,0.16,208.49,020412,,,A*7B
$GPGGA,054535.000,3353.7437,N,09832.0248,W,1,08,0.9,319.9,M,-23.7,M,,0000*6B
$GPGSA,A,3,01,26,27,28,17,04,08,20,,,,,1.7,0.9,1.4*3A
$GPRMC,054535.000,A,3353.7437,N,09832.0248,W,0.23,267.30,020412,,,A*75
$GPGGA,054536.000,3353.7437,N,09832.0250,W,1,08,0.9,319.6,M,-23.7,M,,0000*6E
$GPGSA,A,3,01,26,27,28,17,04,08,20,,,,,1.7,0.9,1.4*3A
$GPRMC,054536.000,A,3353.7437,N,09832.0250,W,0.37,273.30,020412,,,A*7F
$GPGGA,054537.000,3353.7437,N,09832.0251,W,1,08,0.9,319.4,M,-23.7,M,,0000*6C
$GPGSA,A,3,01,26,27,28,17,04,08,20,,,,,1.7,0.9,1.4*3A
$GPGSV,3,1,12,17,69,348,35,28,62,061,32,04,35,191,21,27,33,310,19*77
$GPGSV,3,2,12,08,31,164,37,01,21,043,27,09,16,320,,20,13,088,29*72
$GPGSV,3,3,12,26,12,237,18,02,08,205,12,15,06,280,18,32,03,063,*7A
$GPRMC,054537.000,A,3353.7437,N,09832.0251,W,0.01,24.15,020412,,,A*4D
$GPGGA,054538.000,3353.7437,N,09832.0252,W,1,08,0.9,319.2,M,-23.7,M,,0000*66
$GPGSA,A,3,01,26,27,28,17,04,08,20,,,,,1.7,0.9,1.4*3A
$GPRMC,054538.000,A,3353.7437,N,09832.0252,W,0.03,81.22,020412,,,A*48
$GPGGA,054539.000,3353.7437,N,09832.0253,W,1,08,0.9,319.1,M,-23.7,M,,0000*65
$GPGSA,A,3,01,26,27,28,17,04,08,20,,,,,1.7,0.9,1.4*3A
$GPRMC,054539.000,A,3353.7437,N,09832.0253,W,0.07,244.75,020412,,,A*75
$GPGGA,054540.000,3353.7436,N,09832.0254,W,1,08,0.9,318.9,M,-23.7,M,,0000*64
$GPGSA,A,3,01,26,27,28,17,04,08,20,,,,,1.7,0.9,1.4*3A
$GPRMC,054540.000,A,3353.7436,N,09832.0254,W,0.07,195.98,020412,,,A*71
$GPGGA,054541.000,3353.7436,N,09832.0254,W,1,08,0.9,318.8,M,-23.7,M,,0000*64
$GPGSA,A,3,01,26,27,28,17,04,08,20,,,,,1.7,0.9,1.4*3A
$GPRMC,054541.000,A,3353.7436,N,09832.0254,W,0.17,128.70,020412,,,A*71
$GPGGA,054542.000,3353.7436,N,09832.0255,W,1,08,0.9,318.7,M,-23.7,M,,0000*69
$GPGSA,A,3,01,26,27,28,17,04,08,20,,,,,1.7,0.9,1.4*3A
$GPGSV,3,1,12,17,68,351,35,28,62,064,32,04,37,191,21,27,34,309,19*76
$GPGSV,3,2,12,08,30,164,37,01,20,042,24,09,17,319,,20,13,087,30*7C
$GPGSV,3,3,12,26,11,236,16,02,09,205,,15,06,279,17,32,03,061,*7F
$GPRMC,054542.000,A,3353.7436,N,09832.0255,W,0.11,167.32,020412,,,A*78
$GPGGA,054543.000,3353.7436,N,09832.0254,W,1,08,0.9,318.7,M,-23.7,M,,0000*69
$GPGSA,A,3,01,26,27,28,17,04,08,20,,,,,1.7,0.9,1.4*3A
$GPRMC,054543.000,A,3353.7436,N,09832.0254,W,0.29,125.10,020412,,,A*75
$GPGGA,054544.000,3353.7435,N,09832.0255,W,1,07,1.2,318.7,M,-23.7,M,,0000*69
$GPGSA,A,3,01,26,28,17,04,08,20,,,,,,1.8,1.2,1.4*3A
$GPRMC,054544.000,A,3353.7435,N,09832.0255,W,0.17,191.93,020412,,,A*79
$GPGGA,054545.000,3353.7435,N,09832.0256,W,1,07,1.2,318.7,M,-23.7,M,,0000*6B
$GPGSA,A,3,01,26,28,17,04,08,20,,,,,,1.8,1.2,1.4*3A
$GPRMC,054545.000,A,3353.7435,N,09832.0256,W,0.33,248.47,020412,,,A*73
$GPGGA,054546.000,3353.7435,N,09832.0257,W,1,07,1.2,318.6,M,-23.7,M,,0000*68
$GPGSA,A,3,01,26,28,17,04,08,20,,,,,,1.8,1.2,1.4*3A
$GPRMC,054546.000,A,3353.7435,N,09832.0257,W,0.35,264.79,020412,,,A*74
$GPGGA,054547.000,3353.7436,N,09832.0259,W,1,07,1.2,318.5,M,-23.7,M,,0000*67
$GPGSA,A,3,01,26,28,17,04,08,20,,,,,,1.8,1.2,1.4*3A
$GPGSV,3,1,12,17,68,351,35,28,62,064,32,04,37,191,22,27,34,309,*7D
$GPGSV,3,2,12,08,30,164,36,01,20,042,24,09,17,319,,20,13,087,30*7D
$GPGSV,3,3,12,26,11,236,15,02,09,205,,15,06,279,16,32,03,061,*7D
$GPRMC,054547.000,A,3353.7436,N,09832.0259,W,0.40,276.15,020412,,,A*73
$GPGGA,054548.000,3353.7436,N,09832.0260,W,1,07,1.2,318.3,M,-23.7,M,,0000*64
$GPGSA,A,3,01,26,28,17,04,08,20,,,,,,1.8,1.2,1.4*3A
$GPRMC,054548.000,A,3353.7436,N,09832.0260,W,0.33,282.74,020412,,,A*7E
$GPGGA,054549.000,3353.7437,N,09832.0262,W,1,07,1.2,318.0,M,-23.7,M,,0000*65
$GPGSA,A,3,01,26,28,17,04,08,20,,,,,,1.8,1.2,1.4*3A
$GPRMC,054549.000,A,3353.7437,N,09832.0262,W,0.42,279.47,020412,,,A*7E
$GPGGA,054550.000,3353.7437,N,09832.0264,W,1,07,1.2,317.7,M,-23.7,M,,0000*63
$GPGSA,A,3,01,26,28,17,04,08,20,,,,,,1.8,1.2,1.4*3A
$GPRMC,054550.000,A,3353.7437,N,09832.0264,W,0.64,260.56,020412,,,A*7C
$GPGGA,054551.000,3353.7437,N,09832.0266,W,1,07,1.2,317.5,M,-23.7,M,,0000*62
$GPGSA,A,3,01,26,28,17,04,08,20,,,,,,1.8,1.2,1.4*3A
$GPRMC,054551.000,A,3353.7437,N,09832.0266,W,0.61,269.66,020412,,,A*70
$GPGGA,054552.000,3353.7437,N,09832.0268,W,1,07,1.2,317.3,M,-23.7,M,,0000*69
$GPGSA,A,3,01,26,28,17,04,08,20,,,,,,1.8,1.2,1.4*3A
$GPGSV,3,1,12,17,68,351,35,28,62,064,32,04,37,191,23,27,34,309,*7C
$GPGSV,3,2,12,08,30,164,36,01,20,042,23,09,17,319,,20,13,087,30*7A
$GPGSV,3,3,12,26,11,236,16,02,09,205,20,15,06,279,14,32,03,061,*7E
$GPRMC,054552.000,A,3353.7437,N,09832.0268,W,0.65,264.98,020412,,,A*75
$GPGGA,054553.000,3353.7437,N,09832.0270,W,1,07,1.2,317.1,M,-23.7,M,,0000*63
$GPGSA,A,3,01,26,28,17,04,08,20,,,,,,1.8,1.2,1.4*3A
$GPRMC,054553.000,A,3353.7437,N,09832.0270,W,0.63,263.51,020412,,,A*79
$GPGGA,054554.000,3353.7437,N,09832.0271,W,1,07,1.2,317.0,M,-23.7,M,,0000*64
$GPGSA,A,3,01,26,28,17,04,08,20,,,,,,1.8,1.2,1.4*3A
$GPRMC,054554.000,A,3353.7437,N,09832.0271,W,0.30,279.07,020412,,,A*71
$GPGGA,054555.000,3353.7437,N,09832.0271,W,1,07,1.2,316.9,M,-23.7,M,,0000*6D
$GPGSA,A,3,01,26,28,17,04,08,20,,,,,,1.8,1.2,1.4*3A
$GPRMC,054555.000,A,3353.7437,N,09832.0271,W,0.05,330.90,020412,,,A*74
$GPGGA,054556.000,3353.7437,N,09832.0271,W,1,07,1.2,316.9,M,-23.7,M,,0000*6E
$GPGSA,A,3,01,26,28,17,04,08,20,,,,,,1.8,1.2,1.4*3A
$GPRMC,054556.000,A,3353.7437,N,09832.0271,W,0.11,98.22,020412,,,A*4A
$GPGGA,054557.000,3353.7437,N,09832.0271,W,1,07,1.2,317.0,M,-23.7,M,,0000*67
$GPGSA,A,3,01,26,28,17,04,08,20,,,,,,1.8,1.2,1.4*3A
$GPGSV,3,1,12,17,68,351,36,28,62,064,32,04,37,191,23,27,34,309,*7F
$GPGSV,3,2,12,08,30,164,36,01,20,042,23,09,17,319,,20,13,087,30*7A
$GPGSV,3,3,12,26,11,236,17,02,09,205,20,15,06,279,,32,03,061,*7A
$GPRMC,054557.000,A,3353.7437,N,09832.0271,W,0.21,115.98,020412,,,A*7D
$GPGGA,054558.000,3353.7436,N,09832.0270,W,1,07,1.2,317.2,M,-23.7,M,,0000*6A
$GPGSA,A,3,01,26,28,17,04,08,20,,,,,,1.8,1.2,1.4*3A
$GPRMC,054558.000,A,3353.7436,N,09832.0270,W,0.35,100.33,020412,,,A*72
$GPGGA,054559.000,3353.7435,N,09832.0269,W,1,07,1.2,317.5,M,-23.7,M,,0000*67
$GPGSA,A,3,01,26,28,17,04,08,20,,,,,,1.8,1.2,1.4*3A
