$GPGGA,140047.000,3353.7518,N,09832.0269,W,2,05,1.6,298.1,M,-23.7,M,0.8,0000*46
$GPGSA,A,3,29,26,18,21,15,,,,,,,,4.2,1.6,3.8*39
$GPGSV,3,1,12,15,66,095,28,21,58,328,33,18,54,278,14,29,50,184,40*7A
$GPGSV,3,2,12,26,30,047,39,22,15,255,,27,14,115,23,06,11,319,*7A
$GPGSV,3,3,12,09,08,137,20,05,06,061,26,16,06,298,,30,03,272,*79
$GPRMC,140047.000,A,3353.7518,N,09832.0269,W,0.12,224.36,300312,,,D*7E
$GPGGA,140048.000,3353.7518,N,09832.0269,W,2,05,1.6,298.0,M,-23.7,M,1.8,0000*49
$GPGSA,A,3,29,26,18,21,15,,,,,,,,4.2,1.6,3.8*39
$GPRMC,140048.000,A,3353.7518,N,09832.0269,W,0.11,251.06,300312,,,D*73
$GPGGA,140049.000,3353.7518,N,09832.0270,W,2,05,1.6,297.8,M,-23.7,M,2.8,0000*44
$GPGSA,A,3,29,26,18,21,15,,,,,,,,4.2,1.6,3.8*39
$GPRMC,140049.000,A,3353.7518,N,09832.0270,W,0.11,248.22,300312,,,D*74
$GPGGA,140050.000,3353.7517,N,09832.0264,W,2,05,1.6,299.7,M,-23.7,M,3.8,0000*46
$GPGSA,A,3,29,26,18,21,15,,,,,,,,4.2,1.6,3.8*39
$GPRMC,140050.000,A,3353.7517,N,09832.0264,W,0.06,189.84,300312,,,D*72
$GPGGA,140051.000,3353.7517,N,09832.0263,W,2,05,1.6,300.2,M,-23.7,M,0.8,0000*47
$GPGSA,A,3,29,26,18,21,15,,,,,,,,4.2,1.6,3.8*39
$GPRMC,140051.000,A,3353.7517,N,09832.0263,W,0.09,285.65,300312,,,D*7B
$GPGGA,140052.000,3353.7517,N,09832.0262,W,2,05,1.6,300.7,M,-23.7,M,0.8,0000*40
$GPGSA,A,3,29,26,18,21,15,,,,,,,,4.2,1.6,3.8*39
$GPGSV,3,1,12,15,66,095,29,21,58,328,32,18,54,278,14,29,50,184,41*7B
$GPGSV,3,2,12,26,30,047,38,22,15,255,,27,14,115,,06,11,319,*7A
$GPGSV,3,3,12,09,08,137,17,05,06,061,25,16,06,298,,30,03,272,*7E
$GPRMC,140052.000,A,3353.7517,N,09832.0262,W,0.16,324.92,300312,,,D*75
$GPGGA,140053.000,3353.7518,N,09832.0260,W,2,07,1.1,301.6,M,-23.7,M,0.8,0000*49
$GPGSA,A,3,22,29,27,26,18,21,15,,,,,,1.9,1.1,1.5*3A
$GPRMC,140053.000,A,3353.7518,N,09832.0260,W,0.21,316.43,300312,,,D*70
$GPGGA,140054.000,3353.7518,N,09832.0259,W,2,07,1.1,302.2,M,-23.7,M,1.8,0000*42
$GPGSA,A,3,22,29,27,26,18,21,15,,,,,,1.9,1.1,1.5*3A
$GPRMC,140054.000,A,3353.7518,N,09832.0259,W,0.24,319.81,300312,,,D*79
$GPGGA,140055.000,3353.7519,N,09832.0259,W,2,07,1.1,302.4,M,-23.7,M,2.8,0000*47
$GPGSA,A,3,22,29,27,26,18,21,15,,,,,,1.9,1.1,1.5*3A
$GPRMC,140055.000,A,3353.7519,N,09832.0259,W,0.23,315.10,300312,,,D*7A
$GPGGA,140056.000,3353.7519,N,09832.0258,W,2,07,1.1,303.1,M,-23.7,M,3.8,0000*40
$GPGSA,A,3,22,29,27,26,18,21,15,,,,,,1.9,1.1,1.5*3A
$GPRMC,140056.000,A,3353.7519,N,09832.0258,W,0.21,322.00,300312,,,D*7F
$GPGGA,140057.000,3353.7520,N,09832.0257,W,2,07,1.1,303.8,M,-23.7,M,0.8,0000*4E
$GPGSA,A,3,22,29,27,26,18,21,15,,,,,,1.9,1.1,1.5*3A
$GPGSV,3,1,12,15,66,095,29,21,58,328,32,18,54,278,15,29,50,184,41*7A
$GPGSV,3,2,12,26,30,047,38,22,15,255,22,27,14,115,23,06,11,319,*7B
$GPGSV,3,3,12,09,08,137,17,05,06,061,25,16,06,298,,30,03,272,*7E
$GPRMC,140057.000,A,3353.7520,N,09832.0257,W,0.12,323.50,300312,,,D*7F
$GPGGA,140058.000,3353.7519,N,09832.0256,W,2,07,1.1,304.3,M,-23.7,M,0.8,0000*46
$GPGSA,A,3,22,29,27,26,18,21,15,,,,,,1.9,1.1,1.5*3A
$GPRMC,140058.000,A,3353.7519,N,09832.0256,W,0.48,117.58,300312,,,D*79
$GPGGA,140059.000,3353.7518,N,09832.0253,W,2,06,1.5,304.7,M,-23.7,M,0.8,0000*42
$GPGSA,A,3,29,27,26,18,21,15,,,,,,,3.0,1.5,2.6*35
$GPRMC,140059.000,A,3353.7518,N,09832.0253,W,0.73,115.22,300312,,,D*7B
$GPGGA,140100.000,3353.7517,N,09832.0250,W,2,06,1.5,305.1,M,-23.7,M,1.8,0000*45
$GPGSA,A,3,29,27,26,18,21,15,,,,,,,3.0,1.5,2.6*35
$GPRMC,140100.000,A,3353.7517,N,09832.0250,W,0.80,115.74,300312,,,D*75
$GPGGA,140101.000,3353.7517,N,09832.0248,W,2,06,1.5,305.5,M,-23.7,M,0.8,0000*48
$GPGSA,A,3,29,27,26,18,21,15,,,,,,,3.0,1.5,2.6*35
$GPRMC,140101.000,A,3353.7517,N,09832.0248,W,0.57,116.71,300312,,,D*71
$GPGGA,140102.000,3353.7516,N,09832.0246,W,2,06,1.5,305.9,M,-23.7,M,1.8,0000*49
$GPGSA,A,3,29,27,26,18,21,15,,,,,,,3.0,1.5,2.6*35
$GPGSV,3,1,12,15,66,095,29,21,58,328,32,18,54,278,18,29,50,184,41*77
$GPGSV,3,2,12,26,30,047,38,22,15,255,,27,14,115,24,06,11,319,*7C
$GPGSV,3,3,12,09,08,137,18,05,06,061,25,16,06,298,,30,03,272,*71
$GPRMC,140102.000,A,3353.7516,N,09832.0246,W,0.64,116.02,300312,,,D*79
$GPGGA,140103.000,3353.7516,N,09832.0244,W,2,06,1.5,306.2,M,-23.7,M,0.8,0000*43
$GPGSA,A,3,29,27,26,18,21,15,,,,,,,3.1,1.5,2.6*34
$GPRMC,140103.000,A,3353.7516,N,09832.0244,W,0.59,113.80,300312,,,D*7B
$GPGGA,140104.000,3353.7516,N,09832.0244,W,2,06,1.5,306.3,M,-23.7,M,0.8,0000*45
$GPGSA,A,3,29,27,26,18,21,15,,,,,,,3.1,1.5,2.6*34
$GPRMC,140104.000,A,3353.7516,N,09832.0244,W,0.16,75.78,300312,,,D*41
$GPGGA,140105.000,3353.7516,N,09832.0244,W,2,06,1.5,306.5,M,-23.7,M,0.8,0000*42
$GPGSA,A,3,29,27,26,18,21,15,,,,,,,3.1,1.5,2.6*34
$GPRMC,140105.000,A,3353.7516,N,09832.0244,W,0.35,101.90,300312,,,D*75
$GPGGA,140106.000,3353.7516,N,09832.0243,W,2,06,1.5,306.7,M,-23.7,M,1.8,0000*45
$GPGSA,A,3,29,27,26,18,21,15,,,,,,,3.1,1.5,2.6*34
$GPRMC,140106.000,A,3353.7516,N,09832.0243,W,0.38,104.49,300312,,,D*7D
$GPGGA,140107.000,3353.7516,N,09832.0243,W,2,06,1.5,306.7,M,-23.7,M,0.8,0000*45
$GPGSA,A,3,29,27,26,18,21,15,,,,,,,3.1,1.5,2.6*34
$GPGSV,3,1,12,15,66,095,29,21,58,328,32,18,54,278,22,29,50,184,41*7E
$GPGSV,3,2,12,26,30,047,38,22,15,255,,27,14,115,26,06,11,319,*7E
$GPGSV,3,3,12,09,08,137,18,05,06,061,25,16,06,298,,30,03,272,*71
$GPRMC,140107.000,A,3353.7516,N,09832.0243,W,0.26,93.63,300312,,,D*44
$GPGGA,140108.000,3353.7516,N,09832.0243,W,2,06,1.5,306.9,M,-23.7,M,1.8,0000*45
$GPGSA,A,3,29,27,26,18,21,15,,,,,,,3.1,1.5,2.6*34
$GPRMC,140108.000,A,3353.7516,N,09832.0243,W,0.25,95.95,300312,,,D*47
$GPGGA,140109.000,3353.7516,N,09832.0242,W,2,06,1.5,307.1,M,-23.7,M,0.8,0000*4D
$GPGSA,A,3,29,27,26,18,21,15,,,,,,,3.1,1.5,2.6*34
$GPRMC,140109.000,A,3353.7516,N,09832.0242,W,0.46,103.30,300312,,,D*73
$GPGGA,140110.000,3353.7516,N,09832.0241,W,2,06,1.5,307.2,M,-23.7,M,0.8,0000*45
$GPGSA,A,3,29,27,26,18,21,15,,,,,,,3.1,1.5,2.6*34
$GPRMC,140110.000,A,3353.7516,N,09832.0241,W,0.31,111.01,300312,,,D*79
$GPGGA,140111.000,3353.7516,N,09832.0240,W,2,06,1.5,307.4,M,-23.7,M,0.8,0000*43
$GPGSA,A,3,29,27,26,18,21,15,,,,,,,3.1,1.5,2.6*34
$GPRMC,140111.000,A,3353.7516,N,09832.0240,W,0.25,106.95,300312,,,D*77
$GPGGA,140112.000,3353.7516,N,09832.0240,W,2,06,1.5,307.5,M,-23.7,M,1.8,0000*40
$GPGSA,A,3,29,27,26,18,21,15,,,,,,,3.1,1.5,2.6*34
$GPGSV,3,1,12,15,66,095,29,21,58,328,32,18,54,278,25,29,50,184,40*78
$GPGSV,3,2,12,26,30,047,38,22,15,255,,27,14,115,27,06,11,319,*7F
$GPGSV,3,3,12,09,08,137,17,05,06,061,26,16,06,298,,30,03,272,*7D
$GPRMC,140112.000,A,3353.7516,N,09832.0240,W,0.34,109.87,300312,,,D*78
$GPGGA,140113.000,3353.7516,N,09832.0239,W,2,06,1.5,307.5,M,-23.7,M,0.8,0000*4E
$GPGSA,A,3,29,27,26,18,21,15,,,,,,,3.1,1.5,2.6*34
$GPRMC,140113.000,A,3353.7516,N,09832.0239,W,0.21,109.40,300312,,,D*78
$GPGGA,140114.000,3353.7516,N,09832.0239,W,2,06,1.5,307.6,M,-23.7,M,0.8,0000*4A
$GPGSA,A,3,29,27,26,18,21,15,,,,,,,3.1,1.5,2.6*34
$GPRMC,140114.000,A,3353.7516,N,09832.0239,W,0.43,110.98,300312,,,D*76
$GPGGA,140115.000,3353.7516,N,09832.0240,W,2,06,1.5,307.4,M,-23.7,M,0.8,0000*47
$GPGSA,A,3,29,27,26,18,21,15,,,,,,,3.1,1.5,2.6*34
$GPRMC,140115.000,A,3353.7516,N,09832.0240,W,0.05,166.61,300312,,,D*7C
$GPGGA,140116.000,3353.7516,N,09832.0241,W,2,07,1.1,307.2,M,-23.7,M,0.8,0000*46
$GPGSA,A,3,29,27,22,26,18,21,15,,,,,,1.9,1.1,1.5*3A
$GPRMC,140116.000,A,3353.7516,N,09832.0241,W,0.12,90.13,300312,,,D*45
$GPGGA,140117.000,3353.7516,N,09832.0242,W,2,07,1.1,306.8,M,-23.7,M,0.8,0000*4F
$GPGSA,A,3,29,27,22,26,18,21,15,,,,,,1.9,1.1,1.5*3A
$GPGSV,3,1,12,15,66,095,30,21,58,328,32,18,54,278,25,29,50,184,40*70
$GPGSV,3,2,12,26,30,047,38,22,15,255,21,27,14,115,27,06,11,319,*7C
$GPGSV,3,3,12,09,08,137,16,05,06,061,26,16,06,298,,30,03,272,*7C
$GPRMC,140117.000,A,3353.7516,N,09832.0242,W,0.13,291.26,300312,,,D*73
$GPGGA,140118.000,3353.7517,N,09832.0243,W,2,07,1.1,306.8,M,-23.7,M,1.8,0000*41
$GPGSA,A,3,29,27,22,26,18,21,15,,,,,,1.9,1.1,1.5*3A
$GPRMC,140118.000,A,3353.7517,N,09832.0243,W,0.30,110.73,300312,,,D*77
$GPGGA,140119.000,3353.7517,N,09832.0243,W,2,06,1.5,306.6,M,-23.7,M,0.8,0000*4A
$GPGSA,A,3,29,27,26,18,21,15,,,,,,,3.1,1.5,2.6*34
$GPRMC,140119.000,A,3353.7517,N,09832.0243,W,0.07,291.11,300312,,,D*7C
$GPGGA,140120.000,3353.7517,N,09832.0244,W,2,06,1.5,306.4,M,-23.7,M,1.8,0000*44
$GPGSA,A,3,29,27,26,18,21,15,,,,,,,3.1,1.5,2.6*34
$GPRMC,140120.000,A,3353.7517,N,09832.0244,W,0.04,313.77,300312,,,D*79
$GPGGA,140121.000,3353.7517,N,09832.0245,W,2,06,1.5,306.2,M,-23.7,M,0.8,0000*43
$GPGSA,A,3,29,27,26,18,21,15,,,,,,,3.1,1.5,2.6*34
$GPRMC,140121.000,A,3353.7517,N,09832.0245,W,0.12,91.86,300312,,,D*49
$GPGGA,140122.000,3353.7518,N,09832.0245,W,2,06,1.5,306.0,M,-23.7,M,0.8,0000*4D
$GPGSA,A,3,29,27,26,18,21,15,,,,,,,3.1,1.5,2.6*34
$GPGSV,3,1,12,15,66,095,30,21,58,328,32,18,54,278,26,29,50,184,40*73
$GPGSV,3,2,12,26,30,047,38,22,15,255,,27,14,115,27,06,11,319,*7F
$GPGSV,3,3,12,09,08,137,15,05,06,061,27,16,06,298,,30,03,272,*7E
$GPRMC,140122.000,A,3353.7518,N,09832.0245,W,0.12,124.88,300312,,,D*74
$GPGGA,140123.000,3353.7517,N,09832.0245,W,2,06,1.5,305.8,M,-23.7,M,0.8,0000*48
$GPGSA,A,3,29,27,26,18,21,15,,,,,,,3.1,1.5,2.6*34
$GPRMC,140123.000,A,3353.7517,N,09832.0245,W,0.12,126.97,300312,,,D*76
$GPGGA,140124.000,3353.7517,N,09832.0246,W,2,06,1.5,305.6,M,-23.7,M,1.8,0000*43
$GPGSA,A,3,29,27,26,18,21,15,,,,,,,3.1,1.5,2.6*34
$GPRMC,140124.000,A,3353.7517,N,09832.0246,W,0.13,125.37,300312,,,D*7A
$GPGGA,140125.000,3353.7517,N,09832.0246,W,2,06,1.5,305.4,M,-23.7,M,2.8,0000*43
$GPGSA,A,3,29,27,26,18,21,15,,,,,,,3.1,1.5,2.6*34
$GPRMC,140125.000,A,3353.7517,N,09832.0246,W,0.12,127.02,300312,,,D*7E
$GPGGA,140126.000,3353.7517,N,09832.0247,W,2,06,1.5,305.1,M,-23.7,M,3.8,0000*45
$GPGSA,A,3,29,27,26,18,21,15,,,,,,,3.1,1.5,2.6*34
$GPRMC,140126.000,A,3353.7517,N,09832.0247,W,0.12,127.97,300312,,,D*70
$GPGGA,140127.000,3353.7517,N,09832.0247,W,2,06,1.5,304.8,M,-23.7,M,0.8,0000*4F
$GPGSA,A,3,29,27,26,18,21,15,,,,,,,3.1,1.5,2.6*34
$GPGSV,3,1,12,15,66,095,30,21,58,328,32,18,54,278,25,29,50,184,40*70
$GPGSV,3,2,12,26,30,047,38,22,15,255,,27,14,115,28,06,11,319,*70
$GPGSV,3,3,12,09,08,137,18,05,06,061,27,16,06,298,,30,03,272,*73
$GPRMC,140127.000,A,3353.7517,N,09832.0247,W,0.08,193.81,300312,,,D*72
$GPGGA,140128.000,3353.7517,N,09832.0248,W,2,06,1.5,304.6,M,-23.7,M,0.8,0000*41
$GPGSA,A,3,29,27,26,18,21,15,,,,,,,3.1,1.5,2.6*34
$GPRMC,140128.000,A,3353.7517,N,09832.0248,W,0.02,126.24,300312,,,D*79
$GPGGA,140129.000,3353.7518,N,09832.0250,W,2,07,1.1,304.1,M,-23.7,M,0.8,0000*44
$GPGSA,A,3,22,29,27,26,18,21,15,,,,,,1.9,1.1,1.5*3A
$GPRMC,140129.000,A,3353.7518,N,09832.0250,W,0.15,278.90,300312,,,D*7F
$GPGGA,140130.000,3353.7518,N,09832.0252,W,2,07,1.1,303.5,M,-23.7,M,1.8,0000*4C
$GPGSA,A,3,22,29,27,26,18,21,15,,,,,,1.9,1.1,1.5*3A
$GPRMC,140130.000,A,3353.7518,N,09832.0252,W,0.26,276.22,300312,,,D*72
$GPGGA,140131.000,3353.7518,N,09832.0254,W,2,07,1.1,302.9,M,-23.7,M,2.8,0000*45
$GPGSA,A,3,22,29,27,26,18,21,15,,,,,,1.9,1.1,1.5*3A
$GPRMC,140131.000,A,3353.7518,N,09832.0254,W,0.32,275.79,300312,,,D*7D
$GPGGA,140132.000,3353.7519,N,09832.0254,W,2,07,1.1,302.7,M,-23.7,M,0.8,0000*4B
$GPGSA,A,3,22,29,27,26,18,21,15,,,,,,1.9,1.1,1.5*3A
$GPGSV,3,1,12,15,66,095,31,21,58,328,33,18,54,278,25,29,50,184,40*70
$GPGSV,3,2,12,26,30,047,38,22,15,255,21,27,14,115,28,06,11,319,*73
$GPGSV,3,3,12,09,08,137,24,05,06,061,27,16,06,298,,30,03,272,*7C
$GPRMC,140132.000,A,3353.7519,N,09832.0254,W,0.07,273.08,300312,,,D*79
$GPGGA,140133.000,3353.7519,N,09832.0255,W,2,07,1.1,302.6,M,-23.7,M,0.8,0000*4A
$GPGSA,A,3,22,29,27,26,18,21,15,,,,,,1.9,1.1,1.5*3A
$GPRMC,140133.000,A,3353.7519,N,09832.0255,W,0.03,11.85,300312,,,D*4E
$GPGGA,140134.000,3353.7519,N,09832.0255,W,2,07,1.1,302.5,M,-23.7,M,0.8,0000*4E
$GPGSA,A,3,22,29,27,26,18,21,15,,,,,,1.9,1.1,1.5*3A
$GPRMC,140134.000,A,3353.7519,N,09832.0255,W,0.09,122.75,300312,,,D*7D
$GPGGA,140135.000,3353.7519,N,09832.0255,W,2,07,1.1,302.1,M,-23.7,M,0.8,0000*4B
$GPGSA,A,3,22,29,27,26,18,21,15,,,,,,1.9,1.1,1.5*3A
$GPRMC,140135.000,A,3353.7519,N,09832.0255,W,0.18,264.14,300312,,,D*7A
$GPGGA,140136.000,3353.7519,N,09832.0256,W,2,07,1.1,302.0,M,-23.7,M,1.8,0000*4B
$GPGSA,A,3,22,29,27,26,18,21,15,,,,,,1.9,1.1,1.5*3A
$GPRMC,140136.000,A,3353.7519,N,09832.0256,W,0.09,118.48,300312,,,D*7B
$GPGGA,140137.000,3353.7519,N,09832.0256,W,2,07,1.1,301.8,M,-23.7,M,2.8,0000*42
$GPGSA,A,3,22,29,27,26,18,21,15,,,,,,1.9,1.1,1.5*3A
$GPGSV,3,1,12,15,66,095,31,21,58,328,33,18,54,278,26,29,50,184,40*73
$GPGSV,3,2,12,26,30,047,37,22,15,255,21,27,14,115,29,06,11,319,*7D
$GPGSV,3,3,12,09,08,137,24,05,06,061,26,16,06,298,,30,03,272,*7D
$GPRMC,140137.000,A,3353.7519,N,09832.0256,W,0.07,134.26,300312,,,D*72
$GPGGA,140138.000,3353.7519,N,09832.0255,W,2,07,1.1,301.7,M,-23.7,M,3.8,0000*40
$GPGSA,A,3,22,29,27,26,18,21,15,,,,,,1.9,1.1,1.5*3A
$GPRMC,140138.000,A,3353.7519,N,09832.0255,W,0.13,109.85,300312,,,D*7C
$GPGGA,140139.000,3353.7519,N,09832.0256,W,2,07,1.1,301.5,M,-23.7,M,0.8,0000*43
$GPGSA,A,3,22,29,27,26,18,21,15,,,,,,1.9,1.1,1.5*3A
$GPRMC,140139.000,A,3353.7519,N,09832.0256,W,0.08,207.74,300312,,,D*77
$GPGGA,140140.000,3353.7519,N,09832.0256,W,2,06,1.5,301.4,M,-23.7,M,0.8,0000*49
$GPGSA,A,3,29,27,26,18,21,15,,,,,,,3.1,1.5,2.7*35
$GPRMC,140140.000,A,3353.7519,N,09832.0256,W,0.02,203.29,300312,,,D*7F
$GPGGA,140141.000,3353.7519,N,09832.0256,W,2,06,1.5,301.2,M,-23.7,M,0.8,0000*4E
$GPGSA,A,3,29,27,26,18,21,15,,,,,,,3.1,1.5,2.7*35
$GPRMC,140141.000,A,3353.7519,N,09832.0256,W,0.04,141.70,300312,,,D*71
$GPGGA,140142.000,3353.7519,N,09832.0257,W,2,06,1.5,301.0,M,-23.7,M,1.8,0000*4F
$GPGSA,A,3,29,27,26,18,21,15,,,,,,,3.1,1.5,2.7*35
$GPGSV,3,1,12,15,66,095,31,21,58,328,33,18,54,278,26,29,50,184,40*73
$GPGSV,3,2,12,26,30,047,37,22,15,255,,27,14,115,29,06,11,319,*7E
$GPGSV,3,3,12,09,08,137,24,05,06,061,26,16,06,298,,30,03,272,*7D
$GPRMC,140142.000,A,3353.7519,N,09832.0257,W,0.02,150.82,300312,,,D*78
$GPGGA,140143.000,3353.7520,N,09832.0257,W,2,06,1.5,300.9,M,-23.7,M,2.8,0000*4F
$GPGSA,A,3,29,27,26,18,21,15,,,,,,,3.1,1.5,2.7*35
$GPRMC,140143.000,A,3353.7520,N,09832.0257,W,0.02,173.69,300312,,,D*77
$GPGGA,140144.000,3353.7520,N,09832.0257,W,2,06,1.5,300.7,M,-23.7,M,3.8,0000*47
$GPGSA,A,3,29,27,26,18,21,15,,,,,,,3.1,1.5,2.7*35
$GPRMC,140144.000,A,3353.7520,N,09832.0257,W,0.03,145.49,300312,,,D*76
$GPGGA,140145.000,3353.7520,N,09832.0258,W,2,06,1.5,300.5,M,-23.7,M,0.8,0000*48
$GPGSA,A,3,29,27,26,18,21,15,,,,,,,3.1,1.5,2.7*35
$GPRMC,140145.000,A,3353.7520,N,09832.0258,W,0.05,106.18,300312,,,D*7D
$GPGGA,140146.000,3353.7520,N,09832.0258,W,2,06,1.5,300.2,M,-23.7,M,0.8,0000*4C
$GPGSA,A,3,29,27,26,18,21,15,,,,,,,3.1,1.5,2.7*35
$GPRMC,140146.000,A,3353.7520,N,09832.0258,W,0.07,165.45,300312,,,D*71
$GPGGA,140147.000,3353.7520,N,09832.0258,W,2,06,1.5,300.0,M,-23.7,M,0.8,0000*4F
$GPGSA,A,3,29,27,26,18,21,15,,,,,,,3.1,1.5,2.7*35
$GPGSV,3,1,12,15,66,095,31,21,58,328,33,18,54,278,26,29,50,184,40*73
$GPGSV,3,2,12,26,30,047,37,22,15,255,,27,14,115,28,06,11,319,*7F
$GPGSV,3,3,12,09,08,137,25,05,06,061,25,16,06,298,,30,03,272,*7F
$GPRMC,140147.000,A,3353.7520,N,09832.0258,W,0.08,175.81,300312,,,D*76
$GPGGA,140148.000,3353.7520,N,09832.0259,W,2,06,1.5,299.8,M,-23.7,M,0.8,0000*48
$GPGSA,A,3,29,27,26,18,21,15,,,,,,,3.1,1.5,2.7*35
$GPRMC,140148.000,A,3353.7520,N,09832.0259,W,0.09,162.08,300312,,,D*7E
$GPGGA,140149.000,3353.7520,N,09832.0259,W,2,06,1.5,299.5,M,-23.7,M,0.8,0000*44
$GPGSA,A,3,29,27,26,18,21,15,,,,,,,3.1,1.5,2.7*35
$GPRMC,140149.000,A,3353.7520,N,09832.0259,W,0.07,165.72,300312,,,D*7B
$GPGGA,140150.000,3353.7519,N,09832.0259,W,2,06,1.5,299.3,M,-23.7,M,1.8,0000*41
$GPGSA,A,3,29,27,26,18,21,15,,,,,,,3.1,1.5,2.7*35
$GPRMC,140150.000,A,3353.7519,N,09832.0259,W,0.08,182.44,300312,,,D*7A
$GPGGA,140151.000,3353.7519,N,09832.0260,W,2,06,1.5,299.1,M,-23.7,M,0.8,0000*49
$GPGSA,A,3,29,27,26,18,21,15,,,,,,,3.1,1.5,2.7*35
$GPRMC,140151.000,A,3353.7519,N,09832.0260,W,0.02,195.71,300312,,,D*7B
$GPGGA,140152.000,3353.7520,N,09832.0260,W,2,06,1.5,298.9,M,-23.7,M,0.8,0000*49
$GPGSA,A,3,29,27,26,18,21,15,,,,,,,3.1,1.5,2.7*35
$GPGSV,3,1,12,15,66,095,30,21,58,328,33,18,54,278,26,29,50,184,40*72
$GPGSV,3,2,12,26,30,047,37,22,15,255,,27,14,115,27,06,11,319,*70
$GPGSV,3,3,12,09,08,137,26,05,06,061,26,16,06,298,,30,03,272,*7F
$GPRMC,140152.000,A,3353.7520,N,09832.0260,W,0.04,105.64,300312,,,D*79
$GPGGA,140153.000,3353.7520,N,09832.0260,W,2,06,1.5,298.8,M,-23.7,M,0.8,0000*49
$GPGSA,A,3,29,27,26,18,21,15,,,,,,,3.1,1.5,2.7*35
$GPRMC,140153.000,A,3353.7520,N,09832.0260,W,0.03,113.58,300312,,,D*77
$GPGGA,140154.000,3353.7520,N,09832.0260,W,2,06,1.5,298.6,M,-23.7,M,0.8,0000*40
$GPGSA,A,3,29,27,26,18,21,15,,,,,,,3.1,1.5,2.7*35
$GPRMC,140154.000,A,3353.7520,N,09832.0260,W,0.03,113.05,300312,,,D*78
$GPGGA,140155.000,3353.7520,N,09832.0261,W,2,07,1.1,298.3,M,-23.7,M,1.8,0000*41
$GPGSA,A,3,22,29,27,26,18,21,15,,,,,,1.9,1.1,1.5*3A
$GPRMC,140155.000,A,3353.7520,N,09832.0261,W,0.25,284.87,300312,,,D*7B
$GPGGA,140156.000,3353.7520,N,09832.0261,W,2,07,1.1,298.4,M,-23.7,M,2.8,0000*46
$GPGSA,A,3,22,29,27,26,18,21,15,,,,,,1.9,1.1,1.5*3A
$GPRMC,140156.000,A,3353.7520,N,09832.0261,W,0.17,96.80,300312,,,D*4F
$GPGGA,140157.000,3353.7520,N,09832.0260,W,2,06,1.5,298.2,M,-23.7,M,0.8,0000*47
$GPGSA,A,3,29,27,26,18,21,15,,,,,,,3.1,1.5,2.7*35
$GPGSV,3,1,12,15,66,095,30,21,58,328,33,18,54,278,25,29,50,184,40*71
$GPGSV,3,2,12,26,30,047,37,22,15,255,20,27,14,115,26,06,11,319,*73
$GPGSV,3,3,12,09,08,137,26,05,06,061,26,16,06,298,,30,03,272,*7F
$GPRMC,140157.000,A,3353.7520,N,09832.0260,W,0.14,141.79,300312,,,D*71
$GPGGA,140158.000,3353.7520,N,09832.0260,W,2,06,1.5,298.1,M,-23.7,M,0.8,0000*4B
$GPGSA,A,3,29,27,26,18,21,15,,,,,,,3.1,1.5,2.7*35
$GPRMC,140158.000,A,3353.7520,N,09832.0260,W,0.09,172.11,300312,,,D*7C
$GPGGA,140159.000,3353.7520,N,09832.0260,W,2,06,1.5,298.0,M,-23.7,M,0.8,0000*4B
$GPGSA,A,3,29,27,26,18,21,15,,,,,,,3.1,1.5,2.7*35
$GPRMC,140159.000,A,3353.7520,N,09832.0260,W,0.14,130.54,300312,,,D*76
$GPGGA,140200.000,3353.7520,N,09832.0261,W,2,06,1.5,297.8,M,-23.7,M,1.8,0000*43
$GPGSA,A,3,29,27,26,18,21,15,,,,,,,3.1,1.5,2.7*35
$GPRMC,140200.000,A,3353.7520,N,09832.0261,W,0.15,261.73,300312,,,D*7B
$GPGGA,140201.000,3353.7519,N,09832.0261,W,2,06,1.5,297.8,M,-23.7,M,0.8,0000*49
$GPGSA,A,3,29,27,26,18,21,15,,,,,,,3.1,1.5,2.7*35
$GPRMC,140201.000,A,3353.7519,N,09832.0261,W,0.09,139.52,300312,,,D*70
$GPGGA,140202.000,3353.7519,N,09832.0260,W,2,06,1.5,297.6,M,-23.7,M,0.8,0000*45
$GPGSA,A,3,29,27,26,18,21,15,,,,,,,3.1,1.5,2.7*35
$GPGSV,3,1,12,15,66,095,29,21,58,328,33,18,54,278,25,29,50,184,40*79
$GPGSV,3,2,12,26,30,047,38,22,15,255,,27,14,115,23,06,11,319,*7B
$GPGSV,3,3,12,09,08,137,26,05,06,061,26,16,06,298,,30,03,272,*7F
$GPRMC,140202.000,A,3353.7519,N,09832.0260,W,0.21,132.47,300312,,,D*77
$GPGGA,140203.000,3353.7519,N,09832.0260,W,2,06,1.5,297.6,M,-23.7,M,0.8,0000*44
$GPGSA,A,3,29,27,26,18,21,15,,,,,,,3.1,1.5,2.7*35
$GPRMC,140203.000,A,3353.7519,N,09832.0260,W,0.05,291.72,300312,,,D*7C
$GPGGA,140204.000,3353.7519,N,09832.0260,W,2,06,1.5,297.7,M,-23.7,M,0.8,0000*42
$GPGSA,A,3,29,27,26,18,21,15,,,,,,,3.1,1.5,2.7*35
$GPRMC,140204.000,A,3353.7519,N,09832.0260,W,0.16,118.32,300312,,,D*7F
$GPGGA,140205.000,3353.7519,N,09832.0259,W,2,06,1.5,297.7,M,-23.7,M,0.8,0000*49
$GPGSA,A,3,29,27,26,18,21,15,,,,,,,3.1,1.5,2.7*35
$GPRMC,140205.000,A,3353.7519,N,09832.0259,W,0.14,116.34,300312,,,D*7E
$GPGGA,140206.000,3353.7519,N,09832.0259,W,2,06,1.5,297.6,M,-23.7,M,1.8,0000*4A
$GPGSA,A,3,29,27,26,18,21,15,,,,,,,3.1,1.5,2.7*35
$GPRMC,140206.000,A,3353.7519,N,09832.0259,W,0.04,148.89,300312,,,D*71
$GPGGA,140207.000,3353.7519,N,09832.0259,W,2,06,1.5,297.7,M,-23.7,M,2.8,0000*49
$GPGSA,A,3,29,27,26,18,21,15,,,,,,,3.1,1.5,2.7*35
$GPGSV,3,1,12,15,66,095,28,21,58,328,33,18,54,278,25,29,50,184,40*78
$GPGSV,3,2,12,26,30,047,38,22,15,255,,27,14,115,22,06,11,319,*7A
$GPGSV,3,3,12,09,08,137,26,05,06,061,25,16,06,298,,30,03,272,*7C
$GPRMC,140207.000,A,3353.7519,N,09832.0259,W,0.04,281.62,300312,,,D*73
$GPGGA,140208.000,3353.7519,N,09832.0260,W,2,06,1.5,297.7,M,-23.7,M,3.8,0000*4D
$GPGSA,A,3,29,27,26,18,21,15,,,,,,,3.1,1.5,2.7*35
$GPRMC,140208.000,A,3353.7519,N,09832.0260,W,0.13,287.85,300312,,,D*7F
$GPGGA,140209.000,3353.7519,N,09832.0259,W,2,06,1.5,297.6,M,-23.7,M,0.8,0000*44
$GPGSA,A,3,29,27,26,18,21,15,,,,,,,3.1,1.5,2.7*35
$GPRMC,140209.000,A,3353.7519,N,09832.0259,W,0.28,127.69,300312,,,D*77
$GPGGA,140210.000,3353.7519,N,09832.0259,W,2,06,1.5,297.4,M,-23.7,M,0.8,0000*4E
$GPGSA,A,3,29,27,26,18,21,15,,,,,,,3.1,1.5,2.7*35
$GPRMC,140210.000,A,3353.7519,N,09832.0259,W,0.05,160.23,300312,,,D*7D
$GPGGA,140211.000,3353.7518,N,09832.0259,W,2,06,1.5,297.2,M,-23.7,M,0.8,0000*48
$GPGSA,A,3,29,27,26,18,21,15,,,,,,,3.1,1.5,2.7*35
$GPRMC,140211.000,A,3353.7518,N,09832.0259,W,0.43,115.41,300312,,,D*79
$GPGGA,140212.000,3353.7518,N,09832.0258,W,2,06,1.5,297.0,M,-23.7,M,1.8,0000*49
$GPGSA,A,3,29,27,26,18,21,15,,,,,,,3.1,1.5,2.7*35
$GPGSV,3,1,12,15,66,091,28,21,59,329,33,18,55,280,25,29,48,184,40*73
$GPGSV,3,2,12,26,29,046,38,22,15,256,,27,15,114,21,06,12,318,*71
$GPGSV,3,3,12,09,09,136,26,16,05,297,,05,05,062,25,30,02,270,*73
$GPRMC,140212.000,A,3353.7518,N,09832.0258,W,0.44,117.54,300312,,,D*7A
$GPGGA,140213.000,3353.7518,N,09832.0258,W,2,06,1.5,296.8,M,-23.7,M,2.8,0000*42
$GPGSA,A,3,29,27,26,18,21,15,,,,,,,3.1,1.5,2.7*35
$GPRMC,140213.000,A,3353.7518,N,09832.0258,W,0.39,116.32,300312,,,D*70
$GPGGA,140214.000,3353.7518,N,09832.0257,W,2,06,1.5,296.7,M,-23.7,M,3.8,0000*44
$GPGSA,A,3,29,27,26,18,21,15,,,,,,,3.1,1.5,2.7*35
$GPRMC,140214.000,A,3353.7518,N,09832.0257,W,0.10,143.32,300312,,,D*73
$GPGGA,140215.000,3353.7518,N,09832.0258,W,2,06,1.5,296.8,M,-23.7,M,0.8,0000*46
$GPGSA,A,3,29,27,26,18,21,15,,,,,,,3.1,1.5,2.7*35
$GPRMC,140215.000,A,3353.7518,N,09832.0258,W,0.18,301.28,300312,,,D*7A
$GPGGA,140216.000,3353.7518,N,09832.0258,W,2,06,1.5,296.9,M,-23.7,M,0.8,0000*44
$GPGSA,A,3,29,27,26,18,21,15,,,,,,,3.1,1.5,2.7*35
$GPRMC,140216.000,A,3353.7518,N,09832.0258,W,0.12,282.23,300312,,,D*72
$GPGGA,140217.000,3353.7518,N,09832.0259,W,2,06,1.5,296.9,M,-23.7,M,0.8,0000*44
$GPGSA,A,3,29,27,26,18,21,15,,,,,,,3.1,1.5,2.7*35
$GPGSV,3,1,12,15,66,091,27,21,59,329,32,18,55,280,25,29,48,184,40*7D
$GPGSV,3,2,12,26,29,046,38,22,15,256,,27,15,114,21,06,12,318,*71
$GPGSV,3,3,12,09,09,136,26,16,05,297,,05,05,062,24,30,02,270,*72
$GPRMC,140217.000,A,3353.7518,N,09832.0259,W,0.13,298.78,300312,,,D*76
$GPGGA,140218.000,3353.7519,N,09832.0259,W,2,06,1.5,296.8,M,-23.7,M,0.8,0000*4B
$GPGSA,A,3,29,27,26,18,21,15,,,,,,,3.1,1.5,2.7*35
$GPRMC,140218.000,A,3353.7519,N,09832.0259,W,0.23,122.17,300312,,,D*70
$GPGGA,140219.000,3353.7519,N,09832.0259,W,2,06,1.5,296.9,M,-23.7,M,1.8,0000*4A
$GPGSA,A,3,29,27,26,18,21,15,,,,,,,3.1,1.5,2.7*35
$GPRMC,140219.000,A,3353.7519,N,09832.0259,W,0.04,298.90,300312,,,D*79
$GPGGA,140220.000,3353.7519,N,09832.0259,W,2,06,1.5,296.8,M,-23.7,M,2.8,0000*42
$GPGSA,A,3,29,27,26,18,21,15,,,,,,,3.1,1.5,2.7*35
$GPRMC,140220.000,A,3353.7519,N,09832.0259,W,0.04,296.01,300312,,,D*75
$GPGGA,140221.000,3353.7519,N,09832.0260,W,2,06,1.5,296.7,M,-23.7,M,0.8,0000*44
$GPGSA,A,3,29,27,26,18,21,15,,,,,,,3.1,1.5,2.7*35
$GPRMC,140221.000,A,3353.7519,N,09832.0260,W,0.21,135.00,300312,,,D*72
$GPGGA,140222.000,3353.7518,N,09832.0260,W,2,06,1.5,296.5,M,-23.7,M,0.8,0000*44
$GPGSA,A,3,29,27,26,18,21,15,,,,,,,3.1,1.5,2.7*35
$GPGSV,3,1,12,15,66,091,27,21,59,329,32,18,55,280,24,29,48,184,40*7C
$GPGSV,3,2,12,26,29,046,38,22,15,256,,27,15,114,21,06,12,318,*71
$GPGSV,3,3,12,09,09,136,26,16,05,297,,05,05,062,23,30,02,270,*75
$GPRMC,140222.000,A,3353.7518,N,09832.0260,W,0.33,125.25,300312,,,D*75
$GPGGA,140223.000,3353.7518,N,09832.0260,W,2,06,1.5,296.5,M,-23.7,M,0.8,0000*45
$GPGSA,A,3,29,27,26,18,21,15,,,,,,,3.1,1.5,2.7*35
$GPRMC,140223.000,A,3353.7518,N,09832.0260,W,0.02,224.78,300312,,,D*7C
$GPGGA,140224.000,3353.7518,N,09832.0260,W,2,06,1.5,296.4,M,-23.7,M,1.8,0000*42
$GPGSA,A,3,29,27,26,18,21,15,,,,,,,3.1,1.5,2.7*35
$GPRMC,140224.000,A,3353.7518,N,09832.0260,W,0.02,109.59,300312,,,D*74
$GPGGA,140225.000,3353.7518,N,09832.0260,W,2,06,1.5,296.2,M,-23.7,M,2.8,0000*46
$GPGSA,A,3,29,27,26,18,21,15,,,,,,,3.1,1.5,2.7*35
$GPRMC,140225.000,A,3353.7518,N,09832.0260,W,0.31,124.03,300312,,,D*75
$GPGGA,140226.000,3353.7518,N,09832.0260,W,2,06,1.5,296.2,M,-23.7,M,3.8,0000*44
$GPGSA,A,3,29,27,26,18,21,15,,,,,,,3.1,1.5,2.7*35
$GPRMC,140226.000,A,3353.7518,N,09832.0260,W,0.07,144.13,300312,,,D*74
$GPGGA,140227.000,3353.7518,N,09832.0260,W,2,06,1.5,296.1,M,-23.7,M,0.8,0000*45
$GPGSA,A,3,29,27,26,18,21,15,,,,,,,3.1,1.5,2.7*35
$GPGSV,3,1,12,15,66,091,27,21,59,329,31,18,55,280,24,29,48,184,40*7F
$GPGSV,3,2,12,26,29,046,38,22,15,256,,27,15,114,23,06,12,318,*73
$GPGSV,3,3,12,09,09,136,26,16,05,297,,05,05,062,23,30,02,270,*75
$GPRMC,140227.000,A,3353.7518,N,09832.0260,W,0.05,100.61,300312,,,D*72
$GPGGA,140228.000,3353.7519,N,09832.0260,W,2,06,1.5,296.1,M,-23.7,M,0.8,0000*4B
$GPGSA,A,3,29,27,26,18,21,15,,,,,,,3.1,1.5,2.7*35
$GPRMC,140228.000,A,3353.7519,N,09832.0260,W,0.09,97.91,300312,,,D*40
$GPGGA,140229.000,3353.7519,N,09832.0260,W,2,06,1.5,296.2,M,-23.7,M,0.8,0000*49
$GPGSA,A,3,29,27,26,18,21,15,,,,,,,3.1,1.5,2.7*35
$GPRMC,140229.000,A,3353.7519,N,09832.0260,W,0.10,94.87,300312,,,D*4D
$GPGGA,140230.000,3353.7519,N,09832.0260,W,2,06,1.5,296.3,M,-23.7,M,1.8,0000*41
$GPGSA,A,3,29,27,26,18,21,15,,,,,,,3.1,1.5,2.7*35
$GPRMC,140230.000,A,3353.7519,N,09832.0260,W,0.19,109.10,300312,,,D*77
$GPGGA,140231.000,3353.7519,N,09832.0260,W,2,06,1.5,296.4,M,-23.7,M,2.8,0000*44
$GPGSA,A,3,29,27,26,18,21,15,,,,,,,3.1,1.5,2.7*35
$GPRMC,140231.000,A,3353.7519,N,09832.0260,W,0.20,105.95,300312,,,D*7D
$GPGGA,140232.000,3353.7520,N,09832.0260,W,2,06,1.5,296.5,M,-23.7,M,3.8,0000*4D
$GPGSA,A,3,29,27,26,18,21,15,,,,,,,3.1,1.5,2.7*35
$GPGSV,3,1,12,15,66,091,27,21,59,329,31,18,55,280,24,29,48,184,40*7F
$GPGSV,3,2,12,26,29,046,38,22,15,256,,27,15,114,24,06,12,318,*74
$GPGSV,3,3,12,09,09,136,26,16,05,297,,05,05,062,24,30,02,270,*72
$GPRMC,140232.000,A,3353.7520,N,09832.0260,W,0.03,28.76,300312,,,D*46
$GPGGA,140233.000,3353.7520,N,09832.0260,W,2,06,1.5,296.5,M,-23.7,M,0.8,0000*4F
$GPGSA,A,3,29,27,26,18,21,15,,,,,,,3.1,1.5,2.7*35
$GPRMC,140233.000,A,3353.7520,N,09832.0260,W,0.23,123.29,300312,,,D*75
$GPGGA,140234.000,3353.7519,N,09832.0260,W,2,06,1.5,296.6,M,-23.7,M,0.8,0000*41
$GPGSA,A,3,29,27,26,18,21,15,,,,,,,3.1,1.5,2.7*35
$GPRMC,140234.000,A,3353.7519,N,09832.0260,W,0.23,122.08,300312,,,D*7A
$GPGGA,140235.000,3353.7519,N,09832.0259,W,2,06,1.5,296.6,M,-23.7,M,0.8,0000*4A
$GPGSA,A,3,29,27,26,18,21,15,,,,,,,3.1,1.5,2.7*35
$GPRMC,140235.000,A,3353.7519,N,09832.0259,W,0.43,116.17,300312,,,D*7E
$GPGGA,140236.000,3353.7519,N,09832.0260,W,2,06,1.5,296.5,M,-23.7,M,0.8,0000*40
$GPGSA,A,3,29,27,26,18,21,15,,,,,,,3.1,1.5,2.7*35
$GPRMC,140236.000,A,3353.7519,N,09832.0260,W,0.07,160.87,300312,,,D*7F
$GPGGA,140237.000,3353.7519,N,09832.0260,W,2,06,1.5,296.5,M,-23.7,M,0.8,0000*41
$GPGSA,A,3,29,27,26,18,21,15,,,,,,,3.1,1.5,2.7*35
$GPGSV,3,1,12,15,66,090,27,21,60,329,31,18,55,280,24,29,48,184,40*74
$GPGSV,3,2,12,26,29,046,38,22,16,256,,27,15,113,25,06,12,318,*71
$GPGSV,3,3,12,09,09,136,26,16,05,297,,05,05,062,25,30,02,270,*73
$GPRMC,140237.000,A,3353.7519,N,09832.0260,W,0.10,133.49,300312,,,D*7C
$GPGGA,140238.000,3353.7519,N,09832.0260,W,2,06,1.5,296.5,M,-23.7,M,1.8,0000*4F
$GPGSA,A,3,29,27,26,18,21,15,,,,,,,3.1,1.5,2.7*35
$GPRMC,140238.000,A,3353.7519,N,09832.0260,W,0.11,133.45,300312,,,D*7E
$GPGGA,140239.000,3353.7519,N,09832.0261,W,2,06,1.5,296.4,M,-23.7,M,0.8,0000*4F
$GPGSA,A,3,29,27,26,18,21,15,,,,,,,3.1,1.5,2.7*35
$GPRMC,140239.000,A,3353.7519,N,09832.0261,W,0.03,67.70,300312,,,D*4B
$GPGGA,140240.000,3353.7520,N,09832.0261,W,2,06,1.5,296.5,M,-23.7,M,0.8,0000*4A
$GPGSA,A,3,29,27,26,18,21,15,,,,,,,3.1,1.5,2.7*35
$GPRMC,140240.000,A,3353.7520,N,09832.0261,W,0.08,87.38,300312,,,D*46
$GPGGA,140241.000,3353.7520,N,09832.0261,W,2,06,1.5,296.5,M,-23.7,M,0.8,0000*4B
$GPGSA,A,3,29,27,26,18,21,15,,,,,,,3.1,1.5,2.7*35
$GPRMC,140241.000,A,3353.7520,N,09832.0261,W,0.03,90.68,300312,,,D*4F
$GPGGA,140242.000,3353.7520,N,09832.0262,W,2,06,1.5,296.5,M,-23.7,M,0.8,0000*4B
$GPGSA,A,3,29,27,26,18,21,15,,,,,,,3.1,1.5,2.7*35
$GPGSV,3,1,12,15,66,090,27,21,60,329,31,18,55,280,25,29,48,184,39*7B
$GPGSV,3,2,12,26,29,046,38,22,16,256,,27,15,113,25,06,12,318,*71
$GPGSV,3,3,12,09,09,136,25,16,05,297,,05,05,062,26,30,02,270,*73
$GPRMC,140242.000,A,3353.7520,N,09832.0262,W,0.04,62.85,300312,,,D*46
$GPGGA,140243.000,3353.7521,N,09832.0262,W,2,06,1.5,296.5,M,-23.7,M,1.8,0000*4A
$GPGSA,A,3,29,27,26,18,21,15,,,,,,,3.1,1.5,2.7*35
$GPRMC,140243.000,A,3353.7521,N,09832.0262,W,0.07,93.28,300312,,,D*4C
$GPGGA,140244.000,3353.7521,N,09832.0262,W,2,06,1.5,296.6,M,-23.7,M,2.8,0000*4D
$GPGSA,A,3,29,27,26,18,21,15,,,,,,,3.1,1.5,2.7*35
$GPRMC,140244.000,A,3353.7521,N,09832.0262,W,0.05,85.84,300312,,,D*48
$GPGGA,140245.000,3353.7521,N,09832.0262,W,2,06,1.5,296.6,M,-23.7,M,0.8,0000*4E
$GPGSA,A,3,29,27,26,18,21,15,,,,,,,3.1,1.5,2.7*35
$GPRMC,140245.000,A,3353.7521,N,09832.0262,W,0.08,140.19,300312,,,D*78
$GPGGA,140246.000,3353.7521,N,09832.0262,W,2,06,1.5,296.5,M,-23.7,M,0.8,0000*4E
$GPGSA,A,3,29,27,26,18,21,15,,,,,,,3.1,1.5,2.7*35
$GPRMC,140246.000,A,3353.7521,N,09832.0262,W,0.17,127.55,300312,,,D*7C
$GPGGA,140247.000,3353.7520,N,09832.0262,W,2,06,1.5,296.5,M,-23.7,M,0.8,0000*4E
$GPGSA,A,3,29,27,26,18,21,15,,,,,,,3.1,1.5,2.7*35
$GPGSV,3,1,12,15,66,090,27,21,60,329,31,18,55,280,26,29,48,184,39*78
$GPGSV,3,2,12,26,29,046,38,22,16,256,,27,15,113,25,06,12,318,*71
$GPGSV,3,3,12,09,09,136,25,16,05,297,,05,05,062,26,30,02,270,*73
$GPRMC,140247.000,A,3353.7520,N,09832.0262,W,0.16,131.88,300312,,,D*7A
$GPGGA,140248.000,3353.7520,N,09832.0262,W,2,06,1.5,296.4,M,-23.7,M,1.8,0000*41
$GPGSA,A,3,29,27,26,18,21,15,,,,,,,3.1,1.5,2.7*35
$GPRMC,140248.000,A,3353.7520,N,09832.0262,W,0.13,132.50,300312,,,D*76
$GPGGA,140249.000,3353.7520,N,09832.0263,W,2,06,1.5,296.3,M,-23.7,M,0.8,0000*47
$GPGSA,A,3,29,27,26,18,21,15,,,,,,,3.1,1.5,2.7*35
$GPRMC,140249.000,A,3353.7520,N,09832.0263,W,0.09,140.04,300312,,,D*79
$GPGGA,140250.000,3353.7520,N,09832.0263,W,2,06,1.5,296.3,M,-23.7,M,1.8,0000*4E
$GPGSA,A,3,29,27,26,18,21,15,,,,,,,3.1,1.5,2.7*35
$GPRMC,140250.000,A,3353.7520,N,09832.0263,W,0.12,135.54,300312,,,D*7C
$GPGGA,140251.000,3353.7520,N,09832.0263,W,2,06,1.5,296.2,M,-23.7,M,0.8,0000*4F
$GPGSA,A,3,29,27,26,18,21,15,,,,,,,3.1,1.5,2.7*35
$GPRMC,140251.000,A,3353.7520,N,09832.0263,W,0.04,100.28,300312,,,D*77
$GPGGA,140252.000,3353.7521,N,09832.0264,W,2,06,1.5,296.1,M,-23.7,M,0.8,0000*49
$GPGSA,A,3,29,27,26,18,21,15,,,,,,,3.1,1.5,2.7*35
$GPGSV,3,1,12,15,66,090,27,21,60,329,31,18,55,280,27,29,48,184,39*79
$GPGSV,3,2,12,26,29,046,38,22,16,256,,27,15,113,25,06,12,318,*71
$GPGSV,3,3,12,09,09,136,24,16,05,297,,05,05,062,27,30,02,270,*73
$GPRMC,140252.000,A,3353.7521,N,09832.0264,W,0.02,353.89,300312,,,D*7B
$GPGGA,140253.000,3353.7521,N,09832.0264,W,2,06,1.5,296.0,M,-23.7,M,0.8,0000*49
$GPGSA,A,3,29,27,26,18,21,15,,,,,,,3.1,1.5,2.7*35
$GPRMC,140253.000,A,3353.7521,N,09832.0264,W,0.06,32.13,300312,,,D*49
$GPGGA,140254.000,3353.7521,N,09832.0265,W,2,06,1.5,295.9,M,-23.7,M,0.8,0000*45
$GPGSA,A,3,29,27,26,18,21,15,,,,,,,3.1,1.5,2.7*35
$GPRMC,140254.000,A,3353.7521,N,09832.0265,W,0.04,37.61,300312,,,D*4D
$GPGGA,140255.000,3353.7522,N,09832.0265,W,2,06,1.5,295.9,M,-23.7,M,1.8,0000*46
$GPGSA,A,3,29,27,26,18,21,15,,,,,,,3.1,1.5,2.7*35
$GPRMC,140255.000,A,3353.7522,N,09832.0265,W,0.04,8.54,300312,,,D*75
$GPGGA,140256.000,3353.7522,N,09832.0265,W,2,06,1.5,295.8,M,-23.7,M,2.8,0000*47
$GPGSA,A,3,29,27,26,18,21,15,,,,,,,3.1,1.5,2.7*35
$GPRMC,140256.000,A,3353.7522,N,09832.0265,W,0.04,344.70,300312,,,D*7B
$GPGGA,140257.000,3353.7522,N,09832.0265,W,2,06,1.5,295.8,M,-23.7,M,0.8,0000*44
$GPGSA,A,3,29,27,26,18,21,15,,,,,,,3.1,1.5,2.7*35
$GPGSV,3,1,12,15,66,090,27,21,60,329,31,18,55,280,27,29,48,184,39*79
$GPGSV,3,2,12,26,29,046,39,22,16,256,,27,15,113,26,06,12,318,*73
$GPGSV,3,3,12,09,09,136,23,16,05,297,,05,05,062,27,30,02,270,*74
$GPRMC,140257.000,A,3353.7522,N,09832.0265,W,0.02,129.04,300312,,,D*76
$GPGGA,140258.000,3353.7522,N,09832.0267,W,2,06,1.5,295.6,M,-23.7,M,0.8,0000*47
$GPGSA,A,3,29,27,26,18,21,15,,,,,,,3.1,1.5,2.7*35
$GPRMC,140258.000,A,3353.7522,N,09832.0267,W,0.10,170.81,300312,,,D*79
$GPGGA,140259.000,3353.7522,N,09832.0268,W,2,06,1.5,295.3,M,-23.7,M,0.8,0000*4C
$GPGSA,A,3,29,27,26,18,21,15,,,,,,,3.1,1.5,2.7*35
$GPRMC,140259.000,A,3353.7522,N,09832.0268,W,0.10,168.30,300312,,,D*74
$GPGGA,140300.000,3353.7522,N,09832.0268,W,2,06,1.5,295.3,M,-23.7,M,0.8,0000*41
$GPGSA,A,3,29,27,26,18,21,15,,,,,,,3.1,1.5,2.7*35
$GPRMC,140300.000,A,3353.7522,N,09832.0268,W,0.10,170.21,300312,,,D*70
$GPGGA,140301.000,3353.7522,N,09832.0269,W,2,06,1.5,295.0,M,-23.7,M,1.8,0000*43
$GPGSA,A,3,29,27,26,18,21,15,,,,,,,3.1,1.5,2.7*35
$GPRMC,140301.000,A,3353.7522,N,09832.0269,W,0.12,172.92,300312,,,D*78
$GPGGA,140302.000,3353.7522,N,09832.0269,W,2,06,1.5,295.0,M,-23.7,M,2.8,0000*43
$GPGSA,A,3,29,27,26,18,21,15,,,,,,,3.1,1.5,2.7*35
$GPGSV,3,1,12,15,66,090,27,21,60,329,31,18,55,280,27,29,48,184,39*79
$GPGSV,3,2,12,26,29,046,38,22,16,256,,27,15,113,26,06,12,318,*72
$GPGSV,3,3,12,09,09,136,23,16,05,297,,05,05,062,27,30,02,270,*74
$GPRMC,140302.000,A,3353.7522,N,09832.0269,W,0.09,169.81,300312,,,D*79
$GPGGA,140303.000,3353.7522,N,09832.0271,W,2,06,1.5,294.7,M,-23.7,M,0.8,0000*4F
$GPGSA,A,3,29,27,26,18,21,15,,,,,,,3.1,1.5,2.7*35
$GPRMC,140303.000,A,3353.7522,N,09832.0271,W,0.07,180.84,300312,,,D*7D
$GPGGA,140304.000,3353.7522,N,09832.0272,W,2,06,1.5,294.5,M,-23.7,M,0.8,0000*49
$GPGSA,A,3,29,27,26,18,21,15,,,,,,,3.1,1.5,2.7*35
$GPRMC,140304.000,A,3353.7522,N,09832.0272,W,0.05,333.90,300312,,,D*74
$GPGGA,140305.000,3353.7523,N,09832.0273,W,2,06,1.5,294.3,M,-23.7,M,0.8,0000*4E
$GPGSA,A,3,29,27,26,18,21,15,,,,,,,3.1,1.5,2.7*35
$GPRMC,140305.000,A,3353.7523,N,09832.0273,W,0.07,316.46,300312,,,D*7B
$GPGGA,140306.000,3353.7523,N,09832.0274,W,2,06,1.5,294.1,M,-23.7,M,1.8,0000*49
$GPGSA,A,3,29,27,26,18,21,15,,,,,,,3.1,1.5,2.7*35
$GPRMC,140306.000,A,3353.7523,N,09832.0274,W,0.03,324.13,300312,,,D*7A
$GPGGA,140307.000,3353.7523,N,09832.0275,W,2,06,1.5,293.9,M,-23.7,M,2.8,0000*45
$GPGSA,A,3,29,27,26,18,21,15,,,,,,,3.1,1.5,2.7*35
$GPGSV,3,1,12,15,66,090,28,21,60,329,31,18,55,280,28,29,48,184,39*79
$GPGSV,3,2,12,26,29,046,38,22,16,256,,27,15,113,26,06,12,318,*72
$GPGSV,3,3,12,09,09,136,24,16,05,297,,05,05,062,26,30,02,270,*72
$GPRMC,140307.000,A,3353.7523,N,09832.0275,W,0.06,317.93,300312,,,D*77
$GPGGA,140308.000,3353.7524,N,09832.0276,W,2,06,1.5,293.8,M,-23.7,M,0.8,0000*4D
$GPGSA,A,3,29,27,26,18,21,15,,,,,,,3.1,1.5,2.7*35
$GPRMC,140308.000,A,3353.7524,N,09832.0276,W,0.05,347.59,300312,,,D*7C
$GPGGA,140309.000,3353.7524,N,09832.0276,W,2,06,1.5,293.7,M,-23.7,M,0.8,0000*43
$GPGSA,A,3,29,27,26,18,21,15,,,,,,,3.1,1.5,2.7*35
$GPRMC,140309.000,A,3353.7524,N,09832.0276,W,0.04,225.99,300312,,,D*75
$GPGGA,140310.000,3353.7524,N,09832.0277,W,2,06,1.5,293.6,M,-23.7,M,0.8,0000*4B
$GPGSA,A,3,29,27,26,18,21,15,,,,,,,3.1,1.5,2.7*35
$GPRMC,140310.000,A,3353.7524,N,09832.0277,W,0.09,193.31,300312,,,D*7D
$GPGGA,140311.000,3353.7524,N,09832.0277,W,2,06,1.5,293.5,M,-23.7,M,0.8,0000*49
$GPGSA,A,3,29,27,26,18,21,15,,,,,,,3.1,1.5,2.7*35
$GPRMC,140311.000,A,3353.7524,N,09832.0277,W,0.10,187.49,300312,,,D*7E
$GPGGA,140312.000,3353.7524,N,09832.0278,W,2,06,1.5,293.3,M,-23.7,M,0.8,0000*43
$GPGSA,A,3,29,27,26,18,21,15,,,,,,,3.1,1.5,2.7*35
$GPGSV,3,1,12,15,66,090,28,21,60,329,30,18,55,280,29,29,48,184,38*78
$GPGSV,3,2,12,26,29,046,38,22,16,256,,27,15,113,26,06,12,318,*72
$GPGSV,3,3,12,09,09,136,24,16,05,297,,05,05,062,26,30,02,270,*72
$GPRMC,140312.000,A,3353.7524,N,09832.0278,W,0.11,179.93,300312,,,D*75
$GPGGA,140313.000,3353.7523,N,09832.0278,W,2,06,1.5,293.3,M,-23.7,M,1.8,0000*44
$GPGSA,A,3,29,27,26,18,21,15,,,,,,,3.1,1.5,2.7*35
$GPRMC,140313.000,A,3353.7523,N,09832.0278,W,0.09,177.25,300312,,,D*79
$GPGGA,140314.000,3353.7523,N,09832.0279,W,2,06,1.5,293.2,M,-23.7,M,2.8,0000*40
$GPGSA,A,3,29,27,26,18,21,15,,,,,,,3.1,1.5,2.7*35
$GPRMC,140314.000,A,3353.7523,N,09832.0279,W,0.12,169.45,300312,,,D*7C
$GPGGA,140315.000,3353.7523,N,09832.0279,W,2,06,1.5,293.1,M,-23.7,M,0.8,0000*40
$GPGSA,A,3,29,27,26,18,21,15,,,,,,,3.1,1.5,2.7*35
$GPRMC,140315.000,A,3353.7523,N,09832.0279,W,0.05,152.62,300312,,,D*76
$GPGGA,140316.000,3353.7523,N,09832.0278,W,2,06,1.5,293.3,M,-23.7,M,0.8,0000*40
$GPGSA,A,3,29,27,26,18,21,15,,,,,,,3.1,1.5,2.7*35
$GPRMC,140316.000,A,3353.7523,N,09832.0278,W,0.11,107.56,300312,,,D*76
$GPGGA,140317.000,3353.7523,N,09832.0277,W,2,06,1.5,293.3,M,-23.7,M,0.8,0000*4E
$GPGSA,A,3,29,27,26,18,21,15,,,,,,,3.1,1.5,2.7*35
$GPGSV,3,1,12,15,66,090,29,21,60,329,30,18,55,280,29,29,48,184,39*78
$GPGSV,3,2,12,26,29,046,38,22,16,256,,27,15,113,26,06,12,318,*72
$GPGSV,3,3,12,09,09,136,25,16,05,297,,05,05,062,25,30,02,270,*70
$GPRMC,140317.000,A,3353.7523,N,09832.0277,W,0.08,120.05,300312,,,D*73
$GPGGA,140318.000,3353.7523,N,09832.0277,W,2,06,1.5,293.3,M,-23.7,M,1.8,0000*40
$GPGSA,A,3,29,27,26,18,21,15,,,,,,,3.1,1.5,2.7*35
$GPRMC,140318.000,A,3353.7523,N,09832.0277,W,0.07,109.77,300312,,,D*7D
$GPGGA,140319.000,3353.7524,N,09832.0277,W,2,06,1.5,293.2,M,-23.7,M,2.8,0000*44
$GPGSA,A,3,29,27,26,18,21,15,,,,,,,3.1,1.5,2.7*35
$GPRMC,140319.000,A,3353.7524,N,09832.0277,W,0.02,174.22,300312,,,D*74
$GPGGA,140320.000,3353.7524,N,09832.0278,W,2,06,1.5,293.1,M,-23.7,M,3.8,0000*43
$GPGSA,A,3,29,27,26,18,21,15,,,,,,,3.1,1.5,2.7*35
$GPRMC,140320.000,A,3353.7524,N,09832.0278,W,0.13,120.02,300312,,,D*72
$GPGGA,140321.000,3353.7524,N,09832.0279,W,2,07,1.1,292.6,M,-23.7,M,0.8,0000*43
$GPGSA,A,3,22,29,27,26,18,21,15,,,,,,1.9,1.1,1.5*3A
$GPRMC,140321.000,A,3353.7524,N,09832.0279,W,0.16,150.93,300312,,,D*78
$GPGGA,140322.000,3353.7524,N,09832.0279,W,2,07,1.1,292.5,M,-23.7,M,0.8,0000*43
$GPGSA,A,3,22,29,27,26,18,21,15,,,,,,1.9,1.1,1.5*3A
$GPGSV,3,1,12,15,66,090,29,21,60,329,29,18,55,280,30,29,48,184,39*78
$GPGSV,3,2,12,26,29,046,38,22,16,256,20,27,15,113,17,06,12,318,*72
$GPGSV,3,3,12,09,09,136,25,16,05,297,,05,05,062,25,30,02,270,*70
$GPRMC,140322.000,A,3353.7524,N,09832.0279,W,0.08,215.66,300312,,,D*7C
$GPGGA,140323.000,3353.7524,N,09832.0279,W,2,07,1.1,292.9,M,-23.7,M,0.8,0000*4E
$GPGSA,A,3,22,29,27,26,18,21,15,,,,,,1.9,1.1,1.5*3A
$GPRMC,140323.000,A,3353.7524,N,09832.0279,W,0.06,127.07,300312,,,D*76
$GPGGA,140324.000,3353.7524,N,09832.0279,W,2,07,1.1,292.9,M,-23.7,M,1.8,0000*48
$GPGSA,A,3,22,29,27,26,18,21,15,,,,,,1.9,1.1,1.5*3A
$GPRMC,140324.000,A,3353.7524,N,09832.0279,W,0.17,131.37,300312,,,D*75
$GPGGA,140325.000,3353.7524,N,09832.0278,W,2,07,1.1,293.1,M,-23.7,M,2.8,0000*42
$GPGSA,A,3,22,29,27,26,18,21,15,,,,,,1.9,1.1,1.5*3A
$GPRMC,140325.000,A,3353.7524,N,09832.0278,W,0.36,117.89,300312,,,D*77
$GPGGA,140326.000,3353.7523,N,09832.0277,W,2,07,1.1,293.3,M,-23.7,M,3.8,0000*4A
$GPGSA,A,3,22,29,27,26,18,21,15,,,,,,1.9,1.1,1.5*3A
$GPRMC,140326.000,A,3353.7523,N,09832.0277,W,0.50,113.02,300312,,,D*7B
$GPGGA,140327.000,3353.7523,N,09832.0276,W,2,07,1.1,293.1,M,-23.7,M,,0000*6D
$GPGSA,A,3,22,29,27,26,18,21,15,,,,,,1.9,1.1,1.5*3A
$GPGSV,3,1,12,15,66,090,29,21,60,329,29,18,55,280,31,29,48,184,38*78
$GPGSV,3,2,12,26,29,046,38,22,16,256,20,27,15,113,22,06,12,318,*74
$GPGSV,3,3,12,09,09,136,26,16,05,297,,05,05,062,24,30,02,270,*72
$GPRMC,140327.000,A,3353.7523,N,09832.0276,W,0.17,116.83,300312,,,D*74
$GPGGA,140328.000,3353.7523,N,09832.0276,W,2,07,1.1,293.1,M,-23.7,M,,0000*62
$GPGSA,A,3,22,29,27,26,18,21,15,,,,,,1.9,1.1,1.5*3A
$GPRMC,140328.000,A,3353.7523,N,09832.0276,W,0.11,282.94,300312,,,D*75
$GPGGA,140329.000,3353.7524,N,09832.0276,W,2,07,1.1,293.2,M,-23.7,M,,0000*67
$GPGSA,A,3,22,29,27,26,18,21,15,,,,,,1.9,1.1,1.5*3A
$GPRMC,140329.000,A,3353.7524,N,09832.0276,W,0.16,286.36,300312,,,D*78
$GPGGA,140330.000,3353.7524,N,09832.0276,W,2,07,1.1,293.3,M,-23.7,M,1.8,0000*49
$GPGSA,A,3,22,29,27,26,18,21,15,,,,,,1.9,1.1,1.5*3A
$GPRMC,140330.000,A,3353.7524,N,09832.0276,W,0.28,97.77,300312,,,D*4A
$GPGGA,140331.000,3353.7524,N,09832.0275,W,2,07,1.1,293.2,M,-23.7,M,,0000*6D
$GPGSA,A,3,22,29,27,26,18,21,15,,,,,,1.9,1.1,1.5*3A
$GPRMC,140331.000,A,3353.7524,N,09832.0275,W,0.05,192.28,300312,,,D*79
$GPGGA,140332.000,3353.7524,N,09832.0275,W,2,07,1.1,292.8,M,-23.7,M,1.8,0000*42
$GPGSA,A,3,22,29,27,26,18,21,15,,,,,,1.9,1.1,1.5*3A
$GPGSV,3,1,12,15,66,090,30,21,60,329,28,18,55,280,31,29,48,184,38*71
$GPGSV,3,2,12,26,29,046,38,22,16,256,20,27,15,113,22,06,12,318,*74
$GPGSV,3,3,12,09,09,136,26,16,05,297,,05,05,062,23,30,02,270,*75
$GPRMC,140332.000,A,3353.7524,N,09832.0275,W,0.11,178.25,300312,,,D*76
$GPGGA,140333.000,3353.7524,N,09832.0275,W,2,07,1.1,292.8,M,-23.7,M,,0000*64
$GPGSA,A,3,22,29,27,26,18,21,15,,,,,,1.9,1.1,1.5*3A
$GPRMC,140333.000,A,3353.7524,N,09832.0275,W,0.12,150.59,300312,,,D*75
$GPGGA,140334.000,3353.7523,N,09832.0275,W,2,07,1.1,292.8,M,-23.7,M,,0000*64
$GPGSA,A,3,22,29,27,26,18,21,15,,,,,,1.9,1.1,1.5*3A
$GPRMC,140334.000,A,3353.7523,N,09832.0275,W,0.19,152.12,300312,,,D*73
$GPGGA,140335.000,3353.7523,N,09832.0274,W,2,07,1.1,293.1,M,-23.7,M,,0000*6C
$GPGSA,A,3,22,29,27,26,18,21,15,,,,,,1.9,1.1,1.5*3A
$GPRMC,140335.000,A,3353.7523,N,09832.0274,W,0.11,107.72,300312,,,D*7D
$GPGGA,140336.000,3353.7523,N,09832.0275,W,2,07,1.1,293.0,M,-23.7,M,1.8,0000*48
$GPGSA,A,3,22,29,27,26,18,21,15,,,,,,1.9,1.1,1.5*3A
$GPRMC,140336.000,A,3353.7523,N,09832.0275,W,0.18,250.82,300312,,,D*78
$GPGGA,140337.000,3353.7523,N,09832.0274,W,2,07,1.1,293.2,M,-23.7,M,2.8,0000*49
$GPGSA,A,3,22,29,27,26,18,21,15,,,,,,1.9,1.1,1.5*3A
$GPGSV,3,1,12,15,66,090,31,21,60,329,27,18,55,280,32,29,48,184,37*73
$GPGSV,3,2,12,26,29,046,38,22,16,256,20,27,15,113,23,06,12,318,*75
$GPGSV,3,3,12,09,09,136,26,16,05,297,,05,05,062,20,30,02,270,*76
$GPRMC,140337.000,A,3353.7523,N,09832.0274,W,0.14,117.54,300312,,,D*7F
$GPGGA,140338.000,3353.7523,N,09832.0273,W,2,07,1.1,293.5,M,-23.7,M,,0000*62
$GPGSA,A,3,22,29,27,26,18,21,15,,,,,,1.9,1.1,1.5*3A
$GPRMC,140338.000,A,3353.7523,N,09832.0273,W,0.17,99.65,300312,,,D*41
$GPGGA,140339.000,3353.7523,N,09832.0272,W,2,07,1.1,293.7,M,-23.7,M,,0000*60
$GPGSA,A,3,22,29,27,26,18,21,15,,,,,,1.9,1.1,1.5*3A
$GPRMC,140339.000,A,3353.7523,N,09832.0272,W,0.35,100.41,300312,,,D*76
$GPGGA,140340.000,3353.7523,N,09832.0272,W,2,07,1.1,293.6,M,-23.7,M,,0000*6F
$GPGSA,A,3,22,29,27,26,18,21,15,,,,,,1.9,1.1,1.5*3A
$GPRMC,140340.000,A,3353.7523,N,09832.0272,W,0.16,114.76,300312,,,D*78
$GPGGA,140341.000,3353.7523,N,09832.0271,W,2,07,1.1,293.5,M,-23.7,M,,0000*6E
$GPGSA,A,3,22,29,27,26,18,21,15,,,,,,1.9,1.1,1.5*3A
$GPRMC,140341.000,A,3353.7523,N,09832.0271,W,0.29,114.47,300312,,,D*74
$GPGGA,140342.000,3353.7523,N,09832.0271,W,2,07,1.1,293.5,M,-23.7,M,1.8,0000*4A
$GPGSA,A,3,22,29,27,26,18,21,15,,,,,,1.9,1.1,1.5*3A
$GPGSV,3,1,12,15,66,090,31,21,60,329,27,18,55,280,32,29,48,184,37*73
$GPGSV,3,2,12,26,29,046,37,22,16,256,21,27,15,113,24,06,12,318,*7C
$GPGSV,3,3,12,09,09,136,28,16,05,297,,05,05,062,19,30,02,270,*72
$GPRMC,140342.000,A,3353.7523,N,09832.0271,W,0.05,34.38,300312,,,D*42
$GPGGA,140343.000,3353.7523,N,09832.0270,W,2,07,1.1,293.7,M,-23.7,M,2.8,0000*4B
$GPGSA,A,3,22,29,27,26,18,21,15,,,,,,1.9,1.1,1.5*3A
$GPRMC,140343.000,A,3353.7523,N,09832.0270,W,0.24,76.12,300312,,,D*4F
$GPGGA,140344.000,3353.7523,N,09832.0270,W,2,07,1.1,293.8,M,-23.7,M,3.8,0000*42
$GPGSA,A,3,22,29,27,26,18,21,15,,,,,,1.9,1.1,1.5*3A
$GPRMC,140344.000,A,3353.7523,N,09832.0270,W,0.10,82.35,300312,,,D*41
$GPGGA,140345.000,3353.7523,N,09832.0269,W,2,07,1.1,294.0,M,-23.7,M,,0000*61
$GPGSA,A,3,22,29,27,26,18,21,15,,,,,,1.9,1.1,1.5*3A
$GPRMC,140345.000,A,3353.7523,N,09832.0269,W,0.26,96.37,300312,,,D*4A
$GPGGA,140346.000,3353.7523,N,09832.0269,W,2,07,1.1,294.1,M,-23.7,M,,0000*63
$GPGSA,A,3,22,29,27,26,18,21,15,,,,,,1.9,1.1,1.5*3A
$GPRMC,140346.000,A,3353.7523,N,09832.0269,W,0.18,119.23,300312,,,D*77
$GPGGA,140347.000,3353.7523,N,09832.0269,W,2,07,1.1,294.2,M,-23.7,M,,0000*61
$GPGSA,A,3,22,29,27,26,18,21,15,,,,,,1.9,1.1,1.5*3A
$GPGSV,3,1,12,15,66,090,31,21,60,329,27,18,55,280,32,29,48,184,36*72
$GPGSV,3,2,12,26,29,046,37,22,16,256,21,27,15,113,24,06,12,318,*7C
$GPGSV,3,3,12,09,09,136,28,16,05,297,,05,05,062,19,30,02,270,*72
$GPRMC,140347.000,A,3353.7523,N,09832.0269,W,0.11,143.97,300312,,,D*7F
$GPGGA,140348.000,3353.7523,N,09832.0269,W,2,07,1.1,294.2,M,-23.7,M,1.8,0000*49
$GPGSA,A,3,22,29,27,26,18,21,15,,,,,,1.9,1.1,1.5*3A
$GPRMC,140348.000,A,3353.7523,N,09832.0269,W,0.09,162.70,300312,,,D*73
$GPGGA,140349.000,3353.7523,N,09832.0270,W,2,07,1.1,294.4,M,-23.7,M,2.8,0000*45
$GPGSA,A,3,22,29,27,26,18,21,15,,,,,,1.9,1.1,1.5*3A
$GPRMC,140349.000,A,3353.7523,N,09832.0270,W,0.09,92.59,300312,,,D*4F
$GPGGA,140350.000,3353.7523,N,09832.0270,W,2,07,1.1,294.4,M,-23.7,M,3.8,0000*4C
$GPGSA,A,3,22,29,27,26,18,21,15,,,,,,1.9,1.1,1.5*3A
$GPRMC,140350.000,A,3353.7523,N,09832.0270,W,0.08,268.75,300312,,,D*7F
$GPGGA,140351.000,3353.7523,N,09832.0271,W,2,07,1.1,294.3,M,-23.7,M,,0000*6E
$GPGSA,A,3,22,29,27,26,18,21,15,,,,,,1.9,1.1,1.5*3A
$GPRMC,140351.000,A,3353.7523,N,09832.0271,W,0.09,249.70,300312,,,D*78
$GPGGA,140352.000,3353.7523,N,09832.0271,W,2,07,1.1,294.2,M,-23.7,M,,0000*6C
$GPGSA,A,3,22,29,27,26,18,21,15,,,,,,1.9,1.1,1.5*3A
$GPGSV,3,1,12,15,66,090,31,21,60,329,26,18,55,280,31,29,48,184,36*70
$GPGSV,3,2,12,26,29,046,37,22,16,256,22,27,15,113,24,06,12,318,*7F
$GPGSV,3,3,12,09,09,136,29,16,05,297,,05,05,062,18,30,02,270,*72
$GPRMC,140352.000,A,3353.7523,N,09832.0271,W,0.10,81.43,300312,,,D*45
$GPGGA,140353.000,3353.7523,N,09832.0272,W,2,07,1.1,294.1,M,-23.7,M,,0000*6D
$GPGSA,A,3,22,29,27,26,18,21,15,,,,,,1.9,1.1,1.5*3A
$GPRMC,140353.000,A,3353.7523,N,09832.0272,W,0.03,65.76,300312,,,D*49
$GPGGA,140354.000,3353.7523,N,09832.0272,W,2,07,1.1,293.8,M,-23.7,M,,0000*64
$GPGSA,A,3,22,29,27,26,18,21,15,,,,,,1.9,1.1,1.5*3A
$GPRMC,140354.000,A,3353.7523,N,09832.0272,W,0.05,168.64,300312,,,D*77
$GPGGA,140355.000,3353.7523,N,09832.0273,W,2,07,1.1,293.6,M,-23.7,M,1.8,0000*4D
$GPGSA,A,3,22,29,27,26,18,21,15,,,,,,1.9,1.1,1.5*3A
$GPRMC,140355.000,A,3353.7523,N,09832.0273,W,0.15,280.93,300312,,,D*7B
$GPGGA,140356.000,3353.7524,N,09832.0273,W,2,07,1.1,293.7,M,-23.7,M,2.8,0000*4B
$GPGSA,A,3,22,29,27,26,18,21,15,,,,,,1.9,1.1,1.5*3A
$GPRMC,140356.000,A,3353.7524,N,09832.0273,W,0.14,350.14,300312,,,D*7D
$GPGGA,140357.000,3353.7524,N,09832.0273,W,2,07,1.1,293.8,M,-23.7,M,,0000*61
$GPGSA,A,3,22,29,27,26,18,21,15,,,,,,1.9,1.1,1.5*3A
$GPGSV,3,1,12,15,66,089,31,21,60,330,26,18,55,281,31,29,47,184,36*7E
$GPGSV,3,2,12,26,28,045,37,22,16,257,16,27,15,113,24,06,13,318,*7A
$GPGSV,3,3,12,09,10,136,30,16,05,296,,05,04,062,17,03,02,323,*7A
$GPRMC,140357.000,A,3353.7524,N,09832.0273,W,0.29,107.96,300312,,,D*78
$GPGGA,140358.000,3353.7524,N,09832.0272,W,2,07,1.1,293.9,M,-23.7,M,,0000*6E
$GPGSA,A,3,22,29,27,26,18,21,15,,,,,,1.9,1.1,1.5*3A
$GPRMC,140358.000,A,3353.7524,N,09832.0272,W,0.33,111.59,300312,,,D*79
$GPGGA,140359.000,3353.7524,N,09832.0272,W,2,07,1.1,294.2,M,-23.7,M,,0000*63
$GPGSA,A,3,22,29,27,26,18,21,15,,,,,,1.9,1.1,1.5*3A
$GPRMC,140359.000,A,3353.7524,N,09832.0272,W,0.21,93.58,300312,,,D*41
$GPGGA,140400.000,3353.7524,N,09832.0271,W,2,07,1.1,294.5,M,-23.7,M,1.8,0000*4B
$GPGSA,A,3,22,29,27,26,18,21,15,,,,,,1.9,1.1,1.5*3A
$GPRMC,140400.000,A,3353.7524,N,09832.0271,W,0.34,101.21,300312,,,D*79
$GPGGA,140401.000,3353.7524,N,09832.0270,W,2,07,1.1,294.8,M,-23.7,M,2.8,0000*45
$GPGSA,A,3,22,29,27,26,18,21,15,,,,,,1.9,1.1,1.5*3A
$GPRMC,140401.000,A,3353.7524,N,09832.0270,W,0.34,97.76,300312,,,D*45
$GPGGA,140402.000,3353.7524,N,09832.0270,W,2,07,1.1,294.8,M,-23.7,M,,0000*62
$GPGSA,A,3,22,29,27,26,18,21,15,,,,,,1.9,1.1,1.5*3A
$GPGSV,3,1,12,15,66,089,31,21,60,330,26,18,55,281,31,29,47,184,35*7D
$GPGSV,3,2,12,26,28,045,37,22,16,257,16,27,15,113,25,06,13,318,*7B
$GPGSV,3,3,12,09,10,136,30,16,05,296,,05,04,062,16,03,02,323,*7B
$GPRMC,140402.000,A,3353.7524,N,09832.0270,W,0.12,119.37,300312,,,D*70
$GPGGA,140403.000,3353.7524,N,09832.0271,W,2,07,1.1,294.7,M,-23.7,M,0.8,0000*4B
$GPGSA,A,3,22,29,27,26,18,21,15,,,,,,1.9,1.1,1.5*3A
$GPRMC,140403.000,A,3353.7524,N,09832.0271,W,0.05,267.15,300312,,,D*7C
$GPGGA,140404.000,3353.7524,N,09832.0272,W,2,07,1.1,294.5,M,-23.7,M,0.8,0000*4D
$GPGSA,A,3,22,29,27,26,18,21,15,,,,,,1.9,1.1,1.5*3A
$GPRMC,140404.000,A,3353.7524,N,09832.0272,W,0.12,279.02,300312,,,D*77
$GPGGA,140405.000,3353.7524,N,09832.0273,W,2,07,1.1,294.3,M,-23.7,M,0.8,0000*4B
$GPGSA,A,3,22,29,27,26,18,21,15,,,,,,1.9,1.1,1.5*3A
$GPRMC,140405.000,A,3353.7524,N,09832.0273,W,0.18,282.94,300312,,,D*76
$GPGGA,140406.000,3353.7525,N,09832.0274,W,2,07,1.1,294.1,M,-23.7,M,1.8,0000*4D
$GPGSA,A,3,22,29,27,26,18,21,15,,,,,,1.9,1.1,1.5*3A
$GPRMC,140406.000,A,3353.7525,N,09832.0274,W,0.19,272.78,300312,,,D*7F
$GPGGA,140407.000,3353.7525,N,09832.0275,W,2,07,1.1,294.1,M,-23.7,M,2.8,0000*4E
$GPGSA,A,3,22,29,27,26,18,21,15,,,,,,1.9,1.1,1.5*3A
$GPGSV,3,1,12,15,66,089,31,21,60,330,27,18,55,281,31,29,47,184,35*7C
$GPGSV,3,2,12,26,28,045,37,22,16,257,16,27,15,113,27,06,13,318,*79
$GPGSV,3,3,12,09,10,136,31,16,05,296,,05,04,062,16,03,02,323,*7A
$GPRMC,140407.000,A,3353.7525,N,09832.0275,W,0.06,70.45,300312,,,D*4F
$GPGGA,140408.000,3353.7525,N,09832.0274,W,2,07,1.1,294.2,M,-23.7,M,0.8,0000*41
$GPGSA,A,3,22,29,27,26,18,21,15,,,,,,1.9,1.1,1.5*3A
$GPRMC,140408.000,A,3353.7525,N,09832.0274,W,0.14,92.72,300312,,,D*4A
$GPGGA,140409.000,3353.7525,N,09832.0274,W,2,07,1.1,294.2,M,-23.7,M,0.8,0000*40
$GPGSA,A,3,22,29,27,26,18,21,15,,,,,,1.9,1.1,1.5*3A
$GPRMC,140409.000,A,3353.7525,N,09832.0274,W,0.07,224.24,300312,,,D*75
$GPGGA,140410.000,3353.7525,N,09832.0274,W,2,07,1.1,294.2,M,-23.7,M,0.8,0000*48
$GPGSA,A,3,22,29,27,26,18,21,15,,,,,,1.9,1.1,1.5*3A
$GPRMC,140410.000,A,3353.7525,N,09832.0274,W,0.08,127.26,300312,,,D*70
$GPGGA,140411.000,3353.7525,N,09832.0274,W,2,07,1.1,294.2,M,-23.7,M,0.8,0000*49
$GPGSA,A,3,22,29,27,26,18,21,15,,,,,,1.9,1.1,1.5*3A
$GPRMC,140411.000,A,3353.7525,N,09832.0274,W,0.08,180.57,300312,,,D*7A
$GPGGA,140412.000,3353.7524,N,09832.0274,W,2,07,1.1,294.3,M,-23.7,M,1.8,0000*4B
$GPGSA,A,3,22,29,27,26,18,21,15,,,,,,1.9,1.1,1.5*3A
$GPGSV,3,1,12,15,66,089,32,21,60,330,27,18,55,281,31,29,47,184,35*7F
$GPGSV,3,2,12,26,28,045,37,22,16,257,17,27,15,113,28,06,13,318,*77
$GPGSV,3,3,12,09,10,136,31,16,05,296,,05,04,062,16,03,02,323,*7A
$GPRMC,140412.000,A,3353.7524,N,09832.0274,W,0.07,138.33,300312,,,D*76
$GPGGA,140413.000,3353.7524,N,09832.0274,W,2,07,1.1,294.5,M,-23.7,M,2.8,0000*4F
$GPGSA,A,3,22,29,27,26,18,21,15,,,,,,1.9,1.1,1.5*3A
$GPRMC,140413.000,A,3353.7524,N,09832.0274,W,0.19,103.14,300312,,,D*75
$GPGGA,140414.000,3353.7524,N,09832.0273,W,2,08,1.1,294.5,M,-23.7,M,3.8,0000*41
$GPGSA,A,3,22,29,27,26,18,21,15,09,,,,,1.8,1.1,1.4*33
$GPRMC,140414.000,A,3353.7524,N,09832.0273,W,0.04,252.26,300312,,,D*7F
$GPGGA,140415.000,3353.7524,N,09832.0273,W,2,08,1.1,294.6,M,-23.7,M,0.8,0000*40
$GPGSA,A,3,22,29,27,26,18,21,15,09,,,,,1.8,1.1,1.4*33
$GPRMC,140415.000,A,3353.7524,N,09832.0273,W,0.05,42.31,300312,,,D*4A
$GPGGA,140416.000,3353.7524,N,09832.0273,W,2,08,1.1,294.5,M,-23.7,M,0.8,0000*40
$GPGSA,A,3,22,29,27,26,18,21,15,09,,,,,1.8,1.1,1.4*33
$GPRMC,140416.000,A,3353.7524,N,09832.0273,W,0.13,296.63,300312,,,D*72
$GPGGA,140417.000,3353.7524,N,09832.0274,W,2,08,1.1,294.4,M,-23.7,M,0.8,0000*47
$GPGSA,A,3,22,29,27,26,18,21,15,09,,,,,1.8,1.1,1.4*33
$GPGSV,3,1,12,15,66,089,32,21,60,330,28,18,55,281,31,29,47,184,34*71
$GPGSV,3,2,12,26,28,045,37,22,16,257,17,27,15,113,29,06,13,318,*76
$GPGSV,3,3,12,09,10,136,31,16,05,296,,05,04,062,17,03,02,323,*7B
$GPRMC,140417.000,A,3353.7524,N,09832.0274,W,0.23,287.75,300312,,,D*70
$GPGGA,140418.000,3353.7525,N,09832.0275,W,2,08,1.1,294.3,M,-23.7,M,0.8,0000*4F
$GPGSA,A,3,22,29,27,26,18,21,15,09,,,,,1.8,1.1,1.4*33
$GPRMC,140418.000,A,3353.7525,N,09832.0275,W,0.23,294.44,300312,,,D*7F
$GPGGA,140419.000,3353.7525,N,09832.0275,W,2,08,1.1,294.1,M,-23.7,M,1.8,0000*4D
$GPGSA,A,3,22,29,27,26,18,21,15,09,,,,,1.8,1.1,1.4*33
$GPRMC,140419.000,A,3353.7525,N,09832.0275,W,0.27,286.80,300312,,,D*71
$GPGGA,140420.000,3353.7525,N,09832.0276,W,2,08,1.1,294.0,M,-23.7,M,2.8,0000*46
$GPGSA,A,3,22,29,27,26,18,21,15,09,,,,,1.8,1.1,1.4*33
$GPRMC,140420.000,A,3353.7525,N,09832.0276,W,0.30,287.04,300312,,,D*73
$GPGGA,140421.000,3353.7525,N,09832.0276,W,2,08,1.1,294.1,M,-23.7,M,0.8,0000*44
$GPGSA,A,3,22,29,27,26,18,21,15,09,,,,,1.8,1.1,1.4*33
$GPRMC,140421.000,A,3353.7525,N,09832.0276,W,0.09,310.57,300312,,,D*71
$GPGGA,140422.000,3353.7525,N,09832.0276,W,2,08,1.1,294.5,M,-23.7,M,0.8,0000*43
$GPGSA,A,3,22,29,27,26,18,21,15,09,,,,,1.8,1.1,1.4*33
$GPGSV,3,1,12,15,66,089,32,21,60,330,28,18,55,281,31,29,47,184,33*76
$GPGSV,3,2,12,26,28,045,37,22,16,257,16,27,15,113,28,06,13,318,*76
$GPGSV,3,3,12,09,10,136,31,16,05,296,,05,04,062,17,03,02,323,*7B
$GPRMC,140422.000,A,3353.7525,N,09832.0276,W,0.04,328.28,300312,,,D*7C
$GPGGA,140423.000,3353.7525,N,09832.0276,W,2,08,1.1,294.9,M,-23.7,M,0.8,0000*4E
$GPGSA,A,3,22,29,27,26,18,21,15,09,,,,,1.8,1.1,1.4*33
$GPRMC,140423.000,A,3353.7525,N,09832.0276,W,0.09,71.93,300312,,,D*4F
$GPGGA,140424.000,3353.7526,N,09832.0275,W,2,08,1.1,295.4,M,-23.7,M,1.8,0000*44
$GPGSA,A,3,22,29,27,26,18,21,15,09,,,,,1.8,1.1,1.4*33
$GPRMC,140424.000,A,3353.7526,N,09832.0275,W,0.20,83.25,300312,,,D*43
$GPGGA,140425.000,3353.7526,N,09832.0274,W,2,08,1.1,295.9,M,-23.7,M,0.8,0000*48
$GPGSA,A,3,22,29,27,26,18,21,15,09,,,,,1.8,1.1,1.4*33
$GPRMC,140425.000,A,3353.7526,N,09832.0274,W,0.26,87.77,300312,,,D*46
$GPGGA,140426.000,3353.7526,N,09832.0273,W,2,08,1.1,296.4,M,-23.7,M,1.8,0000*43
$GPGSA,A,3,22,29,27,26,18,21,15,09,,,,,1.8,1.1,1.4*33
$GPRMC,140426.000,A,3353.7526,N,09832.0273,W,0.24,89.99,300312,,,D*4E
$GPGGA,140427.000,3353.7526,N,09832.0272,W,2,08,1.1,296.8,M,-23.7,M,0.8,0000*4E
$GPGSA,A,3,22,29,27,26,18,21,15,09,,,,,1.8,1.1,1.4*33
$GPGSV,3,1,12,15,66,089,32,21,60,330,28,18,55,281,31,29,47,184,32*77
$GPGSV,3,2,12,26,28,045,37,22,16,257,15,27,15,113,23,06,13,318,*7E
$GPGSV,3,3,12,09,10,136,31,16,05,296,,05,04,062,18,03,02,323,*74
$GPRMC,140427.000,A,3353.7526,N,09832.0272,W,0.25,81.64,300312,,,D*45
$GPGGA,140428.000,3353.7526,N,09832.0271,W,2,08,1.1,297.2,M,-23.7,M,0.8,0000*49
$GPGSA,A,3,22,29,27,26,18,21,15,09,,,,,1.8,1.1,1.4*33
$GPRMC,140428.000,A,3353.7526,N,09832.0271,W,0.21,69.17,300312,,,D*4F
$GPGGA,140429.000,3353.7526,N,09832.0271,W,2,08,1.1,297.6,M,-23.7,M,0.8,0000*4C
$GPGSA,A,3,22,29,27,26,18,21,15,09,,,,,1.8,1.1,1.4*33
$GPRMC,140429.000,A,3353.7526,N,09832.0271,W,0.19,47.25,300312,,,D*48
$GPGGA,140430.000,3353.7527,N,09832.0270,W,2,07,1.5,298.0,M,-23.7,M,0.8,0000*46
$GPGSA,A,3,29,27,26,18,21,15,09,,,,,,2.7,1.5,2.3*3F
$GPRMC,140430.000,A,3353.7527,N,09832.0270,W,0.25,87.23,300312,,,D*45
$GPGGA,140431.000,3353.7527,N,09832.0270,W,2,07,1.5,298.2,M,-23.7,M,1.8,0000*44
$GPGSA,A,3,29,27,26,18,21,15,09,,,,,,2.7,1.5,2.3*3F
$GPRMC,140431.000,A,3353.7527,N,09832.0270,W,0.30,89.40,300312,,,D*4B
$GPGGA,140432.000,3353.7527,N,09832.0269,W,2,07,1.5,298.5,M,-23.7,M,2.8,0000*4B
$GPGSA,A,3,29,27,26,18,21,15,09,,,,,,2.7,1.5,2.3*3F
$GPGSV,3,1,12,15,66,089,33,21,60,330,28,18,55,281,31,29,47,184,32*76
$GPGSV,3,2,12,26,28,045,37,22,16,257,,27,15,113,22,06,13,318,*7B
$GPGSV,3,3,12,09,10,136,31,16,05,296,,05,04,062,20,03,02,323,*7F
$GPRMC,140432.000,A,3353.7527,N,09832.0269,W,0.31,88.30,300312,,,D*47
$GPGGA,140433.000,3353.7527,N,09832.0268,W,2,07,1.5,298.8,M,-23.7,M,0.8,0000*44
$GPGSA,A,3,29,27,26,18,21,15,09,,,,,,2.7,1.5,2.3*3F
$GPRMC,140433.000,A,3353.7527,N,09832.0268,W,0.33,101.86,300312,,,D*78
$GPGGA,140434.000,3353.7527,N,09832.0268,W,2,07,1.5,299.1,M,-23.7,M,0.8,0000*4B
$GPGSA,A,3,29,27,26,18,21,15,09,,,,,,2.7,1.5,2.3*3F
$GPRMC,140434.000,A,3353.7527,N,09832.0268,W,0.06,78.60,300312,,,D*4E
$GPGGA,140435.000,3353.7527,N,09832.0268,W,2,07,1.5,299.4,M,-23.7,M,0.8,0000*4F
$GPGSA,A,3,29,27,26,18,21,15,09,,,,,,2.7,1.5,2.3*3F
$GPRMC,140435.000,A,3353.7527,N,09832.0268,W,0.13,95.49,300312,,,D*43
$GPGGA,140436.000,3353.7527,N,09832.0267,W,2,07,1.5,299.8,M,-23.7,M,1.8,0000*4E
$GPGSA,A,3,29,27,26,18,21,15,09,,,,,,2.7,1.5,2.3*3F
$GPRMC,140436.000,A,3353.7527,N,09832.0267,W,0.11,100.13,300312,,,D*7F
$GPGGA,140437.000,3353.7526,N,09832.0267,W,2,07,1.5,300.2,M,-23.7,M,2.8,0000*46
$GPGSA,A,3,29,27,26,18,21,15,09,,,,,,2.7,1.5,2.3*3F
$GPGSV,3,1,12,15,66,089,33,21,60,330,28,18,55,281,31,29,47,184,32*76
$GPGSV,3,2,12,26,28,045,37,22,16,257,,27,15,113,22,06,13,318,*7B
$GPGSV,3,3,12,09,10,136,31,16,05,296,,05,04,062,20,03,02,323,*7F
$GPRMC,140437.000,A,3353.7526,N,09832.0267,W,0.08,90.47,300312,,,D*4E
$GPGGA,140438.000,3353.7526,N,09832.0266,W,2,07,1.5,300.6,M,-23.7,M,3.8,0000*4D
$GPGSA,A,3,29,27,26,18,21,15,09,,,,,,2.7,1.5,2.3*3F
$GPRMC,140438.000,A,3353.7526,N,09832.0266,W,0.17,103.15,300312,,,D*72
$GPGGA,140439.000,3353.7526,N,09832.0266,W,2,07,1.5,300.9,M,-23.7,M,0.8,0000*40
$GPGSA,A,3,29,27,26,18,21,15,09,,,,,,2.7,1.5,2.3*3F
$GPRMC,140439.000,A,3353.7526,N,09832.0266,W,0.09,63.85,300312,,,D*42
$GPGGA,140440.000,3353.7526,N,09832.0265,W,2,07,1.5,301.3,M,-23.7,M,0.8,0000*46
$GPGSA,A,3,29,27,26,18,21,15,09,,,,,,2.7,1.5,2.3*3F
$GPRMC,140440.000,A,3353.7526,N,09832.0265,W,0.11,58.70,300312,,,D*44
$GPGGA,140441.000,3353.7526,N,09832.0264,W,2,07,1.5,301.7,M,-23.7,M,0.8,0000*42
$GPGSA,A,3,29,27,26,18,21,15,09,,,,,,2.7,1.5,2.3*3F
$GPRMC,140441.000,A,3353.7526,N,09832.0264,W,0.26,97.11,300312,,,D*44
$GPGGA,140442.000,3353.7526,N,09832.0264,W,2,08,1.1,302.0,M,-23.7,M,0.8,0000*4E
$GPGSA,A,3,22,29,27,26,18,21,15,09,,,,,1.8,1.1,1.4*33
$GPGSV,3,1,12,15,66,089,33,21,60,330,27,18,55,281,31,29,47,184,31*7A
$GPGSV,3,2,12,26,28,045,37,22,16,257,17,27,15,113,22,06,13,318,*7D
$GPGSV,3,3,12,09,10,136,32,16,05,296,,05,04,062,20,03,02,323,*7C
$GPRMC,140442.000,A,3353.7526,N,09832.0264,W,0.02,29.84,300312,,,D*48
$GPGGA,140443.000,3353.7526,N,09832.0264,W,2,08,1.1,302.2,M,-23.7,M,1.8,0000*4C
$GPGSA,A,3,22,29,27,26,18,21,15,09,,,,,1.8,1.1,1.4*33
$GPRMC,140443.000,A,3353.7526,N,09832.0264,W,0.05,170.05,300312,,,D*7A
$GPGGA,140444.000,3353.7526,N,09832.0263,W,2,08,1.1,302.8,M,-23.7,M,0.8,0000*47
$GPGSA,A,3,22,29,27,26,18,21,15,09,,,,,1.8,1.1,1.4*33
$GPRMC,140444.000,A,3353.7526,N,09832.0263,W,0.25,81.95,300312,,,D*4E
$GPGGA,140445.000,3353.7526,N,09832.0261,W,2,08,1.1,303.4,M,-23.7,M,0.8,0000*49
$GPGSA,A,3,22,29,27,26,18,21,15,09,,,,,1.8,1.1,1.4*33
$GPRMC,140445.000,A,3353.7526,N,09832.0261,W,0.30,89.20,300312,,,D*4F
$GPGGA,140446.000,3353.7526,N,09832.0260,W,2,08,1.1,304.0,M,-23.7,M,0.8,0000*48
$GPGSA,A,3,22,29,27,26,18,21,15,09,,,,,1.8,1.1,1.4*33
$GPRMC,140446.000,A,3353.7526,N,09832.0260,W,0.31,101.92,300312,,,D*74
$GPGGA,140447.000,3353.7526,N,09832.0259,W,2,08,1.1,304.5,M,-23.7,M,0.8,0000*46
$GPGSA,A,3,22,29,27,26,18,21,15,09,,,,,1.8,1.1,1.4*33
$GPGSV,3,1,12,15,66,088,32,21,60,330,27,18,56,282,30,29,47,184,31*7B
$GPGSV,3,2,12,26,28,045,37,22,16,257,17,27,16,113,23,06,13,318,*7F
$GPGSV,3,3,12,09,10,136,32,16,05,296,,05,04,062,19,03,02,323,*76
$GPRMC,140447.000,A,3353.7526,N,09832.0259,W,0.27,102.20,300312,,,D*72
$GPGGA,140448.000,3353.7526,N,09832.0258,W,2,08,1.1,304.9,M,-23.7,M,0.8,0000*44
$GPGSA,A,3,22,29,27,26,18,21,15,09,,,,,1.8,1.1,1.4*33
$GPRMC,140448.000,A,3353.7526,N,09832.0258,W,0.02,79.06,300312,,,D*42
$GPGGA,140449.000,3353.7526,N,09832.0258,W,2,08,1.1,305.2,M,-23.7,M,1.8,0000*4E
$GPGSA,A,3,22,29,27,26,18,21,15,09,,,,,1.8,1.1,1.4*33
$GPRMC,140449.000,A,3353.7526,N,09832.0258,W,0.09,254.76,300312,,,D*72
$GPGGA,140450.000,3353.7526,N,09832.0258,W,2,08,1.1,305.5,M,-23.7,M,2.8,0000*42
$GPGSA,A,3,22,29,27,26,18,21,15,09,,,,,1.8,1.1,1.4*33
$GPRMC,140450.000,A,3353.7526,N,09832.0258,W,0.10,158.47,300312,,,D*7F
$GPGGA,140451.000,3353.7526,N,09832.0258,W,2,08,1.1,305.7,M,-23.7,M,0.8,0000*43
$GPGSA,A,3,22,29,27,26,18,21,15,09,,,,,1.8,1.1,1.4*33
