$GPGGA,080112.000,3353.7466,N,09832.0236,W,1,09,1.1,312.2,M,-23.7,M,,0000*66
$GPGSA,A,3,27,09,28,04,10,17,02,12,05,,,,2.2,1.1,1.9*3B
$GPGSV,3,1,11,04,73,032,33,02,66,243,36,12,40,317,22,10,40,128,26*70
$GPGSV,3,2,11,09,31,254,26,17,31,072,25,27,29,236,20,28,18,137,30*7C
$GPGSV,3,3,11,05,12,180,37,20,02,035,,25,01,318,*48
$GPRMC,080112.000,A,3353.7466,N,09832.0236,W,0.15,350.18,020412,,,A*7A
$GPGGA,080113.000,3353.7465,N,09832.0238,W,1,09,1.1,312.4,M,-23.7,M,,0000*6C
$GPGSA,A,3,27,09,28,04,10,17,02,12,05,,,,2.2,1.1,1.9*3B
$GPRMC,080113.000,A,3353.7465,N,09832.0238,W,0.32,310.01,020412,,,A*7F
$GPGGA,080114.000,3353.7464,N,09832.0240,W,1,09,1.1,312.6,M,-23.7,M,,0000*67
$GPGSA,A,3,27,09,28,04,10,17,02,12,05,,,,2.2,1.1,1.9*3B
$GPRMC,080114.000,A,3353.7464,N,09832.0240,W,0.32,327.06,020412,,,A*75
$GPGGA,080115.000,3353.7462,N,09832.0242,W,1,09,1.1,313.0,M,-23.7,M,,0000*65
$GPGSA,A,3,27,09,28,04,10,17,02,12,05,,,,2.2,1.1,1.9*3B
$GPRMC,080115.000,A,3353.7462,N,09832.0242,W,0.11,289.67,020412,,,A*73
$GPGGA,080116.000,3353.7460,N,09832.0244,W,1,09,1.1,313.6,M,-23.7,M,,0000*64
$GPGSA,A,3,27,09,28,04,10,17,02,12,05,,,,2.2,1.1,1.9*3B
$GPRMC,080116.000,A,3353.7460,N,09832.0244,W,0.17,270.48,020412,,,A*79
$GPGGA,080117.000,3353.7456,N,09832.0246,W,1,09,1.1,314.3,M,-23.7,M,,0000*60
$GPGSA,A,3,27,09,28,04,10,17,02,12,05,,,,2.2,1.1,1.9*3B
$GPGSV,3,1,11,04,73,032,33,02,66,243,36,12,40,317,20,10,40,128,27*73
$GPGSV,3,2,11,09,31,254,24,17,31,072,25,27,29,236,19,28,18,137,30*74
$GPGSV,3,3,11,05,12,180,37,20,02,035,,25,01,318,*48
$GPRMC,080117.000,A,3353.7456,N,09832.0246,W,0.21,193.41,020412,,,A*7D
$GPGGA,080118.000,3353.7452,N,09832.0247,W,1,09,1.1,315.1,M,-23.7,M,,0000*69
$GPGSA,A,3,27,09,28,04,10,17,02,12,05,,,,2.2,1.1,1.9*3B
$GPRMC,080118.000,A,3353.7452,N,09832.0247,W,0.38,156.38,020412,,,A*78
$GPGGA,080119.000,3353.7448,N,09832.0249,W,1,09,1.1,316.1,M,-23.7,M,,0000*6E
$GPGSA,A,3,27,09,28,04,10,17,02,12,05,,,,2.2,1.1,1.9*3B
$GPRMC,080119.000,A,3353.7448,N,09832.0249,W,0.46,167.41,020412,,,A*79
$GPGGA,080120.000,3353.7444,N,09832.0250,W,1,09,1.1,317.1,M,-23.7,M,,0000*61
$GPGSA,A,3,27,09,28,04,10,17,02,12,05,,,,2.2,1.1,1.9*3B
$GPRMC,080120.000,A,3353.7444,N,09832.0250,W,0.48,169.82,020412,,,A*78
$GPGGA,080121.000,3353.7441,N,09832.0252,W,1,09,1.1,317.9,M,-23.7,M,,0000*6F
$GPGSA,A,3,27,09,28,04,10,17,02,12,05,,,,2.2,1.1,1.9*3B
$GPRMC,080121.000,A,3353.7441,N,09832.0252,W,0.08,177.62,020412,,,A*7B
$GPGGA,080122.000,3353.7438,N,09832.0253,W,1,09,1.1,318.5,M,-23.7,M,,0000*60
$GPGSA,A,3,27,09,28,04,10,17,02,12,05,,,,2.2,1.1,1.9*3B
$GPGSV,3,1,11,04,73,032,33,02,66,243,36,12,40,317,21,10,40,128,27*72
$GPGSV,3,2,11,09,31,254,24,17,31,072,25,27,29,236,18,28,18,137,30*75
$GPGSV,3,3,11,05,12,180,37,20,02,035,,25,01,318,*48
$GPRMC,080122.000,A,3353.7438,N,09832.0253,W,0.03,281.90,020412,,,A*7B
$GPGGA,080123.000,3353.7437,N,09832.0254,W,1,09,1.1,318.9,M,-23.7,M,,0000*65
$GPGSA,A,3,27,09,28,04,10,17,02,12,05,,,,2.2,1.1,1.9*3B
$GPRMC,080123.000,A,3353.7437,N,09832.0254,W,0.19,67.47,020412,,,A*49
$GPGGA,080124.000,3353.7436,N,09832.0255,W,1,09,1.1,319.1,M,-23.7,M,,0000*6B
$GPGSA,A,3,27,09,28,04,10,17,02,12,05,,,,2.2,1.1,1.9*3B
$GPRMC,080124.000,A,3353.7436,N,09832.0255,W,0.19,55.09,020412,,,A*45
$GPGGA,080125.000,3353.7434,N,09832.0256,W,1,09,1.1,319.3,M,-23.7,M,,0000*69
$GPGSA,A,3,27,09,28,04,10,17,02,12,05,,,,2.2,1.1,1.9*3B
$GPRMC,080125.000,A,3353.7434,N,09832.0256,W,0.09,108.22,020412,,,A*74
$GPGGA,080126.000,3353.7433,N,09832.0257,W,1,09,1.1,319.5,M,-23.7,M,,0000*6A
$GPGSA,A,3,27,09,28,04,10,17,02,12,05,,,,2.2,1.1,1.9*3B
$GPRMC,080126.000,A,3353.7433,N,09832.0257,W,0.19,13.17,020412,,,A*4D
$GPGGA,080127.000,3353.7433,N,09832.0258,W,1,09,1.1,319.6,M,-23.7,M,,0000*67
$GPGSA,A,3,27,09,28,04,10,17,02,12,05,,,,2.2,1.1,1.9*3B
$GPGSV,3,1,11,04,73,032,33,02,66,243,36,12,40,317,21,10,40,128,27*72
$GPGSV,3,2,11,09,31,254,24,17,31,072,25,27,29,236,17,28,18,137,30*7A
$GPGSV,3,3,11,05,12,180,37,20,02,035,,25,01,318,*48
$GPRMC,080127.000,A,3353.7433,N,09832.0258,W,0.11,14.77,020412,,,A*4A
$GPGGA,080128.000,3353.7432,N,09832.0260,W,1,09,1.1,319.6,M,-23.7,M,,0000*62
$GPGSA,A,3,27,09,28,04,10,17,02,12,05,,,,2.2,1.1,1.9*3B
$GPRMC,080128.000,A,3353.7432,N,09832.0260,W,0.28,328.81,020412,,,A*70
$GPGGA,080129.000,3353.7431,N,09832.0261,W,1,09,1.1,319.7,M,-23.7,M,,0000*60
$GPGSA,A,3,27,09,28,04,10,17,02,12,05,,,,2.2,1.1,1.9*3B
$GPRMC,080129.000,A,3353.7431,N,09832.0261,W,0.11,40.63,020412,,,A*48
$GPGGA,080130.000,3353.7431,N,09832.0261,W,1,09,1.1,319.7,M,-23.7,M,,0000*68
$GPGSA,A,3,27,09,28,04,10,17,02,12,05,,,,2.2,1.1,1.9*3B
$GPRMC,080130.000,A,3353.7431,N,09832.0261,W,0.21,21.19,020412,,,A*49
$GPGGA,080131.000,3353.7430,N,09832.0262,W,1,09,1.1,319.7,M,-23.7,M,,0000*6B
$GPGSA,A,3,27,09,28,04,10,17,02,12,05,,,,2.2,1.1,1.9*3B
$GPRMC,080131.000,A,3353.7430,N,09832.0262,W,0.02,60.02,020412,,,A*44
$GPGGA,080132.000,3353.7430,N,09832.0263,W,1,09,1.1,319.7,M,-23.7,M,,0000*69
$GPGSA,A,3,27,09,28,04,10,17,02,12,05,,,,2.2,1.1,1.9*3B
$GPGSV,3,1,11,04,73,032,34,02,66,243,36,12,40,317,22,10,40,128,28*79
$GPGSV,3,2,11,09,31,254,24,17,31,072,26,27,29,236,17,28,18,137,30*79
$GPGSV,3,3,11,05,12,180,37,20,02,035,,25,01,318,*48
$GPRMC,080132.000,A,3353.7430,N,09832.0263,W,0.18,350.87,020412,,,A*70
$GPGGA,080133.000,3353.7429,N,09832.0264,W,1,09,1.1,319.7,M,-23.7,M,,0000*67
$GPGSA,A,3,27,09,28,04,10,17,02,12,05,,,,2.2,1.1,1.9*3B
$GPRMC,080133.000,A,3353.7429,N,09832.0264,W,0.14,63.04,020412,,,A*4A
$GPGGA,080134.000,3353.7429,N,09832.0264,W,1,09,1.1,319.7,M,-23.7,M,,0000*60
$GPGSA,A,3,27,09,28,04,10,17,02,12,05,,,,2.2,1.1,1.9*3B
$GPRMC,080134.000,A,3353.7429,N,09832.0264,W,0.17,47.01,020412,,,A*4D
$GPGGA,080135.000,3353.7429,N,09832.0266,W,1,09,1.1,319.7,M,-23.7,M,,0000*63
$GPGSA,A,3,27,09,28,04,10,17,02,12,05,,,,2.2,1.1,1.9*3B
$GPRMC,080135.000,A,3353.7429,N,09832.0266,W,0.29,328.46,020412,,,A*7A
$GPGGA,080136.000,3353.7428,N,09832.0267,W,1,09,1.1,319.7,M,-23.7,M,,0000*60
$GPGSA,A,3,27,09,28,04,10,17,02,12,05,,,,2.2,1.1,1.9*3B
$GPRMC,080136.000,A,3353.7428,N,09832.0267,W,0.11,285.49,020412,,,A*7B
$GPGGA,080137.000,3353.7427,N,09832.0268,W,1,09,1.1,319.7,M,-23.7,M,,0000*61
$GPGSA,A,3,27,09,28,04,10,17,02,12,05,,,,2.2,1.1,1.9*3B
$GPGSV,3,1,11,04,73,032,34,02,66,243,37,12,40,317,23,10,40,128,28*79
$GPGSV,3,2,11,09,31,254,24,17,31,072,27,27,29,236,17,28,18,137,31*79
$GPGSV,3,3,11,05,12,180,37,20,02,035,,25,01,318,*48
$GPRMC,080137.000,A,3353.7427,N,09832.0268,W,0.09,265.69,020412,,,A*7F
$GPGGA,080138.000,3353.7427,N,09832.0269,W,1,09,1.1,319.6,M,-23.7,M,,0000*6E
$GPGSA,A,3,27,09,28,04,10,17,02,12,05,,,,2.2,1.1,1.9*3B
$GPRMC,080138.000,A,3353.7427,N,09832.0269,W,0.20,359.97,020412,,,A*75
$GPGGA,080139.000,3353.7427,N,09832.0269,W,1,09,1.1,319.6,M,-23.7,M,,0000*6F
$GPGSA,A,3,27,09,28,04,10,17,02,12,05,,,,2.2,1.1,1.9*3B
$GPRMC,080139.000,A,3353.7427,N,09832.0269,W,0.07,75.72,020412,,,A*47
$GPGGA,080140.000,3353.7427,N,09832.0270,W,1,09,1.1,319.6,M,-23.7,M,,0000*69
$GPGSA,A,3,27,09,28,04,10,17,02,12,05,,,,2.2,1.1,1.9*3B
$GPRMC,080140.000,A,3353.7427,N,09832.0270,W,0.22,312.47,020412,,,A*72
$GPGGA,080141.000,3353.7427,N,09832.0272,W,1,09,1.1,319.5,M,-23.7,M,,0000*69
$GPGSA,A,3,27,09,28,04,10,17,02,12,05,,,,2.2,1.1,1.9*3B
$GPRMC,080141.000,A,3353.7427,N,09832.0272,W,0.28,313.55,020412,,,A*79
$GPGGA,080142.000,3353.7427,N,09832.0273,W,1,09,1.1,319.4,M,-23.7,M,,0000*6A
$GPGSA,A,3,27,09,28,04,10,17,02,12,05,,,,2.2,1.1,1.9*3B
$GPGSV,3,1,11,04,73,032,34,02,66,243,36,12,40,317,23,10,40,128,29*79
$GPGSV,3,2,11,09,31,254,24,17,31,072,27,27,29,236,17,28,18,137,31*79
$GPGSV,3,3,11,05,12,180,37,20,02,035,,25,01,318,*48
$GPRMC,080142.000,A,3353.7427,N,09832.0273,W,0.29,302.72,020412,,,A*7F
$GPGGA,080143.000,3353.7426,N,09832.0273,W,1,09,1.1,319.4,M,-23.7,M,,0000*6A
$GPGSA,A,3,27,09,28,04,10,17,02,12,05,,,,2.2,1.1,1.9*3B
$GPRMC,080143.000,A,3353.7426,N,09832.0273,W,0.23,70.20,020412,,,A*44
$GPGGA,080144.000,3353.7427,N,09832.0274,W,1,09,1.1,319.3,M,-23.7,M,,0000*6C
$GPGSA,A,3,27,09,28,04,10,17,02,12,05,,,,2.2,1.1,1.9*3B
$GPRMC,080144.000,A,3353.7427,N,09832.0274,W,0.22,12.05,020412,,,A*47
$GPGGA,080145.000,3353.7427,N,09832.0275,W,1,09,1.1,319.2,M,-23.7,M,,0000*6D
$GPGSA,A,3,27,09,28,04,10,17,02,12,05,,,,2.2,1.1,1.9*3B
$GPRMC,080145.000,A,3353.7427,N,09832.0275,W,0.35,350.40,020412,,,A*75
$GPGGA,080146.000,3353.7428,N,09832.0275,W,1,09,1.1,319.0,M,-23.7,M,,0000*63
$GPGSA,A,3,27,09,28,04,10,17,02,12,05,,,,2.2,1.1,1.9*3B
$GPRMC,080146.000,A,3353.7428,N,09832.0275,W,0.30,54.69,020412,,,A*40
$GPGGA,080147.000,3353.7428,N,09832.0274,W,1,09,1.1,318.9,M,-23.7,M,,0000*6B
$GPGSA,A,3,27,09,28,04,10,17,02,12,05,,,,2.2,1.1,1.9*3B
$GPGSV,3,1,11,04,73,032,34,02,66,243,36,12,40,317,23,10,40,128,29*79
$GPGSV,3,2,11,09,31,254,18,17,31,072,27,27,29,236,17,28,18,137,31*76
$GPGSV,3,3,11,05,12,180,37,20,02,035,,25,01,318,*48
$GPRMC,080147.000,A,3353.7428,N,09832.0274,W,0.35,72.85,020412,,,A*43
$GPGGA,080148.000,3353.7428,N,09832.0275,W,1,09,1.1,318.8,M,-23.7,M,,0000*64
$GPGSA,A,3,27,09,28,04,10,17,02,12,05,,,,2.2,1.1,1.9*3B
$GPRMC,080148.000,A,3353.7428,N,09832.0275,W,0.22,25.04,020412,,,A*40
$GPGGA,080149.000,3353.7428,N,09832.0276,W,1,09,1.1,318.7,M,-23.7,M,,0000*69
$GPGSA,A,3,27,09,28,04,10,17,02,12,05,,,,2.2,1.1,1.9*3B
$GPRMC,080149.000,A,3353.7428,N,09832.0276,W,0.21,324.22,020412,,,A*77
$GPGGA,080150.000,3353.7428,N,09832.0277,W,1,09,1.1,318.5,M,-23.7,M,,0000*62
$GPGSA,A,3,27,09,28,04,10,17,02,12,05,,,,2.2,1.1,1.9*3B
$GPRMC,080150.000,A,3353.7428,N,09832.0277,W,0.10,329.67,020412,,,A*70
$GPGGA,080151.000,3353.7429,N,09832.0278,W,1,09,1.1,318.4,M,-23.7,M,,0000*6C
$GPGSA,A,3,27,09,28,04,10,17,02,12,05,,,,2.2,1.1,1.9*3B
$GPRMC,080151.000,A,3353.7429,N,09832.0278,W,0.18,353.45,020412,,,A*7A
$GPGGA,080152.000,3353.7429,N,09832.0278,W,1,09,1.1,318.2,M,-23.7,M,,0000*69
$GPGSA,A,3,27,09,28,04,10,17,02,12,05,,,,2.2,1.1,1.9*3B
$GPGSV,3,1,11,04,73,032,35,02,66,243,36,12,40,317,24,10,40,128,28*7E
$GPGSV,3,2,11,09,31,254,20,17,31,072,27,27,29,236,18,28,18,137,31*72
$GPGSV,3,3,11,05,12,180,37,20,02,035,,25,01,318,*48
$GPRMC,080152.000,A,3353.7429,N,09832.0278,W,0.03,35.83,020412,,,A*4A
$GPGGA,080153.000,3353.7429,N,09832.0280,W,1,09,1.1,318.1,M,-23.7,M,,0000*6C
$GPGSA,A,3,27,09,28,04,10,17,02,12,05,,,,2.2,1.1,1.9*3B
$GPRMC,080153.000,A,3353.7429,N,09832.0280,W,0.15,265.45,020412,,,A*76
$GPGGA,080154.000,3353.7429,N,09832.0282,W,1,09,1.1,317.8,M,-23.7,M,,0000*6F
$GPGSA,A,3,27,09,28,04,10,17,02,12,05,,,,2.2,1.1,1.9*3B
$GPRMC,080154.000,A,3353.7429,N,09832.0282,W,0.25,290.70,020412,,,A*7C
$GPGGA,080155.000,3353.7429,N,09832.0282,W,1,09,1.1,317.5,M,-23.7,M,,0000*63
$GPGSA,A,3,27,09,28,04,10,17,02,12,05,,,,2.2,1.1,1.9*3B
$GPRMC,080155.000,A,3353.7429,N,09832.0282,W,0.16,65.66,020412,,,A*42
$GPGGA,080156.000,3353.7429,N,09832.0282,W,1,09,1.1,317.4,M,-23.7,M,,0000*61
$GPGSA,A,3,27,09,28,04,10,17,02,12,05,,,,2.2,1.1,1.9*3B
$GPRMC,080156.000,A,3353.7429,N,09832.0282,W,0.19,50.78,020412,,,A*47
$GPGGA,080157.000,3353.7429,N,09832.0282,W,1,09,1.1,317.3,M,-23.7,M,,0000*67
$GPGSA,A,3,27,09,28,04,10,17,02,12,05,,,,2.2,1.1,1.9*3B
$GPGSV,3,1,12,04,73,032,35,02,66,243,36,12,40,317,24,10,40,128,20*75
$GPGSV,3,2,12,09,31,254,19,17,31,072,26,27,29,236,19,28,18,137,31*7B
$GPGSV,3,3,12,05,12,180,37,20,02,035,,25,01,318,,48,36,230,28*79
$GPRMC,080157.000,A,3353.7429,N,09832.0282,W,0.29,58.85,020412,,,A*4F
$GPGGA,080158.000,3353.7429,N,09832.0280,W,1,09,1.1,317.4,M,-23.7,M,,0000*6D
$GPGSA,A,3,27,09,28,04,10,17,02,12,05,,,,2.2,1.1,1.9*3B
$GPRMC,080158.000,A,3353.7429,N,09832.0280,W,0.33,69.85,020412,,,A*4B
$GPGGA,080159.000,3353.7429,N,09832.0279,W,1,08,1.2,317.6,M,-23.7,M,,0000*6A
$GPGSA,A,3,27,09,28,04,17,02,12,05,,,,,2.3,1.2,2.0*32
$GPRMC,080159.000,A,3353.7429,N,09832.0279,W,0.29,87.59,020412,,,A*46
$GPGGA,080200.000,3353.7428,N,09832.0277,W,1,08,1.2,317.7,M,-23.7,M,,0000*6B
$GPGSA,A,3,27,09,28,04,17,02,12,05,,,,,2.3,1.2,2.0*32
$GPRMC,080200.000,A,3353.7428,N,09832.0277,W,0.15,72.29,020412,,,A*44
$GPGGA,080201.000,3353.7427,N,09832.0276,W,1,08,1.2,317.9,M,-23.7,M,,0000*6A
$GPGSA,A,3,27,09,28,04,17,02,12,05,,,,,2.3,1.2,2.0*32
$GPRMC,080201.000,A,3353.7427,N,09832.0276,W,0.17,110.82,020412,,,A*7D
$GPGGA,080202.000,3353.7426,N,09832.0275,W,1,08,1.2,318.1,M,-23.7,M,,0000*6C
$GPGSA,A,3,27,09,28,04,17,02,12,05,,,,,2.3,1.2,2.0*32
$GPGSV,3,1,12,04,73,032,35,02,66,243,36,12,40,317,24,10,40,128,*77
$GPGSV,3,2,12,09,31,254,19,17,31,072,26,27,29,236,20,28,18,137,31*71
$GPGSV,3,3,12,05,12,180,37,20,02,035,,25,01,318,,48,36,230,28*79
$GPRMC,080202.000,A,3353.7426,N,09832.0275,W,0.08,133.77,020412,,,A*79
$GPGGA,080203.000,3353.7426,N,09832.0273,W,1,08,1.2,318.2,M,-23.7,M,,0000*68
$GPGSA,A,3,27,09,28,04,17,02,12,05,,,,,2.3,1.2,2.0*32
$GPRMC,080203.000,A,3353.7426,N,09832.0273,W,0.02,87.34,020412,,,A*4D
$GPGGA,080204.000,3353.7425,N,09832.0272,W,1,08,1.2,318.4,M,-23.7,M,,0000*6B
$GPGSA,A,3,27,09,28,04,17,02,12,05,,,,,2.3,1.2,2.0*32
$GPRMC,080204.000,A,3353.7425,N,09832.0272,W,0.09,4.60,020412,,,A*79
$GPGGA,080205.000,3353.7425,N,09832.0270,W,1,08,1.2,318.5,M,-23.7,M,,0000*69
$GPGSA,A,3,27,09,28,04,17,02,12,05,,,,,2.3,1.2,2.0*32
$GPRMC,080205.000,A,3353.7425,N,09832.0270,W,0.36,89.62,020412,,,A*41
$GPGGA,080206.000,3353.7424,N,09832.0267,W,1,08,1.2,318.6,M,-23.7,M,,0000*6E
$GPGSA,A,3,27,09,28,04,17,02,12,05,,,,,2.3,1.2,2.0*32
$GPRMC,080206.000,A,3353.7424,N,09832.0267,W,0.39,82.33,020412,,,A*45
$GPGGA,080207.000,3353.7425,N,09832.0267,W,1,08,1.2,318.3,M,-23.7,M,,0000*6B
$GPGSA,A,3,27,09,28,04,17,02,12,05,,,,,2.3,1.2,2.0*32
$GPGSV,3,1,12,04,73,032,35,02,66,243,36,12,40,317,24,10,40,128,*77
$GPGSV,3,2,12,09,31,254,18,17,31,072,26,27,29,236,20,28,18,137,31*70
$GPGSV,3,3,12,05,12,180,37,20,02,035,,25,01,318,,48,36,230,28*79
$GPRMC,080207.000,A,3353.7425,N,09832.0267,W,0.36,335.85,020412,,,A*78
$GPGGA,080208.000,3353.7427,N,09832.0268,W,1,09,1.1,317.9,M,-23.7,M,,0000*6E
$GPGSA,A,3,27,09,28,04,10,17,02,12,05,,,,2.2,1.1,1.9*3B
$GPRMC,080208.000,A,3353.7427,N,09832.0268,W,0.52,306.52,020412,,,A*72
$GPGGA,080209.000,3353.7428,N,09832.0269,W,1,09,1.1,317.4,M,-23.7,M,,0000*6C
$GPGSA,A,3,27,09,28,04,10,17,02,12,05,,,,2.2,1.1,1.9*3B
$GPRMC,080209.000,A,3353.7428,N,09832.0269,W,0.41,305.65,020412,,,A*78
$GPGGA,080210.000,3353.7429,N,09832.0270,W,1,09,1.1,316.8,M,-23.7,M,,0000*60
$GPGSA,A,3,27,09,28,04,10,17,02,12,05,,,,2.2,1.1,1.9*3B
$GPRMC,080210.000,A,3353.7429,N,09832.0270,W,0.52,325.31,020412,,,A*78
$GPGGA,080211.000,3353.7431,N,09832.0270,W,1,09,1.1,316.1,M,-23.7,M,,0000*61
$GPGSA,A,3,27,09,28,04,10,17,02,12,05,,,,2.2,1.1,1.9*3B
$GPRMC,080211.000,A,3353.7431,N,09832.0270,W,0.46,339.81,020412,,,A*73
$GPGGA,080212.000,3353.7433,N,09832.0271,W,1,09,1.1,315.3,M,-23.7,M,,0000*60
$GPGSA,A,3,27,09,28,04,10,17,02,12,05,,,,2.2,1.1,1.9*3B
$GPGSV,3,1,11,04,73,032,35,02,66,243,36,12,40,317,24,10,40,128,23*75
$GPGSV,3,2,11,09,31,254,16,17,31,072,27,27,29,236,21,28,18,137,32*7E
$GPGSV,3,3,11,05,12,180,37,20,02,035,,25,01,318,*48
$GPRMC,080212.000,A,3353.7433,N,09832.0271,W,0.46,330.00,020412,,,A*73
$GPGGA,080213.000,3353.7435,N,09832.0273,W,1,09,1.1,314.6,M,-23.7,M,,0000*61
$GPGSA,A,3,27,09,28,04,10,17,02,12,05,,,,2.2,1.1,1.9*3B
$GPRMC,080213.000,A,3353.7435,N,09832.0273,W,0.53,316.37,020412,,,A*72
$GPGGA,080214.000,3353.7437,N,09832.0274,W,1,09,1.1,313.8,M,-23.7,M,,0000*6A
$GPGSA,A,3,27,09,28,04,10,17,02,12,05,,,,2.2,1.1,1.9*3B
$GPRMC,080214.000,A,3353.7437,N,09832.0274,W,0.59,328.48,020412,,,A*7F
$GPGGA,080215.000,3353.7439,N,09832.0275,W,1,09,1.1,313.1,M,-23.7,M,,0000*6D
$GPGSA,A,3,27,09,28,04,10,17,02,12,05,,,,2.2,1.1,1.9*3B
$GPRMC,080215.000,A,3353.7439,N,09832.0275,W,0.48,330.53,020412,,,A*72
$GPGGA,080216.000,3353.7440,N,09832.0276,W,1,09,1.1,312.5,M,-23.7,M,,0000*66
$GPGSA,A,3,27,09,28,04,10,17,02,12,05,,,,2.2,1.1,1.9*3B
$GPRMC,080216.000,A,3353.7440,N,09832.0276,W,0.39,331.97,020412,,,A*73
$GPGGA,080217.000,3353.7442,N,09832.0276,W,1,09,1.1,312.0,M,-23.7,M,,0000*60
$GPGSA,A,3,27,09,28,04,10,17,02,12,05,,,,2.2,1.1,1.9*3B
$GPGSV,3,1,11,04,73,032,35,02,66,243,36,12,40,317,25,10,40,128,24*73
$GPGSV,3,2,11,09,31,254,16,17,31,072,29,27,29,236,23,28,18,137,32*72
$GPGSV,3,3,11,05,12,180,36,20,02,035,,25,01,318,*49
$GPRMC,080217.000,A,3353.7442,N,09832.0276,W,0.32,342.35,020412,,,A*77
$GPGGA,080218.000,3353.7442,N,09832.0277,W,1,09,1.1,311.6,M,-23.7,M,,0000*6B
$GPGSA,A,3,27,09,28,04,10,17,02,12,05,,,,2.2,1.1,1.9*3B
$GPRMC,080218.000,A,3353.7442,N,09832.0277,W,0.24,356.09,020412,,,A*74
$GPGGA,080219.000,3353.7443,N,09832.0276,W,1,09,1.1,311.3,M,-23.7,M,,0000*6F
$GPGSA,A,3,27,09,28,04,10,17,02,12,05,,,,2.2,1.1,1.9*3B
$GPRMC,080219.000,A,3353.7443,N,09832.0276,W,0.29,49.96,020412,,,A*43
$GPGGA,080220.000,3353.7443,N,09832.0276,W,1,09,1.1,311.1,M,-23.7,M,,0000*67
$GPGSA,A,3,27,09,28,04,10,17,02,12,05,,,,2.2,1.1,1.9*3B
$GPRMC,080220.000,A,3353.7443,N,09832.0276,W,0.19,40.77,020412,,,A*4C
$GPGGA,080221.000,3353.7444,N,09832.0275,W,1,09,1.1,311.0,M,-23.7,M,,0000*63
$GPGSA,A,3,27,09,28,04,10,17,02,12,05,,,,2.2,1.1,1.9*3B
$GPRMC,080221.000,A,3353.7444,N,09832.0275,W,0.17,34.67,020412,,,A*45
$GPGGA,080222.000,3353.7444,N,09832.0275,W,1,09,1.1,310.9,M,-23.7,M,,0000*68
$GPGSA,A,3,27,09,28,04,10,17,02,12,05,,,,2.2,1.1,1.9*3B
$GPGSV,3,1,11,04,73,032,34,02,66,243,36,12,40,317,25,10,40,128,23*75
$GPGSV,3,2,11,09,31,254,18,17,31,072,30,27,29,236,23,28,18,137,32*74
$GPGSV,3,3,11,05,12,180,36,20,02,035,,25,01,318,*49
$GPRMC,080222.000,A,3353.7444,N,09832.0275,W,0.18,69.00,020412,,,A*40
$GPGGA,080223.000,3353.7443,N,09832.0274,W,1,09,1.1,310.9,M,-23.7,M,,0000*6F
$GPGSA,A,3,27,09,28,04,10,17,02,12,05,,,,2.2,1.1,1.9*3B
$GPRMC,080223.000,A,3353.7443,N,09832.0274,W,0.11,54.27,020412,,,A*45
$GPGGA,080224.000,3353.7443,N,09832.0274,W,1,09,1.1,311.0,M,-23.7,M,,0000*60
$GPGSA,A,3,27,09,28,04,10,17,02,12,05,,,,2.2,1.1,1.9*3B
$GPRMC,080224.000,A,3353.7443,N,09832.0274,W,0.19,81.17,020412,,,A*41
$GPGGA,080225.000,3353.7443,N,09832.0273,W,1,09,1.1,311.0,M,-23.7,M,,0000*66
$GPGSA,A,3,27,09,28,04,10,17,02,12,05,,,,2.2,1.1,1.9*3B
$GPRMC,080225.000,A,3353.7443,N,09832.0273,W,0.06,354.27,020412,,,A*71
$GPGGA,080226.000,3353.7442,N,09832.0273,W,1,09,1.1,311.1,M,-23.7,M,,0000*65
$GPGSA,A,3,27,09,28,04,10,17,02,12,05,,,,2.2,1.1,1.9*3B
$GPRMC,080226.000,A,3353.7442,N,09832.0273,W,0.07,302.70,020412,,,A*73
$GPGGA,080227.000,3353.7442,N,09832.0273,W,1,09,1.1,311.2,M,-23.7,M,,0000*67
$GPGSA,A,3,27,09,28,04,10,17,02,12,05,,,,2.2,1.1,1.9*3B
$GPGSV,3,1,11,04,73,032,34,02,66,243,37,12,40,317,26,10,40,128,22*76
$GPGSV,3,2,11,09,31,254,17,17,31,072,30,27,29,236,23,28,18,137,32*7B
$GPGSV,3,3,11,05,12,180,36,20,02,035,,25,01,318,*49
$GPRMC,080227.000,A,3353.7442,N,09832.0273,W,0.09,84.49,020412,,,A*4B
$GPGGA,080228.000,3353.7441,N,09832.0272,W,1,09,1.1,311.4,M,-23.7,M,,0000*6C
$GPGSA,A,3,27,09,28,04,10,17,02,12,05,,,,2.2,1.1,1.9*3B
$GPRMC,080228.000,A,3353.7441,N,09832.0272,W,0.14,112.87,020412,,,A*76
$GPGGA,080229.000,3353.7441,N,09832.0272,W,1,09,1.1,311.5,M,-23.7,M,,0000*6C
$GPGSA,A,3,27,09,28,04,10,17,02,12,05,,,,2.2,1.1,1.9*3B
$GPRMC,080229.000,A,3353.7441,N,09832.0272,W,0.06,270.28,020412,,,A*76
$GPGGA,080230.000,3353.7441,N,09832.0273,W,1,09,1.1,311.5,M,-23.7,M,,0000*65
$GPGSA,A,3,27,09,28,04,10,17,02,12,05,,,,2.2,1.1,1.9*3B
$GPRMC,080230.000,A,3353.7441,N,09832.0273,W,0.32,302.52,020412,,,A*71
$GPGGA,080231.000,3353.7441,N,09832.0273,W,1,09,1.1,311.5,M,-23.7,M,,0000*64
$GPGSA,A,3,27,09,28,04,10,17,02,12,05,,,,2.2,1.1,1.9*3B
$GPRMC,080231.000,A,3353.7441,N,09832.0273,W,0.19,294.19,020412,,,A*78
$GPGGA,080232.000,3353.7442,N,09832.0275,W,1,09,1.1,311.1,M,-23.7,M,,0000*66
$GPGSA,A,3,27,09,28,04,10,17,02,12,05,,,,2.2,1.1,1.9*3B
$GPGSV,3,1,11,04,73,032,34,02,66,243,37,12,40,317,25,10,40,128,21*76
$GPGSV,3,2,11,09,31,254,15,17,31,072,30,27,29,236,17,28,18,137,32*7E
$GPGSV,3,3,11,05,12,180,36,20,02,035,,25,01,318,*49
$GPRMC,080232.000,A,3353.7442,N,09832.0275,W,0.60,306.54,020412,,,A*73
$GPGGA,080233.000,3353.7443,N,09832.0277,W,1,09,1.1,310.6,M,-23.7,M,,0000*62
$GPGSA,A,3,27,09,28,04,10,17,02,12,05,,,,2.2,1.1,1.9*3B
$GPRMC,080233.000,A,3353.7443,N,09832.0277,W,0.61,304.69,020412,,,A*7C
$GPGGA,080234.000,3353.7444,N,09832.0279,W,1,09,1.1,310.2,M,-23.7,M,,0000*68
$GPGSA,A,3,27,09,28,04,10,17,02,12,05,,,,2.2,1.1,1.9*3B
$GPRMC,080234.000,A,3353.7444,N,09832.0279,W,0.33,321.39,020412,,,A*77
$GPGGA,080235.000,3353.7444,N,09832.0280,W,1,09,1.1,309.7,M,-23.7,M,,0000*62
$GPGSA,A,3,27,09,28,04,10,17,02,12,05,,,,2.2,1.1,1.9*3B
$GPRMC,080235.000,A,3353.7444,N,09832.0280,W,0.21,339.67,020412,,,A*71
$GPGGA,080236.000,3353.7445,N,09832.0280,W,1,09,1.1,309.2,M,-23.7,M,,0000*65
$GPGSA,A,3,27,09,28,04,10,17,02,12,05,,,,2.2,1.1,1.9*3B
$GPRMC,080236.000,A,3353.7445,N,09832.0280,W,0.17,358.95,020412,,,A*7C
$GPGGA,080237.000,3353.7446,N,09832.0280,W,1,09,1.1,308.9,M,-23.7,M,,0000*6D
$GPGSA,A,3,27,09,28,04,10,17,02,12,05,,,,2.2,1.1,1.9*3B
$GPGSV,3,1,11,04,72,032,33,02,67,244,37,12,41,317,25,10,41,127,19*72
$GPGSV,3,2,11,09,31,252,15,17,30,073,30,27,28,236,18,28,17,138,32*76
$GPGSV,3,3,11,05,13,180,35,25,02,318,,20,01,035,*4B
$GPRMC,080237.000,A,3353.7446,N,09832.0280,W,0.16,20.46,020412,,,A*4D
$GPGGA,080238.000,3353.7446,N,09832.0281,W,1,09,1.1,308.6,M,-23.7,M,,0000*6C
$GPGSA,A,3,27,09,28,04,10,17,02,12,05,,,,2.2,1.1,1.9*3B
$GPRMC,080238.000,A,3353.7446,N,09832.0281,W,0.16,25.58,020412,,,A*49
$GPGGA,080239.000,3353.7447,N,09832.0281,W,1,09,1.1,308.4,M,-23.7,M,,0000*6E
$GPGSA,A,3,27,09,28,04,10,17,02,12,05,,,,2.2,1.1,1.9*3B
$GPRMC,080239.000,A,3353.7447,N,09832.0281,W,0.11,359.33,020412,,,A*7B
$GPGGA,080240.000,3353.7447,N,09832.0282,W,1,09,1.1,308.2,M,-23.7,M,,0000*65
$GPGSA,A,3,27,09,28,04,10,17,02,12,05,,,,2.2,1.1,1.9*3B
$GPRMC,080240.000,A,3353.7447,N,09832.0282,W,0.17,307.92,020412,,,A*70
$GPGGA,080241.000,3353.7447,N,09832.0282,W,1,09,1.1,308.0,M,-23.7,M,,0000*66
$GPGSA,A,3,27,09,28,04,10,17,02,12,05,,,,2.2,1.1,1.9*3B
$GPRMC,080241.000,A,3353.7447,N,09832.0282,W,0.16,341.67,020412,,,A*78
$GPGGA,080242.000,3353.7448,N,09832.0283,W,1,09,1.1,307.6,M,-23.7,M,,0000*62
$GPGSA,A,3,27,09,28,04,10,17,02,12,05,,,,2.2,1.1,1.9*3B
$GPGSV,3,1,11,04,72,032,33,02,67,244,37,12,41,317,25,10,41,127,20*78
$GPGSV,3,2,11,09,31,252,22,17,30,073,30,27,28,236,20,28,17,138,32*79
$GPGSV,3,3,11,05,13,180,35,25,02,318,,20,01,035,*4B
$GPRMC,080242.000,A,3353.7448,N,09832.0283,W,0.33,342.16,020412,,,A*77
$GPGGA,080243.000,3353.7449,N,09832.0284,W,1,09,1.1,307.3,M,-23.7,M,,0000*60
$GPGSA,A,3,27,09,28,04,10,17,02,12,05,,,,2.2,1.1,1.9*3B
$GPRMC,080243.000,A,3353.7449,N,09832.0284,W,0.22,335.14,020412,,,A*72
$GPGGA,080244.000,3353.7450,N,09832.0285,W,1,09,1.1,307.0,M,-23.7,M,,0000*6D
$GPGSA,A,3,27,09,28,04,10,17,02,12,05,,,,2.2,1.1,1.9*3B
$GPRMC,080244.000,A,3353.7450,N,09832.0285,W,0.21,328.55,020412,,,A*76
$GPGGA,080245.000,3353.7450,N,09832.0285,W,1,09,1.1,306.7,M,-23.7,M,,0000*6A
$GPGSA,A,3,27,09,28,04,10,17,02,12,05,,,,2.2,1.1,1.9*3B
$GPRMC,080245.000,A,3353.7450,N,09832.0285,W,0.19,1.44,020412,,,A*74
$GPGGA,080246.000,3353.7451,N,09832.0285,W,1,09,1.1,306.5,M,-23.7,M,,0000*6A
$GPGSA,A,3,27,09,28,04,10,17,02,12,05,,,,2.2,1.1,1.9*3B
$GPRMC,080246.000,A,3353.7451,N,09832.0285,W,0.22,45.19,020412,,,A*46
$GPGGA,080247.000,3353.7451,N,09832.0285,W,1,09,1.1,306.3,M,-23.7,M,,0000*6D
$GPGSA,A,3,27,09,28,04,10,17,02,12,05,,,,2.2,1.1,1.9*3B
$GPGSV,3,1,11,04,72,032,33,02,67,245,37,12,41,317,25,10,41,127,20*79
$GPGSV,3,2,11,09,31,252,20,17,30,073,29,27,28,235,19,28,17,138,32*7A
$GPGSV,3,3,11,05,13,180,35,25,02,318,,20,01,035,*4B
$GPRMC,080247.000,A,3353.7451,N,09832.0285,W,0.12,32.99,020412,,,A*4C
$GPGGA,080248.000,3353.7451,N,09832.0285,W,1,09,1.1,306.2,M,-23.7,M,,0000*63
$GPGSA,A,3,27,09,28,04,10,17,02,12,05,,,,2.2,1.1,1.9*3B
$GPRMC,080248.000,A,3353.7451,N,09832.0285,W,0.08,353.79,020412,,,A*72
$GPGGA,080249.000,3353.7451,N,09832.0285,W,1,09,1.1,306.0,M,-23.7,M,,0000*60
$GPGSA,A,3,27,09,28,04,10,17,02,12,05,,,,2.2,1.1,1.9*3B
$GPRMC,080249.000,A,3353.7451,N,09832.0285,W,0.11,332.49,020412,,,A*7F
$GPGGA,080250.000,3353.7452,N,09832.0285,W,1,09,1.1,305.9,M,-23.7,M,,0000*61
$GPGSA,A,3,27,09,28,04,10,17,02,12,05,,,,2.2,1.1,1.9*3B
$GPRMC,080250.000,A,3353.7452,N,09832.0285,W,0.29,37.29,020412,,,A*4F
$GPGGA,080251.000,3353.7452,N,09832.0284,W,1,09,1.1,305.8,M,-23.7,M,,0000*60
$GPGSA,A,3,27,09,28,04,10,17,02,12,05,,,,2.2,1.1,1.9*3B
$GPRMC,080251.000,A,3353.7452,N,09832.0284,W,0.38,66.36,020412,,,A*45
$GPGGA,080252.000,3353.7452,N,09832.0283,W,1,09,1.1,305.8,M,-23.7,M,,0000*64
$GPGSA,A,3,27,09,28,04,10,17,02,12,05,,,,2.2,1.1,1.9*3B
$GPGSV,3,1,11,04,72,032,33,02,67,245,37,12,41,317,25,10,41,127,26*7F
$GPGSV,3,2,11,09,31,252,18,17,30,073,24,27,28,235,18,28,17,138,33*7C
$GPGSV,3,3,11,05,13,180,35,25,02,318,,20,01,035,*4B
$GPRMC,080252.000,A,3353.7452,N,09832.0283,W,0.18,88.66,020412,,,A*46
$GPGGA,080253.000,3353.7451,N,09832.0282,W,1,09,1.1,306.0,M,-23.7,M,,0000*6C
$GPGSA,A,3,27,09,28,04,10,17,02,12,05,,,,2.2,1.1,1.9*3B
$GPRMC,080253.000,A,3353.7451,N,09832.0282,W,0.32,76.62,020412,,,A*48
$GPGGA,080254.000,3353.7450,N,09832.0282,W,1,09,1.1,306.1,M,-23.7,M,,0000*6B
$GPGSA,A,3,27,09,28,04,10,17,02,12,05,,,,2.2,1.1,1.9*3B
$GPRMC,080254.000,A,3353.7450,N,09832.0282,W,0.18,241.42,020412,,,A*72
$GPGGA,080255.000,3353.7449,N,09832.0283,W,1,09,1.1,306.3,M,-23.7,M,,0000*61
$GPGSA,A,3,27,09,28,04,10,17,02,12,05,,,,2.2,1.1,1.9*3B
$GPRMC,080255.000,A,3353.7449,N,09832.0283,W,0.45,245.29,020412,,,A*7B
$GPGGA,080256.000,3353.7448,N,09832.0283,W,1,09,1.1,306.6,M,-23.7,M,,0000*66
$GPGSA,A,3,27,09,28,04,10,17,02,12,05,,,,2.2,1.1,1.9*3B
$GPRMC,080256.000,A,3353.7448,N,09832.0283,W,0.08,281.29,020412,,,A*78
$GPGGA,080257.000,3353.7447,N,09832.0283,W,1,09,1.1,307.0,M,-23.7,M,,0000*6F
$GPGSA,A,3,27,09,28,04,10,17,02,12,05,,,,2.2,1.1,1.9*3B
$GPGSV,3,1,11,04,72,032,32,02,67,245,37,12,41,317,25,10,41,127,27*7F
$GPGSV,3,2,11,09,31,252,19,17,30,073,23,27,28,235,18,28,17,138,34*7D
$GPGSV,3,3,11,05,13,180,35,25,02,318,,20,01,035,*4B
$GPRMC,080257.000,A,3353.7447,N,09832.0283,W,0.17,227.67,020412,,,A*7E
$GPGGA,080258.000,3353.7447,N,09832.0282,W,1,09,1.1,307.2,M,-23.7,M,,0000*63
$GPGSA,A,3,27,09,28,04,10,17,02,12,05,,,,2.2,1.1,1.9*3B
$GPRMC,080258.000,A,3353.7447,N,09832.0282,W,0.41,69.46,020412,,,A*48
$GPGGA,080259.000,3353.7447,N,09832.0281,W,1,09,1.1,307.3,M,-23.7,M,,0000*60
$GPGSA,A,3,27,09,28,04,10,17,02,12,05,,,,2.2,1.1,1.9*3B
$GPRMC,080259.000,A,3353.7447,N,09832.0281,W,0.38,71.67,020412,,,A*4E
$GPGGA,080300.000,3353.7448,N,09832.0281,W,1,09,1.1,307.1,M,-23.7,M,,0000*60
$GPGSA,A,3,27,09,28,04,10,17,02,12,05,,,,2.2,1.1,1.9*3B
$GPRMC,080300.000,A,3353.7448,N,09832.0281,W,0.43,24.73,020412,,,A*45
$GPGGA,080301.000,3353.7450,N,09832.0282,W,1,09,1.1,306.7,M,-23.7,M,,0000*6C
$GPGSA,A,3,27,09,28,04,10,17,02,12,05,,,,2.2,1.1,1.9*3B
$GPRMC,080301.000,A,3353.7450,N,09832.0282,W,0.52,335.18,020412,,,A*70
$GPGGA,080302.000,3353.7452,N,09832.0283,W,1,09,1.1,306.1,M,-23.7,M,,0000*6A
$GPGSA,A,3,27,09,28,04,10,17,02,12,05,,,,2.2,1.1,1.9*3B
$GPGSV,3,1,11,04,72,032,32,02,67,245,38,12,41,317,24,10,41,127,21*77
$GPGSV,3,2,11,09,31,252,21,17,30,073,23,27,28,235,18,28,17,138,34*76
$GPGSV,3,3,11,05,13,180,35,25,02,318,,20,01,035,*4B
$GPRMC,080302.000,A,3353.7452,N,09832.0283,W,0.59,336.64,020412,,,A*73
$GPGGA,080303.000,3353.7455,N,09832.0285,W,1,09,1.1,305.4,M,-23.7,M,,0000*6C
$GPGSA,A,3,27,09,28,04,10,17,02,12,05,,,,2.2,1.1,1.9*3B
$GPRMC,080303.000,A,3353.7455,N,09832.0285,W,0.63,338.95,020412,,,A*7A
$GPGGA,080304.000,3353.7457,N,09832.0286,W,1,09,1.1,304.5,M,-23.7,M,,0000*6A
$GPGSA,A,3,27,09,28,04,10,17,02,12,05,,,,2.2,1.1,1.9*3B
$GPRMC,080304.000,A,3353.7457,N,09832.0286,W,0.48,346.76,020412,,,A*71
$GPGGA,080305.000,3353.7458,N,09832.0287,W,1,09,1.1,303.9,M,-23.7,M,,0000*6E
$GPGSA,A,3,27,09,28,04,10,17,02,12,05,,,,2.2,1.1,1.9*3B
$GPRMC,080305.000,A,3353.7458,N,09832.0287,W,0.28,349.08,020412,,,A*7E
$GPGGA,080306.000,3353.7460,N,09832.0287,W,1,09,1.1,303.5,M,-23.7,M,,0000*6A
$GPGSA,A,3,27,09,28,04,10,17,02,12,05,,,,2.2,1.1,1.9*3B
$GPRMC,080306.000,A,3353.7460,N,09832.0287,W,0.19,9.83,020412,,,A*70
$GPGGA,080307.000,3353.7461,N,09832.0287,W,1,09,1.1,303.0,M,-23.7,M,,0000*6F
$GPGSA,A,3,27,09,28,04,10,17,02,12,05,,,,2.2,1.1,1.9*3B
$GPGSV,3,1,11,04,72,032,32,02,67,245,38,12,41,317,23,10,41,127,23*72
$GPGSV,3,2,11,09,31,252,20,17,30,073,23,27,28,235,19,28,17,138,34*76
$GPGSV,3,3,11,05,13,180,35,25,02,318,,20,01,035,*4B
$GPRMC,080307.000,A,3353.7461,N,09832.0287,W,0.28,2.61,020412,,,A*75
$GPGGA,080308.000,3353.7462,N,09832.0288,W,1,09,1.1,302.5,M,-23.7,M,,0000*68
$GPGSA,A,3,27,09,28,04,10,17,02,12,05,,,,2.2,1.1,1.9*3B
$GPRMC,080308.000,A,3353.7462,N,09832.0288,W,0.40,4.26,020412,,,A*7D
$GPGGA,080309.000,3353.7465,N,09832.0286,W,1,09,1.1,301.9,M,-23.7,M,,0000*6F
$GPGSA,A,3,27,09,28,04,10,17,02,12,05,,,,2.2,1.1,1.9*3B
$GPRMC,080309.000,A,3353.7465,N,09832.0286,W,0.74,35.91,020412,,,A*4C
$GPGGA,080310.000,3353.7467,N,09832.0286,W,1,09,1.1,301.3,M,-23.7,M,,0000*6F
$GPGSA,A,3,27,09,28,04,10,17,02,12,05,,,,2.2,1.1,1.9*3B
$GPRMC,080310.000,A,3353.7467,N,09832.0286,W,0.44,23.88,020412,,,A*4A
$GPGGA,080311.000,3353.7468,N,09832.0286,W,1,09,1.1,300.9,M,-23.7,M,,0000*6A
$GPGSA,A,3,27,09,28,04,10,17,02,12,05,,,,2.2,1.1,1.9*3B
$GPRMC,080311.000,A,3353.7468,N,09832.0286,W,0.39,12.97,020412,,,A*42
$GPGGA,080312.000,3353.7468,N,09832.0286,W,1,09,1.1,300.7,M,-23.7,M,,0000*67
$GPGSA,A,3,27,09,28,04,10,17,02,12,05,,,,2.2,1.1,1.9*3B
$GPGSV,3,1,11,04,72,032,31,02,67,245,37,12,41,317,23,10,41,127,22*7F
$GPGSV,3,2,11,09,31,252,21,17,30,073,20,27,28,235,18,28,17,138,35*74
$GPGSV,3,3,11,05,13,180,35,25,02,318,,20,01,035,*4B
$GPRMC,080312.000,A,3353.7468,N,09832.0286,W,0.08,208.15,020412,,,A*70
$GPGGA,080313.000,3353.7467,N,09832.0286,W,1,09,1.1,300.8,M,-23.7,M,,0000*66
$GPGSA,A,3,27,09,28,04,10,17,02,12,05,,,,2.2,1.1,1.9*3B
$GPRMC,080313.000,A,3353.7467,N,09832.0286,W,0.20,173.49,020412,,,A*72
$GPGGA,080314.000,3353.7466,N,09832.0286,W,1,09,1.1,301.0,M,-23.7,M,,0000*69
$GPGSA,A,3,27,09,28,04,10,17,02,12,05,,,,2.2,1.1,1.9*3B
$GPRMC,080314.000,A,3353.7466,N,09832.0286,W,0.11,225.25,020412,,,A*7C
$GPGGA,080315.000,3353.7464,N,09832.0286,W,1,09,1.1,301.3,M,-23.7,M,,0000*69
$GPGSA,A,3,27,09,28,04,10,17,02,12,05,,,,2.2,1.1,1.9*3B
$GPRMC,080315.000,A,3353.7464,N,09832.0286,W,0.42,227.42,020412,,,A*7A
$GPGGA,080316.000,3353.7462,N,09832.0286,W,1,09,1.1,301.6,M,-23.7,M,,0000*69
$GPGSA,A,3,27,09,28,04,10,17,02,12,05,,,,2.2,1.1,1.9*3B
$GPRMC,080316.000,A,3353.7462,N,09832.0286,W,0.44,207.65,020412,,,A*7E
$GPGGA,080317.000,3353.7460,N,09832.0286,W,1,09,1.1,302.2,M,-23.7,M,,0000*6D
$GPGSA,A,3,27,09,28,04,10,17,02,12,05,,,,2.2,1.1,1.9*3B
$GPGSV,3,1,11,04,72,032,31,02,67,245,37,12,41,317,24,10,41,126,22*79
$GPGSV,3,2,11,09,31,252,20,17,30,073,16,27,28,235,16,28,17,138,35*7E
$GPGSV,3,3,11,05,13,180,35,25,02,318,,20,01,034,*4A
$GPRMC,080317.000,A,3353.7460,N,09832.0286,W,0.52,211.01,020412,,,A*7F
$GPGGA,080318.000,3353.7458,N,09832.0285,W,1,09,1.1,302.8,M,-23.7,M,,0000*60
$GPGSA,A,3,27,09,28,04,10,17,02,12,05,,,,2.2,1.1,1.9*3B
$GPRMC,080318.000,A,3353.7458,N,09832.0285,W,0.45,165.19,020412,,,A*77
$GPGGA,080319.000,3353.7456,N,09832.0283,W,1,09,1.1,303.4,M,-23.7,M,,0000*64
$GPGSA,A,3,27,09,28,04,10,17,02,12,05,,,,2.2,1.1,1.9*3B
$GPRMC,080319.000,A,3353.7456,N,09832.0283,W,0.48,115.21,020412,,,A*7F
$GPGGA,080320.000,3353.7454,N,09832.0280,W,1,09,1.1,304.1,M,-23.7,M,,0000*6D
$GPGSA,A,3,27,09,28,04,10,17,02,12,05,,,,2.2,1.1,1.9*3B
$GPRMC,080320.000,A,3353.7454,N,09832.0280,W,0.67,104.00,020412,,,A*7A
$GPGGA,080321.000,3353.7452,N,09832.0277,W,1,09,1.1,304.9,M,-23.7,M,,0000*6A
$GPGSA,A,3,27,09,28,04,10,17,02,12,05,,,,2.2,1.1,1.9*3B
$GPRMC,080321.000,A,3353.7452,N,09832.0277,W,0.56,96.69,020412,,,A*42
$GPGGA,080322.000,3353.7451,N,09832.0275,W,1,09,1.1,305.5,M,-23.7,M,,0000*65
$GPGSA,A,3,27,09,28,04,10,17,02,12,05,,,,2.2,1.1,1.9*3B
$GPGSV,3,1,11,04,72,032,31,02,67,245,37,12,41,317,24,10,41,126,22*79
$GPGSV,3,2,11,09,31,252,20,17,30,073,18,27,28,235,16,28,17,138,35*70
$GPGSV,3,3,11,05,13,180,35,25,02,318,,20,01,034,*4A
$GPRMC,080322.000,A,3353.7451,N,09832.0275,W,0.31,83.99,020412,,,A*4A
$GPGGA,080323.000,3353.7450,N,09832.0273,W,1,09,1.1,306.1,M,-23.7,M,,0000*64
$GPGSA,A,3,27,09,28,04,10,17,02,12,05,,,,2.2,1.1,1.9*3B
$GPRMC,080323.000,A,3353.7450,N,09832.0273,W,0.28,86.57,020412,,,A*43
$GPGGA,080324.000,3353.7448,N,09832.0271,W,1,09,1.1,306.6,M,-23.7,M,,0000*6F
$GPGSA,A,3,27,09,28,04,10,17,02,12,05,,,,2.2,1.1,1.9*3B
$GPRMC,080324.000,A,3353.7448,N,09832.0271,W,0.42,97.34,020412,,,A*46
$GPGGA,080325.000,3353.7446,N,09832.0269,W,1,09,1.1,307.2,M,-23.7,M,,0000*6C
$GPGSA,A,3,27,09,28,04,10,17,02,12,05,,,,2.2,1.1,1.9*3B
$GPRMC,080325.000,A,3353.7446,N,09832.0269,W,0.48,136.12,020412,,,A*74
$GPGGA,080326.000,3353.7444,N,09832.0268,W,1,09,1.1,307.7,M,-23.7,M,,0000*69
$GPGSA,A,3,27,09,28,04,10,17,02,12,05,,,,2.2,1.1,1.9*3B
$GPRMC,080326.000,A,3353.7444,N,09832.0268,W,0.32,179.64,020412,,,A*73
$GPGGA,080327.000,3353.7442,N,09832.0268,W,1,09,1.1,308.2,M,-23.7,M,,0000*64
$GPGSA,A,3,27,09,28,04,10,17,02,12,05,,,,2.2,1.1,1.9*3B
$GPGSV,3,1,11,04,72,032,31,02,67,245,37,12,41,317,24,10,41,126,21*7A
$GPGSV,3,2,11,09,31,252,22,17,30,073,19,27,28,235,17,28,17,138,35*72
$GPGSV,3,3,11,05,13,180,35,25,02,318,,20,01,034,*4A
$GPRMC,080327.000,A,3353.7442,N,09832.0268,W,0.42,213.66,020412,,,A*7E
$GPGGA,080328.000,3353.7440,N,09832.0268,W,1,09,1.1,308.6,M,-23.7,M,,0000*6D
$GPGSA,A,3,27,09,28,04,10,17,02,12,05,,,,2.2,1.1,1.9*3B
$GPRMC,080328.000,A,3353.7440,N,09832.0268,W,0.25,223.95,020412,,,A*7D
$GPGGA,080329.000,3353.7439,N,09832.0268,W,1,09,1.1,308.9,M,-23.7,M,,0000*6D
$GPGSA,A,3,27,09,28,04,10,17,02,12,05,,,,2.2,1.1,1.9*3B
$GPRMC,080329.000,A,3353.7439,N,09832.0268,W,0.22,237.62,020412,,,A*78
$GPGGA,080330.000,3353.7439,N,09832.0270,W,1,09,1.1,309.0,M,-23.7,M,,0000*64
$GPGSA,A,3,27,09,28,04,10,17,02,12,05,,,,2.2,1.1,1.9*3B
$GPRMC,080330.000,A,3353.7439,N,09832.0270,W,0.14,302.03,020412,,,A*7C
$GPGGA,080331.000,3353.7437,N,09832.0270,W,1,09,1.1,309.2,M,-23.7,M,,0000*69
$GPGSA,A,3,27,09,28,04,10,17,02,12,05,,,,2.2,1.1,1.9*3B
$GPRMC,080331.000,A,3353.7437,N,09832.0270,W,0.08,162.34,020412,,,A*7E
$GPGGA,080332.000,3353.7436,N,09832.0272,W,1,09,1.1,309.4,M,-23.7,M,,0000*6F
$GPGSA,A,3,27,09,28,04,10,17,02,12,05,,,,2.2,1.1,1.9*3B
$GPGSV,3,1,11,04,72,032,31,02,67,245,37,12,41,317,24,10,41,126,27*7C
$GPGSV,3,2,11,09,31,252,22,17,30,073,25,27,28,235,17,28,17,138,35*7D
$GPGSV,3,3,11,05,13,180,35,25,02,318,,20,01,034,*4A
$GPRMC,080332.000,A,3353.7436,N,09832.0272,W,0.30,270.56,020412,,,A*71
$GPGGA,080333.000,3353.7435,N,09832.0274,W,1,09,1.1,309.6,M,-23.7,M,,0000*69
$GPGSA,A,3,27,09,28,04,10,17,02,12,05,,,,2.2,1.1,1.9*3B
$GPRMC,080333.000,A,3353.7435,N,09832.0274,W,0.26,254.61,020412,,,A*70
$GPGGA,080334.000,3353.7433,N,09832.0276,W,1,08,1.5,309.9,M,-23.7,M,,0000*60
$GPGSA,A,3,27,09,28,04,10,17,02,05,,,,,2.6,1.5,2.2*30
$GPRMC,080334.000,A,3353.7433,N,09832.0276,W,0.18,225.52,020412,,,A*78
$GPGGA,080335.000,3353.7431,N,09832.0277,W,1,09,1.1,310.4,M,-23.7,M,,0000*62
$GPGSA,A,3,27,09,28,04,10,17,02,12,05,,,,2.2,1.1,1.9*3B
$GPRMC,080335.000,A,3353.7431,N,09832.0277,W,0.26,155.64,020412,,,A*76
$GPGGA,080336.000,3353.7429,N,09832.0276,W,1,09,1.1,310.9,M,-23.7,M,,0000*64
$GPGSA,A,3,27,09,28,04,10,17,02,12,05,,,,2.2,1.1,1.9*3B
$GPRMC,080336.000,A,3353.7429,N,09832.0276,W,0.46,126.76,020412,,,A*7C
$GPGGA,080337.000,3353.7427,N,09832.0277,W,1,09,1.1,311.4,M,-23.7,M,,0000*66
$GPGSA,A,3,27,09,28,04,10,17,02,12,05,,,,2.2,1.1,1.9*3B
$GPGSV,3,1,11,04,72,032,31,02,67,245,37,12,41,317,17,10,41,126,23*78
$GPGSV,3,2,11,09,31,252,22,17,30,073,25,27,28,235,16,28,17,138,35*7C
$GPGSV,3,3,11,05,13,180,35,25,02,318,,20,01,034,*4A
$GPRMC,080337.000,A,3353.7427,N,09832.0277,W,0.46,145.81,020412,,,A*7F
$GPGGA,080338.000,3353.7425,N,09832.0277,W,1,09,1.1,312.0,M,-23.7,M,,0000*6C
$GPGSA,A,3,27,09,28,04,10,17,02,12,05,,,,2.2,1.1,1.9*3B
$GPRMC,080338.000,A,3353.7425,N,09832.0277,W,0.47,134.71,020412,,,A*7A
$GPGGA,080339.000,3353.7422,N,09832.0277,W,1,09,1.1,312.6,M,-23.7,M,,0000*6C
$GPGSA,A,3,27,09,28,04,10,17,02,12,05,,,,2.2,1.1,1.9*3B
$GPRMC,080339.000,A,3353.7422,N,09832.0277,W,0.45,137.59,020412,,,A*77
$GPGGA,080340.000,3353.7421,N,09832.0278,W,1,09,1.1,313.1,M,-23.7,M,,0000*68
$GPGSA,A,3,27,09,28,04,10,17,02,12,05,,,,2.2,1.1,1.9*3B
$GPRMC,080340.000,A,3353.7421,N,09832.0278,W,0.21,113.08,020412,,,A*75
$GPGGA,080341.000,3353.7420,N,09832.0279,W,1,09,1.1,313.5,M,-23.7,M,,0000*6D
$GPGSA,A,3,27,09,28,04,10,17,02,12,05,,,,2.2,1.1,1.9*3B
$GPRMC,080341.000,A,3353.7420,N,09832.0279,W,0.13,102.92,020412,,,A*76
$GPGGA,080342.000,3353.7419,N,09832.0280,W,1,09,1.1,313.8,M,-23.7,M,,0000*6F
$GPGSA,A,3,27,09,28,04,10,17,02,12,05,,,,2.2,1.1,1.9*3B
$GPGSV,3,1,11,04,72,032,31,02,67,245,37,12,41,317,18,10,41,126,24*70
$GPGSV,3,2,11,09,31,252,22,17,30,073,25,27,28,235,17,28,17,138,35*7D
$GPGSV,3,3,11,05,13,180,35,25,02,318,,20,01,034,16*4D
$GPRMC,080342.000,A,3353.7419,N,09832.0280,W,0.04,71.95,020412,,,A*4D
$GPGGA,080343.000,3353.7419,N,09832.0281,W,1,09,1.1,314.0,M,-23.7,M,,0000*60
$GPGSA,A,3,27,09,28,04,10,17,02,12,05,,,,2.2,1.1,1.9*3B
$GPRMC,080343.000,A,3353.7419,N,09832.0281,W,0.13,21.44,020412,,,A*42
$GPGGA,080344.000,3353.7418,N,09832.0283,W,1,09,1.1,314.0,M,-23.7,M,,0000*64
$GPGSA,A,3,27,09,28,04,10,17,02,12,05,,,,2.2,1.1,1.9*3B
$GPRMC,080344.000,A,3353.7418,N,09832.0283,W,0.16,227.45,020412,,,A*76
$GPGGA,080345.000,3353.7418,N,09832.0284,W,1,09,1.1,313.9,M,-23.7,M,,0000*6C
$GPGSA,A,3,27,09,28,04,10,17,02,12,05,,,,2.2,1.1,1.9*3B
$GPRMC,080345.000,A,3353.7418,N,09832.0284,W,0.04,189.93,020412,,,A*7F
$GPGGA,080346.000,3353.7419,N,09832.0285,W,1,09,1.1,313.7,M,-23.7,M,,0000*61
$GPGSA,A,3,27,09,28,04,10,17,02,12,05,,,,2.2,1.1,1.9*3B
$GPRMC,080346.000,A,3353.7419,N,09832.0285,W,0.11,83.33,020412,,,A*49
$GPGGA,080347.000,3353.7419,N,09832.0285,W,1,09,1.1,313.6,M,-23.7,M,,0000*61
$GPGSA,A,3,27,09,28,04,10,17,02,12,05,,,,2.2,1.1,1.9*3B
$GPGSV,3,1,11,04,72,032,31,02,67,245,37,12,41,317,18,10,41,126,26*72
$GPGSV,3,2,11,09,31,252,23,17,30,073,21,27,28,235,23,28,17,138,34*7E
$GPGSV,3,3,11,05,13,180,36,25,02,318,,20,01,034,17*4F
$GPRMC,080347.000,A,3353.7419,N,09832.0285,W,0.29,90.08,020412,,,A*49
$GPGGA,080348.000,3353.7418,N,09832.0284,W,1,09,1.1,313.7,M,-23.7,M,,0000*6F
$GPGSA,A,3,27,09,28,04,10,17,02,12,05,,,,2.2,1.1,1.9*3B
$GPRMC,080348.000,A,3353.7418,N,09832.0284,W,0.25,115.12,020412,,,A*7D
$GPGGA,080349.000,3353.7418,N,09832.0285,W,1,09,1.1,313.8,M,-23.7,M,,0000*60
$GPGSA,A,3,27,09,28,04,10,17,02,12,05,,,,2.2,1.1,1.9*3B
$GPRMC,080349.000,A,3353.7418,N,09832.0285,W,0.20,199.87,020412,,,A*70
$GPGGA,080350.000,3353.7418,N,09832.0286,W,1,08,1.2,313.9,M,-23.7,M,,0000*68
$GPGSA,A,3,09,28,04,10,17,02,12,05,,,,,2.2,1.2,1.9*3D
$GPRMC,080350.000,A,3353.7418,N,09832.0286,W,0.13,248.91,020412,,,A*73
$GPGGA,080351.000,3353.7418,N,09832.0286,W,1,08,1.2,313.9,M,-23.7,M,,0000*69
$GPGSA,A,3,09,28,04,10,17,02,12,05,,,,,2.2,1.2,1.9*3D
$GPRMC,080351.000,A,3353.7418,N,09832.0286,W,0.16,273.01,020412,,,A*76
$GPGGA,080352.000,3353.7418,N,09832.0287,W,1,08,1.2,313.8,M,-23.7,M,,0000*6A
$GPGSA,A,3,09,28,04,10,17,02,12,05,,,,,2.2,1.2,1.9*3D
$GPGSV,3,1,11,04,72,032,31,02,67,245,37,12,41,317,17,10,41,126,25*7E
$GPGSV,3,2,11,09,31,252,24,17,30,073,24,27,28,235,,28,17,138,34*7D
$GPGSV,3,3,11,05,13,180,36,25,02,318,,20,01,034,17*4F
$GPRMC,080352.000,A,3353.7418,N,09832.0287,W,0.20,309.97,020412,,,A*72
$GPGGA,080353.000,3353.7419,N,09832.0287,W,1,08,1.2,313.8,M,-23.7,M,,0000*6A
$GPGSA,A,3,09,28,04,10,17,02,12,05,,,,,2.2,1.2,1.9*3D
$GPRMC,080353.000,A,3353.7419,N,09832.0287,W,0.36,28.44,020412,,,A*4B
$GPGGA,080354.000,3353.7420,N,09832.0287,W,1,08,1.2,313.7,M,-23.7,M,,0000*68
$GPGSA,A,3,09,28,04,10,17,02,12,05,,,,,2.2,1.2,1.9*3D
$GPRMC,080354.000,A,3353.7420,N,09832.0287,W,0.20,12.33,020412,,,A*48
$GPGGA,080355.000,3353.7420,N,09832.0287,W,1,08,1.2,313.7,M,-23.7,M,,0000*69
$GPGSA,A,3,09,28,04,10,17,02,12,05,,,,,2.2,1.2,1.9*3D
$GPRMC,080355.000,A,3353.7420,N,09832.0287,W,0.19,29.93,020412,,,A*41
$GPGGA,080356.000,3353.7421,N,09832.0288,W,1,08,1.2,313.5,M,-23.7,M,,0000*66
$GPGSA,A,3,09,28,04,10,17,02,12,05,,,,,2.2,1.2,1.9*3D
$GPRMC,080356.000,A,3353.7421,N,09832.0288,W,0.32,6.56,020412,,,A*71
$GPGGA,080357.000,3353.7422,N,09832.0288,W,1,08,1.2,313.2,M,-23.7,M,,0000*63
$GPGSA,A,3,09,28,04,10,17,02,12,05,,,,,2.2,1.2,1.9*3D
$GPGSV,3,1,11,04,72,032,30,02,67,245,37,12,41,317,18,10,41,126,25*70
$GPGSV,3,2,11,09,31,252,23,17,30,073,26,27,28,235,,28,17,138,34*78
$GPGSV,3,3,11,05,13,180,36,25,02,318,,20,01,034,16*4E
$GPRMC,080357.000,A,3353.7422,N,09832.0288,W,0.29,17.06,020412,,,A*4C
$GPGGA,080358.000,3353.7423,N,09832.0289,W,1,08,1.2,312.9,M,-23.7,M,,0000*66
$GPGSA,A,3,09,28,04,10,17,02,12,05,,,,,2.2,1.2,1.9*3D
$GPRMC,080358.000,A,3353.7423,N,09832.0289,W,0.24,35.05,020412,,,A*4D
$GPGGA,080359.000,3353.7424,N,09832.0290,W,1,08,1.2,312.6,M,-23.7,M,,0000*67
$GPGSA,A,3,09,28,04,10,17,02,12,05,,,,,2.2,1.2,1.9*3D
$GPRMC,080359.000,A,3353.7424,N,09832.0290,W,0.17,339.02,020412,,,A*7B
$GPGGA,080400.000,3353.7425,N,09832.0291,W,1,08,1.2,312.1,M,-23.7,M,,0000*6B
$GPGSA,A,3,09,28,04,10,17,02,12,05,,,,,2.2,1.2,1.9*3D
$GPRMC,080400.000,A,3353.7425,N,09832.0291,W,0.17,4.34,020412,,,A*78
$GPGGA,080401.000,3353.7427,N,09832.0292,W,1,08,1.2,311.5,M,-23.7,M,,0000*6C
$GPGSA,A,3,09,28,04,10,17,02,12,05,,,,,2.2,1.2,1.9*3D
$GPRMC,080401.000,A,3353.7427,N,09832.0292,W,0.22,354.68,020412,,,A*71
$GPGGA,080402.000,3353.7429,N,09832.0293,W,1,08,1.2,310.9,M,-23.7,M,,0000*6D
$GPGSA,A,3,09,28,04,10,17,02,12,05,,,,,2.2,1.2,1.9*3D
$GPGSV,3,1,11,04,72,032,29,02,67,245,37,12,41,317,18,10,41,126,26*7B
$GPGSV,3,2,11,09,31,252,23,17,30,073,26,27,28,235,,28,17,138,34*78
$GPGSV,3,3,11,05,13,180,36,25,02,318,,20,01,034,15*4D
$GPRMC,080402.000,A,3353.7429,N,09832.0293,W,0.25,11.11,020412,,,A*46
$GPGGA,080403.000,3353.7431,N,09832.0294,W,1,08,1.2,310.0,M,-23.7,M,,0000*6B
$GPGSA,A,3,09,28,04,10,17,02,12,05,,,,,2.2,1.2,1.9*3D
$GPRMC,080403.000,A,3353.7431,N,09832.0294,W,0.32,17.01,020412,,,A*48
$GPGGA,080404.000,3353.7434,N,09832.0295,W,1,08,1.2,309.1,M,-23.7,M,,0000*61
$GPGSA,A,3,09,28,04,10,17,02,12,05,,,,,2.2,1.2,1.9*3D
$GPRMC,080404.000,A,3353.7434,N,09832.0295,W,0.39,19.29,020412,,,A*44
$GPGGA,080405.000,3353.7436,N,09832.0295,W,1,08,1.2,308.2,M,-23.7,M,,0000*60
$GPGSA,A,3,09,28,04,10,17,02,12,05,,,,,2.2,1.2,1.9*3D
$GPRMC,080405.000,A,3353.7436,N,09832.0295,W,0.34,25.61,020412,,,A*49
$GPGGA,080406.000,3353.7439,N,09832.0295,W,1,08,1.2,307.4,M,-23.7,M,,0000*65
$GPGSA,A,3,09,28,04,10,17,02,12,05,,,,,2.2,1.2,1.9*3D
$GPRMC,080406.000,A,3353.7439,N,09832.0295,W,0.29,40.07,020412,,,A*4A
$GPGGA,080407.000,3353.7440,N,09832.0295,W,1,08,1.2,306.8,M,-23.7,M,,0000*67
$GPGSA,A,3,09,28,04,10,17,02,12,05,,,,,2.2,1.2,1.9*3D
$GPGSV,3,1,11,04,72,032,28,02,67,245,37,12,41,317,17,10,41,126,22*71
$GPGSV,3,2,11,09,31,252,24,17,30,073,26,27,28,235,,28,17,138,35*7E
$GPGSV,3,3,11,05,13,180,36,25,02,318,,20,01,034,15*4D
$GPRMC,080407.000,A,3353.7440,N,09832.0295,W,0.34,59.24,020412,,,A*40
$GPGGA,080408.000,3353.7442,N,09832.0295,W,1,08,1.2,306.3,M,-23.7,M,,0000*61
$GPGSA,A,3,09,28,04,10,17,02,12,05,,,,,2.2,1.2,1.9*3D
$GPRMC,080408.000,A,3353.7442,N,09832.0295,W,0.20,10.74,020412,,,A*40
$GPGGA,080409.000,3353.7443,N,09832.0294,W,1,08,1.2,306.0,M,-23.7,M,,0000*63
$GPGSA,A,3,09,28,04,10,17,02,12,05,,,,,2.2,1.2,1.9*3D
$GPRMC,080409.000,A,3353.7443,N,09832.0294,W,0.09,340.48,020412,,,A*73
$GPGGA,080410.000,3353.7444,N,09832.0294,W,1,08,1.2,305.7,M,-23.7,M,,0000*68
$GPGSA,A,3,09,28,04,10,17,02,12,05,,,,,2.2,1.2,1.9*3D
$GPRMC,080410.000,A,3353.7444,N,09832.0294,W,0.11,94.13,020412,,,A*41
$GPGGA,080411.000,3353.7445,N,09832.0293,W,1,08,1.2,305.5,M,-23.7,M,,0000*6D
$GPGSA,A,3,09,28,04,10,17,02,12,05,,,,,2.2,1.2,1.9*3D
$GPRMC,080411.000,A,3353.7445,N,09832.0293,W,0.16,342.22,020412,,,A*7B
$GPGGA,080412.000,3353.7446,N,09832.0293,W,1,08,1.2,305.2,M,-23.7,M,,0000*6A
$GPGSA,A,3,09,28,04,10,17,02,12,05,,,,,2.2,1.2,1.9*3D
$GPGSV,3,1,12,04,72,032,27,02,67,245,37,12,41,317,17,10,41,126,23*7C
$GPGSV,3,2,12,09,31,252,24,17,30,073,26,27,28,235,,28,17,138,35*7D
$GPGSV,3,3,12,05,13,180,36,25,02,318,,20,01,034,,48,36,230,28*78
$GPRMC,080412.000,A,3353.7446,N,09832.0293,W,0.36,342.23,020412,,,A*78
$GPGGA,080413.000,3353.7448,N,09832.0293,W,1,08,1.2,305.0,M,-23.7,M,,0000*67
$GPGSA,A,3,09,28,04,10,17,02,12,05,,,,,2.2,1.2,1.9*3D
$GPRMC,080413.000,A,3353.7448,N,09832.0293,W,0.43,340.87,020412,,,A*79
$GPGGA,080414.000,3353.7450,N,09832.0291,W,1,08,1.2,304.8,M,-23.7,M,,0000*62
$GPGSA,A,3,09,28,04,10,17,02,12,05,,,,,2.2,1.2,1.9*3D
$GPRMC,080414.000,A,3353.7450,N,09832.0291,W,0.47,2.22,020412,,,A*7B
$GPGGA,080415.000,3353.7451,N,09832.0290,W,1,08,1.2,304.5,M,-23.7,M,,0000*6E
$GPGSA,A,3,09,28,04,10,17,02,12,05,,,,,2.2,1.2,1.9*3D
$GPRMC,080415.000,A,3353.7451,N,09832.0290,W,0.33,358.75,020412,,,A*77
$GPGGA,080416.000,3353.7452,N,09832.0289,W,1,08,1.2,304.3,M,-23.7,M,,0000*60
$GPGSA,A,3,09,28,04,10,17,02,12,05,,,,,2.2,1.2,1.9*3D
$GPRMC,080416.000,A,3353.7452,N,09832.0289,W,0.19,344.53,020412,,,A*7E
$GPGGA,080417.000,3353.7453,N,09832.0287,W,1,08,1.2,304.3,M,-23.7,M,,0000*6E
$GPGSA,A,3,09,28,04,10,17,02,12,05,,,,,2.2,1.2,1.9*3D
$GPGSV,3,1,12,04,72,032,26,02,67,245,37,12,41,317,18,10,41,126,24*75
$GPGSV,3,2,12,09,31,252,24,17,30,073,25,27,28,235,,28,17,138,34*7F
$GPGSV,3,3,12,05,13,180,36,25,02,318,,20,01,034,,48,36,230,28*78
$GPRMC,080417.000,A,3353.7453,N,09832.0287,W,0.12,33.91,020412,,,A*46
$GPGGA,080418.000,3353.7454,N,09832.0284,W,1,08,1.2,304.1,M,-23.7,M,,0000*67
$GPGSA,A,3,09,28,04,10,17,02,12,05,,,,,2.2,1.2,1.9*3D
$GPRMC,080418.000,A,3353.7454,N,09832.0284,W,0.48,61.73,020412,,,A*49
$GPGGA,080419.000,3353.7455,N,09832.0281,W,1,09,1.1,304.0,M,-23.7,M,,0000*61
$GPGSA,A,3,09,28,04,10,17,02,12,05,27,,,,2.2,1.1,1.9*3B
$GPRMC,080419.000,A,3353.7455,N,09832.0281,W,0.41,43.39,020412,,,A*4B
$GPGGA,080420.000,3353.7456,N,09832.0280,W,1,09,1.1,303.8,M,-23.7,M,,0000*66
$GPGSA,A,3,09,28,04,10,17,02,12,05,27,,,,2.2,1.1,1.9*3B
$GPRMC,080420.000,A,3353.7456,N,09832.0280,W,0.05,350.78,020412,,,A*77
$GPGGA,080421.000,3353.7457,N,09832.0278,W,1,09,1.1,303.7,M,-23.7,M,,0000*6E
$GPGSA,A,3,09,28,04,10,17,02,12,05,27,,,,2.2,1.1,1.9*3B
$GPRMC,080421.000,A,3353.7457,N,09832.0278,W,0.10,56.75,020412,,,A*4C
$GPGGA,080422.000,3353.7459,N,09832.0276,W,1,09,1.1,303.7,M,-23.7,M,,0000*6D
$GPGSA,A,3,09,28,04,10,17,02,12,05,27,,,,2.2,1.1,1.9*3B
$GPGSV,3,1,12,04,72,032,24,02,67,245,36,12,41,317,19,10,41,126,29*7A
$GPGSV,3,2,12,09,31,252,27,17,30,073,25,27,28,235,18,28,17,138,34*75
$GPGSV,3,3,12,05,13,180,36,25,02,318,,20,01,034,,48,36,230,24*74
$GPRMC,080422.000,A,3353.7459,N,09832.0276,W,0.34,354.83,020412,,,A*71
$GPGGA,080423.000,3353.7460,N,09832.0274,W,1,09,1.1,303.7,M,-23.7,M,,0000*64
$GPGSA,A,3,09,28,04,10,17,02,12,05,27,,,,2.2,1.1,1.9*3B
$GPRMC,080423.000,A,3353.7460,N,09832.0274,W,0.32,2.71,020412,,,A*73
$GPGGA,080424.000,3353.7461,N,09832.0272,W,1,09,1.1,303.8,M,-23.7,M,,0000*6B
$GPGSA,A,3,09,28,04,10,17,02,12,05,27,,,,2.2,1.1,1.9*3B
$GPRMC,080424.000,A,3353.7461,N,09832.0272,W,0.28,353.95,020412,,,A*75
$GPGGA,080425.000,3353.7461,N,09832.0271,W,1,09,1.1,303.9,M,-23.7,M,,0000*68
$GPGSA,A,3,09,28,04,10,17,02,12,05,27,,,,2.2,1.1,1.9*3B
$GPRMC,080425.000,A,3353.7461,N,09832.0271,W,0.08,279.82,020412,,,A*7A
$GPGGA,080426.000,3353.7461,N,09832.0269,W,1,09,1.1,304.1,M,-23.7,M,,0000*6D
$GPGSA,A,3,09,28,04,10,17,02,12,05,27,,,,2.2,1.1,1.9*3B
$GPRMC,080426.000,A,3353.7461,N,09832.0269,W,0.04,214.30,020412,,,A*7E
$GPGGA,080427.000,3353.7461,N,09832.0268,W,1,09,1.1,304.4,M,-23.7,M,,0000*68
$GPGSA,A,3,09,28,04,10,17,02,12,05,27,,,,2.2,1.1,1.9*3B
$GPGSV,3,1,12,04,72,032,24,02,67,245,36,12,41,317,20,10,41,126,29*70
$GPGSV,3,2,12,09,31,252,28,17,30,073,26,27,28,235,19,28,17,138,34*78
$GPGSV,3,3,12,05,13,180,36,25,02,318,,20,01,034,,48,36,230,29*79
$GPRMC,080427.000,A,3353.7461,N,09832.0268,W,0.11,258.29,020412,,,A*7A
$GPGGA,080428.000,3353.7461,N,09832.0267,W,1,09,1.1,304.6,M,-23.7,M,,0000*6A
$GPGSA,A,3,09,28,04,10,17,02,12,05,27,,,,2.2,1.1,1.9*3B
$GPRMC,080428.000,A,3353.7461,N,09832.0267,W,0.11,295.30,020412,,,A*73
$GPGGA,080429.000,3353.7461,N,09832.0265,W,1,09,1.1,304.9,M,-23.7,M,,0000*66
$GPGSA,A,3,09,28,04,10,17,02,12,05,27,,,,2.2,1.1,1.9*3B
$GPRMC,080429.000,A,3353.7461,N,09832.0265,W,0.04,358.36,020412,,,A*72
$GPGGA,080430.000,3353.7461,N,09832.0264,W,1,09,1.1,305.2,M,-23.7,M,,0000*65
$GPGSA,A,3,09,28,04,10,17,02,12,05,27,,,,2.2,1.1,1.9*3B
$GPRMC,080430.000,A,3353.7461,N,09832.0264,W,0.07,103.77,020412,,,A*71
$GPGGA,080431.000,3353.7461,N,09832.0261,W,1,09,1.1,305.7,M,-23.7,M,,0000*64
$GPGSA,A,3,09,28,04,10,17,02,12,05,27,,,,2.2,1.1,1.9*3B
$GPRMC,080431.000,A,3353.7461,N,09832.0261,W,0.25,96.69,020412,,,A*47
$GPGGA,080432.000,3353.7460,N,09832.0259,W,1,09,1.1,306.1,M,-23.7,M,,0000*68
$GPGSA,A,3,09,28,04,10,17,02,12,05,27,,,,2.2,1.1,1.9*3B
$GPGSV,3,1,12,04,72,032,24,02,67,245,36,12,41,317,20,10,41,126,28*71
$GPGSV,3,2,12,09,31,252,27,17,30,073,27,27,28,235,19,28,17,138,34*76
$GPGSV,3,3,12,05,13,180,36,25,02,318,,20,01,034,,48,36,230,28*78
$GPRMC,080432.000,A,3353.7460,N,09832.0259,W,0.38,125.83,020412,,,A*7F
$GPGGA,080433.000,3353.7459,N,09832.0258,W,1,09,1.1,306.6,M,-23.7,M,,0000*65
$GPGSA,A,3,09,28,04,10,17,02,12,05,27,,,,2.2,1.1,1.9*3B
$GPRMC,080433.000,A,3353.7459,N,09832.0258,W,0.20,167.48,020412,,,A*7D
$GPGGA,080434.000,3353.7459,N,09832.0256,W,1,09,1.1,307.1,M,-23.7,M,,0000*6A
$GPGSA,A,3,09,28,04,10,17,02,12,05,27,,,,2.2,1.1,1.9*3B
$GPRMC,080434.000,A,3353.7459,N,09832.0256,W,0.12,21.16,020412,,,A*4D
$GPGGA,080435.000,3353.7459,N,09832.0254,W,1,09,1.1,307.5,M,-23.7,M,,0000*6D
$GPGSA,A,3,09,28,04,10,17,02,12,05,27,,,,2.2,1.1,1.9*3B
$GPRMC,080435.000,A,3353.7459,N,09832.0254,W,0.18,45.50,020412,,,A*44
$GPGGA,080436.000,3353.7460,N,09832.0252,W,1,09,1.1,307.9,M,-23.7,M,,0000*6E
$GPGSA,A,3,09,28,04,10,17,02,12,05,27,,,,2.2,1.1,1.9*3B
$GPRMC,080436.000,A,3353.7460,N,09832.0252,W,0.35,43.93,020412,,,A*4D
$GPGGA,080437.000,3353.7461,N,09832.0250,W,1,09,1.1,308.1,M,-23.7,M,,0000*6B
$GPGSA,A,3,09,28,04,10,17,02,12,05,27,,,,2.2,1.1,1.9*3B
$GPGSV,3,1,11,04,72,032,19,02,67,245,36,12,41,317,17,10,41,126,28*78
$GPGSV,3,2,11,09,31,252,27,17,30,073,26,27,28,235,19,28,17,138,34*74
$GPGSV,3,3,11,05,13,180,36,25,02,318,,20,01,034,*49
$GPRMC,080437.000,A,3353.7461,N,09832.0250,W,0.41,34.18,020412,,,A*4F
$GPGGA,080438.000,3353.7462,N,09832.0247,W,1,09,1.1,308.2,M,-23.7,M,,0000*62
$GPGSA,A,3,09,28,04,10,17,02,12,05,27,,,,2.2,1.1,1.9*3B
$GPRMC,080438.000,A,3353.7462,N,09832.0247,W,0.36,57.15,020412,,,A*4D
$GPGGA,080439.000,3353.7463,N,09832.0246,W,1,09,1.1,308.2,M,-23.7,M,,0000*63
$GPGSA,A,3,09,28,04,10,17,02,12,05,27,,,,2.2,1.1,1.9*3B
$GPRMC,080439.000,A,3353.7463,N,09832.0246,W,0.24,70.17,020412,,,A*48
$GPGGA,080440.000,3353.7463,N,09832.0244,W,1,09,1.1,308.2,M,-23.7,M,,0000*6F
$GPGSA,A,3,09,28,04,10,17,02,12,05,27,,,,2.2,1.1,1.9*3B
$GPRMC,080440.000,A,3353.7463,N,09832.0244,W,0.35,134.50,020412,,,A*76
$GPGGA,080441.000,3353.7463,N,09832.0243,W,1,09,1.1,308.2,M,-23.7,M,,0000*69
$GPGSA,A,3,09,28,04,10,17,02,12,05,27,,,,2.2,1.1,1.9*3B
$GPRMC,080441.000,A,3353.7463,N,09832.0243,W,0.23,192.59,020412,,,A*72
$GPGGA,080442.000,3353.7464,N,09832.0242,W,1,09,1.1,308.0,M,-23.7,M,,0000*6E
$GPGSA,A,3,09,28,04,10,17,02,12,05,27,,,,2.2,1.1,1.9*3B
$GPGSV,3,1,11,04,72,032,18,02,67,245,36,12,41,317,18,10,41,126,27*79
$GPGSV,3,2,11,09,31,252,22,17,30,073,26,27,28,235,19,28,17,138,33*76
$GPGSV,3,3,11,05,13,180,37,25,02,318,,20,01,034,*48
$GPRMC,080442.000,A,3353.7464,N,09832.0242,W,0.07,166.44,020412,,,A*76
$GPGGA,080443.000,3353.7465,N,09832.0243,W,1,09,1.1,307.7,M,-23.7,M,,0000*67
$GPGSA,A,3,09,28,04,10,17,02,12,05,27,,,,2.2,1.1,1.9*3B
$GPRMC,080443.000,A,3353.7465,N,09832.0243,W,0.33,297.41,020412,,,A*78
$GPGGA,080444.000,3353.7467,N,09832.0243,W,1,09,1.1,307.4,M,-23.7,M,,0000*61
$GPGSA,A,3,09,28,04,10,17,02,12,05,27,,,,2.2,1.1,1.9*3B
$GPRMC,080444.000,A,3353.7467,N,09832.0243,W,0.57,345.73,020412,,,A*70
$GPGGA,080445.000,3353.7470,N,09832.0242,W,1,09,1.1,307.1,M,-23.7,M,,0000*62
$GPGSA,A,3,09,28,04,10,17,02,12,05,27,,,,2.2,1.1,1.9*3B
$GPRMC,080445.000,A,3353.7470,N,09832.0242,W,0.58,7.60,020412,,,A*7E
$GPGGA,080446.000,3353.7471,N,09832.0241,W,1,09,1.1,307.0,M,-23.7,M,,0000*62
$GPGSA,A,3,09,28,04,10,17,02,12,05,27,,,,2.2,1.1,1.9*3B
$GPRMC,080446.000,A,3353.7471,N,09832.0241,W,0.36,34.69,020412,,,A*4E
$GPGGA,080447.000,3353.7472,N,09832.0241,W,1,09,1.1,306.9,M,-23.7,M,,0000*68
$GPGSA,A,3,09,28,04,10,17,02,12,05,27,,,,2.2,1.1,1.9*3B
$GPGSV,3,1,11,04,72,032,18,02,67,245,35,12,41,317,17,10,41,126,27*75
$GPGSV,3,2,11,09,31,252,22,17,30,073,27,27,28,235,20,28,17,138,33*7D
$GPGSV,3,3,11,05,13,180,37,25,02,318,,20,01,034,*48
$GPRMC,080447.000,A,3353.7472,N,09832.0241,W,0.13,332.02,020412,,,A*73
$GPGGA,080448.000,3353.7472,N,09832.0241,W,1,09,1.1,306.8,M,-23.7,M,,0000*66
$GPGSA,A,3,09,28,04,10,17,02,12,05,27,,,,2.2,1.1,1.9*3B
$GPRMC,080448.000,A,3353.7472,N,09832.0241,W,0.23,256.81,020412,,,A*77
$GPGGA,080449.000,3353.7472,N,09832.0241,W,1,09,1.1,306.8,M,-23.7,M,,0000*67
$GPGSA,A,3,09,28,04,10,17,02,12,05,27,,,,2.2,1.1,1.9*3B
$GPRMC,080449.000,A,3353.7472,N,09832.0241,W,0.10,89.05,020412,,,A*4A
$GPGGA,080450.000,3353.7472,N,09832.0240,W,1,09,1.1,306.8,M,-23.7,M,,0000*6E
$GPGSA,A,3,09,28,04,10,17,02,12,05,27,,,,2.2,1.1,1.9*3B
$GPRMC,080450.000,A,3353.7472,N,09832.0240,W,0.25,108.63,020412,,,A*7D
$GPGGA,080451.000,3353.7471,N,09832.0239,W,1,09,1.1,306.9,M,-23.7,M,,0000*63
$GPGSA,A,3,09,28,04,10,17,02,12,05,27,,,,2.2,1.1,1.9*3B
$GPRMC,080451.000,A,3353.7471,N,09832.0239,W,0.20,158.08,020412,,,A*7C
$GPGGA,080452.000,3353.7471,N,09832.0240,W,1,09,1.1,307.0,M,-23.7,M,,0000*66
$GPGSA,A,3,09,28,04,10,17,02,12,05,27,,,,2.2,1.1,1.9*3B
$GPGSV,3,1,11,04,72,032,20,02,67,245,35,12,41,317,16,10,41,126,28*70
$GPGSV,3,2,11,09,31,252,22,17,30,073,27,27,28,235,15,28,17,138,33*7B
$GPGSV,3,3,11,05,13,180,37,25,02,318,,20,01,034,*48
$GPRMC,080452.000,A,3353.7471,N,09832.0240,W,0.23,197.50,020412,,,A*7C
$GPGGA,080453.000,3353.7470,N,09832.0240,W,1,09,1.1,307.0,M,-23.7,M,,0000*66
$GPGSA,A,3,09,28,04,10,17,02,12,05,27,,,,2.2,1.1,1.9*3B
$GPRMC,080453.000,A,3353.7470,N,09832.0240,W,0.27,220.12,020412,,,A*71
$GPGGA,080454.000,3353.7470,N,09832.0241,W,1,09,1.1,307.0,M,-23.7,M,,0000*60
$GPGSA,A,3,09,28,04,10,17,02,12,05,27,,,,2.2,1.1,1.9*3B
$GPRMC,080454.000,A,3353.7470,N,09832.0241,W,0.26,260.61,020412,,,A*76
$GPGGA,080455.000,3353.7470,N,09832.0242,W,1,09,1.1,306.9,M,-23.7,M,,0000*6A
$GPGSA,A,3,09,28,04,10,17,02,12,05,27,,,,2.2,1.1,1.9*3B
$GPRMC,080455.000,A,3353.7470,N,09832.0242,W,0.20,293.21,020412,,,A*7A
$GPGGA,080456.000,3353.7471,N,09832.0243,W,1,09,1.1,306.7,M,-23.7,M,,0000*67
$GPGSA,A,3,09,28,04,10,17,02,12,05,27,,,,2.2,1.1,1.9*3B
$GPRMC,080456.000,A,3353.7471,N,09832.0243,W,0.32,327.34,020412,,,A*70
$GPGGA,080457.000,3353.7472,N,09832.0244,W,1,09,1.1,306.3,M,-23.7,M,,0000*66
$GPGSA,A,3,09,28,04,10,17,02,12,05,27,,,,2.2,1.1,1.9*3B
$GPGSV,3,1,11,04,72,032,19,02,67,245,35,12,41,317,17,10,41,126,28*7B
$GPGSV,3,2,11,09,31,252,22,17,30,073,27,27,28,235,21,28,17,138,34*7B
$GPGSV,3,3,11,05,13,180,37,25,02,318,,20,01,034,*48
$GPRMC,080457.000,A,3353.7472,N,09832.0244,W,0.37,350.19,020412,,,A*7F
$GPGGA,080458.000,3353.7473,N,09832.0244,W,1,09,1.1,306.1,M,-23.7,M,,0000*6A
$GPGSA,A,3,09,28,04,10,17,02,12,05,27,,,,2.2,1.1,1.9*3B
$GPRMC,080458.000,A,3353.7473,N,09832.0244,W,0.53,13.64,020412,,,A*4D
$GPGGA,080459.000,3353.7475,N,09832.0244,W,1,09,1.1,305.9,M,-23.7,M,,0000*66
$GPGSA,A,3,09,28,04,10,17,02,12,05,27,,,,2.2,1.1,1.9*3B
$GPRMC,080459.000,A,3353.7475,N,09832.0244,W,0.51,355.95,020412,,,A*77
$GPGGA,080500.000,3353.7475,N,09832.0244,W,1,09,1.1,305.8,M,-23.7,M,,0000*6A
$GPGSA,A,3,09,28,04,10,17,02,12,05,27,,,,2.2,1.1,1.9*3B
$GPRMC,080500.000,A,3353.7475,N,09832.0244,W,0.11,357.60,020412,,,A*76
$GPGGA,080501.000,3353.7474,N,09832.0244,W,1,09,1.1,305.8,M,-23.7,M,,0000*6A
$GPGSA,A,3,09,28,04,10,17,02,12,05,27,,,,2.2,1.1,1.9*3B
$GPRMC,080501.000,A,3353.7474,N,09832.0244,W,0.26,148.08,020412,,,A*70
$GPGGA,080502.000,3353.7473,N,09832.0243,W,1,09,1.1,305.9,M,-23.7,M,,0000*68
$GPGSA,A,3,09,28,04,10,17,02,12,05,27,,,,2.2,1.1,1.9*3B
$GPGSV,3,1,11,04,72,032,19,02,67,245,35,12,41,317,18,10,41,126,28*74
$GPGSV,3,2,11,09,31,252,21,17,30,073,27,27,28,235,25,28,17,138,34*7C
$GPGSV,3,3,11,05,13,180,37,25,02,318,,20,01,034,*48
$GPRMC,080502.000,A,3353.7473,N,09832.0243,W,0.49,144.77,020412,,,A*7E
$GPGGA,080503.000,3353.7473,N,09832.0243,W,1,09,1.1,305.9,M,-23.7,M,,0000*69
$GPGSA,A,3,09,28,04,10,17,02,12,05,27,,,,2.2,1.1,1.9*3B
$GPRMC,080503.000,A,3353.7473,N,09832.0243,W,0.20,102.10,020412,,,A*73
$GPGGA,080504.000,3353.7473,N,09832.0243,W,1,09,1.1,306.0,M,-23.7,M,,0000*64
$GPGSA,A,3,09,28,04,10,17,02,12,05,27,,,,2.2,1.1,1.9*3B
$GPRMC,080504.000,A,3353.7473,N,09832.0243,W,0.22,304.84,020412,,,A*7F
$GPGGA,080505.000,3353.7474,N,09832.0245,W,1,09,1.1,306.0,M,-23.7,M,,0000*64
$GPGSA,A,3,09,28,04,10,17,02,12,05,27,,,,2.2,1.1,1.9*3B
$GPRMC,080505.000,A,3353.7474,N,09832.0245,W,0.56,325.74,020412,,,A*70
$GPGGA,080506.000,3353.7476,N,09832.0245,W,1,09,1.1,306.0,M,-23.7,M,,0000*65
$GPGSA,A,3,09,28,04,10,17,02,12,05,27,,,,2.2,1.1,1.9*3B
$GPRMC,080506.000,A,3353.7476,N,09832.0245,W,0.61,342.46,020412,,,A*75
$GPGGA,080507.000,3353.7477,N,09832.0245,W,1,09,1.1,306.0,M,-23.7,M,,0000*65
$GPGSA,A,3,09,28,04,10,17,02,12,05,27,,,,2.2,1.1,1.9*3B
$GPGSV,3,1,11,04,72,032,19,02,67,245,35,12,41,317,17,10,41,126,29*7A
$GPGSV,3,2,11,09,31,252,21,17,30,073,27,27,28,235,25,28,17,138,34*7C
$GPGSV,3,3,11,05,13,180,38,25,02,318,,20,01,034,*47
$GPRMC,080507.000,A,3353.7477,N,09832.0245,W,0.58,356.70,020412,,,A*7F
$GPGGA,080508.000,3353.7478,N,09832.0245,W,1,09,1.1,306.1,M,-23.7,M,,0000*64
$GPGSA,A,3,09,28,04,10,17,02,12,05,27,,,,2.2,1.1,1.9*3B
$GPRMC,080508.000,A,3353.7478,N,09832.0245,W,0.17,5.55,020412,,,A*76
$GPGGA,080509.000,3353.7478,N,09832.0245,W,1,09,1.1,306.2,M,-23.7,M,,0000*66
$GPGSA,A,3,09,28,04,10,17,02,12,05,27,,,,2.2,1.1,1.9*3B
$GPRMC,080509.000,A,3353.7478,N,09832.0245,W,0.16,326.04,020412,,,A*70
$GPGGA,080510.000,3353.7478,N,09832.0245,W,1,09,1.1,306.4,M,-23.7,M,,0000*68
$GPGSA,A,3,09,28,04,10,17,02,12,05,27,,,,2.2,1.1,1.9*3B
$GPRMC,080510.000,A,3353.7478,N,09832.0245,W,0.22,310.65,020412,,,A*7D
$GPGGA,080511.000,3353.7478,N,09832.0245,W,1,09,1.1,306.6,M,-23.7,M,,0000*6B
$GPGSA,A,3,09,28,04,10,17,02,12,05,27,,,,2.2,1.1,1.9*3B
$GPRMC,080511.000,A,3353.7478,N,09832.0245,W,0.25,340.52,020412,,,A*7A
$GPGGA,080512.000,3353.7478,N,09832.0245,W,1,09,1.1,306.7,M,-23.7,M,,0000*69
$GPGSA,A,3,09,28,04,10,17,02,12,05,27,,,,2.2,1.1,1.9*3B
$GPGSV,3,1,11,04,72,032,19,02,67,245,35,12,41,317,16,10,41,126,30*73
$GPGSV,3,2,11,09,31,252,21,17,30,073,28,27,28,235,25,28,17,138,33*74
$GPGSV,3,3,11,05,13,180,38,25,02,318,,20,01,034,*47
$GPRMC,080512.000,A,3353.7478,N,09832.0245,W,0.12,357.97,020412,,,A*72
$GPGGA,080513.000,3353.7478,N,09832.0246,W,1,09,1.1,306.8,M,-23.7,M,,0000*64
$GPGSA,A,3,09,28,04,10,17,02,12,05,27,,,,2.2,1.1,1.9*3B
$GPRMC,080513.000,A,3353.7478,N,09832.0246,W,0.28,270.73,020412,,,A*77
$GPGGA,080514.000,3353.7478,N,09832.0246,W,1,09,1.1,306.9,M,-23.7,M,,0000*62
$GPGSA,A,3,09,28,04,10,17,02,12,05,27,,,,2.2,1.1,1.9*3B
$GPRMC,080514.000,A,3353.7478,N,09832.0246,W,0.16,241.80,020412,,,A*73
$GPGGA,080515.000,3353.7477,N,09832.0245,W,1,09,1.1,306.9,M,-23.7,M,,0000*6F
$GPGSA,A,3,09,28,04,10,17,02,12,05,27,,,,2.2,1.1,1.9*3B
$GPRMC,080515.000,A,3353.7477,N,09832.0245,W,0.33,121.40,020412,,,A*70
$GPGGA,080516.000,3353.7476,N,09832.0244,W,1,09,1.1,307.1,M,-23.7,M,,0000*65
