$GPGGA,055837.000,3353.7528,N,09832.0240,W,1,06,1.2,323.9,M,-23.7,M,18.8,0000*70
$GPGSA,A,3,28,17,27,08,04,01,,,,,,,2.4,1.2,2.0*31
$GPGSV,3,1,12,17,68,349,35,28,62,063,36,04,36,191,35,27,34,309,29*7B
$GPGSV,3,2,12,08,30,164,40,01,21,043,27,09,16,320,,20,13,087,*77
$GPGSV,3,3,12,26,11,236,,02,09,205,,15,06,279,,32,03,062,*7D
$GPRMC,055837.000,A,3353.7528,N,09832.0240,W,0.03,156.87,300312,,,A*75
$GPGGA,055838.000,3353.7527,N,09832.0238,W,1,06,1.2,324.0,M,-23.7,M,18.8,0000*71
$GPGSA,A,3,28,17,27,08,04,01,,,,,,,2.4,1.2,2.0*31
$GPRMC,055838.000,A,3353.7527,N,09832.0238,W,0.52,105.49,300312,,,A*7A
$GPGGA,055839.000,3353.7523,N,09832.0234,W,2,06,1.2,326.0,M,-23.7,M,0.8,0000*40
$GPGSA,A,3,28,17,27,08,04,01,,,,,,,2.4,1.2,2.0*31
$GPRMC,055839.000,A,3353.7523,N,09832.0234,W,0.45,106.59,300312,,,D*72
$GPGGA,055840.000,3353.7522,N,09832.0234,W,2,06,1.2,326.4,M,-23.7,M,0.8,0000*4B
$GPGSA,A,3,28,17,27,08,04,01,,,,,,,2.4,1.2,2.0*31
$GPRMC,055840.000,A,3353.7522,N,09832.0234,W,0.18,107.48,300312,,,D*74
$GPGGA,055841.000,3353.7521,N,09832.0234,W,2,06,1.2,326.6,M,-23.7,M,0.8,0000*4B
$GPGSA,A,3,28,17,27,08,04,01,,,,,,,2.4,1.2,2.0*31
$GPRMC,055841.000,A,3353.7521,N,09832.0234,W,0.11,125.77,300312,,,D*73
$GPGGA,055842.000,3353.7521,N,09832.0235,W,2,06,1.2,326.8,M,-23.7,M,1.8,0000*46
$GPGSA,A,3,28,17,27,08,04,01,,,,,,,2.4,1.2,2.0*31
$GPGSV,3,1,12,17,68,349,35,28,62,063,36,04,36,191,35,27,34,309,30*73
$GPGSV,3,2,12,08,30,164,39,01,21,043,29,09,16,320,,20,13,087,*77
$GPGSV,3,3,12,26,11,236,,02,09,205,,15,06,279,,32,03,062,*7D
$GPRMC,055842.000,A,3353.7521,N,09832.0235,W,0.09,102.85,300312,,,D*70
$GPGGA,055843.000,3353.7521,N,09832.0235,W,2,06,1.2,327.0,M,-23.7,M,2.8,0000*4D
$GPGSA,A,3,28,17,27,08,04,01,,,,,,,2.4,1.2,2.0*31
$GPRMC,055843.000,A,3353.7521,N,09832.0235,W,0.12,109.54,300312,,,D*7C
$GPGGA,055844.000,3353.7521,N,09832.0236,W,2,06,1.2,327.2,M,-23.7,M,3.8,0000*4A
$GPGSA,A,3,28,17,27,08,04,01,,,,,,,2.4,1.2,2.0*31
$GPRMC,055844.000,A,3353.7521,N,09832.0236,W,0.11,107.65,300312,,,D*77
$GPGGA,055845.000,3353.7520,N,09832.0236,W,2,06,1.2,327.4,M,-23.7,M,0.8,0000*4F
$GPGSA,A,3,28,17,27,08,04,01,,,,,,,2.4,1.2,2.0*31
$GPRMC,055845.000,A,3353.7520,N,09832.0236,W,0.08,112.14,300312,,,D*7D
$GPGGA,055846.000,3353.7520,N,09832.0237,W,2,06,1.2,327.5,M,-23.7,M,0.8,0000*4C
$GPGSA,A,3,28,17,27,08,04,01,,,,,,,2.4,1.2,2.0*31
$GPRMC,055846.000,A,3353.7520,N,09832.0237,W,0.07,126.19,300312,,,D*7A
$GPGGA,055847.000,3353.7520,N,09832.0238,W,2,06,1.2,327.6,M,-23.7,M,0.8,0000*41
$GPGSA,A,3,28,17,27,08,04,01,,,,,,,2.4,1.2,2.0*31
$GPGSV,3,1,12,17,68,349,35,28,62,063,36,04,36,191,35,27,34,309,30*73
$GPGSV,3,2,12,08,30,164,39,01,21,043,29,09,16,320,,20,13,087,*77
$GPGSV,3,3,12,26,11,236,,02,09,205,,15,06,279,,32,03,062,*7D
$GPRMC,055847.000,A,3353.7520,N,09832.0238,W,0.02,139.19,300312,,,D*7F
$GPGGA,055848.000,3353.7519,N,09832.0239,W,2,06,1.2,327.7,M,-23.7,M,1.8,0000*45
$GPGSA,A,3,28,17,27,08,04,01,,,,,,,2.4,1.2,2.0*31
$GPRMC,055848.000,A,3353.7519,N,09832.0239,W,0.03,110.52,300312,,,D*7E
$GPGGA,055849.000,3353.7519,N,09832.0240,W,2,06,1.2,327.8,M,-23.7,M,0.8,0000*44
$GPGSA,A,3,28,17,27,08,04,01,,,,,,,2.4,1.2,2.0*31
$GPRMC,055849.000,A,3353.7519,N,09832.0240,W,0.03,81.36,300312,,,D*4A
$GPGGA,055850.000,3353.7519,N,09832.0241,W,2,06,1.2,327.8,M,-23.7,M,1.8,0000*4C
$GPGSA,A,3,28,17,27,08,04,01,,,,,,,2.4,1.2,2.0*31
$GPRMC,055850.000,A,3353.7519,N,09832.0241,W,0.03,83.41,300312,,,D*41
$GPGGA,055851.000,3353.7519,N,09832.0242,W,2,07,1.1,327.7,M,-23.7,M,0.8,0000*42
$GPGSA,A,3,28,26,17,27,08,04,01,,,,,,2.0,1.1,1.7*36
$GPRMC,055851.000,A,3353.7519,N,09832.0242,W,0.15,265.50,300312,,,D*7E
$GPGGA,055852.000,3353.7518,N,09832.0243,W,2,07,1.1,327.9,M,-23.7,M,0.8,0000*4F
$GPGSA,A,3,28,26,17,27,08,04,01,,,,,,2.0,1.1,1.7*36
$GPGSV,3,1,12,17,68,349,35,28,62,063,37,04,36,191,35,27,34,309,30*72
$GPGSV,3,2,12,08,30,164,39,01,21,043,29,09,16,320,,20,13,087,*77
$GPGSV,3,3,12,26,11,236,18,02,09,205,,15,06,279,,32,03,062,*74
$GPRMC,055852.000,A,3353.7518,N,09832.0243,W,0.19,85.47,300312,,,D*4B
$GPGGA,055853.000,3353.7518,N,09832.0243,W,2,07,1.1,328.0,M,-23.7,M,0.8,0000*48
$GPGSA,A,3,28,26,17,27,08,04,01,,,,,,2.0,1.1,1.7*36
$GPRMC,055853.000,A,3353.7518,N,09832.0243,W,0.34,93.59,300312,,,D*4D
$GPGGA,055854.000,3353.7518,N,09832.0243,W,2,08,0.9,328.3,M,-23.7,M,0.8,0000*4A
$GPGSA,A,3,28,26,17,27,20,08,04,01,,,,,1.7,0.9,1.4*3A
$GPRMC,055854.000,A,3353.7518,N,09832.0243,W,0.24,99.09,300312,,,D*44
$GPGGA,055855.000,3353.7517,N,09832.0244,W,2,08,0.9,328.4,M,-23.7,M,1.8,0000*45
$GPGSA,A,3,28,26,17,27,20,08,04,01,,,,,1.7,0.9,1.4*3A
$GPRMC,055855.000,A,3353.7517,N,09832.0244,W,0.13,233.00,300312,,,D*72
$GPGGA,055856.000,3353.7517,N,09832.0245,W,2,08,0.9,328.4,M,-23.7,M,2.8,0000*44
$GPGSA,A,3,28,26,17,27,20,08,04,01,,,,,1.7,0.9,1.4*3A
$GPRMC,055856.000,A,3353.7517,N,09832.0245,W,0.21,246.50,300312,,,D*76
$GPGGA,055857.000,3353.7517,N,09832.0246,W,2,08,0.9,328.4,M,-23.7,M,0.8,0000*44
$GPGSA,A,3,28,26,17,27,20,08,04,01,,,,,1.7,0.9,1.4*3A
$GPGSV,3,1,12,17,68,349,35,28,62,063,37,04,36,191,35,27,34,309,30*72
$GPGSV,3,2,12,08,30,164,39,01,21,043,28,09,16,320,,20,13,087,18*7F
$GPGSV,3,3,12,26,11,236,19,02,09,205,,15,06,279,,32,03,062,*75
$GPRMC,055857.000,A,3353.7517,N,09832.0246,W,0.08,132.12,300312,,,D*79
$GPGGA,055858.000,3353.7516,N,09832.0247,W,2,08,0.9,328.4,M,-23.7,M,0.8,0000*4B
$GPGSA,A,3,28,26,17,27,20,08,04,01,,,,,1.7,0.9,1.4*3A
$GPRMC,055858.000,A,3353.7516,N,09832.0247,W,0.29,89.73,300312,,,D*43
$GPGGA,055859.000,3353.7516,N,09832.0247,W,2,08,0.9,328.5,M,-23.7,M,0.8,0000*4B
$GPGSA,A,3,28,26,17,27,20,08,04,01,,,,,1.7,0.9,1.4*3A
$GPRMC,055859.000,A,3353.7516,N,09832.0247,W,0.18,91.42,300312,,,D*4B
$GPGGA,055900.000,3353.7516,N,09832.0248,W,2,08,0.9,328.4,M,-23.7,M,0.8,0000*48
$GPGSA,A,3,28,26,17,27,20,08,04,01,,,,,1.7,0.9,1.4*3A
$GPRMC,055900.000,A,3353.7516,N,09832.0248,W,0.02,24.47,300312,,,D*49
$GPGGA,055901.000,3353.7516,N,09832.0249,W,2,08,0.9,328.4,M,-23.7,M,0.8,0000*48
$GPGSA,A,3,28,26,17,27,20,08,04,01,,,,,1.7,0.9,1.4*3A
$GPRMC,055901.000,A,3353.7516,N,09832.0249,W,0.01,335.32,300312,,,D*7B
$GPGGA,055902.000,3353.7516,N,09832.0250,W,2,08,0.9,328.3,M,-23.7,M,1.8,0000*45
$GPGSA,A,3,28,26,17,27,20,08,04,01,,,,,1.7,0.9,1.4*3A
$GPGSV,3,1,12,17,68,349,35,28,62,063,37,04,36,191,35,27,34,309,30*72
$GPGSV,3,2,12,08,30,164,39,01,21,043,28,09,16,320,,20,13,087,19*7E
$GPGSV,3,3,12,26,11,236,19,02,09,205,,15,06,279,,32,03,062,*75
$GPRMC,055902.000,A,3353.7516,N,09832.0250,W,0.15,78.37,300312,,,D*4A
$GPGGA,055903.000,3353.7516,N,09832.0251,W,2,08,0.9,328.2,M,-23.7,M,0.8,0000*45
$GPGSA,A,3,28,26,17,27,20,08,04,01,,,,,1.7,0.9,1.4*3A
$GPRMC,055903.000,A,3353.7516,N,09832.0251,W,0.11,271.48,300312,,,D*7D
$GPGGA,055904.000,3353.7516,N,09832.0252,W,2,08,0.9,328.0,M,-23.7,M,0.8,0000*43
$GPGSA,A,3,28,26,17,27,20,08,04,01,,,,,1.7,0.9,1.4*3A
$GPRMC,055904.000,A,3353.7516,N,09832.0252,W,0.07,279.64,300312,,,D*78
$GPGGA,055905.000,3353.7516,N,09832.0253,W,2,08,0.9,328.0,M,-23.7,M,0.8,0000*43
$GPGSA,A,3,28,26,17,27,20,08,04,01,,,,,1.7,0.9,1.4*3A
$GPRMC,055905.000,A,3353.7516,N,09832.0253,W,0.13,108.81,300312,,,D*73
$GPGGA,055906.000,3353.7515,N,09832.0253,W,2,08,0.9,328.1,M,-23.7,M,1.8,0000*43
$GPGSA,A,3,28,26,17,27,20,08,04,01,,,,,1.7,0.9,1.4*3A
$GPRMC,055906.000,A,3353.7515,N,09832.0253,W,0.23,97.68,300312,,,D*40
$GPGGA,055907.000,3353.7515,N,09832.0252,W,2,08,0.9,328.0,M,-23.7,M,2.8,0000*41
$GPGSA,A,3,28,26,17,27,20,08,04,01,,,,,1.7,0.9,1.4*3A
$GPGSV,3,1,12,17,68,349,35,28,62,063,38,04,36,191,35,27,34,309,30*7D
$GPGSV,3,2,12,08,30,164,39,01,21,043,28,09,16,320,,20,13,087,20*74
$GPGSV,3,3,12,26,11,236,19,02,09,205,,15,06,279,,32,03,062,*75
$GPRMC,055907.000,A,3353.7515,N,09832.0252,W,0.46,89.89,300312,,,D*43
$GPGGA,055908.000,3353.7515,N,09832.0252,W,2,08,0.9,328.0,M,-23.7,M,0.8,0000*4C
$GPGSA,A,3,28,26,17,27,20,08,04,01,,,,,1.7,0.9,1.4*3A
$GPRMC,055908.000,A,3353.7515,N,09832.0252,W,0.13,111.33,300312,,,D*7D
$GPGGA,055909.000,3353.7514,N,09832.0253,W,2,08,0.9,328.1,M,-23.7,M,0.8,0000*4C
$GPGSA,A,3,28,26,17,27,20,08,04,01,,,,,1.7,0.9,1.4*3A
$GPRMC,055909.000,A,3353.7514,N,09832.0253,W,0.12,110.69,300312,,,D*73
$GPGGA,055910.000,3353.7514,N,09832.0254,W,2,08,0.9,328.0,M,-23.7,M,0.8,0000*42
$GPGSA,A,3,28,26,17,27,20,08,04,01,,,,,1.7,0.9,1.4*3A
$GPRMC,055910.000,A,3353.7514,N,09832.0254,W,0.20,240.20,300312,,,D*76
$GPGGA,055911.000,3353.7514,N,09832.0255,W,2,08,0.9,328.0,M,-23.7,M,0.8,0000*42
$GPGSA,A,3,28,26,17,27,20,08,04,01,,,,,1.7,0.9,1.4*3A
$GPRMC,055911.000,A,3353.7514,N,09832.0255,W,0.04,268.67,300312,,,D*79
$GPGGA,055912.000,3353.7514,N,09832.0256,W,2,08,0.9,328.0,M,-23.7,M,1.8,0000*43
$GPGSA,A,3,28,26,17,27,20,08,04,01,,,,,1.7,0.9,1.4*3A
$GPGSV,3,1,12,17,68,349,35,28,62,063,38,04,36,191,34,27,34,309,30*7C
$GPGSV,3,2,12,08,30,164,39,01,21,043,28,09,16,320,,20,13,087,20*74
$GPGSV,3,3,12,26,11,236,19,02,09,205,,15,06,279,,32,03,062,*75
$GPRMC,055912.000,A,3353.7514,N,09832.0256,W,0.17,261.37,300312,,,D*77
$GPGGA,055913.000,3353.7513,N,09832.0257,W,2,08,0.9,328.0,M,-23.7,M,2.8,0000*47
$GPGSA,A,3,28,26,17,27,20,08,04,01,,,,,1.7,0.9,1.4*3A
$GPRMC,055913.000,A,3353.7513,N,09832.0257,W,0.08,86.21,300312,,,D*42
$GPGGA,055914.000,3353.7513,N,09832.0258,W,2,08,0.9,328.0,M,-23.7,M,0.8,0000*4D
$GPGSA,A,3,28,26,17,27,20,08,04,01,,,,,1.7,0.9,1.4*3A
$GPRMC,055914.000,A,3353.7513,N,09832.0258,W,0.08,273.61,300312,,,D*76
$GPGGA,055915.000,3353.7513,N,09832.0259,W,2,08,0.9,328.0,M,-23.7,M,0.8,0000*4D
$GPGSA,A,3,28,26,17,27,20,08,04,01,,,,,1.7,0.9,1.4*3A
$GPRMC,055915.000,A,3353.7513,N,09832.0259,W,0.20,264.29,300312,,,D*76
$GPGGA,055916.000,3353.7513,N,09832.0259,W,2,08,0.9,328.0,M,-23.7,M,0.8,0000*4E
$GPGSA,A,3,28,26,17,27,20,08,04,01,,,,,1.7,0.9,1.4*3A
$GPRMC,055916.000,A,3353.7513,N,09832.0259,W,0.32,82.91,300312,,,D*4F
$GPGGA,055917.000,3353.7513,N,09832.0259,W,2,08,0.9,327.9,M,-23.7,M,0.8,0000*49
$GPGSA,A,3,28,26,17,27,20,08,04,01,,,,,1.7,0.9,1.4*3A
$GPGSV,3,1,12,17,68,353,35,28,62,066,38,04,37,191,35,27,35,308,31*73
$GPGSV,3,2,12,08,29,164,39,01,20,042,28,09,18,319,,20,13,086,21*78
$GPGSV,3,3,12,26,10,235,19,02,10,205,,15,06,278,,32,03,061,*7D
$GPRMC,055917.000,A,3353.7513,N,09832.0259,W,0.20,98.68,300312,,,D*40
$GPGGA,055918.000,3353.7512,N,09832.0259,W,2,08,0.9,327.8,M,-23.7,M,1.8,0000*47
$GPGSA,A,3,28,26,17,27,20,08,04,01,,,,,1.7,0.9,1.4*3A
$GPRMC,055918.000,A,3353.7512,N,09832.0259,W,0.08,180.17,300312,,,D*74
$GPGGA,055919.000,3353.7512,N,09832.0259,W,2,08,0.9,327.7,M,-23.7,M,2.8,0000*4A
$GPGSA,A,3,28,26,17,27,20,08,04,01,,,,,1.7,0.9,1.4*3A
$GPRMC,055919.000,A,3353.7512,N,09832.0259,W,0.12,244.77,300312,,,D*73
$GPGGA,055920.000,3353.7512,N,09832.0260,W,2,08,0.9,327.7,M,-23.7,M,3.8,0000*4B
$GPGSA,A,3,28,26,17,27,20,08,04,01,,,,,1.7,0.9,1.4*3A
$GPRMC,055920.000,A,3353.7512,N,09832.0260,W,0.08,142.36,300312,,,D*78
$GPGGA,055921.000,3353.7511,N,09832.0260,W,2,08,0.9,327.8,M,-23.7,M,0.8,0000*45
$GPGSA,A,3,28,26,17,27,20,08,04,01,,,,,1.7,0.9,1.4*3A
$GPRMC,055921.000,A,3353.7511,N,09832.0260,W,0.18,102.23,300312,,,D*7B
$GPGGA,055922.000,3353.7511,N,09832.0260,W,2,08,0.9,327.7,M,-23.7,M,0.8,0000*49
$GPGSA,A,3,28,26,17,27,20,08,04,01,,,,,1.7,0.9,1.4*3A
$GPGSV,3,1,12,17,68,353,34,28,62,066,38,04,37,191,34,27,35,308,32*70
$GPGSV,3,2,12,08,29,164,39,01,20,042,28,09,18,319,,20,13,086,22*7B
$GPGSV,3,3,12,26,10,235,20,02,10,205,,15,06,278,,32,03,061,*77
$GPRMC,055922.000,A,3353.7511,N,09832.0260,W,0.13,122.69,300312,,,D*7F
$GPGGA,055923.000,3353.7511,N,09832.0260,W,2,08,0.9,327.5,M,-23.7,M,0.8,0000*4A
$GPGSA,A,3,28,26,17,27,20,08,04,01,,,,,1.7,0.9,1.4*3A
$GPRMC,055923.000,A,3353.7511,N,09832.0260,W,0.10,269.94,300312,,,D*73
$GPGGA,055924.000,3353.7511,N,09832.0261,W,2,08,0.9,327.5,M,-23.7,M,0.8,0000*4C
$GPGSA,A,3,28,26,17,27,20,08,04,01,,,,,1.7,0.9,1.4*3A
$GPRMC,055924.000,A,3353.7511,N,09832.0261,W,0.12,77.42,300312,,,D*41
$GPGGA,055925.000,3353.7511,N,09832.0261,W,2,08,0.9,327.3,M,-23.7,M,0.8,0000*4B
$GPGSA,A,3,28,26,17,27,20,08,04,01,,,,,1.7,0.9,1.4*3A
$GPRMC,055925.000,A,3353.7511,N,09832.0261,W,0.05,39.59,300312,,,D*46
$GPGGA,055926.000,3353.7511,N,09832.0261,W,2,08,0.9,327.1,M,-23.7,M,1.8,0000*4B
$GPGSA,A,3,28,26,17,27,20,08,04,01,,,,,1.7,0.9,1.4*3A
$GPRMC,055926.000,A,3353.7511,N,09832.0261,W,0.12,68.71,300312,,,D*4D
$GPGGA,055927.000,3353.7511,N,09832.0262,W,2,08,0.9,327.1,M,-23.7,M,0.8,0000*48
$GPGSA,A,3,28,26,17,27,20,08,04,01,,,,,1.7,0.9,1.4*3A
$GPGSV,3,1,12,17,68,353,34,28,62,066,38,04,37,191,35,27,35,308,32*71
$GPGSV,3,2,12,08,29,164,40,01,20,042,28,09,18,319,,20,13,086,22*75
$GPGSV,3,3,12,26,10,235,20,02,10,205,,15,06,278,,32,03,061,*77
$GPRMC,055927.000,A,3353.7511,N,09832.0262,W,0.21,273.60,300312,,,D*77
$GPGGA,055928.000,3353.7511,N,09832.0262,W,2,08,0.9,327.2,M,-23.7,M,0.8,0000*44
$GPGSA,A,3,28,26,17,27,20,08,04,01,,,,,1.7,0.9,1.4*3A
$GPRMC,055928.000,A,3353.7511,N,09832.0262,W,0.03,74.96,300312,,,D*44
$GPGGA,055929.000,3353.7510,N,09832.0262,W,2,08,0.9,327.3,M,-23.7,M,0.8,0000*45
$GPGSA,A,3,28,26,17,27,20,08,04,01,,,,,1.7,0.9,1.4*3A
$GPRMC,055929.000,A,3353.7510,N,09832.0262,W,0.17,124.19,300312,,,D*72
$GPGGA,055930.000,3353.7510,N,09832.0262,W,2,08,0.9,327.4,M,-23.7,M,1.8,0000*4B
$GPGSA,A,3,28,26,17,27,20,08,04,01,,,,,1.7,0.9,1.4*3A
$GPRMC,055930.000,A,3353.7510,N,09832.0262,W,0.13,115.03,300312,,,D*77
$GPGGA,055931.000,3353.7510,N,09832.0262,W,2,08,0.9,327.3,M,-23.7,M,2.8,0000*4E
$GPGSA,A,3,28,26,17,27,20,08,04,01,,,,,1.7,0.9,1.4*3A
$GPRMC,055931.000,A,3353.7510,N,09832.0262,W,0.14,100.69,300312,,,D*79
$GPGGA,055932.000,3353.7510,N,09832.0262,W,2,08,0.9,327.4,M,-23.7,M,3.8,0000*4B
$GPGSA,A,3,28,26,17,27,20,08,04,01,,,,,1.7,0.9,1.4*3A
$GPGSV,3,1,12,17,68,353,34,28,62,066,38,04,37,191,34,27,35,308,32*70
$GPGSV,3,2,12,08,29,164,41,01,20,042,28,09,18,319,,20,13,086,22*74
$GPGSV,3,3,12,26,10,235,21,02,10,205,,15,06,278,,32,03,061,*76
$GPRMC,055932.000,A,3353.7510,N,09832.0262,W,0.15,107.93,300312,,,D*79
$GPGGA,055933.000,3353.7509,N,09832.0262,W,2,08,0.9,327.4,M,-23.7,M,0.8,0000*41
$GPGSA,A,3,28,26,17,27,20,08,04,01,,,,,1.7,0.9,1.4*3A
$GPRMC,055933.000,A,3353.7509,N,09832.0262,W,0.26,101.51,300312,,,D*78
$GPGGA,055934.000,3353.7509,N,09832.0261,W,2,08,0.9,327.3,M,-23.7,M,0.8,0000*42
$GPGSA,A,3,28,26,17,27,20,08,04,01,,,,,1.7,0.9,1.4*3A
$GPRMC,055934.000,A,3353.7509,N,09832.0261,W,0.28,99.40,300312,,,D*42
$GPGGA,055935.000,3353.7509,N,09832.0261,W,2,08,0.9,327.2,M,-23.7,M,0.8,0000*42
$GPGSA,A,3,28,26,17,27,20,08,04,01,,,,,1.7,0.9,1.4*3A
$GPRMC,055935.000,A,3353.7509,N,09832.0261,W,0.30,82.52,300312,,,D*43
$GPGGA,055936.000,3353.7509,N,09832.0261,W,2,08,0.9,327.2,M,-23.7,M,1.8,0000*40
$GPGSA,A,3,28,26,17,27,20,08,04,01,,,,,1.7,0.9,1.4*3A
$GPRMC,055936.000,A,3353.7509,N,09832.0261,W,0.01,241.54,300312,,,D*79
$GPGGA,055937.000,3353.7509,N,09832.0262,W,2,08,0.9,327.2,M,-23.7,M,2.8,0000*41
$GPGSA,A,3,28,26,17,27,20,08,04,01,,,,,1.7,0.9,1.4*3A
$GPGSV,3,1,12,17,68,353,35,28,62,066,38,04,37,191,34,27,35,308,33*70
$GPGSV,3,2,12,08,29,164,41,01,20,042,27,09,18,319,,20,13,086,22*7B
$GPGSV,3,3,12,26,10,235,21,02,10,205,,15,06,278,,32,03,061,*76
$GPRMC,055937.000,A,3353.7509,N,09832.0262,W,0.05,112.97,300312,,,D*75
$GPGGA,055938.000,3353.7509,N,09832.0262,W,2,08,0.9,327.0,M,-23.7,M,0.8,0000*4E
$GPGSA,A,3,28,26,17,27,20,08,04,01,,,,,1.7,0.9,1.4*3A
$GPRMC,055938.000,A,3353.7509,N,09832.0262,W,0.04,338.43,300312,,,D*78
$GPGGA,055939.000,3353.7509,N,09832.0262,W,2,08,0.9,327.1,M,-23.7,M,0.8,0000*4E
$GPGSA,A,3,28,26,17,27,20,08,04,01,,,,,1.7,0.9,1.4*3A
$GPRMC,055939.000,A,3353.7509,N,09832.0262,W,0.17,79.27,300312,,,D*4F
$GPGGA,055940.000,3353.7509,N,09832.0263,W,2,08,0.9,327.1,M,-23.7,M,0.8,0000*41
$GPGSA,A,3,28,26,17,27,20,08,04,01,,,,,1.7,0.9,1.4*3A
$GPRMC,055940.000,A,3353.7509,N,09832.0263,W,0.16,71.57,300312,,,D*4E
$GPGGA,055941.000,3353.7509,N,09832.0262,W,2,08,0.9,327.1,M,-23.7,M,0.8,0000*41
$GPGSA,A,3,28,26,17,27,20,08,04,01,,,,,1.7,0.9,1.4*3A
$GPRMC,055941.000,A,3353.7509,N,09832.0262,W,0.39,87.40,300312,,,D*4C
$GPGGA,055942.000,3353.7509,N,09832.0262,W,2,08,0.9,327.1,M,-23.7,M,1.8,0000*43
$GPGSA,A,3,28,26,17,27,20,08,04,01,,,,,1.7,0.9,1.4*3A
$GPGSV,3,1,12,17,68,353,35,28,62,066,39,04,37,191,34,27,35,308,33*71
$GPGSV,3,2,12,08,29,164,41,01,20,042,27,09,18,319,,20,13,086,22*7B
$GPGSV,3,3,12,26,10,235,21,02,10,205,,15,06,278,,32,03,061,*76
$GPRMC,055942.000,A,3353.7509,N,09832.0262,W,0.30,82.01,300312,,,D*46
$GPGGA,055943.000,3353.7508,N,09832.0261,W,2,08,0.9,327.1,M,-23.7,M,2.8,0000*43
$GPGSA,A,3,28,26,17,27,20,08,04,01,,,,,1.7,0.9,1.4*3A
$GPRMC,055943.000,A,3353.7508,N,09832.0261,W,0.19,81.40,300312,,,D*48
$GPGGA,055944.000,3353.7508,N,09832.0262,W,2,08,0.9,327.2,M,-23.7,M,0.8,0000*46
$GPGSA,A,3,28,26,17,27,20,08,04,01,,,,,1.7,0.9,1.4*3A
$GPRMC,055944.000,A,3353.7508,N,09832.0262,W,0.08,114.62,300312,,,D*71
$GPGGA,055945.000,3353.7508,N,09832.0262,W,2,08,0.9,327.4,M,-23.7,M,0.8,0000*41
$GPGSA,A,3,28,26,17,27,20,08,04,01,,,,,1.7,0.9,1.4*3A
$GPRMC,055945.000,A,3353.7508,N,09832.0262,W,0.21,103.64,300312,,,D*7B
$GPGGA,055946.000,3353.7508,N,09832.0262,W,2,08,0.9,327.4,M,-23.7,M,0.8,0000*42
$GPGSA,A,3,28,26,17,27,20,08,04,01,,,,,1.7,0.9,1.4*3A
$GPRMC,055946.000,A,3353.7508,N,09832.0262,W,0.15,120.27,300312,,,D*79
$GPGGA,055947.000,3353.7507,N,09832.0262,W,2,08,0.9,327.3,M,-23.7,M,0.8,0000*4B
$GPGSA,A,3,28,26,17,27,20,08,04,01,,,,,1.7,0.9,1.4*3A
$GPGSV,3,1,12,17,68,353,35,28,62,066,39,04,37,191,34,27,35,308,33*71
$GPGSV,3,2,12,08,29,164,41,01,20,042,28,09,18,319,,20,13,086,22*74
$GPGSV,3,3,12,26,10,235,20,02,10,205,,15,06,278,,32,03,061,*77
$GPRMC,055947.000,A,3353.7507,N,09832.0262,W,0.07,103.97,300312,,,D*7E
$GPGGA,055948.000,3353.7507,N,09832.0263,W,2,08,0.9,327.4,M,-23.7,M,1.8,0000*43
$GPGSA,A,3,28,26,17,27,20,08,04,01,,,,,1.7,0.9,1.4*3A
$GPRMC,055948.000,A,3353.7507,N,09832.0263,W,0.12,119.40,300312,,,D*75
$GPGGA,055949.000,3353.7507,N,09832.0263,W,2,08,0.9,327.5,M,-23.7,M,2.8,0000*40
$GPGSA,A,3,28,26,17,27,20,08,04,01,,,,,1.7,0.9,1.4*3A
$GPRMC,055949.000,A,3353.7507,N,09832.0263,W,0.12,119.94,300312,,,D*7D
$GPGGA,055950.000,3353.7507,N,09832.0264,W,2,08,0.9,327.5,M,-23.7,M,3.8,0000*4E
$GPGSA,A,3,28,26,17,27,20,08,04,01,,,,,1.7,0.9,1.4*3A
$GPRMC,055950.000,A,3353.7507,N,09832.0264,W,0.12,124.83,300312,,,D*7A
$GPGGA,055951.000,3353.7507,N,09832.0265,W,2,08,0.9,327.4,M,-23.7,M,0.8,0000*4C
$GPGSA,A,3,28,26,17,27,20,08,04,01,,,,,1.7,0.9,1.4*3A
$GPRMC,055951.000,A,3353.7507,N,09832.0265,W,0.08,259.83,300312,,,D*78
$GPGGA,055952.000,3353.7507,N,09832.0265,W,2,08,0.9,327.3,M,-23.7,M,0.8,0000*48
$GPGSA,A,3,28,26,17,27,20,08,04,01,,,,,1.7,0.9,1.4*3A
$GPGSV,3,1,12,17,68,353,35,28,62,066,39,04,37,191,34,27,35,308,33*71
$GPGSV,3,2,12,08,29,164,41,01,20,042,28,09,18,319,,20,13,086,22*74
$GPGSV,3,3,12,26,10,235,19,02,10,205,,15,06,278,,32,03,061,*7D
$GPRMC,055952.000,A,3353.7507,N,09832.0265,W,0.15,81.80,300312,,,D*43
$GPGGA,055953.000,3353.7506,N,09832.0266,W,2,08,0.9,327.4,M,-23.7,M,0.8,0000*4C
$GPGSA,A,3,28,26,17,27,20,08,04,01,,,,,1.7,0.9,1.4*3A
$GPRMC,055953.000,A,3353.7506,N,09832.0266,W,0.14,239.45,300312,,,D*79
$GPGGA,055954.000,3353.7506,N,09832.0267,W,2,08,0.9,327.5,M,-23.7,M,0.8,0000*4B
$GPGSA,A,3,28,26,17,27,20,08,04,01,,,,,1.7,0.9,1.4*3A
$GPRMC,055954.000,A,3353.7506,N,09832.0267,W,0.23,249.43,300312,,,D*7A
$GPGGA,055955.000,3353.7506,N,09832.0268,W,2,08,0.9,327.4,M,-23.7,M,0.8,0000*44
$GPGSA,A,3,28,26,17,27,20,08,04,01,,,,,1.7,0.9,1.4*3A
$GPRMC,055955.000,A,3353.7506,N,09832.0268,W,0.04,121.15,300312,,,D*7F
$GPGGA,055956.000,3353.7506,N,09832.0268,W,2,08,0.9,327.4,M,-23.7,M,1.8,0000*46
$GPGSA,A,3,28,26,17,27,20,08,04,01,,,,,1.7,0.9,1.4*3A
$GPRMC,055956.000,A,3353.7506,N,09832.0268,W,0.02,186.03,300312,,,D*70
$GPGGA,055957.000,3353.7506,N,09832.0268,W,2,08,0.9,327.3,M,-23.7,M,0.8,0000*41
$GPGSA,A,3,28,26,17,27,20,08,04,01,,,,,1.7,0.9,1.4*3A
$GPGSV,3,1,12,17,68,353,35,28,62,066,39,04,37,191,34,27,35,308,33*71
$GPGSV,3,2,12,08,29,164,41,01,20,042,29,09,18,319,,20,13,086,23*74
$GPGSV,3,3,12,26,10,235,17,02,10,205,,15,06,278,,32,03,061,*73
$GPRMC,055957.000,A,3353.7506,N,09832.0268,W,0.04,163.25,300312,,,D*78
$GPGGA,055958.000,3353.7505,N,09832.0269,W,2,08,0.9,327.1,M,-23.7,M,0.8,0000*4E
$GPGSA,A,3,28,26,17,27,20,08,04,01,,,,,1.7,0.9,1.4*3A
$GPRMC,055958.000,A,3353.7505,N,09832.0269,W,0.06,231.25,300312,,,D*73
$GPGGA,055959.000,3353.7506,N,09832.0270,W,2,08,0.9,326.9,M,-23.7,M,0.8,0000*4D
$GPGSA,A,3,28,26,17,27,20,08,04,01,,,,,1.7,0.9,1.4*3A
$GPRMC,055959.000,A,3353.7506,N,09832.0270,W,0.08,343.86,300312,,,D*7A
$GPGGA,060000.000,3353.7506,N,09832.0270,W,2,08,0.9,326.9,M,-23.7,M,1.8,0000*4F
$GPGSA,A,3,28,26,17,27,20,08,04,01,,,,,1.7,0.9,1.4*3A
$GPRMC,060000.000,A,3353.7506,N,09832.0270,W,0.06,77.07,300312,,,D*4A
$GPGGA,060001.000,3353.7506,N,09832.0271,W,2,08,0.9,326.9,M,-23.7,M,2.8,0000*4C
$GPGSA,A,3,28,26,17,27,20,08,04,01,,,,,1.7,0.9,1.4*3A
$GPRMC,060001.000,A,3353.7506,N,09832.0271,W,0.09,81.68,300312,,,D*45
$GPGGA,060002.000,3353.7505,N,09832.0271,W,2,08,0.9,327.0,M,-23.7,M,3.8,0000*45
$GPGSA,A,3,28,26,17,27,20,08,04,01,,,,,1.7,0.9,1.4*3A
$GPGSV,3,1,12,17,68,353,35,28,62,066,39,04,37,191,34,27,35,308,34*76
$GPGSV,3,2,12,08,29,164,42,01,20,042,29,09,18,319,,20,13,086,24*70
$GPGSV,3,3,12,26,10,235,16,02,10,205,,15,06,278,,32,03,061,*72
$GPRMC,060002.000,A,3353.7505,N,09832.0271,W,0.13,95.04,300312,,,D*41
$GPGGA,060003.000,3353.7506,N,09832.0271,W,2,08,0.9,326.9,M,-23.7,M,0.8,0000*4C
$GPGSA,A,3,28,26,17,27,20,08,04,01,,,,,1.7,0.9,1.4*3A
$GPRMC,060003.000,A,3353.7506,N,09832.0271,W,0.09,37.89,300312,,,D*45
$GPGGA,060004.000,3353.7506,N,09832.0271,W,2,08,0.9,326.8,M,-23.7,M,0.8,0000*4A
$GPGSA,A,3,28,26,17,27,20,08,04,01,,,,,1.7,0.9,1.4*3A
$GPRMC,060004.000,A,3353.7506,N,09832.0271,W,0.07,19.56,300312,,,D*42
$GPGGA,060005.000,3353.7506,N,09832.0272,W,2,08,0.9,326.8,M,-23.7,M,0.8,0000*48
$GPGSA,A,3,28,26,17,27,20,08,04,01,,,,,1.7,0.9,1.4*3A
$GPRMC,060005.000,A,3353.7506,N,09832.0272,W,0.09,37.33,300312,,,D*41
$GPGGA,060006.000,3353.7506,N,09832.0272,W,2,08,0.9,326.7,M,-23.7,M,1.8,0000*45
$GPGSA,A,3,28,26,17,27,20,08,04,01,,,,,1.7,0.9,1.4*3A
$GPRMC,060006.000,A,3353.7506,N,09832.0272,W,0.09,29.88,300312,,,D*4D
$GPGGA,060007.000,3353.7506,N,09832.0272,W,2,08,0.9,326.8,M,-23.7,M,2.8,0000*48
$GPGSA,A,3,28,26,17,27,20,08,04,01,,,,,1.7,0.9,1.4*3A
$GPGSV,3,1,12,17,68,353,34,28,62,066,40,04,37,191,35,27,35,308,34*78
$GPGSV,3,2,12,08,29,164,42,01,20,042,30,09,18,319,,20,13,086,24*78
$GPGSV,3,3,12,26,10,235,16,02,10,205,,15,06,278,,32,03,061,*72
$GPRMC,060007.000,A,3353.7506,N,09832.0272,W,0.09,303.17,300312,,,D*71
$GPGGA,060008.000,3353.7506,N,09832.0273,W,2,08,0.9,326.8,M,-23.7,M,3.8,0000*47
$GPGSA,A,3,28,26,17,27,20,08,04,01,,,,,1.7,0.9,1.4*3A
$GPRMC,060008.000,A,3353.7506,N,09832.0273,W,0.03,330.47,300312,,,D*70
$GPGGA,060009.000,3353.7506,N,09832.0273,W,2,08,0.9,326.9,M,-23.7,M,0.8,0000*44
$GPGSA,A,3,28,26,17,27,20,08,04,01,,,,,1.7,0.9,1.4*3A
$GPRMC,060009.000,A,3353.7506,N,09832.0273,W,0.02,28.37,300312,,,D*4D
$GPGGA,060010.000,3353.7506,N,09832.0273,W,2,08,0.9,327.0,M,-23.7,M,0.8,0000*44
$GPGSA,A,3,28,26,17,27,20,08,04,01,,,,,1.7,0.9,1.4*3A
$GPRMC,060010.000,A,3353.7506,N,09832.0273,W,0.12,91.98,300312,,,D*43
$GPGGA,060011.000,3353.7506,N,09832.0273,W,2,08,0.9,327.0,M,-23.7,M,0.8,0000*45
$GPGSA,A,3,28,26,17,27,20,08,04,01,,,,,1.7,0.9,1.4*3A
$GPRMC,060011.000,A,3353.7506,N,09832.0273,W,0.20,111.82,300312,,,D*71
$GPGGA,060012.000,3353.7506,N,09832.0273,W,2,08,0.9,327.0,M,-23.7,M,1.8,0000*47
$GPGSA,A,3,28,26,17,27,20,08,04,01,,,,,1.7,0.9,1.4*3A
$GPGSV,3,1,12,17,68,353,34,28,62,066,40,04,37,191,35,27,35,308,34*78
$GPGSV,3,2,12,08,29,164,42,01,20,042,30,09,18,319,,20,13,086,25*79
$GPGSV,3,3,12,26,10,235,15,02,10,205,,15,06,278,,32,03,061,*71
$GPRMC,060012.000,A,3353.7506,N,09832.0273,W,0.16,116.08,300312,,,D*72
$GPGGA,060013.000,3353.7505,N,09832.0274,W,2,08,0.9,327.0,M,-23.7,M,2.8,0000*41
$GPGSA,A,3,28,26,17,27,20,08,04,01,,,,,1.7,0.9,1.4*3A
$GPRMC,060013.000,A,3353.7505,N,09832.0274,W,0.09,221.63,300312,,,D*73
$GPGGA,060014.000,3353.7505,N,09832.0274,W,2,08,0.9,326.9,M,-23.7,M,3.8,0000*4F
$GPGSA,A,3,28,26,17,27,20,08,04,01,,,,,1.7,0.9,1.4*3A
$GPRMC,060014.000,A,3353.7505,N,09832.0274,W,0.17,252.79,300312,,,D*74
$GPGGA,060015.000,3353.7505,N,09832.0275,W,2,08,0.9,326.8,M,-23.7,M,0.8,0000*4D
$GPGSA,A,3,28,26,17,27,20,08,04,01,,,,,1.7,0.9,1.4*3A
$GPRMC,060015.000,A,3353.7505,N,09832.0275,W,0.18,258.56,300312,,,D*7C
$GPGGA,060016.000,3353.7505,N,09832.0276,W,2,08,0.9,326.8,M,-23.7,M,0.8,0000*4D
$GPGSA,A,3,28,26,17,27,20,08,04,01,,,,,1.7,0.9,1.4*3A
$GPRMC,060016.000,A,3353.7505,N,09832.0276,W,0.07,260.22,300312,,,D*7A
$GPGGA,060017.000,3353.7505,N,09832.0276,W,2,08,0.9,326.9,M,-23.7,M,0.8,0000*4D
$GPGSA,A,3,28,26,17,27,20,08,04,01,,,,,1.7,0.9,1.4*3A
$GPGSV,3,1,12,17,68,353,34,28,62,066,39,04,37,191,35,27,35,308,34*76
$GPGSV,3,2,12,08,29,164,42,01,20,042,30,09,18,319,,20,13,086,25*79
$GPGSV,3,3,12,26,10,235,16,02,10,205,18,15,06,278,,32,03,061,*7B
$GPRMC,060017.000,A,3353.7505,N,09832.0276,W,0.09,73.25,300312,,,D*42
$GPGGA,060018.000,3353.7505,N,09832.0276,W,2,08,0.9,327.0,M,-23.7,M,1.8,0000*4B
$GPGSA,A,3,28,26,17,27,20,08,04,01,,,,,1.7,0.9,1.4*3A
$GPRMC,060018.000,A,3353.7505,N,09832.0276,W,0.07,290.58,300312,,,D*76
$GPGGA,060019.000,3353.7505,N,09832.0276,W,2,08,0.9,327.1,M,-23.7,M,0.8,0000*4A
$GPGSA,A,3,28,26,17,27,20,08,04,01,,,,,1.7,0.9,1.4*3A
$GPRMC,060019.000,A,3353.7505,N,09832.0276,W,0.14,92.22,300312,,,D*48
$GPGGA,060020.000,3353.7505,N,09832.0276,W,2,08,0.9,327.2,M,-23.7,M,1.8,0000*42
$GPGSA,A,3,28,26,17,27,20,08,04,01,,,,,1.7,0.9,1.4*3A
$GPRMC,060020.000,A,3353.7505,N,09832.0276,W,0.06,270.25,300312,,,D*78
$GPGGA,060021.000,3353.7505,N,09832.0276,W,2,08,0.9,327.3,M,-23.7,M,0.8,0000*43
$GPGSA,A,3,28,26,17,27,20,08,04,01,,,,,1.7,0.9,1.4*3A
$GPRMC,060021.000,A,3353.7505,N,09832.0276,W,0.17,91.17,300312,,,D*45
$GPGGA,060022.000,3353.7505,N,09832.0276,W,2,08,0.9,327.4,M,-23.7,M,0.8,0000*47
$GPGSA,A,3,28,26,17,27,20,08,04,01,,,,,1.7,0.9,1.4*3A
$GPGSV,3,1,12,17,68,353,35,28,62,066,39,04,37,191,35,27,35,308,34*77
$GPGSV,3,2,12,08,29,164,42,01,20,042,30,09,18,319,,20,13,086,26*7A
$GPGSV,3,3,12,26,10,235,19,02,10,205,18,15,06,278,,32,03,061,*74
$GPRMC,060022.000,A,3353.7505,N,09832.0276,W,0.12,100.81,300312,,,D*75
$GPGGA,060023.000,3353.7505,N,09832.0276,W,2,08,0.9,327.3,M,-23.7,M,0.8,0000*41
$GPGSA,A,3,28,26,17,27,20,08,04,01,,,,,1.7,0.9,1.4*3A
$GPRMC,060023.000,A,3353.7505,N,09832.0276,W,0.07,177.45,300312,,,D*78
$GPGGA,060024.000,3353.7505,N,09832.0276,W,2,08,0.9,327.4,M,-23.7,M,1.8,0000*40
$GPGSA,A,3,28,26,17,27,20,08,04,01,,,,,1.7,0.9,1.4*3A
$GPRMC,060024.000,A,3353.7505,N,09832.0276,W,0.18,119.13,300312,,,D*7A
$GPGGA,060025.000,3353.7505,N,09832.0276,W,2,08,0.9,327.3,M,-23.7,M,0.8,0000*47
$GPGSA,A,3,28,26,17,27,20,08,04,01,,,,,1.7,0.9,1.4*3A
$GPRMC,060025.000,A,3353.7505,N,09832.0276,W,0.07,158.15,300312,,,D*76
$GPGGA,060026.000,3353.7505,N,09832.0276,W,2,08,0.9,327.3,M,-23.7,M,1.8,0000*45
$GPGSA,A,3,28,26,17,27,20,08,04,01,,,,,1.7,0.9,1.4*3A
$GPRMC,060026.000,A,3353.7505,N,09832.0276,W,0.08,158.83,300312,,,D*75
$GPGGA,060027.000,3353.7505,N,09832.0277,W,2,08,0.9,327.3,M,-23.7,M,0.8,0000*44
$GPGSA,A,3,28,26,17,27,20,08,04,01,,,,,1.7,0.9,1.4*3A
$GPGSV,3,1,12,17,68,353,35,28,62,066,39,04,37,191,34,27,35,308,35*77
$GPGSV,3,2,12,08,29,164,42,01,20,042,30,09,18,319,,20,13,086,27*7B
$GPGSV,3,3,12,26,10,235,24,02,10,205,18,15,06,278,,32,03,061,*7A
$GPRMC,060027.000,A,3353.7505,N,09832.0277,W,0.10,132.93,300312,,,D*71
$GPGGA,060028.000,3353.7504,N,09832.0277,W,2,08,0.9,327.3,M,-23.7,M,0.8,0000*4A
$GPGSA,A,3,28,26,17,27,20,08,04,01,,,,,1.7,0.9,1.4*3A
$GPRMC,060028.000,A,3353.7504,N,09832.0277,W,0.05,187.87,300312,,,D*70
$GPGGA,060029.000,3353.7504,N,09832.0277,W,2,08,0.9,327.4,M,-23.7,M,0.8,0000*4C
$GPGSA,A,3,28,26,17,27,20,08,04,01,,,,,1.7,0.9,1.4*3A
$GPRMC,060029.000,A,3353.7504,N,09832.0277,W,0.05,88.04,300312,,,D*44
$GPGGA,060030.000,3353.7504,N,09832.0277,W,2,08,0.9,327.5,M,-23.7,M,0.8,0000*45
$GPGSA,A,3,28,26,17,27,20,08,04,01,,,,,1.7,0.9,1.4*3A
$GPRMC,060030.000,A,3353.7504,N,09832.0277,W,0.01,285.87,300312,,,D*7C
$GPGGA,060031.000,3353.7504,N,09832.0277,W,2,08,0.9,327.5,M,-23.7,M,0.8,0000*44
$GPGSA,A,3,28,26,17,27,20,08,04,01,,,,,1.7,0.9,1.4*3A
$GPRMC,060031.000,A,3353.7504,N,09832.0277,W,0.04,91.28,300312,,,D*4A
$GPGGA,060032.000,3353.7504,N,09832.0278,W,2,08,0.9,327.6,M,-23.7,M,1.8,0000*4A
$GPGSA,A,3,28,26,17,27,20,08,04,01,,,,,1.7,0.9,1.4*3A
$GPGSV,3,1,12,17,68,353,34,28,62,066,39,04,37,191,33,27,35,308,35*71
$GPGSV,3,2,12,08,29,164,42,01,20,042,31,09,18,319,,20,13,086,28*75
$GPGSV,3,3,12,26,10,235,24,02,10,205,19,15,06,278,,32,03,061,*7B
$GPRMC,060032.000,A,3353.7504,N,09832.0278,W,0.10,266.53,300312,,,D*75
$GPGGA,060033.000,3353.7504,N,09832.0278,W,2,08,0.9,327.7,M,-23.7,M,0.8,0000*4B
$GPGSA,A,3,28,26,17,27,20,08,04,01,,,,,1.7,0.9,1.4*3A
$GPRMC,060033.000,A,3353.7504,N,09832.0278,W,0.12,100.62,300312,,,D*77
$GPGGA,060034.000,3353.7504,N,09832.0278,W,2,08,0.9,327.7,M,-23.7,M,0.8,0000*4C
$GPGSA,A,3,28,26,17,27,20,08,04,01,,,,,1.7,0.9,1.4*3A
$GPRMC,060034.000,A,3353.7504,N,09832.0278,W,0.06,128.22,300312,,,D*7B
$GPGGA,060035.000,3353.7504,N,09832.0278,W,2,08,0.9,327.7,M,-23.7,M,0.8,0000*4D
$GPGSA,A,3,28,26,17,27,20,08,04,01,,,,,1.7,0.9,1.4*3A
$GPRMC,060035.000,A,3353.7504,N,09832.0278,W,0.19,118.41,300312,,,D*72
$GPGGA,060036.000,3353.7504,N,09832.0278,W,2,08,0.9,327.7,M,-23.7,M,1.8,0000*4F
$GPGSA,A,3,28,26,17,27,20,08,04,01,,,,,1.7,0.9,1.4*3A
$GPRMC,060036.000,A,3353.7504,N,09832.0278,W,0.09,165.03,300312,,,D*7C
$GPGGA,060037.000,3353.7503,N,09832.0278,W,2,08,0.9,327.6,M,-23.7,M,0.8,0000*49
$GPGSA,A,3,28,26,17,27,20,08,04,01,,,,,1.7,0.9,1.4*3A
$GPGSV,3,1,12,17,68,353,34,28,62,066,39,04,37,191,33,27,35,308,35*71
$GPGSV,3,2,12,08,29,164,42,01,20,042,31,09,18,319,,20,13,086,29*74
$GPGSV,3,3,12,26,10,235,23,02,10,205,20,15,06,278,,32,03,061,*76
$GPRMC,060037.000,A,3353.7503,N,09832.0278,W,0.12,135.10,300312,,,D*77
$GPGGA,060038.000,3353.7503,N,09832.0278,W,2,08,0.9,327.6,M,-23.7,M,1.8,0000*47
$GPGSA,A,3,28,26,17,27,20,08,04,01,,,,,1.7,0.9,1.4*3A
$GPRMC,060038.000,A,3353.7503,N,09832.0278,W,0.11,136.84,300312,,,D*75
$GPGGA,060039.000,3353.7503,N,09832.0278,W,2,08,0.9,327.6,M,-23.7,M,0.8,0000*47
$GPGSA,A,3,28,26,17,27,20,08,04,01,,,,,1.7,0.9,1.4*3A
$GPRMC,060039.000,A,3353.7503,N,09832.0278,W,0.10,142.01,300312,,,D*7B
$GPGGA,060040.000,3353.7503,N,09832.0278,W,2,08,0.9,327.7,M,-23.7,M,0.8,0000*48
$GPGSA,A,3,28,26,17,27,20,08,04,01,,,,,1.7,0.9,1.4*3A
$GPRMC,060040.000,A,3353.7503,N,09832.0278,W,0.09,121.44,300312,,,D*79
$GPGGA,060041.000,3353.7503,N,09832.0278,W,2,08,0.9,327.8,M,-23.7,M,0.8,0000*46
$GPGSA,A,3,28,26,17,27,20,08,04,01,,,,,1.7,0.9,1.4*3A
$GPRMC,060041.000,A,3353.7503,N,09832.0278,W,0.17,96.63,300312,,,D*4F
$GPGGA,060042.000,3353.7503,N,09832.0278,W,2,08,0.9,327.9,M,-23.7,M,0.8,0000*44
$GPGSA,A,3,28,26,17,27,20,08,04,01,,,,,1.7,0.9,1.4*3A
$GPGSV,3,1,12,17,68,353,33,28,62,066,39,04,37,191,33,27,35,308,35*76
$GPGSV,3,2,12,08,29,164,42,01,20,042,31,09,18,319,,20,13,086,30*7C
$GPGSV,3,3,12,26,10,235,23,02,10,205,21,15,06,278,,32,03,061,*77
$GPRMC,060042.000,A,3353.7503,N,09832.0278,W,0.03,242.41,300312,,,D*72
$GPGGA,060043.000,3353.7503,N,09832.0279,W,2,08,0.9,327.9,M,-23.7,M,1.8,0000*45
$GPGSA,A,3,28,26,17,27,20,08,04,01,,,,,1.7,0.9,1.4*3A
$GPRMC,060043.000,A,3353.7503,N,09832.0279,W,0.09,269.31,300312,,,D*76
$GPGGA,060044.000,3353.7503,N,09832.0279,W,2,08,0.9,328.0,M,-23.7,M,0.8,0000*45
$GPGSA,A,3,28,26,17,27,20,08,04,01,,,,,1.7,0.9,1.4*3A
$GPRMC,060044.000,A,3353.7503,N,09832.0279,W,0.06,261.09,300312,,,D*7D
$GPGGA,060045.000,3353.7502,N,09832.0279,W,2,08,0.9,328.1,M,-23.7,M,0.8,0000*44
$GPGSA,A,3,28,26,17,27,20,08,04,01,,,,,1.7,0.9,1.4*3A
$GPRMC,060045.000,A,3353.7502,N,09832.0279,W,0.16,96.34,300312,,,D*48
$GPGGA,060046.000,3353.7502,N,09832.0279,W,2,08,0.9,328.2,M,-23.7,M,0.8,0000*44
$GPGSA,A,3,28,26,17,27,20,08,04,01,,,,,1.7,0.9,1.4*3A
$GPRMC,060046.000,A,3353.7502,N,09832.0279,W,0.17,103.86,300312,,,D*7E
$GPGGA,060047.000,3353.7502,N,09832.0279,W,2,08,0.9,328.2,M,-23.7,M,0.8,0000*45
$GPGSA,A,3,28,26,17,27,20,08,04,01,,,,,1.7,0.9,1.4*3A
$GPGSV,3,1,12,17,67,354,32,28,61,067,39,04,38,191,33,27,35,307,35*7D
$GPGSV,3,2,12,08,28,165,41,01,19,042,32,09,18,319,,20,14,085,30*72
$GPGSV,3,3,12,02,10,205,22,26,10,235,16,15,06,277,,32,03,060,*7C
$GPRMC,060047.000,A,3353.7502,N,09832.0279,W,0.21,114.87,300312,,,D*7D
$GPGGA,060048.000,3353.7502,N,09832.0278,W,2,08,0.9,328.2,M,-23.7,M,1.8,0000*4A
$GPGSA,A,3,28,26,17,27,20,08,04,01,,,,,1.7,0.9,1.4*3A
$GPRMC,060048.000,A,3353.7502,N,09832.0278,W,0.24,116.42,300312,,,D*7D
$GPGGA,060049.000,3353.7504,N,09832.0275,W,2,08,0.9,326.6,M,-23.7,M,2.8,0000*49
$GPGSA,A,3,28,26,17,27,20,08,04,01,,,,,1.7,0.9,1.4*3A
$GPRMC,060049.000,A,3353.7504,N,09832.0275,W,0.07,216.77,300312,,,D*73
$GPGGA,060050.000,3353.7506,N,09832.0272,W,2,08,0.9,325.1,M,-23.7,M,0.8,0000*42
$GPGSA,A,3,28,26,17,27,20,08,04,01,,,,,1.7,0.9,1.4*3A
$GPRMC,060050.000,A,3353.7506,N,09832.0272,W,0.10,252.24,300312,,,D*7E
$GPGGA,060051.000,3353.7508,N,09832.0270,W,2,08,0.9,324.0,M,-23.7,M,0.8,0000*4F
$GPGSA,A,3,28,26,17,27,20,08,04,01,,,,,1.7,0.9,1.4*3A
$GPRMC,060051.000,A,3353.7508,N,09832.0270,W,0.12,108.91,300312,,,D*73
$GPGGA,060052.000,3353.7509,N,09832.0267,W,2,08,0.9,323.1,M,-23.7,M,0.8,0000*4D
$GPGSA,A,3,28,26,17,27,20,08,04,01,,,,,1.7,0.9,1.4*3A
$GPGSV,3,1,12,17,67,354,31,28,61,067,39,04,38,191,34,27,35,307,35*79
$GPGSV,3,2,12,08,28,165,41,01,19,042,32,09,18,319,,20,14,085,30*72
$GPGSV,3,3,12,02,10,205,23,26,10,235,15,15,06,277,,32,03,060,*7E
$GPRMC,060052.000,A,3353.7509,N,09832.0267,W,0.12,105.34,300312,,,D*75
$GPGGA,060053.000,3353.7511,N,09832.0265,W,2,08,0.9,322.4,M,-23.7,M,0.8,0000*43
$GPGSA,A,3,28,26,17,27,20,08,04,01,,,,,1.7,0.9,1.4*3A
$GPRMC,060053.000,A,3353.7511,N,09832.0265,W,0.15,83.88,300312,,,D*40
$GPGGA,060054.000,3353.7512,N,09832.0263,W,2,08,0.9,321.8,M,-23.7,M,1.8,0000*4F
$GPGSA,A,3,28,26,17,27,20,08,04,01,,,,,1.7,0.9,1.4*3A
$GPRMC,060054.000,A,3353.7512,N,09832.0263,W,0.11,83.17,300312,,,D*40
$GPGGA,060055.000,3353.7512,N,09832.0262,W,2,08,0.9,321.3,M,-23.7,M,2.8,0000*47
$GPGSA,A,3,28,26,17,27,20,08,04,01,,,,,1.7,0.9,1.4*3A
$GPRMC,060055.000,A,3353.7512,N,09832.0262,W,0.09,81.29,300312,,,D*46
$GPGGA,060056.000,3353.7513,N,09832.0260,W,2,08,0.9,320.8,M,-23.7,M,3.8,0000*4C
$GPGSA,A,3,28,26,17,27,20,08,04,01,,,,,1.7,0.9,1.4*3A
$GPRMC,060056.000,A,3353.7513,N,09832.0260,W,0.11,91.81,300312,,,D*4C
$GPGGA,060057.000,3353.7514,N,09832.0259,W,2,08,0.9,320.4,M,-23.7,M,0.8,0000*4F
$GPGSA,A,3,28,26,17,27,20,08,04,01,,,,,1.7,0.9,1.4*3A
$GPGSV,3,1,12,17,67,354,31,28,61,067,39,04,38,191,34,27,35,307,35*79
$GPGSV,3,2,12,08,28,165,41,01,19,042,33,09,18,319,,20,14,085,30*73
$GPGSV,3,3,12,02,10,205,23,26,10,235,14,15,06,277,,32,03,060,*7F
$GPRMC,060057.000,A,3353.7514,N,09832.0259,W,0.11,89.12,300312,,,D*43
$GPGGA,060058.000,3353.7515,N,09832.0258,W,2,08,0.9,320.0,M,-23.7,M,0.8,0000*44
$GPGSA,A,3,28,26,17,27,20,08,04,01,,,,,1.7,0.9,1.4*3A
$GPRMC,060058.000,A,3353.7515,N,09832.0258,W,0.05,88.11,300312,,,D*4B
$GPGGA,060059.000,3353.7515,N,09832.0257,W,2,08,0.9,319.5,M,-23.7,M,0.8,0000*45
$GPGSA,A,3,28,26,17,27,20,08,04,01,,,,,1.7,0.9,1.4*3A
$GPRMC,060059.000,A,3353.7515,N,09832.0257,W,0.09,125.90,300312,,,D*76
$GPGGA,060100.000,3353.7516,N,09832.0256,W,2,08,0.9,319.0,M,-23.7,M,0.8,0000*4F
$GPGSA,A,3,28,26,17,27,20,08,04,01,,,,,1.7,0.9,1.4*3A
$GPRMC,060100.000,A,3353.7516,N,09832.0256,W,0.10,123.71,300312,,,D*78
$GPGGA,060101.000,3353.7516,N,09832.0256,W,2,08,0.9,318.6,M,-23.7,M,1.8,0000*48
$GPGSA,A,3,28,26,17,27,20,08,04,01,,,,,1.7,0.9,1.4*3A
$GPRMC,060101.000,A,3353.7516,N,09832.0256,W,0.11,115.72,300312,,,D*7E
$GPGGA,060102.000,3353.7517,N,09832.0255,W,2,08,0.9,318.2,M,-23.7,M,2.8,0000*4E
$GPGSA,A,3,28,26,17,27,20,08,04,01,,,,,1.7,0.9,1.4*3A
$GPGSV,3,1,12,17,67,354,30,28,61,067,39,04,38,191,35,27,35,307,35*79
$GPGSV,3,2,12,08,28,165,41,01,19,042,33,09,18,319,,20,14,085,31*72
$GPGSV,3,3,12,02,10,205,24,26,10,235,14,15,06,277,,32,03,060,*78
$GPRMC,060102.000,A,3353.7517,N,09832.0255,W,0.13,110.15,300312,,,D*79
$GPGGA,060103.000,3353.7517,N,09832.0254,W,2,08,0.9,317.8,M,-23.7,M,0.8,0000*49
$GPGSA,A,3,28,26,17,27,20,08,04,01,,,,,1.7,0.9,1.4*3A
$GPRMC,060103.000,A,3353.7517,N,09832.0254,W,0.10,104.76,300312,,,D*7A
$GPGGA,060104.000,3353.7517,N,09832.0253,W,2,08,0.9,317.4,M,-23.7,M,0.8,0000*45
$GPGSA,A,3,28,26,17,27,20,08,04,01,,,,,1.7,0.9,1.4*3A
$GPRMC,060104.000,A,3353.7517,N,09832.0253,W,0.06,219.69,300312,,,D*7C
$GPGGA,060105.000,3353.7518,N,09832.0253,W,2,08,0.9,317.1,M,-23.7,M,0.8,0000*4E
$GPGSA,A,3,28,26,17,27,20,08,04,01,,,,,1.7,0.9,1.4*3A
$GPRMC,060105.000,A,3353.7518,N,09832.0253,W,0.09,275.30,300312,,,D*7B
$GPGGA,060106.000,3353.7518,N,09832.0253,W,2,08,0.9,316.9,M,-23.7,M,1.8,0000*45
$GPGSA,A,3,28,26,17,27,20,08,04,01,,,,,1.7,0.9,1.4*3A
$GPRMC,060106.000,A,3353.7518,N,09832.0253,W,0.08,274.24,300312,,,D*7D
$GPGGA,060107.000,3353.7518,N,09832.0253,W,2,08,0.9,316.6,M,-23.7,M,2.8,0000*48
$GPGSA,A,3,28,26,17,27,20,08,04,01,,,,,1.7,0.9,1.4*3A
$GPGSV,3,1,12,17,67,354,30,28,61,067,39,04,38,191,35,27,35,307,35*79
$GPGSV,3,2,12,08,28,165,41,01,19,042,33,09,18,319,,20,14,085,31*72
$GPGSV,3,3,12,02,10,205,24,26,10,235,16,15,06,277,,32,03,060,*7A
$GPRMC,060107.000,A,3353.7518,N,09832.0253,W,0.10,274.20,300312,,,D*71
$GPGGA,060108.000,3353.7519,N,09832.0253,W,2,08,0.9,316.4,M,-23.7,M,3.8,0000*45
$GPGSA,A,3,28,26,17,27,20,08,04,01,,,,,1.7,0.9,1.4*3A
$GPRMC,060108.000,A,3353.7519,N,09832.0253,W,0.03,80.75,300312,,,D*44
$GPGGA,060109.000,3353.7519,N,09832.0253,W,2,08,0.9,316.2,M,-23.7,M,0.8,0000*41
$GPGSA,A,3,28,26,17,27,20,08,04,01,,,,,1.7,0.9,1.4*3A
$GPRMC,060109.000,A,3353.7519,N,09832.0253,W,0.00,3.17,300312,,,D*79
$GPGGA,060110.000,3353.7519,N,09832.0253,W,2,08,0.9,315.9,M,-23.7,M,0.8,0000*41
$GPGSA,A,3,28,26,17,27,20,08,04,01,,,,,1.7,0.9,1.4*3A
$GPRMC,060110.000,A,3353.7519,N,09832.0253,W,0.12,274.70,300312,,,D*71
$GPGGA,060111.000,3353.7520,N,09832.0253,W,2,08,0.9,315.5,M,-23.7,M,0.8,0000*46
$GPGSA,A,3,28,26,17,27,20,08,04,01,,,,,1.7,0.9,1.4*3A
$GPRMC,060111.000,A,3353.7520,N,09832.0253,W,0.10,242.56,300312,,,D*79
$GPGGA,060112.000,3353.7520,N,09832.0253,W,2,08,0.9,315.2,M,-23.7,M,1.8,0000*43
$GPGSA,A,3,28,26,17,27,20,08,04,01,,,,,1.7,0.9,1.4*3A
$GPGSV,3,1,12,17,67,354,29,28,61,067,39,04,38,191,35,27,35,307,35*71
$GPGSV,3,2,12,08,28,165,41,01,19,042,33,09,18,319,,20,14,085,31*72
$GPGSV,3,3,12,02,10,205,24,26,10,235,16,15,06,277,,32,03,060,*7A
$GPRMC,060112.000,A,3353.7520,N,09832.0253,W,0.05,250.28,300312,,,D*74
$GPGGA,060113.000,3353.7520,N,09832.0253,W,2,08,0.9,314.9,M,-23.7,M,0.8,0000*49
$GPGSA,A,3,28,26,17,27,20,08,04,01,,,,,1.7,0.9,1.4*3A
$GPRMC,060113.000,A,3353.7520,N,09832.0253,W,0.04,224.31,300312,,,D*7F
$GPGGA,060114.000,3353.7520,N,09832.0253,W,2,08,0.9,314.5,M,-23.7,M,1.8,0000*43
$GPGSA,A,3,28,26,17,27,20,08,04,01,,,,,1.7,0.9,1.4*3A
$GPRMC,060114.000,A,3353.7520,N,09832.0253,W,0.11,265.06,300312,,,D*7D
$GPGGA,060115.000,3353.7521,N,09832.0253,W,2,08,0.9,314.3,M,-23.7,M,0.8,0000*44
$GPGSA,A,3,28,26,17,27,20,08,04,01,,,,,1.7,0.9,1.4*3A
$GPRMC,060115.000,A,3353.7521,N,09832.0253,W,0.11,103.96,300312,,,D*77
$GPGGA,060116.000,3353.7521,N,09832.0252,W,2,08,0.9,314.1,M,-23.7,M,0.8,0000*44
$GPGSA,A,3,28,26,17,27,20,08,04,01,,,,,1.7,0.9,1.4*3A
$GPRMC,060116.000,A,3353.7521,N,09832.0252,W,0.20,95.66,300312,,,D*46
$GPGGA,060117.000,3353.7521,N,09832.0251,W,2,08,0.9,314.1,M,-23.7,M,0.8,0000*46
$GPGSA,A,3,28,26,17,27,20,08,04,01,,,,,1.7,0.9,1.4*3A
$GPGSV,3,1,12,17,67,354,29,28,61,067,39,04,38,191,35,27,35,307,35*71
$GPGSV,3,2,12,08,28,165,41,01,19,042,33,09,18,319,,20,14,085,32*71
$GPGSV,3,3,12,02,10,205,24,26,10,235,17,15,06,277,,32,03,060,*7B
$GPRMC,060117.000,A,3353.7521,N,09832.0251,W,0.11,80.23,300312,,,D*43
$GPGGA,060118.000,3353.7521,N,09832.0251,W,2,08,0.9,314.0,M,-23.7,M,1.8,0000*49
$GPGSA,A,3,28,26,17,27,20,08,04,01,,,,,1.7,0.9,1.4*3A
$GPRMC,060118.000,A,3353.7521,N,09832.0251,W,0.04,69.21,300312,,,D*4D
$GPGGA,060119.000,3353.7521,N,09832.0250,W,2,08,0.9,313.9,M,-23.7,M,2.8,0000*44
$GPGSA,A,3,28,26,17,27,20,08,04,01,,,,,1.7,0.9,1.4*3A
$GPRMC,060119.000,A,3353.7521,N,09832.0250,W,0.14,90.01,300312,,,D*48
$GPGGA,060120.000,3353.7521,N,09832.0250,W,2,08,0.9,313.9,M,-23.7,M,0.8,0000*4C
$GPGSA,A,3,28,26,17,27,20,08,04,01,,,,,1.7,0.9,1.4*3A
$GPRMC,060120.000,A,3353.7521,N,09832.0250,W,0.18,93.46,300312,,,D*4E
$GPGGA,060121.000,3353.7521,N,09832.0249,W,2,08,0.9,313.8,M,-23.7,M,0.8,0000*44
$GPGSA,A,3,28,26,17,27,20,08,04,01,,,,,1.7,0.9,1.4*3A
$GPRMC,060121.000,A,3353.7521,N,09832.0249,W,0.07,108.62,300312,,,D*7C
$GPGGA,060122.000,3353.7522,N,09832.0249,W,2,08,0.9,313.7,M,-23.7,M,0.8,0000*4B
$GPGSA,A,3,28,26,17,27,20,08,04,01,,,,,1.7,0.9,1.4*3A
$GPGSV,3,1,12,17,67,354,29,28,61,067,38,04,38,191,35,27,35,307,35*70
$GPGSV,3,2,12,08,28,165,41,01,19,042,33,09,18,319,,20,14,085,32*71
$GPGSV,3,3,12,02,10,205,24,26,10,235,17,15,06,277,,32,03,060,*7B
$GPRMC,060122.000,A,3353.7522,N,09832.0249,W,0.02,173.36,300312,,,D*74
$GPGGA,060123.000,3353.7522,N,09832.0249,W,2,08,0.9,313.5,M,-23.7,M,0.8,0000*48
$GPGSA,A,3,28,26,17,27,20,08,04,01,,,,,1.7,0.9,1.4*3A
$GPRMC,060123.000,A,3353.7522,N,09832.0249,W,0.07,196.58,300312,,,D*73
$GPGGA,060124.000,3353.7522,N,09832.0249,W,2,08,0.9,313.2,M,-23.7,M,0.8,0000*48
$GPGSA,A,3,28,26,17,27,20,08,04,01,,,,,1.7,0.9,1.4*3A
$GPRMC,060124.000,A,3353.7522,N,09832.0249,W,0.06,178.72,300312,,,D*7D
$GPGGA,060125.000,3353.7522,N,09832.0249,W,2,08,0.9,313.1,M,-23.7,M,1.8,0000*4B
$GPGSA,A,3,28,26,17,27,20,08,04,01,,,,,1.7,0.9,1.4*3A
$GPRMC,060125.000,A,3353.7522,N,09832.0249,W,0.15,115.65,300312,,,D*73
$GPGGA,060126.000,3353.7522,N,09832.0249,W,2,08,0.9,312.9,M,-23.7,M,2.8,0000*42
$GPGSA,A,3,28,26,17,27,20,08,04,01,,,,,1.7,0.9,1.4*3A
$GPRMC,060126.000,A,3353.7522,N,09832.0249,W,0.23,107.28,300312,,,D*7F
$GPGGA,060127.000,3353.7522,N,09832.0248,W,2,08,0.9,312.7,M,-23.7,M,0.8,0000*4E
$GPGSA,A,3,28,26,17,27,20,08,04,01,,,,,1.7,0.9,1.4*3A
$GPGSV,3,1,12,17,67,354,28,28,61,067,39,04,38,191,35,27,35,307,35*70
$GPGSV,3,2,12,08,28,165,41,01,19,042,33,09,18,319,,20,14,085,32*71
$GPGSV,3,3,12,02,10,205,24,26,10,235,19,15,06,277,,32,03,060,*75
$GPRMC,060127.000,A,3353.7522,N,09832.0248,W,0.06,171.71,300312,,,D*75
$GPGGA,060128.000,3353.7522,N,09832.0248,W,2,08,0.9,312.6,M,-23.7,M,0.8,0000*40
$GPGSA,A,3,28,26,17,27,20,08,04,01,,,,,1.7,0.9,1.4*3A
$GPRMC,060128.000,A,3353.7522,N,09832.0248,W,0.07,120.28,300312,,,D*73
$GPGGA,060129.000,3353.7522,N,09832.0248,W,2,08,0.9,312.5,M,-23.7,M,0.8,0000*42
$GPGSA,A,3,28,26,17,27,20,08,04,01,,,,,1.7,0.9,1.4*3A
$GPRMC,060129.000,A,3353.7522,N,09832.0248,W,0.11,92.28,300312,,,D*4D
$GPGGA,060130.000,3353.7522,N,09832.0248,W,2,08,0.9,312.5,M,-23.7,M,1.8,0000*4B
$GPGSA,A,3,28,26,17,27,20,08,04,01,,,,,1.7,0.9,1.4*3A
$GPRMC,060130.000,A,3353.7522,N,09832.0248,W,0.14,92.29,300312,,,D*41
$GPGGA,060131.000,3353.7522,N,09832.0247,W,2,08,0.9,312.6,M,-23.7,M,2.8,0000*45
$GPGSA,A,3,28,26,17,27,20,08,04,01,,,,,1.7,0.9,1.4*3A
$GPRMC,060131.000,A,3353.7522,N,09832.0247,W,0.17,96.14,300312,,,D*46
$GPGGA,060132.000,3353.7523,N,09832.0248,W,2,08,0.9,312.5,M,-23.7,M,3.8,0000*4A
$GPGSA,A,3,28,26,17,27,20,08,04,01,,,,,1.7,0.9,1.4*3A
$GPGSV,3,1,12,17,67,354,27,28,61,067,39,04,38,191,35,27,35,307,34*7E
$GPGSV,3,2,12,08,28,165,41,01,19,042,33,09,18,319,,20,14,085,32*71
$GPGSV,3,3,12,02,10,205,24,26,10,235,20,15,06,277,,32,03,060,*7F
$GPRMC,060132.000,A,3353.7523,N,09832.0248,W,0.08,260.37,300312,,,D*7F
$GPGGA,060133.000,3353.7523,N,09832.0248,W,2,08,0.9,312.5,M,-23.7,M,0.8,0000*48
$GPGSA,A,3,28,26,17,27,20,08,04,01,,,,,1.7,0.9,1.4*3A
$GPRMC,060133.000,A,3353.7523,N,09832.0248,W,0.10,91.17,300312,,,D*49
$GPGGA,060134.000,3353.7523,N,09832.0248,W,2,08,0.9,312.3,M,-23.7,M,0.8,0000*49
$GPGSA,A,3,28,26,17,27,20,08,04,01,,,,,1.7,0.9,1.4*3A
$GPRMC,060134.000,A,3353.7523,N,09832.0248,W,0.11,247.19,300312,,,D*78
$GPGGA,060135.000,3353.7523,N,09832.0249,W,2,08,0.9,312.1,M,-23.7,M,0.8,0000*4B
$GPGSA,A,3,28,26,17,27,20,08,04,01,,,,,1.7,0.9,1.4*3A
$GPRMC,060135.000,A,3353.7523,N,09832.0249,W,0.09,234.07,300312,,,D*7A
$GPGGA,060136.000,3353.7523,N,09832.0249,W,2,08,0.9,311.9,M,-23.7,M,1.8,0000*42
$GPGSA,A,3,28,26,17,27,20,08,04,01,,,,,1.7,0.9,1.4*3A
$GPRMC,060136.000,A,3353.7523,N,09832.0249,W,0.14,115.17,300312,,,D*74
$GPGGA,060137.000,3353.7523,N,09832.0248,W,2,08,0.9,311.8,M,-23.7,M,2.8,0000*40
$GPGSA,A,3,28,26,17,27,20,08,04,01,,,,,1.7,0.9,1.4*3A
$GPGSV,3,1,12,17,67,354,27,28,61,067,39,04,38,191,36,27,35,307,34*7D
$GPGSV,3,2,12,08,28,165,42,01,19,042,33,09,18,319,,20,14,085,31*71
$GPGSV,3,3,12,02,10,205,24,26,10,235,19,15,06,277,,32,03,060,*75
$GPRMC,060137.000,A,3353.7523,N,09832.0248,W,0.21,113.84,300312,,,D*7E
$GPGGA,060138.000,3353.7523,N,09832.0248,W,2,08,0.9,311.5,M,-23.7,M,3.8,0000*43
$GPGSA,A,3,28,26,17,27,20,08,04,01,,,,,1.7,0.9,1.4*3A
$GPRMC,060138.000,A,3353.7523,N,09832.0248,W,0.07,221.07,300312,,,D*7C
$GPGGA,060139.000,3353.7524,N,09832.0249,W,2,08,0.9,311.3,M,-23.7,M,0.8,0000*41
$GPGSA,A,3,28,26,17,27,20,08,04,01,,,,,1.7,0.9,1.4*3A
$GPRMC,060139.000,A,3353.7524,N,09832.0249,W,0.10,244.93,300312,,,D*73
$GPGGA,060140.000,3353.7524,N,09832.0249,W,2,08,0.9,311.1,M,-23.7,M,0.8,0000*4D
$GPGSA,A,3,28,26,17,27,20,08,04,01,,,,,1.7,0.9,1.4*3A
$GPRMC,060140.000,A,3353.7524,N,09832.0249,W,0.10,260.09,300312,,,D*78
$GPGGA,060141.000,3353.7524,N,09832.0250,W,2,08,0.9,311.0,M,-23.7,M,0.8,0000*45
$GPGSA,A,3,28,26,17,27,20,08,04,01,,,,,1.7,0.9,1.4*3A
$GPRMC,060141.000,A,3353.7524,N,09832.0250,W,0.15,279.69,300312,,,D*7A
$GPGGA,060142.000,3353.7524,N,09832.0251,W,2,08,0.9,310.9,M,-23.7,M,1.8,0000*4E
$GPGSA,A,3,28,26,17,27,20,08,04,01,,,,,1.7,0.9,1.4*3A
$GPGSV,3,1,12,17,67,354,26,28,61,067,39,04,38,191,36,27,35,307,34*7C
$GPGSV,3,2,12,08,28,165,42,01,19,042,32,09,18,319,,20,14,085,31*70
$GPGSV,3,3,12,02,10,205,23,26,10,235,18,15,06,277,,32,03,060,*73
$GPRMC,060142.000,A,3353.7524,N,09832.0251,W,0.16,281.83,300312,,,D*78
$GPGGA,060143.000,3353.7524,N,09832.0251,W,2,08,0.9,310.8,M,-23.7,M,2.8,0000*4D
$GPGSA,A,3,28,26,17,27,20,08,04,01,,,,,1.7,0.9,1.4*3A
$GPRMC,060143.000,A,3353.7524,N,09832.0251,W,0.15,281.05,300312,,,D*74
$GPGGA,060144.000,3353.7524,N,09832.0251,W,2,08,0.9,310.8,M,-23.7,M,3.8,0000*4B
$GPGSA,A,3,28,26,17,27,20,08,04,01,,,,,1.7,0.9,1.4*3A
$GPRMC,060144.000,A,3353.7524,N,09832.0251,W,0.09,88.98,300312,,,D*41
$GPGGA,060145.000,3353.7525,N,09832.0251,W,2,08,0.9,310.8,M,-23.7,M,0.8,0000*48
$GPGSA,A,3,28,26,17,27,20,08,04,01,,,,,1.7,0.9,1.4*3A
$GPRMC,060145.000,A,3353.7525,N,09832.0251,W,0.07,277.90,300312,,,D*75
$GPGGA,060146.000,3353.7525,N,09832.0251,W,2,08,0.9,310.7,M,-23.7,M,0.8,0000*44
$GPGSA,A,3,28,26,17,27,20,08,04,01,,,,,1.7,0.9,1.4*3A
$GPRMC,060146.000,A,3353.7525,N,09832.0251,W,0.11,95.30,300312,,,D*45
$GPGGA,060147.000,3353.7525,N,09832.0251,W,2,08,0.9,310.7,M,-23.7,M,0.8,0000*45
$GPGSA,A,3,28,26,17,27,20,08,04,01,,,,,1.7,0.9,1.4*3A
$GPGSV,3,1,12,17,67,354,26,28,61,067,39,04,38,191,36,27,35,307,34*7C
$GPGSV,3,2,12,08,28,165,42,01,19,042,32,09,18,319,,20,14,085,30*71
$GPGSV,3,3,12,02,10,205,23,26,10,235,18,15,06,277,,32,03,060,*73
$GPRMC,060147.000,A,3353.7525,N,09832.0251,W,0.16,105.06,300312,,,D*7E
$GPGGA,060148.000,3353.7525,N,09832.0251,W,2,08,0.9,310.6,M,-23.7,M,0.8,0000*4B
$GPGSA,A,3,28,26,17,27,20,08,04,01,,,,,1.7,0.9,1.4*3A
$GPRMC,060148.000,A,3353.7525,N,09832.0251,W,0.06,129.47,300312,,,D*7B
$GPGGA,060149.000,3353.7525,N,09832.0251,W,2,08,0.9,310.5,M,-23.7,M,0.8,0000*49
$GPGSA,A,3,28,26,17,27,20,08,04,01,,,,,1.7,0.9,1.4*3A
$GPRMC,060149.000,A,3353.7525,N,09832.0251,W,0.15,101.98,300312,,,D*70
$GPGGA,060150.000,3353.7525,N,09832.0251,W,2,08,0.9,310.6,M,-23.7,M,0.8,0000*42
$GPGSA,A,3,28,26,17,27,20,08,04,01,,,,,1.7,0.9,1.4*3A
$GPRMC,060150.000,A,3353.7525,N,09832.0251,W,0.20,106.52,300312,,,D*7F
$GPGGA,060151.000,3353.7525,N,09832.0251,W,2,08,0.9,310.5,M,-23.7,M,0.8,0000*40
$GPGSA,A,3,28,26,17,27,20,08,04,01,,,,,1.7,0.9,1.4*3A
$GPRMC,060151.000,A,3353.7525,N,09832.0251,W,0.06,247.60,300312,,,D*7D
$GPGGA,060152.000,3353.7525,N,09832.0252,W,2,08,0.9,310.5,M,-23.7,M,0.8,0000*40
$GPGSA,A,3,28,26,17,27,20,08,04,01,,,,,1.7,0.9,1.4*3A
$GPGSV,3,1,12,17,67,354,26,28,61,067,38,04,38,191,35,27,35,307,34*7E
$GPGSV,3,2,12,08,28,165,42,01,19,042,31,09,18,319,,20,14,085,30*72
$GPGSV,3,3,12,02,10,205,23,26,10,235,19,15,06,277,,32,03,060,*72
$GPRMC,060152.000,A,3353.7525,N,09832.0252,W,0.05,273.20,300312,,,D*7D
$GPGGA,060153.000,3353.7526,N,09832.0253,W,2,08,0.9,310.5,M,-23.7,M,0.8,0000*43
$GPGSA,A,3,28,26,17,27,20,08,04,01,,,,,1.7,0.9,1.4*3A
$GPRMC,060153.000,A,3353.7526,N,09832.0253,W,0.14,261.37,300312,,,D*7B
$GPGGA,060154.000,3353.7526,N,09832.0253,W,2,08,0.9,310.4,M,-23.7,M,1.8,0000*44
$GPGSA,A,3,28,26,17,27,20,08,04,01,,,,,1.7,0.9,1.4*3A
$GPRMC,060154.000,A,3353.7526,N,09832.0253,W,0.10,263.53,300312,,,D*78
$GPGGA,060155.000,3353.7526,N,09832.0254,W,2,08,0.9,310.5,M,-23.7,M,0.8,0000*42
$GPGSA,A,3,28,26,17,27,20,08,04,01,,,,,1.7,0.9,1.4*3A
$GPRMC,060155.000,A,3353.7526,N,09832.0254,W,0.05,250.93,300312,,,D*76
$GPGGA,060156.000,3353.7526,N,09832.0254,W,2,08,0.9,310.5,M,-23.7,M,0.8,0000*41
$GPGSA,A,3,28,26,17,27,20,08,04,01,,,,,1.7,0.9,1.4*3A
$GPRMC,060156.000,A,3353.7526,N,09832.0254,W,0.16,102.16,300312,,,D*7E
$GPGGA,060157.000,3353.7526,N,09832.0253,W,2,08,0.9,310.6,M,-23.7,M,0.8,0000*44
$GPGSA,A,3,28,26,17,27,20,08,04,01,,,,,1.7,0.9,1.4*3A
$GPGSV,3,1,12,17,67,354,27,28,61,067,38,04,38,191,35,27,35,307,34*7F
$GPGSV,3,2,12,08,28,165,42,01,19,042,31,09,18,319,,20,14,085,29*7A
$GPGSV,3,3,12,02,10,205,22,26,10,235,21,15,06,277,,32,03,060,*78
$GPRMC,060157.000,A,3353.7526,N,09832.0253,W,0.18,105.57,300312,,,D*74
$GPGGA,060158.000,3353.7526,N,09832.0253,W,2,08,0.9,310.5,M,-23.7,M,0.8,0000*48
$GPGSA,A,3,28,26,17,27,20,08,04,01,,,,,1.7,0.9,1.4*3A
$GPRMC,060158.000,A,3353.7526,N,09832.0253,W,0.09,214.25,300312,,,D*7D
$GPGGA,060159.000,3353.7526,N,09832.0254,W,2,08,0.9,310.5,M,-23.7,M,0.8,0000*4E
$GPGSA,A,3,28,26,17,27,20,08,04,01,,,,,1.7,0.9,1.4*3A
$GPRMC,060159.000,A,3353.7526,N,09832.0254,W,0.07,116.25,300312,,,D*74
$GPGGA,060200.000,3353.7526,N,09832.0254,W,2,08,0.9,310.4,M,-23.7,M,1.8,0000*41
$GPGSA,A,3,28,26,17,27,20,08,04,01,,,,,1.7,0.9,1.4*3A
$GPRMC,060200.000,A,3353.7526,N,09832.0254,W,0.09,262.33,300312,,,D*72
$GPGGA,060201.000,3353.7526,N,09832.0254,W,2,08,0.9,310.4,M,-23.7,M,0.8,0000*41
$GPGSA,A,3,28,26,17,27,20,08,04,01,,,,,1.7,0.9,1.4*3A
$GPRMC,060201.000,A,3353.7526,N,09832.0254,W,0.06,265.84,300312,,,D*77
$GPGGA,060202.000,3353.7526,N,09832.0255,W,2,08,0.9,310.5,M,-23.7,M,0.8,0000*42
$GPGSA,A,3,28,26,17,27,20,08,04,01,,,,,1.7,0.9,1.4*3A
$GPGSV,3,1,12,17,67,354,28,28,61,067,38,04,38,191,34,27,35,307,34*71
$GPGSV,3,2,12,08,28,165,42,01,19,042,30,09,18,319,,20,14,085,29*7B
$GPGSV,3,3,12,02,10,205,22,26,10,235,21,15,06,277,,32,03,060,*78
$GPRMC,060202.000,A,3353.7526,N,09832.0255,W,0.13,97.34,300312,,,D*45
$GPGGA,060203.000,3353.7526,N,09832.0255,W,2,08,0.9,310.5,M,-23.7,M,0.8,0000*43
$GPGSA,A,3,28,26,17,27,20,08,04,01,,,,,1.7,0.9,1.4*3A
$GPRMC,060203.000,A,3353.7526,N,09832.0255,W,0.02,129.93,300312,,,D*7D
$GPGGA,060204.000,3353.7526,N,09832.0255,W,2,08,0.9,310.6,M,-23.7,M,0.8,0000*47
$GPGSA,A,3,28,26,17,27,20,08,04,01,,,,,1.7,0.9,1.4*3A
$GPRMC,060204.000,A,3353.7526,N,09832.0255,W,0.07,290.89,300312,,,D*75
$GPGGA,060205.000,3353.7526,N,09832.0255,W,2,08,0.9,310.7,M,-23.7,M,0.8,0000*47
$GPGSA,A,3,28,26,17,27,20,08,04,01,,,,,1.7,0.9,1.4*3A
$GPRMC,060205.000,A,3353.7526,N,09832.0255,W,0.13,122.05,300312,,,D*7F
$GPGGA,060206.000,3353.7526,N,09832.0256,W,2,08,0.9,310.7,M,-23.7,M,1.8,0000*46
$GPGSA,A,3,28,26,17,27,20,08,04,01,,,,,1.7,0.9,1.4*3A
$GPRMC,060206.000,A,3353.7526,N,09832.0256,W,0.07,206.16,300312,,,D*7D
$GPGGA,060207.000,3353.7525,N,09832.0256,W,2,08,0.9,310.8,M,-23.7,M,2.8,0000*48
$GPGSA,A,3,28,26,17,27,20,08,04,01,,,,,1.7,0.9,1.4*3A
$GPGSV,3,1,12,17,67,354,29,28,61,067,38,04,38,191,34,27,35,307,33*77
$GPGSV,3,2,12,08,28,165,42,01,19,042,30,09,18,319,,20,14,085,29*7B
$GPGSV,3,3,12,02,10,205,22,26,10,235,21,15,06,277,,32,03,060,*78
$GPRMC,060207.000,A,3353.7525,N,09832.0256,W,0.17,114.56,300312,,,D*7A
$GPGGA,060208.000,3353.7525,N,09832.0256,W,2,08,0.9,310.9,M,-23.7,M,0.8,0000*44
$GPGSA,A,3,28,26,17,27,20,08,04,01,,,,,1.7,0.9,1.4*3A
$GPRMC,060208.000,A,3353.7525,N,09832.0256,W,0.07,211.76,300312,,,D*70
$GPGGA,060209.000,3353.7525,N,09832.0256,W,2,08,0.9,310.9,M,-23.7,M,0.8,0000*45
$GPGSA,A,3,28,26,17,27,20,08,04,01,,,,,1.7,0.9,1.4*3A
$GPRMC,060209.000,A,3353.7525,N,09832.0256,W,0.10,232.06,300312,,,D*71
$GPGGA,060210.000,3353.7525,N,09832.0257,W,2,08,0.9,311.0,M,-23.7,M,0.8,0000*44
$GPGSA,A,3,28,26,17,27,20,08,04,01,,,,,1.7,0.9,1.4*3A
$GPRMC,060210.000,A,3353.7525,N,09832.0257,W,0.09,208.12,300312,,,D*7C
$GPGGA,060211.000,3353.7525,N,09832.0258,W,2,08,0.9,311.0,M,-23.7,M,0.8,0000*4A
$GPGSA,A,3,28,26,17,27,20,08,04,01,,,,,1.7,0.9,1.4*3A
$GPRMC,060211.000,A,3353.7525,N,09832.0258,W,0.17,268.84,300312,,,D*74
$GPGGA,060212.000,3353.7525,N,09832.0258,W,2,08,0.9,311.1,M,-23.7,M,1.8,0000*49
$GPGSA,A,3,28,26,17,27,20,08,04,01,,,,,1.7,0.9,1.4*3A
$GPGSV,3,1,12,17,67,354,30,28,61,067,37,04,38,191,34,27,35,307,33*70
$GPGSV,3,2,12,08,28,165,42,01,19,042,29,09,18,319,,20,14,085,28*72
$GPGSV,3,3,12,02,10,205,21,26,10,235,20,15,06,277,,32,03,060,*7A
$GPRMC,060212.000,A,3353.7525,N,09832.0258,W,0.12,84.27,300312,,,D*4B
$GPGGA,060213.000,3353.7525,N,09832.0258,W,2,08,0.9,311.3,M,-23.7,M,2.8,0000*49
$GPGSA,A,3,28,26,17,27,20,08,04,01,,,,,1.7,0.9,1.4*3A
$GPRMC,060213.000,A,3353.7525,N,09832.0258,W,0.17,93.84,300312,,,D*40
$GPGGA,060214.000,3353.7525,N,09832.0258,W,2,08,0.9,311.3,M,-23.7,M,3.8,0000*4F
$GPGSA,A,3,28,26,17,27,20,08,04,01,,,,,1.7,0.9,1.4*3A
$GPRMC,060214.000,A,3353.7525,N,09832.0258,W,0.03,209.11,300312,,,D*7F
$GPGGA,060215.000,3353.7525,N,09832.0258,W,2,08,0.9,311.4,M,-23.7,M,0.8,0000*4A
$GPGSA,A,3,28,26,17,27,20,08,04,01,,,,,1.7,0.9,1.4*3A
$GPRMC,060215.000,A,3353.7525,N,09832.0258,W,0.08,87.54,300312,,,D*40
$GPGGA,060216.000,3353.7525,N,09832.0259,W,2,08,0.9,311.4,M,-23.7,M,0.8,0000*48
$GPGSA,A,3,28,26,17,27,20,08,04,01,,,,,1.7,0.9,1.4*3A
$GPRMC,060216.000,A,3353.7525,N,09832.0259,W,0.03,76.54,300312,,,D*47
$GPGGA,060217.000,3353.7525,N,09832.0259,W,2,08,0.9,311.4,M,-23.7,M,0.8,0000*49
$GPGSA,A,3,28,26,17,27,20,08,04,01,,,,,1.7,0.9,1.4*3A
$GPGSV,3,1,12,17,67,354,31,28,61,067,37,04,38,191,34,27,35,307,33*71
$GPGSV,3,2,12,08,28,165,42,01,19,042,28,09,18,319,,20,14,085,28*73
$GPGSV,3,3,12,02,10,205,20,26,10,235,21,15,06,277,,32,03,060,*7A
$GPRMC,060217.000,A,3353.7525,N,09832.0259,W,0.10,236.91,300312,,,D*7B
$GPGGA,060218.000,3353.7525,N,09832.0259,W,2,08,0.9,311.5,M,-23.7,M,1.8,0000*46
$GPGSA,A,3,28,26,17,27,20,08,04,01,,,,,1.7,0.9,1.4*3A
$GPRMC,060218.000,A,3353.7525,N,09832.0259,W,0.07,173.66,300312,,,D*78
$GPGGA,060219.000,3353.7525,N,09832.0259,W,2,08,0.9,311.6,M,-23.7,M,2.8,0000*47
$GPGSA,A,3,28,26,17,27,20,08,04,01,,,,,1.7,0.9,1.4*3A
$GPRMC,060219.000,A,3353.7525,N,09832.0259,W,0.16,111.45,300312,,,D*7C
$GPGGA,060220.000,3353.7525,N,09832.0260,W,2,08,0.9,311.6,M,-23.7,M,3.8,0000*46
$GPGSA,A,3,28,26,17,27,20,08,04,01,,,,,1.7,0.9,1.4*3A
$GPRMC,060220.000,A,3353.7525,N,09832.0260,W,0.13,232.31,300312,,,D*78
$GPGGA,060221.000,3353.7524,N,09832.0260,W,2,08,0.9,311.7,M,-23.7,M,0.8,0000*44
$GPGSA,A,3,28,26,17,27,20,08,04,01,,,,,1.7,0.9,1.4*3A
$GPRMC,060221.000,A,3353.7524,N,09832.0260,W,0.08,155.95,300312,,,D*7E
$GPGGA,060222.000,3353.7524,N,09832.0260,W,2,08,0.9,311.9,M,-23.7,M,0.8,0000*49
$GPGSA,A,3,28,26,17,27,20,08,04,01,,,,,1.7,0.9,1.4*3A
$GPGSV,3,1,12,17,67,354,31,28,61,067,37,04,38,191,34,27,35,307,32*70
$GPGSV,3,2,12,08,28,165,42,01,19,042,28,09,18,319,,20,14,085,29*72
$GPGSV,3,3,12,02,10,205,21,26,10,235,22,15,06,277,18,32,03,060,*71
$GPRMC,060222.000,A,3353.7524,N,09832.0260,W,0.13,136.58,300312,,,D*73
$GPGGA,060223.000,3353.7524,N,09832.0261,W,2,08,0.9,311.9,M,-23.7,M,0.8,0000*49
$GPGSA,A,3,28,26,17,27,20,08,04,01,,,,,1.7,0.9,1.4*3A
$GPRMC,060223.000,A,3353.7524,N,09832.0261,W,0.13,248.96,300312,,,D*7B
$GPGGA,060224.000,3353.7524,N,09832.0261,W,2,08,0.9,311.9,M,-23.7,M,1.8,0000*4F
$GPGSA,A,3,28,26,17,27,20,08,04,01,,,,,1.7,0.9,1.4*3A
$GPRMC,060224.000,A,3353.7524,N,09832.0261,W,0.10,244.58,300312,,,D*71
$GPGGA,060225.000,3353.7524,N,09832.0262,W,2,08,0.9,312.1,M,-23.7,M,2.8,0000*45
$GPGSA,A,3,28,26,17,27,20,08,04,01,,,,,1.7,0.9,1.4*3A
$GPRMC,060225.000,A,3353.7524,N,09832.0262,W,0.14,111.61,300312,,,D*7E
$GPGGA,060226.000,3353.7524,N,09832.0262,W,2,08,0.9,312.1,M,-23.7,M,3.8,0000*47
$GPGSA,A,3,28,26,17,27,20,08,04,01,,,,,1.7,0.9,1.4*3A
$GPRMC,060226.000,A,3353.7524,N,09832.0262,W,0.09,237.45,300312,,,D*70
$GPGGA,060227.000,3353.7524,N,09832.0263,W,2,08,0.9,312.0,M,-23.7,M,0.8,0000*45
$GPGSA,A,3,28,26,17,27,20,08,04,01,,,,,1.7,0.9,1.4*3A
$GPGSV,3,1,12,17,67,354,31,28,61,067,37,04,38,191,34,27,35,307,32*70
$GPGSV,3,2,12,08,28,165,42,01,19,042,27,09,18,319,,20,14,085,29*7D
$GPGSV,3,3,12,02,10,205,21,26,10,235,22,15,06,277,17,32,03,060,*7E
$GPRMC,060227.000,A,3353.7524,N,09832.0263,W,0.15,258.97,300312,,,D*7B
$GPGGA,060228.000,3353.7524,N,09832.0263,W,2,08,0.9,312.0,M,-23.7,M,0.8,0000*4A
$GPGSA,A,3,28,26,17,27,20,08,04,01,,,,,1.7,0.9,1.4*3A
$GPRMC,060228.000,A,3353.7524,N,09832.0263,W,0.15,265.14,300312,,,D*71
$GPGGA,060229.000,3353.7524,N,09832.0264,W,2,08,0.9,312.2,M,-23.7,M,0.8,0000*4E
$GPGSA,A,3,28,26,17,27,20,08,04,01,,,,,1.7,0.9,1.4*3A
$GPRMC,060229.000,A,3353.7524,N,09832.0264,W,0.14,101.58,300312,,,D*7F
$GPGGA,060230.000,3353.7524,N,09832.0264,W,2,08,0.9,312.2,M,-23.7,M,1.8,0000*47
$GPGSA,A,3,28,26,17,27,20,08,04,01,,,,,1.7,0.9,1.4*3A
$GPRMC,060230.000,A,3353.7524,N,09832.0264,W,0.04,226.23,300312,,,D*7C
$GPGGA,060231.000,3353.7524,N,09832.0264,W,2,08,0.9,313.1,M,-23.7,M,2.8,0000*47
$GPGSA,A,3,28,26,17,27,20,08,04,01,,,,,1.7,0.9,1.4*3A
$GPRMC,060231.000,A,3353.7524,N,09832.0264,W,0.20,98.36,300312,,,D*48
$GPGGA,060232.000,3353.7524,N,09832.0264,W,2,08,0.9,313.8,M,-23.7,M,3.8,0000*4C
$GPGSA,A,3,28,26,17,27,20,08,04,01,,,,,1.7,0.9,1.4*3A
$GPGSV,3,1,12,17,67,354,32,28,61,067,37,04,38,191,35,27,35,307,32*72
$GPGSV,3,2,12,08,28,165,41,01,19,042,26,09,18,319,,20,14,085,28*7E
$GPGSV,3,3,12,02,10,205,20,26,10,235,21,15,06,277,17,32,03,060,*7C
$GPRMC,060232.000,A,3353.7524,N,09832.0264,W,0.08,236.55,300312,,,D*72
$GPGGA,060233.000,3353.7524,N,09832.0265,W,2,08,0.9,314.7,M,-23.7,M,0.8,0000*47
$GPGSA,A,3,28,26,17,27,20,08,04,01,,,,,1.7,0.9,1.4*3A
$GPRMC,060233.000,A,3353.7524,N,09832.0265,W,0.14,112.72,300312,,,D*7F
$GPGGA,060234.000,3353.7524,N,09832.0265,W,2,08,0.9,315.4,M,-23.7,M,0.8,0000*42
$GPGSA,A,3,28,26,17,27,20,08,04,01,,,,,1.7,0.9,1.4*3A
$GPRMC,060234.000,A,3353.7524,N,09832.0265,W,0.19,116.57,300312,,,D*76
$GPGGA,060235.000,3353.7524,N,09832.0265,W,2,08,0.9,315.9,M,-23.7,M,0.8,0000*4E
$GPGSA,A,3,28,26,17,27,20,08,04,01,,,,,1.7,0.9,1.4*3A
$GPRMC,060235.000,A,3353.7524,N,09832.0265,W,0.10,222.43,300312,,,D*7F
$GPGGA,060236.000,3353.7524,N,09832.0266,W,2,08,0.9,316.4,M,-23.7,M,0.8,0000*40
$GPGSA,A,3,28,26,17,27,20,08,04,01,,,,,1.7,0.9,1.4*3A
$GPRMC,060236.000,A,3353.7524,N,09832.0266,W,0.13,236.78,300312,,,D*71
$GPGGA,060237.000,3353.7524,N,09832.0267,W,2,08,0.9,316.8,M,-23.7,M,0.8,0000*4C
$GPGSA,A,3,28,26,17,27,20,08,04,01,,,,,1.7,0.9,1.4*3A
$GPGSV,3,1,12,17,67,356,32,28,61,069,37,04,39,191,35,27,36,307,32*7C
$GPGSV,3,2,12,08,27,165,41,09,19,318,,01,18,042,26,20,14,085,28*70
$GPGSV,3,3,12,02,11,205,20,26,09,234,19,15,05,277,17,32,03,059,*76
$GPRMC,060237.000,A,3353.7524,N,09832.0267,W,0.17,234.83,300312,,,D*73
