$GPGGA,001837.000,3353.7535,N,09832.0302,W,1,08,1.2,306.4,M,-23.7,M,20.8,0000*75
$GPGSA,A,3,23,03,19,07,06,16,30,13,,,,,2.3,1.2,1.9*35
$GPRMC,001837.000,A,3353.7535,N,09832.0302,W,0.12,331.74,300312,,,A*70
$GPGGA,001838.000,3353.7535,N,09832.0302,W,1,08,1.2,306.6,M,-23.7,M,20.8,0000*78
$GPGSA,A,3,23,03,19,07,06,16,30,13,,,,,2.3,1.2,1.9*35
$GPGSV,3,1,12,23,81,158,38,13,63,320,32,03,49,101,39,16,41,040,37*76
$GPGSV,3,2,12,06,40,081,32,07,35,300,20,19,31,146,37,10,21,295,*70
$GPGSV,3,3,12,20,15,200,,30,15,047,36,08,06,280,18,32,05,179,37*7D
$GPRMC,001838.000,A,3353.7535,N,09832.0302,W,0.24,80.28,300312,,,A*4A
$GPGGA,001839.000,3353.7536,N,09832.0309,W,2,08,1.2,306.5,M,-23.7,M,0.8,0000*43
$GPGSA,A,3,23,03,19,07,06,16,30,13,,,,,2.3,1.2,1.9*35
$GPRMC,001839.000,A,3353.7536,N,09832.0309,W,0.10,16.58,300312,,,D*49
$GPGGA,001840.000,3353.7536,N,09832.0308,W,2,09,0.9,306.6,M,-23.7,M,0.8,0000*44
$GPGSA,A,3,23,03,19,20,07,06,16,30,13,,,,1.7,0.9,1.4*37
$GPRMC,001840.000,A,3353.7536,N,09832.0308,W,0.18,119.45,300312,,,D*7C
$GPGGA,001841.000,3353.7536,N,09832.0308,W,2,09,0.9,306.5,M,-23.7,M,0.8,0000*46
$GPGSA,A,3,23,03,19,20,07,06,16,30,13,,,,1.7,0.9,1.4*37
$GPRMC,001841.000,A,3353.7536,N,09832.0308,W,0.13,257.47,300312,,,D*7D
$GPGGA,001842.000,3353.7536,N,09832.0307,W,2,09,0.9,306.8,M,-23.7,M,1.8,0000*46
$GPGSA,A,3,23,03,19,20,07,06,16,30,13,,,,1.7,0.9,1.4*37
$GPRMC,001842.000,A,3353.7536,N,09832.0307,W,0.26,81.33,300312,,,D*4D
$GPGGA,001843.000,3353.7536,N,09832.0306,W,2,09,0.9,307.1,M,-23.7,M,2.8,0000*4D
$GPGSA,A,3,23,03,19,20,07,06,16,30,13,,,,1.7,0.9,1.4*37
$GPGSV,3,1,12,23,81,158,38,13,63,320,32,03,49,101,39,16,41,040,37*76
$GPGSV,3,2,12,06,40,081,32,07,35,300,20,19,31,146,37,10,21,295,*70
$GPGSV,3,3,12,20,15,200,19,30,15,047,36,08,06,280,18,32,05,179,37*75
$GPRMC,001843.000,A,3353.7536,N,09832.0306,W,0.35,79.31,300312,,,D*4A
$GPGGA,001844.000,3353.7536,N,09832.0305,W,2,09,0.9,307.2,M,-23.7,M,0.8,0000*48
$GPGSA,A,3,23,03,19,20,07,06,16,30,13,,,,1.7,0.9,1.4*37
$GPRMC,001844.000,A,3353.7536,N,09832.0305,W,0.29,106.06,300312,,,D*7E
$GPGGA,001845.000,3353.7536,N,09832.0304,W,2,09,0.9,307.4,M,-23.7,M,0.8,0000*4E
$GPGSA,A,3,23,03,19,20,07,06,16,30,13,,,,1.7,0.9,1.4*37
$GPRMC,001845.000,A,3353.7536,N,09832.0304,W,0.26,45.08,300312,,,D*49
$GPGGA,001846.000,3353.7536,N,09832.0302,W,2,09,0.9,307.8,M,-23.7,M,0.8,0000*47
$GPGSA,A,3,23,03,19,20,07,06,16,30,13,,,,1.7,0.9,1.4*37
$GPRMC,001846.000,A,3353.7536,N,09832.0302,W,0.48,76.39,300312,,,D*46
$GPGGA,001847.000,3353.7536,N,09832.0301,W,2,09,0.9,307.9,M,-23.7,M,0.8,0000*44
$GPGSA,A,3,23,03,19,20,07,06,16,30,13,,,,1.7,0.9,1.4*37
$GPRMC,001847.000,A,3353.7536,N,09832.0301,W,0.39,100.55,300312,,,D*78
$GPGGA,001848.000,3353.7535,N,09832.0300,W,2,09,0.9,308.0,M,-23.7,M,1.8,0000*4E
$GPGSA,A,3,23,03,19,20,07,06,16,30,13,,,,1.7,0.9,1.4*37
$GPGSV,3,1,12,23,81,158,38,13,63,320,32,03,49,101,39,16,41,040,37*76
$GPGSV,3,2,12,06,40,081,32,07,35,300,21,19,31,146,37,10,21,295,*71
$GPGSV,3,3,12,20,15,200,18,30,15,047,36,08,06,280,18,32,05,179,37*74
$GPRMC,001848.000,A,3353.7535,N,09832.0300,W,0.09,107.99,300312,,,D*71
$GPGGA,001849.000,3353.7535,N,09832.0300,W,2,09,0.9,308.1,M,-23.7,M,0.8,0000*4F
$GPGSA,A,3,23,03,19,20,07,06,16,30,13,,,,1.7,0.9,1.4*37
$GPRMC,001849.000,A,3353.7535,N,09832.0300,W,0.01,131.16,300312,,,D*7A
$GPGGA,001850.000,3353.7535,N,09832.0300,W,2,09,0.9,308.1,M,-23.7,M,1.8,0000*46
$GPGSA,A,3,23,03,19,20,07,06,16,30,13,,,,1.7,0.9,1.4*37
$GPRMC,001850.000,A,3353.7535,N,09832.0300,W,0.06,145.06,300312,,,D*77
$GPGGA,001851.000,3353.7535,N,09832.0300,W,2,09,0.9,308.2,M,-23.7,M,0.8,0000*45
$GPGSA,A,3,23,03,19,20,07,06,16,30,13,,,,1.7,0.9,1.4*37
$GPRMC,001851.000,A,3353.7535,N,09832.0300,W,0.08,13.22,300312,,,D*4C
$GPGGA,001852.000,3353.7535,N,09832.0300,W,2,09,0.9,308.4,M,-23.7,M,0.8,0000*40
$GPGSA,A,3,23,03,19,20,07,06,16,30,13,,,,1.7,0.9,1.4*37
$GPRMC,001852.000,A,3353.7535,N,09832.0300,W,0.18,12.74,300312,,,D*4C
$GPGGA,001853.000,3353.7536,N,09832.0300,W,2,09,0.9,308.5,M,-23.7,M,0.8,0000*43
$GPGSA,A,3,23,03,19,20,07,06,16,30,13,,,,1.7,0.9,1.4*37
$GPGSV,3,1,12,23,79,159,37,13,65,320,33,03,49,099,39,06,40,079,33*76
$GPGSV,3,2,12,16,39,040,37,07,36,301,22,19,32,145,37,10,22,294,*75
$GPGSV,3,3,12,20,14,199,17,30,14,048,36,08,07,281,19,32,04,178,36*77
$GPRMC,001853.000,A,3353.7536,N,09832.0300,W,0.29,60.93,300312,,,D*40
$GPGGA,001854.000,3353.7536,N,09832.0300,W,2,09,0.9,308.5,M,-23.7,M,1.8,0000*45
$GPGSA,A,3,23,03,19,20,07,06,16,30,13,,,,1.7,0.9,1.4*37
$GPRMC,001854.000,A,3353.7536,N,09832.0300,W,0.17,299.54,300312,,,D*75
$GPGGA,001855.000,3353.7536,N,09832.0301,W,2,08,1.2,308.6,M,-23.7,M,2.8,0000*4E
$GPGSA,A,3,23,03,19,07,06,16,30,13,,,,,2.3,1.2,1.9*35
$GPRMC,001855.000,A,3353.7536,N,09832.0301,W,0.23,74.57,300312,,,D*40
$GPGGA,001856.000,3353.7537,N,09832.0300,W,2,08,1.2,308.6,M,-23.7,M,3.8,0000*4C
$GPGSA,A,3,23,03,19,07,06,16,30,13,,,,,2.3,1.2,1.9*35
$GPRMC,001856.000,A,3353.7537,N,09832.0300,W,0.27,76.54,300312,,,D*46
$GPGGA,001857.000,3353.7537,N,09832.0302,W,2,08,1.2,308.6,M,-23.7,M,0.8,0000*4C
$GPGSA,A,3,23,03,19,07,06,16,30,13,,,,,2.3,1.2,1.9*35
$GPRMC,001857.000,A,3353.7537,N,09832.0302,W,0.35,81.87,300312,,,D*40
$GPGGA,001858.000,3353.7537,N,09832.0303,W,2,08,1.2,308.5,M,-23.7,M,0.8,0000*41
$GPGSA,A,3,23,03,19,07,06,16,30,13,,,,,2.3,1.2,1.9*35
$GPGSV,3,1,12,23,79,159,37,13,65,320,33,03,49,099,39,06,40,079,33*76
$GPGSV,3,2,12,16,39,040,37,07,36,301,22,19,32,145,37,10,22,294,*75
$GPGSV,3,3,12,20,14,199,,30,14,048,36,08,07,281,19,32,04,178,36*71
$GPRMC,001858.000,A,3353.7537,N,09832.0303,W,0.11,50.17,300312,,,D*4D
$GPGGA,001859.000,3353.7538,N,09832.0304,W,2,08,1.2,308.5,M,-23.7,M,0.8,0000*48
$GPGSA,A,3,23,03,19,07,06,16,30,13,,,,,2.3,1.2,1.9*35
$GPRMC,001859.000,A,3353.7538,N,09832.0304,W,0.20,85.84,300312,,,D*44
$GPGGA,001900.000,3353.7538,N,09832.0306,W,2,08,1.2,308.5,M,-23.7,M,0.8,0000*47
$GPGSA,A,3,23,03,19,07,06,16,30,13,,,,,2.3,1.2,1.9*35
$GPRMC,001900.000,A,3353.7538,N,09832.0306,W,0.09,324.66,300312,,,D*74
$GPGGA,001901.000,3353.7538,N,09832.0308,W,2,08,1.2,308.4,M,-23.7,M,1.8,0000*48
$GPGSA,A,3,23,03,19,07,06,16,30,13,,,,,2.3,1.2,1.9*35
$GPRMC,001901.000,A,3353.7538,N,09832.0308,W,0.19,295.55,300312,,,D*71
$GPGGA,001902.000,3353.7538,N,09832.0309,W,2,08,1.2,308.3,M,-23.7,M,2.8,0000*4E
$GPGSA,A,3,23,03,19,07,06,16,30,13,,,,,2.3,1.2,1.9*35
$GPRMC,001902.000,A,3353.7538,N,09832.0309,W,0.18,291.49,300312,,,D*7B
$GPGGA,001903.000,3353.7538,N,09832.0310,W,2,08,1.2,308.3,M,-23.7,M,0.8,0000*45
$GPGSA,A,3,23,03,19,07,06,16,30,13,,,,,2.3,1.2,1.9*35
$GPGSV,3,1,12,23,79,159,37,13,65,320,34,03,49,099,39,06,40,079,33*71
$GPGSV,3,2,12,16,39,040,37,07,36,301,22,19,32,145,37,10,22,294,20*77
$GPGSV,3,3,12,20,14,199,,30,14,048,36,08,07,281,17,32,04,178,36*7F
$GPRMC,001903.000,A,3353.7538,N,09832.0310,W,0.09,72.74,300312,,,D*43
$GPGGA,001904.000,3353.7538,N,09832.0311,W,2,08,1.2,308.2,M,-23.7,M,0.8,0000*42
$GPGSA,A,3,23,03,19,07,06,16,30,13,,,,,2.3,1.2,1.9*35
$GPRMC,001904.000,A,3353.7538,N,09832.0311,W,0.16,317.20,300312,,,D*7A
$GPGGA,001905.000,3353.7538,N,09832.0311,W,2,08,1.2,308.3,M,-23.7,M,0.8,0000*42
$GPGSA,A,3,23,03,19,07,06,16,30,13,,,,,2.3,1.2,1.9*35
$GPRMC,001905.000,A,3353.7538,N,09832.0311,W,0.21,78.39,300312,,,D*4D
$GPGGA,001906.000,3353.7538,N,09832.0311,W,2,08,1.2,308.3,M,-23.7,M,0.8,0000*41
$GPGSA,A,3,23,03,19,07,06,16,30,13,,,,,2.3,1.2,1.9*35
$GPRMC,001906.000,A,3353.7538,N,09832.0311,W,0.27,74.57,300312,,,D*4C
$GPGGA,001907.000,3353.7538,N,09832.0311,W,2,08,1.2,308.2,M,-23.7,M,1.8,0000*40
$GPGSA,A,3,23,03,19,07,06,16,30,13,,,,,2.3,1.2,1.9*35
$GPRMC,001907.000,A,3353.7538,N,09832.0311,W,0.11,342.31,300312,,,D*7E
$GPGGA,001908.000,3353.7539,N,09832.0311,W,2,08,1.2,308.3,M,-23.7,M,2.8,0000*4C
$GPGSA,A,3,23,03,19,07,06,16,30,13,,,,,2.3,1.2,1.9*35
$GPGSV,3,1,12,23,79,159,36,13,65,320,34,03,49,099,39,06,40,079,33*70
$GPGSV,3,2,12,16,39,040,37,07,36,301,22,19,32,145,37,10,22,294,21*76
$GPGSV,3,3,12,20,14,199,,30,14,048,36,08,07,281,17,32,04,178,35*7C
$GPRMC,001908.000,A,3353.7539,N,09832.0311,W,0.27,76.32,300312,,,D*42
$GPGGA,001909.000,3353.7539,N,09832.0312,W,2,08,1.2,308.2,M,-23.7,M,0.8,0000*4D
$GPGSA,A,3,23,03,19,07,06,16,30,13,,,,,2.3,1.2,1.9*35
$GPRMC,001909.000,A,3353.7539,N,09832.0312,W,0.14,340.72,300312,,,D*72
$GPGGA,001910.000,3353.7539,N,09832.0312,W,2,08,1.2,308.2,M,-23.7,M,0.8,0000*45
$GPGSA,A,3,23,03,19,07,06,16,30,13,,,,,2.3,1.2,1.9*35
$GPRMC,001910.000,A,3353.7539,N,09832.0312,W,0.23,81.91,300312,,,D*4D
$GPGGA,001911.000,3353.7539,N,09832.0312,W,2,08,1.2,308.2,M,-23.7,M,0.8,0000*44
$GPGSA,A,3,23,03,19,07,06,16,30,13,,,,,2.3,1.2,1.9*35
$GPRMC,001911.000,A,3353.7539,N,09832.0312,W,0.07,318.94,300312,,,D*7C
$GPGGA,001912.000,3353.7539,N,09832.0313,W,2,08,1.2,308.2,M,-23.7,M,1.8,0000*47
$GPGSA,A,3,23,03,19,07,06,16,30,13,,,,,2.3,1.2,1.9*35
$GPRMC,001912.000,A,3353.7539,N,09832.0313,W,0.20,299.51,300312,,,D*7A
$GPGGA,001913.000,3353.7539,N,09832.0314,W,2,08,1.2,308.1,M,-23.7,M,2.8,0000*41
$GPGSA,A,3,23,03,19,07,06,16,30,13,,,,,2.3,1.2,1.9*35
$GPGSV,3,1,12,23,79,159,36,13,65,320,34,03,49,099,39,06,40,079,32*71
$GPGSV,3,2,12,16,39,040,37,07,36,301,16,19,32,145,38,10,22,294,21*7E
$GPGSV,3,3,12,20,14,199,,30,14,048,36,08,07,281,15,32,04,178,35*7E
$GPRMC,001913.000,A,3353.7539,N,09832.0314,W,0.17,300.26,300312,,,D*79
$GPGGA,001914.000,3353.7539,N,09832.0315,W,2,08,1.2,308.1,M,-23.7,M,0.8,0000*45
$GPGSA,A,3,23,03,19,07,06,16,30,13,,,,,2.3,1.2,1.9*35
$GPRMC,001914.000,A,3353.7539,N,09832.0315,W,0.21,295.64,300312,,,D*71
$GPGGA,001915.000,3353.7539,N,09832.0316,W,2,08,1.2,308.0,M,-23.7,M,0.8,0000*46
$GPGSA,A,3,23,03,19,07,06,16,30,13,,,,,2.3,1.2,1.9*35
$GPRMC,001915.000,A,3353.7539,N,09832.0316,W,0.27,285.83,300312,,,D*7D
$GPGGA,001916.000,3353.7539,N,09832.0318,W,2,08,1.2,307.9,M,-23.7,M,0.8,0000*4D
$GPGSA,A,3,23,03,19,07,06,16,30,13,,,,,2.3,1.2,1.9*35
$GPRMC,001916.000,A,3353.7539,N,09832.0318,W,0.29,286.59,300312,,,D*7A
$GPGGA,001917.000,3353.7539,N,09832.0319,W,2,08,1.2,307.7,M,-23.7,M,0.8,0000*43
$GPGSA,A,3,23,03,19,07,06,16,30,13,,,,,2.3,1.2,1.9*35
$GPRMC,001917.000,A,3353.7539,N,09832.0319,W,0.31,287.36,300312,,,D*7B
$GPGGA,001918.000,3353.7539,N,09832.0320,W,2,08,1.2,307.6,M,-23.7,M,1.8,0000*46
$GPGSA,A,3,23,03,19,07,06,16,30,13,,,,,2.3,1.2,1.9*35
$GPGSV,3,1,12,23,79,159,36,13,65,320,34,03,49,099,39,06,40,079,31*72
$GPGSV,3,2,12,16,39,040,37,07,36,301,13,19,32,145,38,10,22,294,21*7B
$GPGSV,3,3,12,20,14,199,,30,14,048,36,08,07,281,14,32,04,178,35*7F
$GPRMC,001918.000,A,3353.7539,N,09832.0320,W,0.31,288.23,300312,,,D*75
$GPGGA,001919.000,3353.7539,N,09832.0321,W,2,08,1.2,307.4,M,-23.7,M,2.8,0000*47
$GPGSA,A,3,23,03,19,07,06,16,30,13,,,,,2.3,1.2,1.9*35
$GPRMC,001919.000,A,3353.7539,N,09832.0321,W,0.33,286.37,300312,,,D*7C
$GPGGA,001920.000,3353.7539,N,09832.0321,W,2,08,1.2,307.3,M,-23.7,M,3.8,0000*4B
$GPGSA,A,3,23,03,19,07,06,16,30,13,,,,,2.3,1.2,1.9*35
$GPRMC,001920.000,A,3353.7539,N,09832.0321,W,0.09,286.52,300312,,,D*7C
$GPGGA,001921.000,3353.7539,N,09832.0321,W,2,08,1.2,307.3,M,-23.7,M,0.8,0000*49
$GPGSA,A,3,23,03,19,07,06,16,30,13,,,,,2.3,1.2,1.9*35
$GPRMC,001921.000,A,3353.7539,N,09832.0321,W,0.18,82.12,300312,,,D*4F
$GPGGA,001922.000,3353.7539,N,09832.0319,W,2,08,1.2,307.4,M,-23.7,M,0.8,0000*46
$GPGSA,A,3,23,03,19,07,06,16,30,13,,,,,2.3,1.2,1.9*35
$GPRMC,001922.000,A,3353.7539,N,09832.0319,W,0.23,97.21,300312,,,D*4B
$GPGGA,001923.000,3353.7539,N,09832.0318,W,2,08,1.2,307.5,M,-23.7,M,0.8,0000*47
$GPGSA,A,3,23,03,19,07,06,16,30,13,,,,,2.3,1.2,1.9*35
$GPGSV,3,1,12,23,79,159,36,13,65,320,35,03,49,099,39,06,40,079,30*72
$GPGSV,3,2,12,16,39,040,37,07,36,301,12,19,32,145,38,10,22,294,21*7A
$GPGSV,3,3,12,20,14,199,,30,14,048,35,08,07,281,,32,04,178,34*78
$GPRMC,001923.000,A,3353.7539,N,09832.0318,W,0.26,92.63,300312,,,D*4D
$GPGGA,001924.000,3353.7539,N,09832.0317,W,2,07,1.8,307.6,M,-23.7,M,1.8,0000*48
$GPGSA,A,3,23,03,19,06,16,30,13,,,,,,3.1,1.8,2.5*34
$GPRMC,001924.000,A,3353.7539,N,09832.0317,W,0.12,78.66,300312,,,D*43
$GPGGA,001925.000,3353.7539,N,09832.0316,W,2,08,1.2,307.8,M,-23.7,M,2.8,0000*40
$GPGSA,A,3,23,03,19,07,06,16,30,13,,,,,2.3,1.2,1.9*35
$GPRMC,001925.000,A,3353.7539,N,09832.0316,W,0.25,88.17,300312,,,D*4E
$GPGGA,001926.000,3353.7539,N,09832.0315,W,2,08,1.2,308.0,M,-23.7,M,3.8,0000*46
$GPGSA,A,3,23,03,19,07,06,16,30,13,,,,,2.3,1.2,1.9*35
$GPRMC,001926.000,A,3353.7539,N,09832.0315,W,0.32,89.32,300312,,,D*4E
$GPGGA,001927.000,3353.7539,N,09832.0313,W,2,09,0.9,308.4,M,-23.7,M,0.8,0000*4D
$GPGSA,A,3,23,03,19,20,07,06,16,30,13,,,,1.7,0.9,1.4*37
$GPRMC,001927.000,A,3353.7539,N,09832.0313,W,0.48,81.80,300312,,,D*45
$GPGGA,001928.000,3353.7539,N,09832.0311,W,2,09,0.9,308.8,M,-23.7,M,0.8,0000*4C
$GPGSA,A,3,23,03,19,20,07,06,16,30,13,,,,1.7,0.9,1.4*37
$GPGSV,3,1,12,23,79,159,36,13,65,320,35,03,49,099,39,06,40,079,29*7A
$GPGSV,3,2,12,16,39,040,37,07,36,301,12,19,32,145,38,10,22,294,21*7A
$GPGSV,3,3,12,20,14,199,21,30,14,048,35,08,07,281,,32,04,178,34*7B
$GPRMC,001928.000,A,3353.7539,N,09832.0311,W,0.62,82.37,300312,,,D*4F
$GPGGA,001929.000,3353.7539,N,09832.0310,W,2,09,0.9,308.9,M,-23.7,M,0.8,0000*4D
$GPGSA,A,3,23,03,19,20,07,06,16,30,13,,,,1.7,0.9,1.4*37
$GPRMC,001929.000,A,3353.7539,N,09832.0310,W,0.24,95.90,300312,,,D*46
$GPGGA,001930.000,3353.7539,N,09832.0309,W,2,09,0.9,308.9,M,-23.7,M,0.8,0000*4D
$GPGSA,A,3,23,03,19,20,07,06,16,30,13,,,,1.7,0.9,1.4*37
$GPRMC,001930.000,A,3353.7539,N,09832.0309,W,0.22,108.97,300312,,,D*72
$GPGGA,001931.000,3353.7539,N,09832.0309,W,2,09,0.9,308.8,M,-23.7,M,1.8,0000*4C
$GPGSA,A,3,23,03,19,20,07,06,16,30,13,,,,1.7,0.9,1.4*37
$GPRMC,001931.000,A,3353.7539,N,09832.0309,W,0.04,283.07,300312,,,D*7E
$GPGGA,001932.000,3353.7539,N,09832.0310,W,2,09,0.9,308.7,M,-23.7,M,2.8,0000*4B
$GPGSA,A,3,23,03,19,20,07,06,16,30,13,,,,1.7,0.9,1.4*37
$GPRMC,001932.000,A,3353.7539,N,09832.0310,W,0.18,326.05,300312,,,D*74
$GPGGA,001933.000,3353.7539,N,09832.0311,W,2,09,0.9,308.5,M,-23.7,M,0.8,0000*4B
$GPGSA,A,3,23,03,19,20,07,06,16,30,13,,,,1.7,0.9,1.4*37
$GPGSV,3,1,12,23,79,159,36,13,65,320,35,03,49,099,40,06,40,079,29*74
$GPGSV,3,2,12,16,39,040,37,07,36,301,12,19,32,145,38,10,22,294,22*79
$GPGSV,3,3,12,20,14,199,20,30,14,048,35,08,07,281,,32,04,178,34*7A
$GPRMC,001933.000,A,3353.7539,N,09832.0311,W,0.23,294.57,300312,,,D*73
$GPGGA,001934.000,3353.7539,N,09832.0312,W,2,09,0.9,308.3,M,-23.7,M,0.8,0000*49
$GPGSA,A,3,23,03,19,20,07,06,16,30,13,,,,1.7,0.9,1.4*37
$GPRMC,001934.000,A,3353.7539,N,09832.0312,W,0.38,270.47,300312,,,D*76
$GPGGA,001935.000,3353.7539,N,09832.0313,W,2,09,0.9,308.1,M,-23.7,M,0.8,0000*4B
$GPGSA,A,3,23,03,19,20,07,06,16,30,13,,,,1.7,0.9,1.4*37
$GPRMC,001935.000,A,3353.7539,N,09832.0313,W,0.17,229.48,300312,,,D*78
$GPGGA,001936.000,3353.7539,N,09832.0313,W,2,09,0.9,308.0,M,-23.7,M,1.8,0000*48
$GPGSA,A,3,23,03,19,20,07,06,16,30,13,,,,1.7,0.9,1.4*37
$GPRMC,001936.000,A,3353.7539,N,09832.0313,W,0.16,173.80,300312,,,D*72
$GPGGA,001937.000,3353.7538,N,09832.0312,W,2,09,0.9,307.9,M,-23.7,M,0.8,0000*4E
$GPGSA,A,3,23,03,19,20,07,06,16,30,13,,,,1.7,0.9,1.4*37
$GPRMC,001937.000,A,3353.7538,N,09832.0312,W,0.19,170.13,300312,,,D*75
$GPGGA,001938.000,3353.7538,N,09832.0312,W,2,09,0.9,307.8,M,-23.7,M,0.8,0000*40
$GPGSA,A,3,23,03,19,20,07,06,16,30,13,,,,1.7,0.9,1.4*37
$GPGSV,3,1,12,23,79,159,36,13,65,320,35,03,49,099,40,06,40,079,28*75
$GPGSV,3,2,12,16,39,040,37,07,36,301,13,19,32,145,38,10,22,294,23*79
$GPGSV,3,3,12,20,14,199,19,30,14,048,35,08,07,281,,32,04,178,34*70
$GPRMC,001938.000,A,3353.7538,N,09832.0312,W,0.15,182.37,300312,,,D*7D
$GPGGA,001939.000,3353.7538,N,09832.0312,W,2,09,0.9,307.9,M,-23.7,M,0.8,0000*40
$GPGSA,A,3,23,03,19,20,07,06,16,30,13,,,,1.7,0.9,1.4*37
$GPRMC,001939.000,A,3353.7538,N,09832.0312,W,0.16,100.47,300312,,,D*72
$GPGGA,001940.000,3353.7538,N,09832.0311,W,2,09,0.9,307.8,M,-23.7,M,0.8,0000*4C
$GPGSA,A,3,23,03,19,20,07,06,16,30,13,,,,1.7,0.9,1.4*37
$GPRMC,001940.000,A,3353.7538,N,09832.0311,W,0.20,135.09,300312,,,D*76
$GPGGA,001941.000,3353.7537,N,09832.0311,W,2,09,0.9,307.6,M,-23.7,M,0.8,0000*4C
$GPGSA,A,3,23,03,19,20,07,06,16,30,13,,,,1.7,0.9,1.4*37
$GPRMC,001941.000,A,3353.7537,N,09832.0311,W,0.15,136.26,300312,,,D*70
$GPGGA,001942.000,3353.7537,N,09832.0311,W,2,09,0.9,307.6,M,-23.7,M,0.8,0000*4F
$GPGSA,A,3,23,03,19,20,07,06,16,30,13,,,,1.7,0.9,1.4*37
$GPRMC,001942.000,A,3353.7537,N,09832.0311,W,0.10,348.73,300312,,,D*7D
$GPGGA,001943.000,3353.7538,N,09832.0311,W,2,09,0.9,307.4,M,-23.7,M,1.8,0000*42
$GPGSA,A,3,23,03,19,20,07,06,16,30,13,,,,1.7,0.9,1.4*37
$GPGSV,3,1,12,23,79,159,36,13,65,320,35,03,49,099,41,06,40,079,27*7B
$GPGSV,3,2,12,16,39,040,37,07,36,301,16,19,32,145,38,10,22,294,23*7C
$GPGSV,3,3,12,20,14,199,19,30,14,048,34,08,07,281,,32,04,178,34*71
$GPRMC,001943.000,A,3353.7538,N,09832.0311,W,0.24,269.88,300312,,,D*72
$GPGGA,001944.000,3353.7538,N,09832.0311,W,2,09,0.9,307.4,M,-23.7,M,2.8,0000*46
$GPGSA,A,3,23,03,19,20,07,06,16,30,13,,,,1.7,0.9,1.4*37
$GPRMC,001944.000,A,3353.7538,N,09832.0311,W,0.17,42.17,300312,,,D*48
$GPGGA,001945.000,3353.7539,N,09832.0311,W,2,09,0.9,307.4,M,-23.7,M,0.8,0000*44
$GPGSA,A,3,23,03,19,20,07,06,16,30,13,,,,1.7,0.9,1.4*37
$GPRMC,001945.000,A,3353.7539,N,09832.0311,W,0.27,31.79,300312,,,D*47
$GPGGA,001946.000,3353.7539,N,09832.0310,W,2,09,0.9,307.6,M,-23.7,M,0.8,0000*44
$GPGSA,A,3,23,03,19,20,07,06,16,30,13,,,,1.7,0.9,1.4*37
$GPRMC,001946.000,A,3353.7539,N,09832.0310,W,0.42,73.75,300312,,,D*4C
$GPGGA,001947.000,3353.7540,N,09832.0309,W,2,09,0.9,307.8,M,-23.7,M,0.8,0000*4D
$GPGSA,A,3,23,03,19,20,07,06,16,30,13,,,,1.7,0.9,1.4*37
$GPRMC,001947.000,A,3353.7540,N,09832.0309,W,0.32,46.34,300312,,,D*4F
$GPGGA,001948.000,3353.7540,N,09832.0308,W,2,09,0.9,307.8,M,-23.7,M,1.8,0000*42
$GPGSA,A,3,23,03,19,20,07,06,16,30,13,,,,1.7,0.9,1.4*37
$GPGSV,3,1,12,23,79,159,36,13,65,320,35,03,49,099,41,06,40,079,26*7A
$GPGSV,3,2,12,16,39,040,37,07,36,301,21,19,32,145,38,10,22,294,23*78
$GPGSV,3,3,12,20,14,199,18,30,14,048,34,08,07,281,,32,04,178,34*70
$GPRMC,001948.000,A,3353.7540,N,09832.0308,W,0.07,61.36,300312,,,D*40
$GPGGA,001949.000,3353.7540,N,09832.0308,W,2,09,0.9,307.7,M,-23.7,M,0.8,0000*4D
$GPGSA,A,3,23,03,19,20,07,06,16,30,13,,,,1.7,0.9,1.4*37
$GPRMC,001949.000,A,3353.7540,N,09832.0308,W,0.18,119.27,300312,,,D*71
$GPGGA,001950.000,3353.7540,N,09832.0308,W,2,09,0.9,307.7,M,-23.7,M,0.8,0000*45
$GPGSA,A,3,23,03,19,20,07,06,16,30,13,,,,1.7,0.9,1.4*37
$GPRMC,001950.000,A,3353.7540,N,09832.0308,W,0.10,127.34,300312,,,D*7E
$GPGGA,001951.000,3353.7540,N,09832.0307,W,2,09,0.9,307.7,M,-23.7,M,0.8,0000*4B
$GPGSA,A,3,23,03,19,20,07,06,16,30,13,,,,1.7,0.9,1.4*37
$GPRMC,001951.000,A,3353.7540,N,09832.0307,W,0.18,93.68,300312,,,D*4F
$GPGGA,001952.000,3353.7540,N,09832.0307,W,2,09,0.9,307.9,M,-23.7,M,0.8,0000*46
$GPGSA,A,3,23,03,19,20,07,06,16,30,13,,,,1.7,0.9,1.4*37
$GPRMC,001952.000,A,3353.7540,N,09832.0307,W,0.34,71.02,300312,,,D*42
$GPGGA,001953.000,3353.7540,N,09832.0306,W,2,09,0.9,307.9,M,-23.7,M,0.8,0000*46
$GPGSA,A,3,23,03,19,20,07,06,16,30,13,,,,1.7,0.9,1.4*37
$GPGSV,3,1,12,23,79,159,36,13,65,320,35,03,49,099,41,06,40,079,23*7F
$GPGSV,3,2,12,16,39,040,37,07,36,301,22,19,32,145,37,10,22,294,*75
$GPGSV,3,3,12,20,14,199,17,30,14,048,34,08,07,281,,32,04,178,33*78
$GPRMC,001953.000,A,3353.7540,N,09832.0306,W,0.02,74.12,300312,,,D*43
$GPGGA,001954.000,3353.7540,N,09832.0306,W,2,09,0.9,307.9,M,-23.7,M,1.8,0000*40
$GPGSA,A,3,23,03,19,20,07,06,16,30,13,,,,1.7,0.9,1.4*37
$GPRMC,001954.000,A,3353.7540,N,09832.0306,W,0.16,23.10,300312,,,D*41
$GPGGA,001955.000,3353.7540,N,09832.0306,W,2,09,0.9,307.9,M,-23.7,M,2.8,0000*42
$GPGSA,A,3,23,03,19,20,07,06,16,30,13,,,,1.7,0.9,1.4*37
$GPRMC,001955.000,A,3353.7540,N,09832.0306,W,0.31,55.63,300312,,,D*40
$GPGGA,001956.000,3353.7541,N,09832.0305,W,2,09,0.9,307.9,M,-23.7,M,3.8,0000*42
$GPGSA,A,3,23,03,19,20,07,06,16,30,13,,,,1.7,0.9,1.4*37
$GPRMC,001956.000,A,3353.7541,N,09832.0305,W,0.15,10.83,300312,,,D*48
$GPGGA,001957.000,3353.7541,N,09832.0305,W,2,08,1.2,307.8,M,-23.7,M,0.8,0000*4A
$GPGSA,A,3,23,03,19,07,06,16,30,13,,,,,2.3,1.2,1.9*35
$GPRMC,001957.000,A,3353.7541,N,09832.0305,W,0.16,40.33,300312,,,D*44
$GPGGA,001958.000,3353.7541,N,09832.0304,W,2,08,1.2,307.9,M,-23.7,M,0.8,0000*45
$GPGSA,A,3,23,03,19,07,06,16,30,13,,,,,2.3,1.2,1.9*35
$GPGSV,3,1,12,23,79,159,36,13,65,320,35,03,49,099,41,06,40,079,23*7F
$GPGSV,3,2,12,16,39,040,37,07,36,301,23,19,32,145,37,10,22,294,20*76
$GPGSV,3,3,12,20,14,199,,30,14,048,34,08,07,281,,32,04,178,33*7E
$GPRMC,001958.000,A,3353.7541,N,09832.0304,W,0.29,81.37,300312,,,D*4F
$GPGGA,001959.000,3353.7541,N,09832.0304,W,2,08,1.2,307.9,M,-23.7,M,0.8,0000*44
$GPGSA,A,3,23,03,19,07,06,16,30,13,,,,,2.3,1.2,1.9*35
$GPRMC,001959.000,A,3353.7541,N,09832.0304,W,0.22,84.60,300312,,,D*42
$GPGGA,002000.000,3353.7541,N,09832.0303,W,2,08,1.2,308.0,M,-23.7,M,1.8,0000*42
$GPGSA,A,3,23,03,19,07,06,16,30,13,,,,,2.3,1.2,1.9*35
$GPRMC,002000.000,A,3353.7541,N,09832.0303,W,0.09,64.30,300312,,,D*41
$GPGGA,002001.000,3353.7541,N,09832.0304,W,2,08,1.2,307.9,M,-23.7,M,2.8,0000*41
$GPGSA,A,3,23,03,19,07,06,16,30,13,,,,,2.3,1.2,1.9*35
$GPRMC,002001.000,A,3353.7541,N,09832.0304,W,0.06,331.03,300312,,,D*7B
$GPGGA,002002.000,3353.7541,N,09832.0304,W,2,08,1.2,307.9,M,-23.7,M,3.8,0000*43
$GPGSA,A,3,23,03,19,07,06,16,30,13,,,,,2.3,1.2,1.9*35
$GPRMC,002002.000,A,3353.7541,N,09832.0304,W,0.07,40.24,300312,,,D*49
$GPGGA,002003.000,3353.7541,N,09832.0303,W,2,08,1.2,307.9,M,-23.7,M,0.8,0000*46
$GPGSA,A,3,23,03,19,07,06,16,30,13,,,,,2.3,1.2,1.9*35
$GPGSV,3,1,12,23,79,159,36,13,65,320,35,03,49,099,41,06,40,079,24*78
$GPGSV,3,2,12,16,39,040,36,07,36,301,24,19,32,145,38,10,22,294,20*7F
$GPGSV,3,3,12,20,14,199,,30,14,048,33,08,07,281,,32,04,178,33*79
$GPRMC,002003.000,A,3353.7541,N,09832.0303,W,0.08,62.46,300312,,,D*44
$GPGGA,002004.000,3353.7541,N,09832.0303,W,2,08,1.2,308.0,M,-23.7,M,0.8,0000*47
$GPGSA,A,3,23,03,19,07,06,16,30,13,,,,,2.3,1.2,1.9*35
$GPRMC,002004.000,A,3353.7541,N,09832.0303,W,0.24,82.59,300312,,,D*4D
$GPGGA,002005.000,3353.7541,N,09832.0303,W,2,08,1.2,307.9,M,-23.7,M,0.8,0000*40
$GPGSA,A,3,23,03,19,07,06,16,30,13,,,,,2.3,1.2,1.9*35
$GPRMC,002005.000,A,3353.7541,N,09832.0303,W,0.09,41.47,300312,,,D*43
$GPGGA,002006.000,3353.7542,N,09832.0303,W,2,08,1.2,307.8,M,-23.7,M,1.8,0000*40
$GPGSA,A,3,23,03,19,07,06,16,30,13,,,,,2.3,1.2,1.9*35
$GPRMC,002006.000,A,3353.7542,N,09832.0303,W,0.08,355.26,300312,,,D*73
$GPGGA,002007.000,3353.7542,N,09832.0302,W,2,08,1.2,307.8,M,-23.7,M,2.8,0000*43
$GPGSA,A,3,23,03,19,07,06,16,30,13,,,,,2.3,1.2,1.9*35
$GPRMC,002007.000,A,3353.7542,N,09832.0302,W,0.19,81.47,300312,,,D*4E
$GPGGA,002008.000,3353.7542,N,09832.0302,W,2,08,1.2,307.8,M,-23.7,M,3.8,0000*4D
$GPGSA,A,3,23,03,19,07,06,16,30,13,,,,,2.3,1.2,1.9*35
$GPGSV,3,1,12,23,79,159,35,13,65,320,36,03,49,099,41,06,40,079,25*79
$GPGSV,3,2,12,16,39,040,36,07,36,301,24,19,32,145,38,10,22,294,19*75
$GPGSV,3,3,12,20,14,199,,30,14,048,33,08,07,281,,32,04,178,33*79
$GPRMC,002008.000,A,3353.7542,N,09832.0302,W,0.17,73.87,300312,,,D*4E
$GPGGA,002009.000,3353.7542,N,09832.0301,W,2,08,1.2,307.8,M,-23.7,M,0.8,0000*4C
$GPGSA,A,3,23,03,19,07,06,16,30,13,,,,,2.3,1.2,1.9*35
$GPRMC,002009.000,A,3353.7542,N,09832.0301,W,0.25,74.50,300312,,,D*40
$GPGGA,002010.000,3353.7542,N,09832.0301,W,2,08,1.2,307.8,M,-23.7,M,0.8,0000*44
$GPGSA,A,3,23,03,19,07,06,16,30,13,,,,,2.3,1.2,1.9*35
$GPRMC,002010.000,A,3353.7542,N,09832.0301,W,0.11,60.85,300312,,,D*42
$GPGGA,002011.000,3353.7542,N,09832.0301,W,2,08,1.2,307.9,M,-23.7,M,0.8,0000*44
$GPGSA,A,3,23,03,19,07,06,16,30,13,,,,,2.3,1.2,1.9*35
$GPRMC,002011.000,A,3353.7542,N,09832.0301,W,0.12,21.62,300312,,,D*4C
$GPGGA,002012.000,3353.7542,N,09832.0300,W,2,08,1.2,307.9,M,-23.7,M,1.8,0000*47
$GPGSA,A,3,23,03,19,07,06,16,30,13,,,,,2.3,1.2,1.9*35
$GPRMC,002012.000,A,3353.7542,N,09832.0300,W,0.10,7.80,300312,,,D*74
$GPGGA,002013.000,3353.7543,N,09832.0300,W,2,08,1.2,308.1,M,-23.7,M,0.8,0000*41
$GPGSA,A,3,23,03,19,07,06,16,30,13,,,,,2.3,1.2,1.9*35
$GPGSV,3,1,12,23,79,159,35,13,65,320,36,03,49,099,41,06,40,079,26*7A
$GPGSV,3,2,12,16,39,040,36,07,36,301,24,19,32,145,38,10,22,294,18*74
$GPGSV,3,3,12,20,14,199,,30,14,048,33,08,07,281,,32,04,178,32*78
$GPRMC,002013.000,A,3353.7543,N,09832.0300,W,0.22,71.25,300312,,,D*4B
$GPGGA,002014.000,3353.7543,N,09832.0299,W,2,08,1.2,308.2,M,-23.7,M,0.8,0000*44
$GPGSA,A,3,23,03,19,07,06,16,30,13,,,,,2.3,1.2,1.9*35
$GPRMC,002014.000,A,3353.7543,N,09832.0299,W,0.15,47.71,300312,,,D*4D
$GPGGA,002015.000,3353.7543,N,09832.0299,W,2,08,1.2,308.3,M,-23.7,M,0.8,0000*44
$GPGSA,A,3,23,03,19,07,06,16,30,13,,,,,2.3,1.2,1.9*35
$GPRMC,002015.000,A,3353.7543,N,09832.0299,W,0.22,79.91,300312,,,D*4B
$GPGGA,002016.000,3353.7543,N,09832.0298,W,2,08,1.2,308.3,M,-23.7,M,0.8,0000*46
$GPGSA,A,3,23,03,19,07,06,16,30,13,,,,,2.3,1.2,1.9*35
$GPRMC,002016.000,A,3353.7543,N,09832.0298,W,0.13,66.33,300312,,,D*4D
$GPGGA,002017.000,3353.7543,N,09832.0298,W,2,08,1.2,308.3,M,-23.7,M,0.8,0000*47
$GPGSA,A,3,23,03,19,07,06,16,30,13,,,,,2.3,1.2,1.9*35
$GPRMC,002017.000,A,3353.7543,N,09832.0298,W,0.21,78.36,300312,,,D*47
$GPGGA,002018.000,3353.7543,N,09832.0297,W,2,08,1.2,308.3,M,-23.7,M,0.8,0000*47
$GPGSA,A,3,23,03,19,07,06,16,30,13,,,,,2.3,1.2,1.9*35
$GPGSV,3,1,12,23,79,159,35,13,65,320,36,03,49,099,40,06,40,079,27*7A
$GPGSV,3,2,12,16,39,040,36,07,36,301,24,19,32,145,38,10,22,294,16*7A
$GPGSV,3,3,12,20,14,199,,30,14,048,32,08,07,281,,32,04,178,32*79
$GPRMC,002018.000,A,3353.7543,N,09832.0297,W,0.12,40.86,300312,,,D*47
$GPGGA,002019.000,3353.7543,N,09832.0297,W,2,08,1.2,308.2,M,-23.7,M,1.8,0000*46
$GPGSA,A,3,23,03,19,07,06,16,30,13,,,,,2.3,1.2,1.9*35
$GPRMC,002019.000,A,3353.7543,N,09832.0297,W,0.08,339.01,300312,,,D*7F
$GPGGA,002020.000,3353.7543,N,09832.0297,W,2,08,1.2,308.2,M,-23.7,M,2.8,0000*4F
$GPGSA,A,3,23,03,19,07,06,16,30,13,,,,,2.3,1.2,1.9*35
$GPRMC,002020.000,A,3353.7543,N,09832.0297,W,0.10,316.52,300312,,,D*77
$GPGGA,002021.000,3353.7543,N,09832.0297,W,2,08,1.2,308.3,M,-23.7,M,0.8,0000*4D
$GPGSA,A,3,23,03,19,07,06,16,30,13,,,,,2.3,1.2,1.9*35
$GPRMC,002021.000,A,3353.7543,N,09832.0297,W,0.22,77.05,300312,,,D*41
$GPGGA,002022.000,3353.7544,N,09832.0296,W,2,08,1.2,308.4,M,-23.7,M,0.8,0000*4F
$GPGSA,A,3,23,03,19,07,06,16,30,13,,,,,2.3,1.2,1.9*35
$GPRMC,002022.000,A,3353.7544,N,09832.0296,W,0.23,77.19,300312,,,D*48
$GPGGA,002023.000,3353.7544,N,09832.0296,W,2,08,1.2,308.5,M,-23.7,M,0.8,0000*4F
$GPGSA,A,3,23,03,19,07,06,16,30,13,,,,,2.3,1.2,1.9*35
$GPGSV,3,1,12,23,79,159,35,13,65,320,37,03,49,099,41,06,40,079,28*75
$GPGSV,3,2,12,16,39,040,36,07,36,301,23,19,32,145,38,10,22,294,*7A
$GPGSV,3,3,12,20,14,199,,30,14,048,32,08,07,281,,32,04,178,32*79
$GPRMC,002023.000,A,3353.7544,N,09832.0296,W,0.09,54.47,300312,,,D*4B
$GPGGA,002024.000,3353.7544,N,09832.0295,W,2,08,1.2,308.7,M,-23.7,M,1.8,0000*48
$GPGSA,A,3,23,03,19,07,06,16,30,13,,,,,2.3,1.2,1.9*35
$GPRMC,002024.000,A,3353.7544,N,09832.0295,W,0.25,88.37,300312,,,D*47
$GPGGA,002025.000,3353.7544,N,09832.0294,W,2,09,1.0,309.0,M,-23.7,M,0.8,0000*4C
$GPGSA,A,3,23,03,19,20,07,06,16,30,13,,,,1.7,1.0,1.4*3F
$GPRMC,002025.000,A,3353.7544,N,09832.0294,W,0.32,65.39,300312,,,D*4C
$GPGGA,002026.000,3353.7544,N,09832.0293,W,2,09,1.0,309.1,M,-23.7,M,0.8,0000*49
$GPGSA,A,3,23,03,19,20,07,06,16,30,13,,,,1.7,1.0,1.4*3F
$GPRMC,002026.000,A,3353.7544,N,09832.0293,W,0.10,24.50,300312,,,D*42
$GPGGA,002027.000,3353.7545,N,09832.0293,W,2,09,1.0,309.3,M,-23.7,M,0.8,0000*4B
$GPGSA,A,3,23,03,19,20,07,06,16,30,13,,,,1.7,1.0,1.4*3F
$GPRMC,002027.000,A,3353.7545,N,09832.0293,W,0.19,24.49,300312,,,D*43
$GPGGA,002028.000,3353.7545,N,09832.0292,W,2,09,1.0,309.5,M,-23.7,M,0.8,0000*43
$GPGSA,A,3,23,03,19,20,07,06,16,30,13,,,,1.7,1.0,1.4*3F
$GPGSV,3,1,12,23,79,159,35,13,65,320,37,03,49,099,41,06,40,079,29*74
$GPGSV,3,2,12,16,39,040,36,07,36,301,22,19,32,145,38,10,22,294,*7B
$GPGSV,3,3,12,20,14,199,19,30,14,048,31,08,07,281,,32,04,178,32*72
$GPRMC,002028.000,A,3353.7545,N,09832.0292,W,0.34,62.79,300312,,,D*43
$GPGGA,002029.000,3353.7545,N,09832.0291,W,2,09,1.0,309.6,M,-23.7,M,0.8,0000*42
$GPGSA,A,3,23,03,19,20,07,06,16,30,13,,,,1.7,1.0,1.4*3F
$GPRMC,002029.000,A,3353.7545,N,09832.0291,W,0.26,44.88,300312,,,D*48
$GPGGA,002030.000,3353.7546,N,09832.0291,W,2,09,1.0,309.7,M,-23.7,M,1.8,0000*49
$GPGSA,A,3,23,03,19,20,07,06,16,30,13,,,,1.7,1.0,1.4*3F
$GPRMC,002030.000,A,3353.7546,N,09832.0291,W,0.24,23.22,300312,,,D*40
$GPGGA,002031.000,3353.7546,N,09832.0290,W,2,09,1.0,309.8,M,-23.7,M,2.8,0000*45
$GPGSA,A,3,23,03,19,20,07,06,16,30,13,,,,1.7,1.0,1.4*3F
$GPRMC,002031.000,A,3353.7546,N,09832.0290,W,0.41,65.30,300312,,,D*42
$GPGGA,002032.000,3353.7546,N,09832.0289,W,2,09,1.0,309.8,M,-23.7,M,3.8,0000*4F
$GPGSA,A,3,23,03,19,20,07,06,16,30,13,,,,1.7,1.0,1.4*3F
$GPRMC,002032.000,A,3353.7546,N,09832.0289,W,0.17,74.89,300312,,,D*48
$GPGGA,002033.000,3353.7546,N,09832.0288,W,2,09,1.0,310.0,M,-23.7,M,0.8,0000*4C
$GPGSA,A,3,23,03,19,20,07,06,16,30,13,,,,1.7,1.0,1.4*3F
$GPGSV,3,1,12,23,79,159,35,13,65,320,37,03,49,099,41,06,40,079,29*74
$GPGSV,3,2,12,16,39,040,36,07,36,301,22,19,32,145,37,10,22,294,*74
$GPGSV,3,3,12,20,14,199,18,30,14,048,30,08,07,281,,32,04,178,32*72
$GPRMC,002033.000,A,3353.7546,N,09832.0288,W,0.39,67.25,300312,,,D*40
$GPGGA,002034.000,3353.7546,N,09832.0287,W,2,09,1.0,310.2,M,-23.7,M,0.8,0000*46
$GPGSA,A,3,23,03,19,20,07,06,16,30,13,,,,1.7,1.0,1.4*3F
$GPRMC,002034.000,A,3353.7546,N,09832.0287,W,0.47,71.61,300312,,,D*46
$GPGGA,002035.000,3353.7547,N,09832.0286,W,2,09,1.0,310.5,M,-23.7,M,0.8,0000*40
$GPGSA,A,3,23,03,19,20,07,06,16,30,13,,,,1.7,1.0,1.4*3F
$GPRMC,002035.000,A,3353.7547,N,09832.0286,W,0.40,54.62,300312,,,D*44
$GPGGA,002036.000,3353.7547,N,09832.0285,W,2,09,1.0,310.5,M,-23.7,M,1.8,0000*41
$GPGSA,A,3,23,03,19,20,07,06,16,30,13,,,,1.7,1.0,1.4*3F
$GPRMC,002036.000,A,3353.7547,N,09832.0285,W,0.05,27.83,300312,,,D*4E
$GPGGA,002037.000,3353.7547,N,09832.0286,W,2,09,1.0,310.5,M,-23.7,M,2.8,0000*40
$GPGSA,A,3,23,03,19,20,07,06,16,30,13,,,,1.7,1.0,1.4*3F
$GPRMC,002037.000,A,3353.7547,N,09832.0286,W,0.05,180.91,300312,,,D*73
$GPGGA,002038.000,3353.7546,N,09832.0286,W,2,09,1.0,310.5,M,-23.7,M,3.8,0000*4F
$GPGSA,A,3,23,03,19,20,07,06,16,30,13,,,,1.7,1.0,1.4*3F
$GPGSV,3,1,12,23,79,159,35,13,65,320,37,03,49,099,40,06,40,079,29*75
$GPGSV,3,2,12,16,39,040,37,07,36,301,22,19,32,145,37,10,22,294,*75
$GPGSV,3,3,12,20,14,199,18,30,14,048,29,08,07,281,,32,04,178,32*7A
$GPRMC,002038.000,A,3353.7546,N,09832.0286,W,0.06,198.33,300312,,,D*7F
$GPGGA,002039.000,3353.7546,N,09832.0286,W,2,09,1.0,310.4,M,-23.7,M,0.8,0000*4C
$GPGSA,A,3,23,03,19,20,07,06,16,30,13,,,,1.7,1.0,1.4*3F
$GPRMC,002039.000,A,3353.7546,N,09832.0286,W,0.16,256.66,300312,,,D*7E
$GPGGA,002040.000,3353.7546,N,09832.0286,W,2,09,1.0,310.4,M,-23.7,M,0.8,0000*42
$GPGSA,A,3,23,03,19,20,07,06,16,30,13,,,,1.7,1.0,1.4*3F
$GPRMC,002040.000,A,3353.7546,N,09832.0286,W,0.18,91.10,300312,,,D*46
$GPGGA,002041.000,3353.7546,N,09832.0286,W,2,09,1.0,310.5,M,-23.7,M,0.8,0000*42
$GPGSA,A,3,23,03,19,20,07,06,16,30,13,,,,1.7,1.0,1.4*3F
$GPRMC,002041.000,A,3353.7546,N,09832.0286,W,0.19,74.09,300312,,,D*45
$GPGGA,002042.000,3353.7546,N,09832.0285,W,2,09,1.0,310.4,M,-23.7,M,1.8,0000*42
$GPGSA,A,3,23,03,19,20,07,06,16,30,13,,,,1.7,1.0,1.4*3F
$GPRMC,002042.000,A,3353.7546,N,09832.0285,W,0.13,345.68,300312,,,D*79
$GPGGA,002043.000,3353.7546,N,09832.0285,W,2,09,1.0,310.4,M,-23.7,M,2.8,0000*40
$GPGSA,A,3,23,03,19,20,07,06,16,30,13,,,,1.7,1.0,1.4*3F
$GPGSV,3,1,12,23,79,159,35,13,65,320,37,03,49,099,40,06,40,079,29*75
$GPGSV,3,2,12,16,39,040,37,07,36,301,22,19,32,145,37,10,22,294,*75
$GPGSV,3,3,12,20,14,199,19,30,14,048,28,08,07,281,,32,04,178,33*7B
$GPRMC,002043.000,A,3353.7546,N,09832.0285,W,0.14,100.43,300312,,,D*75
$GPGGA,002044.000,3353.7545,N,09832.0285,W,2,09,1.0,310.3,M,-23.7,M,0.8,0000*41
$GPGSA,A,3,23,03,19,20,07,06,16,30,13,,,,1.7,1.0,1.4*3F
$GPRMC,002044.000,A,3353.7545,N,09832.0285,W,0.15,138.25,300312,,,D*7B
$GPGGA,002045.000,3353.7545,N,09832.0285,W,2,09,1.0,310.2,M,-23.7,M,0.8,0000*41
$GPGSA,A,3,23,03,19,20,07,06,16,30,13,,,,1.7,1.0,1.4*3F
$GPRMC,002045.000,A,3353.7545,N,09832.0285,W,0.04,8.96,300312,,,D*70
$GPGGA,002046.000,3353.7545,N,09832.0285,W,2,09,1.0,310.1,M,-23.7,M,0.8,0000*41
$GPGSA,A,3,23,03,19,20,07,06,16,30,13,,,,1.7,1.0,1.4*3F
$GPRMC,002046.000,A,3353.7545,N,09832.0285,W,0.12,120.54,300312,,,D*71
$GPGGA,002047.000,3353.7545,N,09832.0284,W,2,09,1.0,310.2,M,-23.7,M,0.8,0000*42
$GPGSA,A,3,23,03,19,20,07,06,16,30,13,,,,1.7,1.0,1.4*3F
$GPRMC,002047.000,A,3353.7545,N,09832.0284,W,0.18,28.32,300312,,,D*42
$GPGGA,002048.000,3353.7545,N,09832.0284,W,2,09,1.0,310.4,M,-23.7,M,1.8,0000*4A
$GPGSA,A,3,23,03,19,20,07,06,16,30,13,,,,1.7,1.0,1.4*3F
$GPGSV,3,1,12,23,79,159,35,13,65,320,36,03,49,099,40,06,40,079,29*74
$GPGSV,3,2,12,16,39,040,37,07,36,301,22,19,32,145,37,10,22,294,*75
$GPGSV,3,3,12,20,14,199,19,30,14,048,27,08,07,281,,32,04,178,32*75
$GPRMC,002048.000,A,3353.7545,N,09832.0284,W,0.29,66.23,300312,,,D*45
$GPGGA,002049.000,3353.7546,N,09832.0283,W,2,09,1.0,310.4,M,-23.7,M,2.8,0000*4C
$GPGSA,A,3,23,03,19,20,07,06,16,30,13,,,,1.7,1.0,1.4*3F
$GPRMC,002049.000,A,3353.7546,N,09832.0283,W,0.02,254.06,300312,,,D*7D
$GPGGA,002050.000,3353.7545,N,09832.0283,W,2,09,1.0,310.5,M,-23.7,M,0.8,0000*44
$GPGSA,A,3,23,03,19,20,07,06,16,30,13,,,,1.7,1.0,1.4*3F
$GPRMC,002050.000,A,3353.7545,N,09832.0283,W,0.17,107.57,300312,,,D*73
$GPGGA,002051.000,3353.7545,N,09832.0283,W,2,09,1.0,310.5,M,-23.7,M,0.8,0000*45
$GPGSA,A,3,23,03,19,20,07,06,16,30,13,,,,1.7,1.0,1.4*3F
$GPRMC,002051.000,A,3353.7545,N,09832.0283,W,0.21,143.52,300312,,,D*72
$GPGGA,002052.000,3353.7545,N,09832.0283,W,2,09,1.0,310.4,M,-23.7,M,0.8,0000*47
$GPGSA,A,3,23,03,19,20,07,06,16,30,13,,,,1.7,1.0,1.4*3F
$GPRMC,002052.000,A,3353.7545,N,09832.0283,W,0.08,247.78,300312,,,D*75
$GPGGA,002053.000,3353.7545,N,09832.0283,W,2,09,1.0,310.5,M,-23.7,M,0.8,0000*47
$GPGSA,A,3,23,03,19,20,07,06,16,30,13,,,,1.7,1.0,1.4*3F
$GPGSV,3,1,12,23,79,159,36,13,65,320,36,03,49,099,40,06,40,079,28*76
$GPGSV,3,2,12,16,39,040,37,07,36,301,22,19,32,145,37,10,22,294,*75
$GPGSV,3,3,12,20,14,199,18,30,14,048,26,08,07,281,17,32,04,178,32*73
$GPRMC,002053.000,A,3353.7545,N,09832.0283,W,0.15,41.85,300312,,,D*4E
$GPGGA,002054.000,3353.7545,N,09832.0282,W,2,09,1.0,310.7,M,-23.7,M,1.8,0000*42
$GPGSA,A,3,23,03,19,20,07,06,16,30,13,,,,1.7,1.0,1.4*3F
$GPRMC,002054.000,A,3353.7545,N,09832.0282,W,0.25,82.16,300312,,,D*4E
$GPGGA,002055.000,3353.7544,N,09832.0282,W,2,09,1.0,310.6,M,-23.7,M,2.8,0000*40
$GPGSA,A,3,23,03,19,20,07,06,16,30,13,,,,1.7,1.0,1.4*3F
$GPRMC,002055.000,A,3353.7544,N,09832.0282,W,0.18,131.07,300312,,,D*79
$GPGGA,002056.000,3353.7544,N,09832.0282,W,2,09,1.0,310.5,M,-23.7,M,3.8,0000*41
$GPGSA,A,3,23,03,19,20,07,06,16,30,13,,,,1.7,1.0,1.4*3F
$GPRMC,002056.000,A,3353.7544,N,09832.0282,W,0.14,252.39,300312,,,D*7D
$GPGGA,002057.000,3353.7544,N,09832.0282,W,2,09,1.0,310.4,M,-23.7,M,0.8,0000*42
$GPGSA,A,3,23,03,19,20,07,06,16,30,13,,,,1.7,1.0,1.4*3F
$GPRMC,002057.000,A,3353.7544,N,09832.0282,W,0.11,316.86,300312,,,D*7C
$GPGGA,002058.000,3353.7545,N,09832.0283,W,2,09,1.0,310.1,M,-23.7,M,0.8,0000*48
$GPGSA,A,3,23,03,19,20,07,06,16,30,13,,,,1.7,1.0,1.4*3F
$GPGSV,3,1,12,23,79,159,36,13,65,320,36,03,49,099,40,06,40,079,28*76
$GPGSV,3,2,12,16,39,040,37,07,36,301,22,19,32,145,37,10,22,294,*75
$GPGSV,3,3,12,20,14,199,18,30,14,048,22,08,07,281,,32,04,178,32*71
$GPRMC,002058.000,A,3353.7545,N,09832.0283,W,0.22,305.78,300312,,,D*70
$GPGGA,002059.000,3353.7545,N,09832.0283,W,2,09,1.0,309.9,M,-23.7,M,0.8,0000*49
$GPGSA,A,3,23,03,19,20,07,06,16,30,13,,,,1.7,1.0,1.4*3F
$GPRMC,002059.000,A,3353.7545,N,09832.0283,W,0.08,59.45,300312,,,D*4D
$GPGGA,002100.000,3353.7545,N,09832.0283,W,2,09,1.0,309.9,M,-23.7,M,0.8,0000*44
$GPGSA,A,3,23,03,19,20,07,06,16,30,13,,,,1.7,1.0,1.4*3F
$GPRMC,002100.000,A,3353.7545,N,09832.0283,W,0.15,228.36,300312,,,D*7C
$GPGGA,002101.000,3353.7545,N,09832.0283,W,2,09,1.0,309.8,M,-23.7,M,0.8,0000*44
$GPGSA,A,3,23,03,19,20,07,06,16,30,13,,,,1.7,1.0,1.4*3F
$GPRMC,002101.000,A,3353.7545,N,09832.0283,W,0.21,204.18,300312,,,D*78
$GPGGA,002102.000,3353.7545,N,09832.0282,W,2,09,1.0,309.9,M,-23.7,M,1.8,0000*46
$GPGSA,A,3,23,03,19,20,07,06,16,30,13,,,,1.7,1.0,1.4*3F
$GPRMC,002102.000,A,3353.7545,N,09832.0282,W,0.29,56.09,300312,,,D*47
$GPGGA,002103.000,3353.7545,N,09832.0281,W,2,09,1.0,310.1,M,-23.7,M,0.8,0000*45
$GPGSA,A,3,23,03,19,20,07,06,16,30,13,,,,1.7,1.0,1.4*3F
$GPGSV,3,1,12,23,79,159,36,13,65,320,36,03,49,099,39,06,40,079,28*78
$GPGSV,3,2,12,16,39,040,37,07,36,301,23,19,32,145,37,10,22,294,*74
$GPGSV,3,3,12,20,14,199,18,30,14,048,21,08,07,281,,32,04,178,32*72
$GPRMC,002103.000,A,3353.7545,N,09832.0281,W,0.14,94.28,300312,,,D*46
$GPGGA,002104.000,3353.7545,N,09832.0281,W,2,09,1.0,310.3,M,-23.7,M,0.8,0000*40
$GPGSA,A,3,23,03,19,20,07,06,16,30,13,,,,1.7,1.0,1.4*3F
$GPRMC,002104.000,A,3353.7545,N,09832.0281,W,0.16,78.31,300312,,,D*49
$GPGGA,002105.000,3353.7545,N,09832.0281,W,2,09,1.0,310.2,M,-23.7,M,0.8,0000*40
$GPGSA,A,3,23,03,19,20,07,06,16,30,13,,,,1.7,1.0,1.4*3F
$GPRMC,002105.000,A,3353.7545,N,09832.0281,W,0.13,336.94,300312,,,D*7B
$GPGGA,002106.000,3353.7545,N,09832.0281,W,2,09,1.0,310.1,M,-23.7,M,1.8,0000*41
$GPGSA,A,3,23,03,19,20,07,06,16,30,13,,,,1.7,1.0,1.4*3F
$GPRMC,002106.000,A,3353.7545,N,09832.0281,W,0.27,8.79,300312,,,D*72
$GPGGA,002107.000,3353.7546,N,09832.0281,W,2,09,1.0,310.0,M,-23.7,M,0.8,0000*43
$GPGSA,A,3,23,03,19,20,07,06,16,30,13,,,,1.7,1.0,1.4*3F
$GPRMC,002107.000,A,3353.7546,N,09832.0281,W,0.30,7.28,300312,,,D*7D
$GPGGA,002108.000,3353.7546,N,09832.0281,W,2,09,1.0,309.9,M,-23.7,M,1.8,0000*4C
$GPGSA,A,3,23,03,19,20,07,06,16,30,13,,,,1.7,1.0,1.4*3F
$GPGSV,3,1,12,23,79,159,36,13,65,320,36,03,49,099,39,06,40,079,28*78
$GPGSV,3,2,12,16,39,040,38,07,36,301,24,19,32,145,37,10,22,294,*7C
$GPGSV,3,3,12,20,14,199,18,30,14,048,21,08,07,281,,32,04,178,32*72
$GPRMC,002108.000,A,3353.7546,N,09832.0281,W,0.23,68.66,300312,,,D*43
$GPGGA,002109.000,3353.7547,N,09832.0280,W,2,09,1.0,310.1,M,-23.7,M,0.8,0000*4C
$GPGSA,A,3,23,03,19,20,07,06,16,30,13,,,,1.7,1.0,1.4*3F
$GPRMC,002109.000,A,3353.7547,N,09832.0280,W,0.37,63.57,300312,,,D*4E
$GPGGA,002110.000,3353.7547,N,09832.0279,W,2,09,1.0,310.2,M,-23.7,M,0.8,0000*41
$GPGSA,A,3,23,03,19,20,07,06,16,30,13,,,,1.7,1.0,1.4*3F
$GPRMC,002110.000,A,3353.7547,N,09832.0279,W,0.45,30.14,300312,,,D*44
$GPGGA,002111.000,3353.7548,N,09832.0278,W,2,09,1.0,310.4,M,-23.7,M,0.8,0000*48
$GPGSA,A,3,23,03,19,20,07,06,16,30,13,,,,1.7,1.0,1.4*3F
$GPRMC,002111.000,A,3353.7548,N,09832.0278,W,0.31,62.58,300312,,,D*47
$GPGGA,002112.000,3353.7548,N,09832.0277,W,2,09,1.0,310.7,M,-23.7,M,1.8,0000*46
$GPGSA,A,3,23,03,19,20,07,06,16,30,13,,,,1.7,1.0,1.4*3F
$GPRMC,002112.000,A,3353.7548,N,09832.0277,W,0.44,63.55,300312,,,D*45
$GPGGA,002113.000,3353.7548,N,09832.0276,W,2,09,1.0,310.7,M,-23.7,M,0.8,0000*47
$GPGSA,A,3,23,03,19,20,07,06,16,30,13,,,,1.7,1.0,1.4*3F
$GPGSV,3,1,12,23,79,159,36,13,65,320,36,03,49,099,39,06,40,079,28*78
$GPGSV,3,2,12,16,39,040,38,07,36,301,24,19,32,145,36,10,22,294,*7D
$GPGSV,3,3,12,20,14,199,18,30,14,048,21,08,07,281,,32,04,178,33*73
$GPRMC,002113.000,A,3353.7548,N,09832.0276,W,0.04,71.10,300312,,,D*43
$GPGGA,002114.000,3353.7548,N,09832.0276,W,2,09,1.0,310.8,M,-23.7,M,1.8,0000*4E
$GPGSA,A,3,23,03,19,20,07,06,16,30,13,,,,1.7,1.0,1.4*3F
$GPRMC,002114.000,A,3353.7548,N,09832.0276,W,0.27,80.44,300312,,,D*4A
$GPGGA,002115.000,3353.7548,N,09832.0276,W,2,09,1.0,310.6,M,-23.7,M,0.8,0000*40
$GPGSA,A,3,23,03,19,20,07,06,16,30,13,,,,1.7,1.0,1.4*3F
$GPRMC,002115.000,A,3353.7548,N,09832.0276,W,0.03,10.85,300312,,,D*49
$GPGGA,002116.000,3353.7548,N,09832.0276,W,2,09,1.0,310.5,M,-23.7,M,0.8,0000*40
$GPGSA,A,3,23,03,19,20,07,06,16,30,13,,,,1.7,1.0,1.4*3F
$GPRMC,002116.000,A,3353.7548,N,09832.0276,W,0.12,166.35,300312,,,D*71
$GPGGA,002117.000,3353.7547,N,09832.0276,W,2,09,1.0,310.5,M,-23.7,M,0.8,0000*4E
$GPGSA,A,3,23,03,19,20,07,06,16,30,13,,,,1.7,1.0,1.4*3F
$GPRMC,002117.000,A,3353.7547,N,09832.0276,W,0.25,34.44,300312,,,D*4B
$GPGGA,002118.000,3353.7548,N,09832.0275,W,2,09,1.0,310.5,M,-23.7,M,0.8,0000*4D
$GPGSA,A,3,23,03,19,20,07,06,16,30,13,,,,1.7,1.0,1.4*3F
$GPGSV,3,1,12,23,79,159,36,13,65,320,36,03,49,099,39,06,40,079,28*78
$GPGSV,3,2,12,16,39,040,38,07,36,301,24,19,32,145,36,10,22,294,*7D
$GPGSV,3,3,12,20,14,199,19,30,14,048,21,08,07,281,,32,04,178,33*72
$GPRMC,002118.000,A,3353.7548,N,09832.0275,W,0.37,33.46,300312,,,D*4E
$GPGGA,002119.000,3353.7548,N,09832.0275,W,2,09,1.0,310.6,M,-23.7,M,1.8,0000*4E
$GPGSA,A,3,23,03,19,20,07,06,16,30,13,,,,1.7,1.0,1.4*3F
$GPRMC,002119.000,A,3353.7548,N,09832.0275,W,0.25,48.34,300312,,,D*45
$GPGGA,002120.000,3353.7548,N,09832.0274,W,2,09,1.0,310.8,M,-23.7,M,2.8,0000*48
$GPGSA,A,3,23,03,19,20,07,06,16,30,13,,,,1.7,1.0,1.4*3F
$GPRMC,002120.000,A,3353.7548,N,09832.0274,W,0.23,49.85,300312,,,D*43
$GPGGA,002121.000,3353.7548,N,09832.0274,W,2,09,1.0,310.8,M,-23.7,M,0.8,0000*4B
$GPGSA,A,3,23,03,19,20,07,06,16,30,13,,,,1.7,1.0,1.4*3F
$GPRMC,002121.000,A,3353.7548,N,09832.0274,W,0.04,244.35,300312,,,D*73
$GPGGA,002122.000,3353.7548,N,09832.0275,W,2,09,1.0,310.8,M,-23.7,M,0.8,0000*49
$GPGSA,A,3,23,03,19,20,07,06,16,30,13,,,,1.7,1.0,1.4*3F
$GPRMC,002122.000,A,3353.7548,N,09832.0275,W,0.11,254.45,300312,,,D*73
$GPGGA,002123.000,3353.7548,N,09832.0275,W,2,09,1.0,310.8,M,-23.7,M,0.8,0000*48
$GPGSA,A,3,23,03,19,20,07,06,16,30,13,,,,1.7,1.0,1.4*3F
$GPGSV,3,1,12,23,79,159,36,13,65,320,36,03,49,099,39,06,40,079,29*79
$GPGSV,3,2,12,16,39,040,38,07,36,301,25,19,32,145,36,10,22,294,*7C
$GPGSV,3,3,12,20,14,199,18,30,14,048,22,08,07,281,,32,04,178,33*70
$GPRMC,002123.000,A,3353.7548,N,09832.0275,W,0.20,51.66,300312,,,D*46
$GPGGA,002124.000,3353.7548,N,09832.0274,W,2,09,1.0,311.0,M,-23.7,M,1.8,0000*46
$GPGSA,A,3,23,03,19,20,07,06,16,30,13,,,,1.7,1.0,1.4*3F
$GPRMC,002124.000,A,3353.7548,N,09832.0274,W,0.27,61.83,300312,,,D*4F
$GPGGA,002125.000,3353.7548,N,09832.0273,W,2,09,1.0,311.3,M,-23.7,M,2.8,0000*40
$GPGSA,A,3,23,03,19,20,07,06,16,30,13,,,,1.7,1.0,1.4*3F
$GPRMC,002125.000,A,3353.7548,N,09832.0273,W,0.13,44.24,300312,,,D*44
$GPGGA,002126.000,3353.7548,N,09832.0272,W,2,09,1.0,311.5,M,-23.7,M,3.8,0000*45
$GPGSA,A,3,23,03,19,20,07,06,16,30,13,,,,1.7,1.0,1.4*3F
$GPRMC,002126.000,A,3353.7548,N,09832.0272,W,0.35,75.53,300312,,,D*40
$GPGGA,002127.000,3353.7547,N,09832.0271,W,2,09,1.0,311.4,M,-23.7,M,0.8,0000*4A
$GPGSA,A,3,23,03,19,20,07,06,16,30,13,,,,1.7,1.0,1.4*3F
$GPRMC,002127.000,A,3353.7547,N,09832.0271,W,0.24,99.92,300312,,,D*42
$GPGGA,002128.000,3353.7547,N,09832.0271,W,2,09,1.0,311.4,M,-23.7,M,0.8,0000*45
$GPGSA,A,3,23,03,19,20,07,06,16,30,13,,,,1.7,1.0,1.4*3F
$GPGSV,3,1,12,23,79,159,36,13,65,320,36,03,49,099,40,06,40,079,29*77
$GPGSV,3,2,12,16,39,040,38,07,36,301,25,19,32,145,35,10,22,294,*7F
$GPGSV,3,3,12,20,14,199,18,30,14,048,22,08,07,281,,32,04,178,32*71
$GPRMC,002128.000,A,3353.7547,N,09832.0271,W,0.15,147.63,300312,,,D*73
$GPGGA,002129.000,3353.7546,N,09832.0271,W,2,09,1.0,311.4,M,-23.7,M,0.8,0000*45
$GPGSA,A,3,23,03,19,20,07,06,16,30,13,,,,1.7,1.0,1.4*3F
$GPRMC,002129.000,A,3353.7546,N,09832.0271,W,0.15,205.89,300312,,,D*72
$GPGGA,002130.000,3353.7545,N,09832.0272,W,2,09,1.0,311.3,M,-23.7,M,0.8,0000*4A
$GPGSA,A,3,23,03,19,20,07,06,16,30,13,,,,1.7,1.0,1.4*3F
$GPRMC,002130.000,A,3353.7545,N,09832.0272,W,0.19,196.14,300312,,,D*7B
$GPGGA,002131.000,3353.7545,N,09832.0272,W,2,09,1.0,311.2,M,-23.7,M,1.8,0000*4B
$GPGSA,A,3,23,03,19,20,07,06,16,30,13,,,,1.7,1.0,1.4*3F
$GPRMC,002131.000,A,3353.7545,N,09832.0272,W,0.28,212.33,300312,,,D*72
$GPGGA,002132.000,3353.7544,N,09832.0273,W,2,09,1.0,311.0,M,-23.7,M,2.8,0000*49
$GPGSA,A,3,23,03,19,20,07,06,16,30,13,,,,1.7,1.0,1.4*3F
$GPRMC,002132.000,A,3353.7544,N,09832.0273,W,0.17,225.93,300312,,,D*73
$GPGGA,002133.000,3353.7544,N,09832.0273,W,2,09,1.0,311.0,M,-23.7,M,0.8,0000*4A
$GPGSA,A,3,23,03,19,20,07,06,16,30,13,,,,1.7,1.0,1.4*3F
$GPGSV,3,1,12,23,79,159,36,13,65,320,36,03,49,099,40,06,40,079,29*77
$GPGSV,3,2,12,16,39,040,39,07,36,301,25,19,32,145,35,10,22,294,*7E
$GPGSV,3,3,12,20,14,199,18,30,14,048,21,08,07,281,,32,04,178,32*72
$GPRMC,002133.000,A,3353.7544,N,09832.0273,W,0.28,53.65,300312,,,D*44
$GPGGA,002134.000,3353.7544,N,09832.0272,W,2,09,1.0,311.0,M,-23.7,M,0.8,0000*4C
$GPGSA,A,3,23,03,19,20,07,06,16,30,13,,,,1.7,1.0,1.4*3F
$GPRMC,002134.000,A,3353.7544,N,09832.0272,W,0.29,60.05,300312,,,D*45
$GPGGA,002135.000,3353.7544,N,09832.0272,W,2,09,1.0,311.1,M,-23.7,M,0.8,0000*4C
$GPGSA,A,3,23,03,19,20,07,06,16,30,13,,,,1.7,1.0,1.4*3F
$GPRMC,002135.000,A,3353.7544,N,09832.0272,W,0.17,129.60,300312,,,D*76
$GPGGA,002136.000,3353.7543,N,09832.0272,W,2,09,1.0,311.1,M,-23.7,M,1.8,0000*49
$GPGSA,A,3,23,03,19,20,07,06,16,30,13,,,,1.7,1.0,1.4*3F
$GPRMC,002136.000,A,3353.7543,N,09832.0272,W,0.10,181.96,300312,,,D*7E
$GPGGA,002137.000,3353.7543,N,09832.0271,W,2,09,1.0,311.3,M,-23.7,M,2.8,0000*4A
$GPGSA,A,3,23,03,19,20,07,06,16,30,13,,,,1.7,1.0,1.4*3F
$GPRMC,002137.000,A,3353.7543,N,09832.0271,W,0.12,71.46,300312,,,D*4D
$GPGGA,002138.000,3353.7543,N,09832.0271,W,2,09,1.0,311.3,M,-23.7,M,0.8,0000*47
$GPGSA,A,3,23,03,19,20,07,06,16,30,13,,,,1.7,1.0,1.4*3F
$GPGSV,3,1,12,23,79,159,36,13,65,320,35,03,49,099,40,06,40,079,30*7C
$GPGSV,3,2,12,16,39,040,39,07,36,301,26,19,32,145,35,10,22,294,*7D
$GPGSV,3,3,12,20,14,199,17,30,14,048,20,08,07,281,,32,04,178,32*7C
$GPRMC,002138.000,A,3353.7543,N,09832.0271,W,0.06,205.64,300312,,,D*76
$GPGGA,002139.000,3353.7542,N,09832.0272,W,2,09,1.0,311.3,M,-23.7,M,0.8,0000*44
$GPGSA,A,3,23,03,19,20,07,06,16,30,13,,,,1.7,1.0,1.4*3F
$GPRMC,002139.000,A,3353.7542,N,09832.0272,W,0.16,198.83,300312,,,D*7A
$GPGGA,002140.000,3353.7542,N,09832.0272,W,2,09,1.0,311.2,M,-23.7,M,0.8,0000*4B
$GPGSA,A,3,23,03,19,20,07,06,16,30,13,,,,1.7,1.0,1.4*3F
$GPRMC,002140.000,A,3353.7542,N,09832.0272,W,0.28,157.56,300312,,,D*72
$GPGGA,002141.000,3353.7541,N,09832.0272,W,2,09,1.0,310.9,M,-23.7,M,0.8,0000*43
$GPGSA,A,3,23,03,19,20,07,06,16,30,13,,,,1.7,1.0,1.4*3F
$GPRMC,002141.000,A,3353.7541,N,09832.0272,W,0.12,173.07,300312,,,D*7B
$GPGGA,002142.000,3353.7540,N,09832.0272,W,2,08,1.1,310.8,M,-23.7,M,1.8,0000*41
$GPGSA,A,3,23,03,19,20,07,06,16,13,,,,,2.2,1.1,1.9*36
$GPRMC,002142.000,A,3353.7540,N,09832.0272,W,0.18,164.29,300312,,,D*79
$GPGGA,002143.000,3353.7540,N,09832.0273,W,2,08,1.1,310.5,M,-23.7,M,2.8,0000*4F
$GPGSA,A,3,23,03,19,20,07,06,16,13,,,,,2.2,1.1,1.9*36
$GPGSV,3,1,12,23,79,159,36,13,65,320,35,03,49,099,40,06,40,079,30*7C
$GPGSV,3,2,12,16,39,040,38,07,36,301,25,19,32,145,35,10,22,294,*7F
$GPGSV,3,3,12,20,14,199,15,30,14,048,11,08,07,281,,32,04,178,32*7C
$GPRMC,002143.000,A,3353.7540,N,09832.0273,W,0.22,247.78,300312,,,D*76
$GPGGA,002144.000,3353.7540,N,09832.0274,W,2,08,1.1,310.2,M,-23.7,M,0.8,0000*4A
$GPGSA,A,3,23,03,19,20,07,06,16,13,,,,,2.2,1.1,1.9*36
$GPRMC,002144.000,A,3353.7540,N,09832.0274,W,0.15,202.06,300312,,,D*7A
$GPGGA,002145.000,3353.7540,N,09832.0274,W,2,08,1.1,310.0,M,-23.7,M,0.8,0000*49
$GPGSA,A,3,23,03,19,20,07,06,16,13,,,,,2.2,1.1,1.9*36
$GPRMC,002145.000,A,3353.7540,N,09832.0274,W,0.10,236.60,300312,,,D*79
$GPGGA,002146.000,3353.7540,N,09832.0274,W,2,08,1.1,310.0,M,-23.7,M,0.8,0000*4A
$GPGSA,A,3,23,03,19,20,07,06,16,13,,,,,2.2,1.1,1.9*36
$GPRMC,002146.000,A,3353.7540,N,09832.0274,W,0.12,37.29,300312,,,D*46
$GPGGA,002147.000,3353.7540,N,09832.0274,W,2,08,1.1,310.1,M,-23.7,M,0.8,0000*4A
$GPGSA,A,3,23,03,19,20,07,06,16,13,,,,,2.2,1.1,1.9*36
$GPRMC,002147.000,A,3353.7540,N,09832.0274,W,0.23,47.19,300312,,,D*41
$GPGGA,002148.000,3353.7540,N,09832.0273,W,2,08,1.1,310.2,M,-23.7,M,0.8,0000*41
$GPGSA,A,3,23,03,19,20,07,06,16,13,,,,,2.2,1.1,1.9*36
$GPGSV,3,1,12,23,79,159,36,13,65,320,35,03,49,099,40,06,40,079,31*7D
$GPGSV,3,2,12,16,39,040,38,07,36,301,26,19,32,145,36,10,22,294,*7F
$GPGSV,3,3,12,20,14,199,16,30,14,048,,08,07,281,,32,04,178,31*7C
$GPRMC,002148.000,A,3353.7540,N,09832.0273,W,0.16,50.15,300312,,,D*45
$GPGGA,002149.000,3353.7541,N,09832.0273,W,2,08,1.1,310.2,M,-23.7,M,1.8,0000*40
$GPGSA,A,3,23,03,19,20,07,06,16,13,,,,,2.2,1.1,1.9*36
$GPRMC,002149.000,A,3353.7541,N,09832.0273,W,0.07,212.55,300312,,,D*75
$GPGGA,002150.000,3353.7541,N,09832.0273,W,2,08,1.1,310.3,M,-23.7,M,2.8,0000*4A
$GPGSA,A,3,23,03,19,20,07,06,16,13,,,,,2.2,1.1,1.9*36
$GPRMC,002150.000,A,3353.7541,N,09832.0273,W,0.24,46.13,300312,,,D*4D
$GPGGA,002151.000,3353.7541,N,09832.0272,W,2,08,1.1,310.3,M,-23.7,M,0.8,0000*48
$GPGSA,A,3,23,03,19,20,07,06,16,13,,,,,2.2,1.1,1.9*36
$GPRMC,002151.000,A,3353.7541,N,09832.0272,W,0.25,106.50,300312,,,D*7E
$GPGGA,002152.000,3353.7541,N,09832.0271,W,2,08,1.1,310.3,M,-23.7,M,0.8,0000*48
$GPGSA,A,3,23,03,19,20,07,06,16,13,,,,,2.2,1.1,1.9*36
$GPRMC,002152.000,A,3353.7541,N,09832.0271,W,0.19,133.59,300312,,,D*7E
$GPGGA,002153.000,3353.7541,N,09832.0271,W,2,08,1.1,310.3,M,-23.7,M,0.8,0000*49
$GPGSA,A,3,23,03,19,20,07,06,16,13,,,,,2.2,1.1,1.9*36
$GPGSV,3,1,12,23,77,159,37,13,66,319,34,03,49,096,40,06,40,077,32*78
$GPGSV,3,2,12,16,38,041,38,07,37,303,25,19,34,144,36,10,22,292,*7E
$GPGSV,3,3,12,20,13,199,18,30,12,048,,08,08,282,,32,03,178,31*78
$GPRMC,002153.000,A,3353.7541,N,09832.0271,W,0.09,118.66,300312,,,D*7B
$GPGGA,002154.000,3353.7541,N,09832.0271,W,2,08,1.1,310.2,M,-23.7,M,1.8,0000*4E
$GPGSA,A,3,23,03,19,20,07,06,16,13,,,,,2.2,1.1,1.9*36
$GPRMC,002154.000,A,3353.7541,N,09832.0271,W,0.12,193.64,300312,,,D*77
$GPGGA,002155.000,3353.7541,N,09832.0272,W,2,08,1.1,310.1,M,-23.7,M,0.8,0000*4E
$GPGSA,A,3,23,03,19,20,07,06,16,13,,,,,2.2,1.1,1.9*36
$GPRMC,002155.000,A,3353.7541,N,09832.0272,W,0.03,134.45,300312,,,D*7B
$GPGGA,002156.000,3353.7541,N,09832.0272,W,2,08,1.1,310.1,M,-23.7,M,1.8,0000*4C
$GPGSA,A,3,23,03,19,20,07,06,16,13,,,,,2.2,1.1,1.9*36
$GPRMC,002156.000,A,3353.7541,N,09832.0272,W,0.05,92.99,300312,,,D*42
$GPGGA,002157.000,3353.7541,N,09832.0272,W,2,08,1.1,310.1,M,-23.7,M,0.8,0000*4C
$GPGSA,A,3,23,03,19,20,07,06,16,13,,,,,2.2,1.1,1.9*36
$GPRMC,002157.000,A,3353.7541,N,09832.0272,W,0.14,357.56,300312,,,D*7A
$GPGGA,002158.000,3353.7542,N,09832.0272,W,2,08,1.1,310.1,M,-23.7,M,0.8,0000*40
$GPGSA,A,3,23,03,19,20,07,06,16,13,,,,,2.2,1.1,1.9*36
$GPGSV,3,1,12,23,77,159,37,13,66,319,34,03,49,096,40,06,40,077,32*78
$GPGSV,3,2,12,16,38,041,38,07,37,303,25,19,34,144,36,10,22,292,*7E
$GPGSV,3,3,12,20,13,199,19,30,12,048,,08,08,282,,32,03,178,31*79
$GPRMC,002158.000,A,3353.7542,N,09832.0272,W,0.07,259.20,300312,,,D*7A
$GPGGA,002159.000,3353.7542,N,09832.0273,W,2,08,1.1,310.0,M,-23.7,M,0.8,0000*41
$GPGSA,A,3,23,03,19,20,07,06,16,13,,,,,2.2,1.1,1.9*36
$GPRMC,002159.000,A,3353.7542,N,09832.0273,W,0.13,240.10,300312,,,D*74
$GPGGA,002200.000,3353.7542,N,09832.0273,W,2,08,1.1,309.9,M,-23.7,M,1.8,0000*4E
$GPGSA,A,3,23,03,19,20,07,06,16,13,,,,,2.2,1.1,1.9*36
$GPRMC,002200.000,A,3353.7542,N,09832.0273,W,0.13,333.17,300312,,,D*79
$GPGGA,002201.000,3353.7543,N,09832.0273,W,2,08,1.1,310.0,M,-23.7,M,0.8,0000*4E
$GPGSA,A,3,23,03,19,20,07,06,16,13,,,,,2.2,1.1,1.9*36
$GPRMC,002201.000,A,3353.7543,N,09832.0273,W,0.22,16.86,300312,,,D*47
$GPGGA,002202.000,3353.7543,N,09832.0273,W,2,08,1.1,310.0,M,-23.7,M,1.8,0000*4C
$GPGSA,A,3,23,03,19,20,07,06,16,13,,,,,2.2,1.1,1.9*36
$GPRMC,002202.000,A,3353.7543,N,09832.0273,W,0.11,106.19,300312,,,D*72
$GPGGA,002203.000,3353.7543,N,09832.0273,W,2,08,1.1,309.9,M,-23.7,M,0.8,0000*4D
$GPGSA,A,3,23,03,19,20,07,06,16,13,,,,,2.2,1.1,1.9*36
$GPGSV,3,1,12,23,77,159,37,13,66,319,34,03,49,096,40,06,40,077,33*79
$GPGSV,3,2,12,16,38,041,38,07,37,303,25,19,34,144,36,10,22,292,*7E
$GPGSV,3,3,12,20,13,199,18,30,12,048,,08,08,282,,32,03,178,30*79
$GPRMC,002203.000,A,3353.7543,N,09832.0273,W,0.08,123.95,300312,,,D*78
$GPGGA,002204.000,3353.7543,N,09832.0272,W,2,08,1.1,310.1,M,-23.7,M,0.8,0000*4B
$GPGSA,A,3,23,03,19,20,07,06,16,13,,,,,2.2,1.1,1.9*36
$GPRMC,002204.000,A,3353.7543,N,09832.0272,W,0.32,72.67,300312,,,D*4F
$GPGGA,002205.000,3353.7543,N,09832.0272,W,2,08,1.1,310.2,M,-23.7,M,0.8,0000*49
$GPGSA,A,3,23,03,19,20,07,06,16,13,,,,,2.2,1.1,1.9*36
$GPRMC,002205.000,A,3353.7543,N,09832.0272,W,0.24,39.79,300312,,,D*49
$GPGGA,002206.000,3353.7544,N,09832.0272,W,2,09,1.0,310.1,M,-23.7,M,1.8,0000*4F
$GPGSA,A,3,23,03,19,20,30,07,06,16,13,,,,1.7,1.0,1.4*3F
$GPRMC,002206.000,A,3353.7544,N,09832.0272,W,0.04,60.95,300312,,,D*41
$GPGGA,002207.000,3353.7544,N,09832.0272,W,2,09,1.0,310.0,M,-23.7,M,2.8,0000*4C
$GPGSA,A,3,23,03,19,20,30,07,06,16,13,,,,1.7,1.0,1.4*3F
$GPRMC,002207.000,A,3353.7544,N,09832.0272,W,0.04,138.15,300312,,,D*74
$GPGGA,002208.000,3353.7544,N,09832.0271,W,2,09,1.0,310.2,M,-23.7,M,3.8,0000*43
$GPGSA,A,3,23,03,19,20,30,07,06,16,13,,,,1.7,1.0,1.4*3F
$GPGSV,3,1,12,23,77,159,37,13,66,319,34,03,49,096,40,06,40,077,33*79
$GPGSV,3,2,12,16,38,041,38,07,37,303,24,19,34,144,35,10,22,292,*7C
$GPGSV,3,3,12,20,13,199,18,30,12,048,22,08,08,282,,32,03,178,31*78
$GPRMC,002208.000,A,3353.7544,N,09832.0271,W,0.37,70.06,300312,,,D*47
$GPGGA,002209.000,3353.7544,N,09832.0271,W,2,09,1.0,310.2,M,-23.7,M,0.8,0000*41
$GPGSA,A,3,23,03,19,20,30,07,06,16,13,,,,1.7,1.0,1.4*3F
$GPRMC,002209.000,A,3353.7544,N,09832.0271,W,0.16,251.07,300312,,,D*75
$GPGGA,002210.000,3353.7544,N,09832.0272,W,2,09,1.0,310.1,M,-23.7,M,0.8,0000*49
$GPGSA,A,3,23,03,19,20,30,07,06,16,13,,,,1.7,1.0,1.4*3F
$GPRMC,002210.000,A,3353.7544,N,09832.0272,W,0.14,292.26,300312,,,D*70
$GPGGA,002211.000,3353.7544,N,09832.0272,W,2,09,1.0,310.3,M,-23.7,M,0.8,0000*4A
$GPGSA,A,3,23,03,19,20,30,07,06,16,13,,,,1.7,1.0,1.4*3F
$GPRMC,002211.000,A,3353.7544,N,09832.0272,W,0.10,43.79,300312,,,D*41
$GPGGA,002212.000,3353.7544,N,09832.0272,W,2,09,1.0,310.2,M,-23.7,M,1.8,0000*49
$GPGSA,A,3,23,03,19,20,30,07,06,16,13,,,,1.7,1.0,1.4*3F
$GPRMC,002212.000,A,3353.7544,N,09832.0272,W,0.21,112.70,300312,,,D*7C
$GPGGA,002213.000,3353.7544,N,09832.0272,W,2,09,1.0,310.2,M,-23.7,M,2.8,0000*4B
$GPGSA,A,3,23,03,19,20,30,07,06,16,13,,,,1.7,1.0,1.4*3F
$GPGSV,3,1,12,23,77,159,37,13,66,319,34,03,49,096,40,06,40,077,33*79
$GPGSV,3,2,12,16,38,041,38,07,37,303,24,19,34,144,34,10,22,292,*7D
$GPGSV,3,3,12,20,13,199,19,30,12,048,22,08,08,282,,32,03,178,31*79
$GPRMC,002213.000,A,3353.7544,N,09832.0272,W,0.02,328.24,300312,,,D*76
$GPGGA,002214.000,3353.7544,N,09832.0270,W,2,09,1.0,310.4,M,-23.7,M,3.8,0000*49
$GPGSA,A,3,23,03,19,20,30,07,06,16,13,,,,1.7,1.0,1.4*3F
$GPRMC,002214.000,A,3353.7544,N,09832.0270,W,0.37,87.63,300312,,,D*40
$GPGGA,002215.000,3353.7544,N,09832.0268,W,2,09,1.0,310.7,M,-23.7,M,0.8,0000*41
$GPGSA,A,3,23,03,19,20,30,07,06,16,13,,,,1.7,1.0,1.4*3F
$GPRMC,002215.000,A,3353.7544,N,09832.0268,W,0.43,91.30,300312,,,D*4A
$GPGGA,002216.000,3353.7544,N,09832.0267,W,2,09,1.0,310.6,M,-23.7,M,0.8,0000*4C
$GPGSA,A,3,23,03,19,20,30,07,06,16,13,,,,1.7,1.0,1.4*3F
$GPRMC,002216.000,A,3353.7544,N,09832.0267,W,0.09,147.31,300312,,,D*73
$GPGGA,002217.000,3353.7544,N,09832.0267,W,2,09,1.0,310.5,M,-23.7,M,0.8,0000*4E
$GPGSA,A,3,23,03,19,20,30,07,06,16,13,,,,1.7,1.0,1.4*3F
$GPRMC,002217.000,A,3353.7544,N,09832.0267,W,0.10,215.57,300312,,,D*7E
$GPGGA,002218.000,3353.7544,N,09832.0267,W,2,09,1.0,310.4,M,-23.7,M,0.8,0000*40
$GPGSA,A,3,23,03,19,20,30,07,06,16,13,,,,1.7,1.0,1.4*3F
$GPGSV,3,1,12,23,77,159,37,13,66,319,34,03,49,096,40,06,40,077,33*79
$GPGSV,3,2,12,16,38,041,38,07,37,303,23,19,34,144,31,10,22,292,*7F
$GPGSV,3,3,12,20,13,199,20,30,12,048,24,08,08,282,,32,03,178,31*75
$GPRMC,002218.000,A,3353.7544,N,09832.0267,W,0.23,282.84,300312,,,D*71
$GPGGA,002219.000,3353.7544,N,09832.0268,W,2,09,1.0,310.2,M,-23.7,M,1.8,0000*49
$GPGSA,A,3,23,03,19,20,30,07,06,16,13,,,,1.7,1.0,1.4*3F
$GPRMC,002219.000,A,3353.7544,N,09832.0268,W,0.26,262.34,300312,,,D*7F
$GPGGA,002220.000,3353.7544,N,09832.0269,W,2,09,1.0,310.0,M,-23.7,M,0.8,0000*41
$GPGSA,A,3,23,03,19,20,30,07,06,16,13,,,,1.7,1.0,1.4*3F
$GPRMC,002220.000,A,3353.7544,N,09832.0269,W,0.21,238.67,300312,,,D*7A
$GPGGA,002221.000,3353.7544,N,09832.0269,W,2,09,1.0,309.8,M,-23.7,M,0.8,0000*40
$GPGSA,A,3,23,03,19,20,30,07,06,16,13,,,,1.7,1.0,1.4*3F
$GPRMC,002221.000,A,3353.7544,N,09832.0269,W,0.22,303.13,300312,,,D*72
$GPGGA,002222.000,3353.7544,N,09832.0269,W,2,09,1.0,309.9,M,-23.7,M,0.8,0000*42
$GPGSA,A,3,23,03,19,20,30,07,06,16,13,,,,1.7,1.0,1.4*3F
$GPRMC,002222.000,A,3353.7544,N,09832.0269,W,0.14,359.59,300312,,,D*75
$GPGGA,002223.000,3353.7544,N,09832.0269,W,2,09,1.0,309.8,M,-23.7,M,0.8,0000*42
$GPGSA,A,3,23,03,19,20,30,07,06,16,13,,,,1.7,1.0,1.4*3F
$GPGSV,3,1,12,23,77,159,37,13,66,319,34,03,49,096,40,06,40,077,33*79
$GPGSV,3,2,12,16,38,041,38,07,37,303,23,19,34,144,31,10,22,292,*7F
$GPGSV,3,3,12,20,13,199,22,30,12,048,25,08,08,282,,32,03,178,32*75
$GPRMC,002223.000,A,3353.7544,N,09832.0269,W,0.13,152.87,300312,,,D*79
$GPGGA,002224.000,3353.7544,N,09832.0268,W,2,09,1.0,309.6,M,-23.7,M,1.8,0000*4B
$GPGSA,A,3,23,03,19,20,30,07,06,16,13,,,,1.7,1.0,1.4*3F
$GPRMC,002224.000,A,3353.7544,N,09832.0268,W,0.11,132.16,300312,,,D*73
$GPGGA,002225.000,3353.7543,N,09832.0268,W,2,09,1.0,309.5,M,-23.7,M,2.8,0000*4D
$GPGSA,A,3,23,03,19,20,30,07,06,16,13,,,,1.7,1.0,1.4*3F
$GPRMC,002225.000,A,3353.7543,N,09832.0268,W,0.17,166.56,300312,,,D*76
$GPGGA,002226.000,3353.7543,N,09832.0268,W,2,09,1.0,309.3,M,-23.7,M,0.8,0000*4A
$GPGSA,A,3,23,03,19,20,30,07,06,16,13,,,,1.7,1.0,1.4*3F
$GPRMC,002226.000,A,3353.7543,N,09832.0268,W,0.16,179.40,300312,,,D*7D
$GPGGA,002227.000,3353.7542,N,09832.0267,W,2,09,1.0,309.4,M,-23.7,M,0.8,0000*42
$GPGSA,A,3,23,03,19,20,30,07,06,16,13,,,,1.7,1.0,1.4*3F
$GPRMC,002227.000,A,3353.7542,N,09832.0267,W,0.27,93.53,300312,,,D*47
$GPGGA,002228.000,3353.7542,N,09832.0266,W,2,09,1.0,309.5,M,-23.7,M,0.8,0000*4D
$GPGSA,A,3,23,03,19,20,30,07,06,16,13,,,,1.7,1.0,1.4*3F
$GPGSV,3,1,12,23,77,159,37,13,66,319,34,03,49,096,40,06,40,077,34*7E
$GPGSV,3,2,12,16,38,041,38,07,37,303,24,19,34,144,32,10,22,292,*7B
$GPGSV,3,3,12,20,13,199,22,30,12,048,26,08,08,282,,32,03,178,32*76
$GPRMC,002228.000,A,3353.7542,N,09832.0266,W,0.36,88.64,300312,,,D*47
$GPGGA,002229.000,3353.7542,N,09832.0266,W,2,09,1.0,309.3,M,-23.7,M,0.8,0000*4A
$GPGSA,A,3,23,03,19,20,30,07,06,16,13,,,,1.7,1.0,1.4*3F
$GPRMC,002229.000,A,3353.7542,N,09832.0266,W,0.06,213.42,300312,,,D*71
$GPGGA,002230.000,3353.7542,N,09832.0266,W,2,09,1.0,309.2,M,-23.7,M,1.8,0000*42
$GPGSA,A,3,23,03,19,20,30,07,06,16,13,,,,1.7,1.0,1.4*3F
$GPRMC,002230.000,A,3353.7542,N,09832.0266,W,0.08,136.98,300312,,,D*74
$GPGGA,002231.000,3353.7542,N,09832.0266,W,2,09,1.0,309.2,M,-23.7,M,2.8,0000*40
$GPGSA,A,3,23,03,19,20,30,07,06,16,13,,,,1.7,1.0,1.4*3F
$GPRMC,002231.000,A,3353.7542,N,09832.0266,W,0.08,43.92,300312,,,D*4C
$GPGGA,002232.000,3353.7542,N,09832.0266,W,2,09,1.0,309.3,M,-23.7,M,3.8,0000*43
$GPGSA,A,3,23,03,19,20,30,07,06,16,13,,,,1.7,1.0,1.4*3F
$GPRMC,002232.000,A,3353.7542,N,09832.0266,W,0.19,79.59,300312,,,D*41
$GPGGA,002233.000,3353.7542,N,09832.0266,W,2,09,1.0,309.1,M,-23.7,M,0.8,0000*43
$GPGSA,A,3,23,03,19,20,30,07,06,16,13,,,,1.7,1.0,1.4*3F
$GPGSV,3,1,12,23,77,159,37,13,66,319,34,03,49,096,39,06,40,077,34*70
$GPGSV,3,2,12,16,38,041,38,07,37,303,24,19,34,144,32,10,22,292,13*79
$GPGSV,3,3,12,20,13,199,21,30,12,048,27,08,08,282,,32,03,178,32*74
$GPRMC,002233.000,A,3353.7542,N,09832.0266,W,0.15,248.81,300312,,,D*79
$GPGGA,002234.000,3353.7542,N,09832.0267,W,2,09,1.0,309.0,M,-23.7,M,0.8,0000*44
$GPGSA,A,3,23,03,19,20,30,07,06,16,13,,,,1.7,1.0,1.4*3F
$GPRMC,002234.000,A,3353.7542,N,09832.0267,W,0.13,219.15,300312,,,D*70
$GPGGA,002235.000,3353.7542,N,09832.0267,W,2,09,1.0,309.1,M,-23.7,M,0.8,0000*44
$GPGSA,A,3,23,03,19,20,30,07,06,16,13,,,,1.7,1.0,1.4*3F
$GPRMC,002235.000,A,3353.7542,N,09832.0267,W,0.16,34.16,300312,,,D*4A
$GPGGA,002236.000,3353.7542,N,09832.0267,W,2,09,1.0,309.0,M,-23.7,M,1.8,0000*47
$GPGSA,A,3,23,03,19,20,30,07,06,16,13,,,,1.7,1.0,1.4*3F
