$GPGGA,150149.000,3352.3433,N,09831.2429,W,2,09,1.0,289.7,M,-23.7,M,0.8,0000*4A
$GPGSA,A,3,14,27,15,22,18,29,09,06,03,,,,2.6,1.0,2.4*3B
$GPRMC,150149.000,A,3352.3433,N,09831.2429,W,0.21,50.36,020412,,,D*49
$GPGGA,150150.000,3352.3434,N,09831.2429,W,2,09,1.0,289.6,M,-23.7,M,1.8,0000*45
$GPGSA,A,3,14,27,15,22,18,29,09,06,03,,,,2.6,1.0,2.4*3B
$GPRMC,150150.000,A,3352.3434,N,09831.2429,W,0.21,48.55,020412,,,D*4A
$GPGGA,150151.000,3352.3434,N,09831.2430,W,2,09,1.0,289.8,M,-23.7,M,0.8,0000*43
$GPGSA,A,3,14,27,15,22,18,29,09,06,03,,,,2.6,1.0,2.4*3B
$GPGSV,3,1,12,21,82,074,,18,65,345,35,15,43,046,37,22,36,284,29*79
$GPGSV,3,2,12,09,31,109,32,06,29,294,31,27,29,080,21,14,21,213,30*79
$GPGSV,3,3,12,03,20,302,30,29,15,178,36,26,01,038,,51,49,195,36*72
$GPRMC,150151.000,A,3352.3434,N,09831.2430,W,0.07,324.72,020412,,,D*7B
$GPGGA,150152.000,3352.3434,N,09831.2430,W,2,09,1.0,289.9,M,-23.7,M,0.8,0000*41
$GPGSA,A,3,14,27,15,22,18,29,09,06,03,,,,2.6,1.0,2.4*3B
$GPRMC,150152.000,A,3352.3434,N,09831.2430,W,0.15,55.66,020412,,,D*4B
$GPGGA,150153.000,3352.3434,N,09831.2430,W,2,09,1.0,289.9,M,-23.7,M,0.8,0000*40
$GPGSA,A,3,14,27,15,22,18,29,09,06,03,,,,2.6,1.0,2.4*3B
$GPRMC,150153.000,A,3352.3434,N,09831.2430,W,0.16,55.34,020412,,,D*4E
$GPGGA,150154.000,3352.3434,N,09831.2430,W,2,09,1.0,290.1,M,-23.7,M,0.8,0000*47
$GPGSA,A,3,14,27,15,22,18,29,09,06,03,,,,2.6,1.0,2.4*3B
$GPRMC,150154.000,A,3352.3434,N,09831.2430,W,0.06,2.86,020412,,,D*73
$GPGGA,150155.000,3352.3434,N,09831.2431,W,2,09,1.0,290.1,M,-23.7,M,1.8,0000*46
$GPGSA,A,3,14,27,15,22,18,29,09,06,03,,,,2.6,1.0,2.4*3B
$GPRMC,150155.000,A,3352.3434,N,09831.2431,W,0.11,49.47,020412,,,D*47
$GPGGA,150156.000,3352.3434,N,09831.2431,W,2,09,1.0,290.2,M,-23.7,M,2.8,0000*45
$GPGSA,A,3,14,27,15,22,18,29,09,06,03,,,,2.6,1.0,2.4*3B
$GPGSV,3,1,12,21,82,074,,18,65,345,35,15,43,046,37,22,36,284,29*79
$GPGSV,3,2,12,09,31,109,31,06,29,294,31,27,29,080,20,14,21,213,30*7B
$GPGSV,3,3,12,03,20,302,30,29,15,178,36,26,01,038,,51,49,195,36*72
$GPRMC,150156.000,A,3352.3434,N,09831.2431,W,0.16,51.45,020412,,,D*48
$GPGGA,150157.000,3352.3434,N,09831.2431,W,2,09,1.0,290.3,M,-23.7,M,0.8,0000*47
$GPGSA,A,3,14,27,15,22,18,29,09,06,03,,,,2.6,1.0,2.4*3B
$GPRMC,150157.000,A,3352.3434,N,09831.2431,W,0.05,328.69,020412,,,D*78
$GPGGA,150158.000,3352.3434,N,09831.2431,W,2,09,1.0,290.4,M,-23.7,M,0.8,0000*4F
$GPGSA,A,3,14,27,15,22,18,29,09,06,03,,,,2.6,1.0,2.4*3B
$GPRMC,150158.000,A,3352.3434,N,09831.2431,W,0.07,355.94,020412,,,D*7D
$GPGGA,150159.000,3352.3434,N,09831.2432,W,2,09,1.0,290.4,M,-23.7,M,0.8,0000*4D
$GPGSA,A,3,14,27,15,22,18,29,09,06,03,,,,2.6,1.0,2.4*3B
$GPRMC,150159.000,A,3352.3434,N,09831.2432,W,0.16,40.74,020412,,,D*46
$GPGGA,150200.000,3352.3434,N,09831.2431,W,2,09,1.0,290.4,M,-23.7,M,1.8,0000*40
$GPGSA,A,3,14,27,15,22,18,29,09,06,03,,,,2.6,1.0,2.4*3B
$GPRMC,150200.000,A,3352.3434,N,09831.2431,W,0.16,46.27,020412,,,D*4A
$GPGGA,150201.000,3352.3434,N,09831.2432,W,2,09,1.0,290.4,M,-23.7,M,0.8,0000*43
$GPGSA,A,3,14,27,15,22,18,29,09,06,03,,,,2.6,1.0,2.4*3B
$GPGSV,3,1,12,21,82,074,,18,65,345,35,15,43,046,37,22,36,284,28*78
$GPGSV,3,2,12,09,31,109,31,06,29,294,31,27,29,080,19,14,21,213,31*70
$GPGSV,3,3,12,03,20,302,30,29,15,178,36,26,01,038,,51,49,195,36*72
$GPRMC,150201.000,A,3352.3434,N,09831.2432,W,0.11,25.32,020412,,,D*4E
$GPGGA,150202.000,3352.3434,N,09831.2432,W,2,09,1.0,290.5,M,-23.7,M,1.8,0000*40
$GPGSA,A,3,14,27,15,22,18,29,09,06,03,,,,2.6,1.0,2.4*3B
$GPRMC,150202.000,A,3352.3434,N,09831.2432,W,0.08,319.90,020412,,,D*71
$GPGGA,150203.000,3352.3434,N,09831.2433,W,2,09,1.0,290.7,M,-23.7,M,0.8,0000*43
$GPGSA,A,3,14,27,15,22,18,29,09,06,03,,,,2.6,1.0,2.4*3B
$GPRMC,150203.000,A,3352.3434,N,09831.2433,W,0.09,322.33,020412,,,D*71
$GPGGA,150204.000,3352.3434,N,09831.2433,W,2,09,1.0,290.8,M,-23.7,M,0.8,0000*4B
$GPGSA,A,3,14,27,15,22,18,29,09,06,03,,,,2.6,1.0,2.4*3B
$GPRMC,150204.000,A,3352.3434,N,09831.2433,W,0.05,290.19,020412,,,D*7A
$GPGGA,150205.000,3352.3434,N,09831.2433,W,2,09,1.0,291.0,M,-23.7,M,0.8,0000*43
$GPGSA,A,3,14,27,15,22,18,29,09,06,03,,,,2.6,1.0,2.4*3B
$GPRMC,150205.000,A,3352.3434,N,09831.2433,W,0.06,263.14,020412,,,D*79
$GPGGA,150206.000,3352.3434,N,09831.2434,W,2,09,1.0,291.1,M,-23.7,M,1.8,0000*47
$GPGSA,A,3,14,27,15,22,18,29,09,06,03,,,,2.6,1.0,2.4*3B
$GPGSV,3,1,12,21,82,074,,18,65,345,35,15,43,046,37,22,36,284,28*78
$GPGSV,3,2,12,09,31,109,31,06,29,294,30,27,29,080,19,14,21,213,30*70
$GPGSV,3,3,12,03,20,302,30,29,15,178,36,26,01,038,,51,49,195,36*72
$GPRMC,150206.000,A,3352.3434,N,09831.2434,W,0.04,267.66,020412,,,D*7E
$GPGGA,150207.000,3352.3434,N,09831.2433,W,2,09,1.0,291.1,M,-23.7,M,0.8,0000*40
$GPGSA,A,3,14,27,15,22,18,29,09,06,03,,,,2.6,1.0,2.4*3B
$GPRMC,150207.000,A,3352.3434,N,09831.2433,W,0.14,69.36,020412,,,D*40
$GPGGA,150208.000,3352.3434,N,09831.2432,W,2,09,1.0,291.1,M,-23.7,M,1.8,0000*4F
$GPGSA,A,3,14,27,15,22,18,29,09,06,03,,,,2.6,1.0,2.4*3B
$GPRMC,150208.000,A,3352.3434,N,09831.2432,W,0.12,66.80,020412,,,D*4A
$GPGGA,150209.000,3352.3434,N,09831.2432,W,2,09,1.0,291.0,M,-23.7,M,0.8,0000*4E
$GPGSA,A,3,14,27,15,22,18,29,09,06,03,,,,2.6,1.0,2.4*3B
$GPRMC,150209.000,A,3352.3434,N,09831.2432,W,0.11,60.97,020412,,,D*48
$GPGGA,150210.000,3352.3434,N,09831.2431,W,2,09,1.0,290.8,M,-23.7,M,0.8,0000*4C
$GPGSA,A,3,14,27,15,22,18,29,09,06,03,,,,2.6,1.0,2.4*3B
$GPRMC,150210.000,A,3352.3434,N,09831.2431,W,0.16,50.88,020412,,,D*49
$GPGGA,150211.000,3352.3434,N,09831.2430,W,2,09,1.0,290.7,M,-23.7,M,0.8,0000*43
$GPGSA,A,3,14,27,15,22,18,29,09,06,03,,,,2.6,1.0,2.4*3B
$GPGSV,3,1,12,21,82,074,,18,65,345,35,15,43,046,37,22,36,284,27*77
$GPGSV,3,2,12,09,31,109,30,06,29,294,30,27,29,080,17,14,21,213,30*7F
$GPGSV,3,3,12,03,20,302,30,29,15,178,36,26,01,038,,51,49,195,36*72
$GPRMC,150211.000,A,3352.3434,N,09831.2430,W,0.17,47.54,020412,,,D*4F
$GPGGA,150212.000,3352.3434,N,09831.2430,W,2,09,1.0,290.7,M,-23.7,M,1.8,0000*41
$GPGSA,A,3,14,27,15,22,18,29,09,06,03,,,,2.6,1.0,2.4*3B
$GPRMC,150212.000,A,3352.3434,N,09831.2430,W,0.08,325.32,020412,,,D*75
$GPGGA,150213.000,3352.3434,N,09831.2430,W,2,09,1.0,290.7,M,-23.7,M,2.8,0000*43
$GPGSA,A,3,14,27,15,22,18,29,09,06,03,,,,2.6,1.0,2.4*3B
$GPRMC,150213.000,A,3352.3434,N,09831.2430,W,0.10,306.36,020412,,,D*78
$GPGGA,150214.000,3352.3434,N,09831.2431,W,2,09,1.0,290.8,M,-23.7,M,3.8,0000*4B
$GPGSA,A,3,14,27,15,22,18,29,09,06,03,,,,2.6,1.0,2.4*3B
$GPRMC,150214.000,A,3352.3434,N,09831.2431,W,0.08,310.11,020412,,,D*75
$GPGGA,150215.000,3352.3434,N,09831.2430,W,2,09,1.0,290.8,M,-23.7,M,0.8,0000*48
$GPGSA,A,3,14,27,15,22,18,29,09,06,03,,,,2.6,1.0,2.4*3B
$GPRMC,150215.000,A,3352.3434,N,09831.2430,W,0.17,45.94,020412,,,D*45
$GPGGA,150216.000,3352.3434,N,09831.2430,W,2,09,1.0,290.8,M,-23.7,M,0.8,0000*4B
$GPGSA,A,3,14,27,15,22,18,29,09,06,03,,,,2.6,1.0,2.4*3B
$GPGSV,3,1,12,21,82,074,,18,65,345,34,15,43,046,37,22,36,284,27*76
$GPGSV,3,2,12,09,31,109,29,06,29,294,30,27,29,080,19,14,21,213,30*79
$GPGSV,3,3,12,03,20,302,30,29,15,178,36,26,01,038,,51,49,195,36*72
$GPRMC,150216.000,A,3352.3434,N,09831.2430,W,0.12,52.81,020412,,,D*41
$GPGGA,150217.000,3352.3434,N,09831.2430,W,2,09,1.0,290.8,M,-23.7,M,0.8,0000*4A
$GPGSA,A,3,14,27,15,22,18,29,09,06,03,,,,2.6,1.0,2.4*3B
$GPRMC,150217.000,A,3352.3434,N,09831.2430,W,0.04,351.53,020412,,,D*78
$GPGGA,150218.000,3352.3434,N,09831.2429,W,2,09,1.0,290.7,M,-23.7,M,0.8,0000*42
$GPGSA,A,3,14,27,15,22,18,29,09,06,03,,,,2.6,1.0,2.4*3B
$GPRMC,150218.000,A,3352.3434,N,09831.2429,W,0.12,55.80,020412,,,D*41
$GPGGA,150219.000,3352.3434,N,09831.2430,W,2,09,1.0,290.7,M,-23.7,M,1.8,0000*4A
$GPGSA,A,3,14,27,15,22,18,29,09,06,03,,,,2.6,1.0,2.4*3B
$GPRMC,150219.000,A,3352.3434,N,09831.2430,W,0.04,4.09,020412,,,D*7A
$GPGGA,150220.000,3352.3434,N,09831.2430,W,2,09,1.0,290.6,M,-23.7,M,0.8,0000*40
$GPGSA,A,3,14,27,15,22,18,29,09,06,03,,,,2.6,1.0,2.4*3B
$GPRMC,150220.000,A,3352.3434,N,09831.2430,W,0.11,52.27,020412,,,D*4B
$GPGGA,150221.000,3352.3434,N,09831.2430,W,2,09,1.0,290.4,M,-23.7,M,0.8,0000*43
$GPGSA,A,3,14,27,15,22,18,29,09,06,03,,,,2.6,1.0,2.4*3B
$GPGSV,3,1,12,21,82,074,,18,65,345,34,15,43,046,37,22,36,284,27*76
$GPGSV,3,2,12,09,31,109,29,06,29,294,30,27,29,080,20,14,21,213,30*73
$GPGSV,3,3,12,03,20,302,30,29,15,178,36,26,01,038,,51,49,195,36*72
$GPRMC,150221.000,A,3352.3434,N,09831.2430,W,0.07,45.86,020412,,,D*40
$GPGGA,150222.000,3352.3434,N,09831.2429,W,2,09,1.0,290.2,M,-23.7,M,0.8,0000*4E
$GPGSA,A,3,14,27,15,22,18,29,09,06,03,,,,2.6,1.0,2.4*3B
$GPRMC,150222.000,A,3352.3434,N,09831.2429,W,0.14,52.42,020412,,,D*47
$GPGGA,150223.000,3352.3434,N,09831.2429,W,2,09,1.0,290.1,M,-23.7,M,0.8,0000*4C
$GPGSA,A,3,14,27,15,22,18,29,09,06,03,,,,2.6,1.0,2.4*3B
$GPRMC,150223.000,A,3352.3434,N,09831.2429,W,0.11,41.02,020412,,,D*45
$GPGGA,150224.000,3352.3434,N,09831.2429,W,2,09,1.0,290.0,M,-23.7,M,1.8,0000*4B
$GPGSA,A,3,14,27,15,22,18,29,09,06,03,,,,2.6,1.0,2.4*3B
$GPRMC,150224.000,A,3352.3434,N,09831.2429,W,0.15,50.13,020412,,,D*46
$GPGGA,150225.000,3352.3434,N,09831.2429,W,2,09,1.0,289.9,M,-23.7,M,2.8,0000*48
$GPGSA,A,3,14,27,15,22,18,29,09,06,03,,,,2.6,1.0,2.4*3B
$GPRMC,150225.000,A,3352.3434,N,09831.2429,W,0.09,24.71,020412,,,D*4D
$GPGGA,150226.000,3352.3434,N,09831.2429,W,2,09,1.0,289.8,M,-23.7,M,3.8,0000*4B
$GPGSA,A,3,14,27,15,22,18,29,09,06,03,,,,2.6,1.0,2.4*3B
$GPGSV,3,1,12,21,82,074,,18,65,345,34,15,43,046,38,22,36,284,28*76
$GPGSV,3,2,12,09,31,109,29,06,29,294,29,27,29,080,21,14,21,213,30*7A
$GPGSV,3,3,12,03,20,302,30,29,15,178,36,26,01,038,,51,49,195,36*72
$GPRMC,150226.000,A,3352.3434,N,09831.2429,W,0.14,47.14,020412,,,D*44
$GPGGA,150227.000,3352.3434,N,09831.2429,W,2,09,1.0,289.9,M,-23.7,M,0.8,0000*48
$GPGSA,A,3,14,27,15,22,18,29,09,06,03,,,,2.6,1.0,2.4*3B
$GPRMC,150227.000,A,3352.3434,N,09831.2429,W,0.12,33.51,020412,,,D*41
$GPGGA,150228.000,3352.3434,N,09831.2429,W,2,10,0.9,289.9,M,-23.7,M,0.8,0000*47
$GPGSA,A,3,14,27,15,22,18,29,21,09,06,03,,,1.9,0.9,1.7*3C
$GPRMC,150228.000,A,3352.3434,N,09831.2429,W,0.20,45.87,020412,,,D*45
$GPGGA,150229.000,3352.3433,N,09831.2429,W,2,10,0.9,290.0,M,-23.7,M,0.8,0000*40
$GPGSA,A,3,14,27,15,22,18,29,21,09,06,03,,,1.9,0.9,1.7*3C
$GPRMC,150229.000,A,3352.3433,N,09831.2429,W,0.07,6.13,020412,,,D*7C
$GPGGA,150230.000,3352.3433,N,09831.2429,W,2,10,0.9,290.1,M,-23.7,M,1.8,0000*48
$GPGSA,A,3,14,27,15,22,18,29,21,09,06,03,,,1.9,0.9,1.7*3C
$GPRMC,150230.000,A,3352.3433,N,09831.2429,W,0.04,5.36,020412,,,D*73
$GPGGA,150231.000,3352.3433,N,09831.2430,W,2,10,0.9,290.3,M,-23.7,M,2.8,0000*40
$GPGSA,A,3,14,27,15,22,18,29,21,09,06,03,,,1.9,0.9,1.7*3C
$GPGSV,3,1,12,21,82,074,18,18,65,345,35,15,43,046,38,22,36,284,28*7E
$GPGSV,3,2,12,09,31,109,29,06,29,294,28,27,29,080,22,14,21,213,29*70
$GPGSV,3,3,12,03,20,302,30,29,15,178,36,26,01,038,,51,49,195,36*72
$GPRMC,150231.000,A,3352.3433,N,09831.2430,W,0.05,38.24,020412,,,D*46
$GPGGA,150232.000,3352.3432,N,09831.2430,W,2,10,0.9,290.4,M,-23.7,M,3.8,0000*44
$GPGSA,A,3,14,27,15,22,18,29,21,09,06,03,,,1.9,0.9,1.7*3C
$GPRMC,150232.000,A,3352.3432,N,09831.2430,W,0.17,63.23,020412,,,D*4E
$GPGGA,150233.000,3352.3432,N,09831.2429,W,2,10,0.9,290.4,M,-23.7,M,0.8,0000*4E
$GPGSA,A,3,14,27,15,22,18,29,21,09,06,03,,,1.9,0.9,1.7*3C
$GPRMC,150233.000,A,3352.3432,N,09831.2429,W,0.13,74.15,020412,,,D*40
$GPGGA,150234.000,3352.3432,N,09831.2430,W,2,10,0.9,290.5,M,-23.7,M,0.8,0000*40
$GPGSA,A,3,14,27,15,22,18,29,21,09,06,03,,,1.9,0.9,1.7*3C
$GPRMC,150234.000,A,3352.3432,N,09831.2430,W,0.02,132.72,020412,,,D*7D
$GPGGA,150235.000,3352.3432,N,09831.2430,W,2,10,0.9,290.4,M,-23.7,M,0.8,0000*40
$GPGSA,A,3,14,27,15,22,18,29,21,09,06,03,,,1.9,0.9,1.7*3C
$GPRMC,150235.000,A,3352.3432,N,09831.2430,W,0.06,97.64,020412,,,D*41
$GPGGA,150236.000,3352.3432,N,09831.2429,W,2,10,0.9,290.2,M,-23.7,M,0.8,0000*4D
$GPGSA,A,3,14,27,15,22,18,29,21,09,06,03,,,1.9,0.9,1.7*3C
$GPGSV,3,1,12,21,82,074,19,18,65,345,35,15,43,046,38,22,36,284,29*7E
$GPGSV,3,2,12,09,31,109,28,06,29,294,28,27,29,080,23,14,21,213,29*70
$GPGSV,3,3,12,03,20,302,30,29,15,178,36,26,01,038,,51,49,195,36*72
$GPRMC,150236.000,A,3352.3432,N,09831.2429,W,0.06,89.74,020412,,,D*44
$GPGGA,150237.000,3352.3432,N,09831.2429,W,2,10,0.9,290.1,M,-23.7,M,1.8,0000*4E
$GPGSA,A,3,14,27,15,22,18,29,21,09,06,03,,,1.9,0.9,1.7*3C
$GPRMC,150237.000,A,3352.3432,N,09831.2429,W,0.07,47.65,020412,,,D*46
$GPGGA,150238.000,3352.3432,N,09831.2430,W,2,10,0.9,289.9,M,-23.7,M,2.8,0000*4A
$GPGSA,A,3,14,27,15,22,18,29,21,09,06,03,,,1.9,0.9,1.7*3C
$GPRMC,150238.000,A,3352.3432,N,09831.2430,W,0.02,330.03,020412,,,D*77
$GPGGA,150239.000,3352.3432,N,09831.2430,W,2,10,0.9,289.9,M,-23.7,M,0.8,0000*49
$GPGSA,A,3,14,27,15,22,18,29,21,09,06,03,,,1.9,0.9,1.7*3C
$GPRMC,150239.000,A,3352.3432,N,09831.2430,W,0.11,21.76,020412,,,D*45
$GPGGA,150240.000,3352.3432,N,09831.2430,W,2,10,0.9,289.9,M,-23.7,M,0.8,0000*47
$GPGSA,A,3,14,27,15,22,18,29,21,09,06,03,,,1.9,0.9,1.7*3C
$GPRMC,150240.000,A,3352.3432,N,09831.2430,W,0.13,25.90,020412,,,D*45
$GPGGA,150241.000,3352.3432,N,09831.2430,W,2,10,0.9,290.1,M,-23.7,M,0.8,0000*46
$GPGSA,A,3,14,27,15,22,18,29,21,09,06,03,,,1.9,0.9,1.7*3C
$GPGSV,3,1,12,21,82,074,18,18,65,345,35,15,43,046,38,22,36,284,29*7F
$GPGSV,3,2,12,09,31,109,28,06,29,294,27,27,29,080,23,14,21,213,28*7E
$GPGSV,3,3,12,03,20,302,30,29,15,178,36,26,01,038,,51,49,195,36*72
$GPRMC,150241.000,A,3352.3432,N,09831.2430,W,0.09,23.67,020412,,,D*41
$GPGGA,150242.000,3352.3432,N,09831.2430,W,2,10,0.9,290.0,M,-23.7,M,1.8,0000*45
$GPGSA,A,3,14,27,15,22,18,29,21,09,06,03,,,1.9,0.9,1.7*3C
$GPRMC,150242.000,A,3352.3432,N,09831.2430,W,0.18,50.11,020412,,,D*47
$GPGGA,150243.000,3352.3432,N,09831.2430,W,2,10,0.9,289.9,M,-23.7,M,0.8,0000*44
$GPGSA,A,3,14,27,15,22,18,29,21,09,06,03,,,1.9,0.9,1.7*3C
$GPRMC,150243.000,A,3352.3432,N,09831.2430,W,0.13,38.04,020412,,,D*47
$GPGGA,150244.000,3352.3432,N,09831.2430,W,2,10,0.9,289.7,M,-23.7,M,1.8,0000*4C
$GPGSA,A,3,14,27,15,22,18,29,21,09,06,03,,,1.9,0.9,1.7*3C
$GPRMC,150244.000,A,3352.3432,N,09831.2430,W,0.19,50.02,020412,,,D*42
$GPGGA,150245.000,3352.3432,N,09831.2430,W,2,10,0.9,289.5,M,-23.7,M,0.8,0000*4E
$GPGSA,A,3,14,27,15,22,18,29,21,09,06,03,,,1.9,0.9,1.7*3C
$GPRMC,150245.000,A,3352.3432,N,09831.2430,W,0.15,43.51,020412,,,D*4B
$GPGGA,150246.000,3352.3433,N,09831.2430,W,2,10,0.9,289.3,M,-23.7,M,0.8,0000*4A
$GPGSA,A,3,14,27,15,22,18,29,21,09,06,03,,,1.9,0.9,1.7*3C
$GPGSV,3,1,12,21,82,074,19,18,65,345,34,15,43,046,38,22,36,284,30*77
$GPGSV,3,2,12,09,31,109,29,06,29,294,27,27,29,080,23,14,21,213,28*7F
$GPGSV,3,3,12,03,20,302,30,29,15,178,36,26,01,038,,51,49,195,38*7C
$GPRMC,150246.000,A,3352.3433,N,09831.2430,W,0.09,36.39,020412,,,D*48
$GPGGA,150247.000,3352.3433,N,09831.2430,W,2,10,0.9,289.0,M,-23.7,M,0.8,0000*48
$GPGSA,A,3,14,27,15,22,18,29,21,09,06,03,,,1.9,0.9,1.7*3C
$GPRMC,150247.000,A,3352.3433,N,09831.2430,W,0.13,39.99,020412,,,D*47
$GPGGA,150248.000,3352.3433,N,09831.2430,W,2,10,0.9,288.9,M,-23.7,M,1.8,0000*4E
$GPGSA,A,3,14,27,15,22,18,29,21,09,06,03,,,1.9,0.9,1.7*3C
$GPRMC,150248.000,A,3352.3433,N,09831.2430,W,0.12,358.06,020412,,,D*7B
$GPGGA,150249.000,3352.3432,N,09831.2430,W,2,10,0.9,288.9,M,-23.7,M,2.8,0000*4D
$GPGSA,A,3,14,27,15,22,18,29,21,09,06,03,,,1.9,0.9,1.7*3C
$GPRMC,150249.000,A,3352.3432,N,09831.2430,W,0.08,359.24,020412,,,D*71
$GPGGA,150250.000,3352.3432,N,09831.2431,W,2,10,0.9,289.0,M,-23.7,M,0.8,0000*4E
$GPGSA,A,3,14,27,15,22,18,29,21,09,06,03,,,1.9,0.9,1.7*3C
$GPRMC,150250.000,A,3352.3432,N,09831.2431,W,0.08,42.91,020412,,,D*4F
$GPGGA,150251.000,3352.3432,N,09831.2431,W,2,10,0.9,289.1,M,-23.7,M,0.8,0000*4E
$GPGSA,A,3,14,27,15,22,18,29,21,09,06,03,,,1.9,0.9,1.7*3C
$GPGSV,3,1,12,21,82,074,19,18,65,345,34,15,43,046,38,22,36,284,30*77
$GPGSV,3,2,12,09,31,109,29,06,29,294,26,27,29,080,24,14,21,213,28*79
$GPGSV,3,3,12,03,20,302,31,29,15,178,36,26,01,038,,51,49,195,36*73
$GPRMC,150251.000,A,3352.3432,N,09831.2431,W,0.09,6.01,020412,,,D*76
$GPGGA,150252.000,3352.3432,N,09831.2431,W,2,10,0.9,289.2,M,-23.7,M,0.8,0000*4E
$GPGSA,A,3,14,27,15,22,18,29,21,09,06,03,,,1.9,0.9,1.7*3C
$GPRMC,150252.000,A,3352.3432,N,09831.2431,W,0.08,32.86,020412,,,D*4C
$GPGGA,150253.000,3352.3432,N,09831.2431,W,2,10,0.9,289.1,M,-23.7,M,0.8,0000*4C
$GPGSA,A,3,14,27,15,22,18,29,21,09,06,03,,,1.9,0.9,1.7*3C
$GPRMC,150253.000,A,3352.3432,N,09831.2431,W,0.17,60.61,020412,,,D*4D
$GPGGA,150254.000,3352.3432,N,09831.2431,W,2,10,0.9,289.2,M,-23.7,M,0.8,0000*48
$GPGSA,A,3,14,27,15,22,18,29,21,09,06,03,,,1.9,0.9,1.7*3C
$GPRMC,150254.000,A,3352.3432,N,09831.2431,W,0.08,54.82,020412,,,D*4E
$GPGGA,150255.000,3352.3431,N,09831.2431,W,2,10,0.9,289.4,M,-23.7,M,1.8,0000*4D
$GPGSA,A,3,14,27,15,22,18,29,21,09,06,03,,,1.9,0.9,1.7*3C
$GPRMC,150255.000,A,3352.3431,N,09831.2431,W,0.05,349.71,020412,,,D*72
$GPGGA,150256.000,3352.3431,N,09831.2432,W,2,10,0.9,289.5,M,-23.7,M,2.8,0000*4F
$GPGSA,A,3,14,27,15,22,18,29,21,09,06,03,,,1.9,0.9,1.7*3C
$GPGSV,3,1,12,21,82,074,20,18,65,345,34,15,43,046,38,22,36,284,30*7D
$GPGSV,3,2,12,09,31,109,29,06,29,294,26,27,29,080,24,14,21,213,28*79
$GPGSV,3,3,12,03,20,302,31,29,15,178,36,26,01,038,,51,49,195,36*73
$GPRMC,150256.000,A,3352.3431,N,09831.2432,W,0.09,34.81,020412,,,D*48
$GPGGA,150257.000,3352.3431,N,09831.2432,W,2,10,0.9,289.3,M,-23.7,M,0.8,0000*4A
$GPGSA,A,3,14,27,15,22,18,29,21,09,06,03,,,1.9,0.9,1.7*3C
$GPRMC,150257.000,A,3352.3431,N,09831.2432,W,0.08,57.08,020412,,,D*4C
$GPGGA,150258.000,3352.3432,N,09831.2432,W,2,10,0.9,289.2,M,-23.7,M,0.8,0000*47
$GPGSA,A,3,14,27,15,22,18,29,21,09,06,03,,,1.9,0.9,1.7*3C
$GPRMC,150258.000,A,3352.3432,N,09831.2432,W,0.10,31.95,020412,,,D*4D
$GPGGA,150259.000,3352.3432,N,09831.2432,W,2,10,0.9,289.1,M,-23.7,M,0.8,0000*45
$GPGSA,A,3,14,27,15,22,18,29,21,09,06,03,,,1.9,0.9,1.7*3C
$GPRMC,150259.000,A,3352.3432,N,09831.2432,W,0.08,28.19,020412,,,D*49
$GPGGA,150300.000,3352.3432,N,09831.2432,W,2,10,0.9,288.9,M,-23.7,M,1.8,0000*40
$GPGSA,A,3,14,27,15,22,18,29,21,09,06,03,,,1.9,0.9,1.7*3C
$GPRMC,150300.000,A,3352.3432,N,09831.2432,W,0.07,13.70,020412,,,D*4C
$GPGGA,150301.000,3352.3432,N,09831.2432,W,2,10,0.9,288.8,M,-23.7,M,2.8,0000*43
$GPGSA,A,3,14,27,15,22,18,29,21,09,06,03,,,1.9,0.9,1.7*3C
$GPGSV,3,1,12,21,82,074,20,18,65,345,34,15,43,046,38,22,36,284,30*7D
$GPGSV,3,2,12,09,31,109,29,06,29,294,25,27,29,080,26,14,21,213,28*78
$GPGSV,3,3,12,03,20,302,31,29,15,178,36,26,01,038,,51,49,195,36*73
$GPRMC,150301.000,A,3352.3432,N,09831.2432,W,0.11,24.72,020412,,,D*4C
$GPGGA,150302.000,3352.3432,N,09831.2432,W,2,10,0.9,288.9,M,-23.7,M,3.8,0000*40
$GPGSA,A,3,14,27,15,22,18,29,21,09,06,03,,,1.9,0.9,1.7*3C
$GPRMC,150302.000,A,3352.3432,N,09831.2432,W,0.09,28.26,020412,,,D*4B
$GPGGA,150303.000,3352.3432,N,09831.2432,W,2,10,0.9,288.8,M,-23.7,M,0.8,0000*43
$GPGSA,A,3,14,27,15,22,18,29,21,09,06,03,,,1.9,0.9,1.7*3C
$GPRMC,150303.000,A,3352.3432,N,09831.2432,W,0.12,24.68,020412,,,D*46
$GPGGA,150304.000,3352.3432,N,09831.2432,W,2,10,0.9,288.9,M,-23.7,M,0.8,0000*45
$GPGSA,A,3,14,27,15,22,18,29,21,09,06,03,,,1.9,0.9,1.7*3C
$GPRMC,150304.000,A,3352.3432,N,09831.2432,W,0.10,31.36,020412,,,D*4C
$GPGGA,150305.000,3352.3431,N,09831.2433,W,2,10,0.9,289.0,M,-23.7,M,0.8,0000*4E
$GPGSA,A,3,14,27,15,22,18,29,21,09,06,03,,,1.9,0.9,1.7*3C
$GPRMC,150305.000,A,3352.3431,N,09831.2433,W,0.09,57.75,020412,,,D*40
$GPGGA,150306.000,3352.3431,N,09831.2433,W,2,10,0.9,289.1,M,-23.7,M,0.8,0000*4C
$GPGSA,A,3,14,27,15,22,18,29,21,09,06,03,,,1.9,0.9,1.7*3C
$GPGSV,3,1,12,21,82,074,20,18,65,345,34,15,43,046,38,22,36,284,30*7D
$GPGSV,3,2,12,09,31,109,29,06,29,294,25,27,29,080,26,14,21,213,28*78
$GPGSV,3,3,12,03,20,302,32,29,15,178,36,26,01,038,,51,49,195,36*70
$GPRMC,150306.000,A,3352.3431,N,09831.2433,W,0.08,46.17,020412,,,D*46
$GPGGA,150307.000,3352.3431,N,09831.2433,W,2,10,0.9,289.2,M,-23.7,M,1.8,0000*4F
$GPGSA,A,3,14,27,15,22,18,29,21,09,06,03,,,1.9,0.9,1.7*3C
$GPRMC,150307.000,A,3352.3431,N,09831.2433,W,0.08,49.52,020412,,,D*49
$GPGGA,150308.000,3352.3431,N,09831.2433,W,2,10,0.9,289.1,M,-23.7,M,0.8,0000*42
$GPGSA,A,3,14,27,15,22,18,29,21,09,06,03,,,1.9,0.9,1.7*3C
$GPRMC,150308.000,A,3352.3431,N,09831.2433,W,0.06,12.91,020412,,,D*49
$GPGGA,150309.000,3352.3431,N,09831.2433,W,2,10,0.9,288.9,M,-23.7,M,0.8,0000*4A
$GPGSA,A,3,14,27,15,22,18,29,21,09,06,03,,,1.9,0.9,1.7*3C
$GPRMC,150309.000,A,3352.3431,N,09831.2433,W,0.09,8.97,020412,,,D*7A
$GPGGA,150310.000,3352.3431,N,09831.2434,W,2,10,0.9,288.9,M,-23.7,M,0.8,0000*45
$GPGSA,A,3,14,27,15,22,18,29,21,09,06,03,,,1.9,0.9,1.7*3C
$GPRMC,150310.000,A,3352.3431,N,09831.2434,W,0.05,331.41,020412,,,D*7B
$GPGGA,150311.000,3352.3431,N,09831.2434,W,2,10,0.9,288.9,M,-23.7,M,0.8,0000*44
$GPGSA,A,3,14,27,15,22,18,29,21,09,06,03,,,1.9,0.9,1.7*3C
$GPGSV,3,1,12,21,82,074,20,18,65,345,34,15,43,046,38,22,36,284,30*7D
$GPGSV,3,2,12,09,31,109,29,06,29,294,25,27,29,080,26,14,21,213,28*78
$GPGSV,3,3,12,03,20,302,32,29,15,178,36,26,01,038,,51,49,195,36*70
$GPRMC,150311.000,A,3352.3431,N,09831.2434,W,0.08,15.75,020412,,,D*45
$GPGGA,150312.000,3352.3431,N,09831.2434,W,2,10,0.9,289.0,M,-23.7,M,1.8,0000*4E
$GPGSA,A,3,14,27,15,22,18,29,21,09,06,03,,,1.9,0.9,1.7*3C
$GPRMC,150312.000,A,3352.3431,N,09831.2434,W,0.07,47.85,020412,,,D*41
$GPGGA,150313.000,3352.3431,N,09831.2434,W,2,10,0.9,288.8,M,-23.7,M,2.8,0000*45
$GPGSA,A,3,14,27,15,22,18,29,21,09,06,03,,,1.9,0.9,1.7*3C
$GPRMC,150313.000,A,3352.3431,N,09831.2434,W,0.09,29.11,020412,,,D*4B
$GPGGA,150314.000,3352.3431,N,09831.2434,W,2,10,0.9,288.6,M,-23.7,M,3.8,0000*4D
$GPGSA,A,3,14,27,15,22,18,29,21,09,06,03,,,1.9,0.9,1.7*3C
$GPRMC,150314.000,A,3352.3431,N,09831.2434,W,0.07,28.79,020412,,,D*4D
$GPGGA,150315.000,3352.3431,N,09831.2434,W,2,10,0.9,288.7,M,-23.7,M,0.8,0000*4E
$GPGSA,A,3,14,27,15,22,18,29,21,09,06,03,,,1.9,0.9,1.7*3C
$GPRMC,150315.000,A,3352.3431,N,09831.2434,W,0.11,35.00,020412,,,D*49
$GPGGA,150316.000,3352.3431,N,09831.2435,W,2,10,0.9,288.9,M,-23.7,M,0.8,0000*42
$GPGSA,A,3,14,27,15,22,18,29,21,09,06,03,,,1.9,0.9,1.7*3C
$GPGSV,3,1,12,21,82,079,20,18,65,346,34,15,43,046,38,22,36,284,30*73
$GPGSV,3,2,12,09,31,108,29,06,29,293,25,27,29,079,26,14,22,214,28*7C
$GPGSV,3,3,12,03,20,302,32,29,14,177,36,26,00,038,,51,49,195,36*7F
$GPRMC,150316.000,A,3352.3431,N,09831.2435,W,0.09,34.03,020412,,,D*40
$GPGGA,150317.000,3352.3431,N,09831.2435,W,2,10,0.9,288.9,M,-23.7,M,0.8,0000*43
$GPGSA,A,3,14,27,15,22,18,29,21,09,06,03,,,1.9,0.9,1.7*3C
$GPRMC,150317.000,A,3352.3431,N,09831.2435,W,0.09,25.76,020412,,,D*43
$GPGGA,150318.000,3352.3431,N,09831.2435,W,2,10,0.9,288.8,M,-23.7,M,1.8,0000*4C
$GPGSA,A,3,14,27,15,22,18,29,21,09,06,03,,,1.9,0.9,1.7*3C
$GPRMC,150318.000,A,3352.3431,N,09831.2435,W,0.10,24.79,020412,,,D*4A
$GPGGA,150319.000,3352.3431,N,09831.2435,W,2,10,0.9,288.8,M,-23.7,M,2.8,0000*4E
$GPGSA,A,3,14,27,15,22,18,29,21,09,06,03,,,1.9,0.9,1.7*3C
$GPRMC,150319.000,A,3352.3431,N,09831.2435,W,0.11,24.38,020412,,,D*4F
$GPGGA,150320.000,3352.3431,N,09831.2435,W,2,10,0.9,288.7,M,-23.7,M,3.8,0000*4A
$GPGSA,A,3,14,27,15,22,18,29,21,09,06,03,,,1.9,0.9,1.7*3C
$GPRMC,150320.000,A,3352.3431,N,09831.2435,W,0.11,25.48,020412,,,D*43
$GPGGA,150321.000,3352.3431,N,09831.2435,W,2,10,0.9,288.8,M,-23.7,M,0.8,0000*47
$GPGSA,A,3,14,27,15,22,18,29,21,09,06,03,,,1.9,0.9,1.7*3C
$GPGSV,3,1,12,21,82,079,21,18,65,346,34,15,43,046,38,22,36,284,29*7A
$GPGSV,3,2,12,09,31,108,30,06,29,293,25,27,29,079,26,14,22,214,28*74
$GPGSV,3,3,12,03,20,302,32,29,14,177,36,26,00,038,,51,49,195,36*7F
$GPRMC,150321.000,A,3352.3431,N,09831.2435,W,0.11,32.25,020412,,,D*4F
$GPGGA,150322.000,3352.3431,N,09831.2435,W,2,10,0.9,288.9,M,-23.7,M,0.8,0000*45
$GPGSA,A,3,14,27,15,22,18,29,21,09,06,03,,,1.9,0.9,1.7*3C
$GPRMC,150322.000,A,3352.3431,N,09831.2435,W,0.11,41.99,020412,,,D*4F
$GPGGA,150323.000,3352.3431,N,09831.2435,W,2,10,0.9,288.8,M,-23.7,M,0.8,0000*45
$GPGSA,A,3,14,27,15,22,18,29,21,09,06,03,,,1.9,0.9,1.7*3C
$GPRMC,150323.000,A,3352.3431,N,09831.2435,W,0.08,64.43,020412,,,D*46
$GPGGA,150324.000,3352.3431,N,09831.2435,W,2,10,0.9,288.7,M,-23.7,M,0.8,0000*4D
$GPGSA,A,3,14,27,15,22,18,29,21,09,06,03,,,1.9,0.9,1.7*3C
$GPRMC,150324.000,A,3352.3431,N,09831.2435,W,0.08,35.56,020412,,,D*41
$GPGGA,150325.000,3352.3431,N,09831.2435,W,2,10,0.9,288.7,M,-23.7,M,1.8,0000*4D
$GPGSA,A,3,14,27,15,22,18,29,21,09,06,03,,,1.9,0.9,1.7*3C
$GPRMC,150325.000,A,3352.3431,N,09831.2435,W,0.10,57.44,020412,,,D*4E
$GPGGA,150326.000,3352.3431,N,09831.2435,W,2,10,0.9,288.9,M,-23.7,M,2.8,0000*43
$GPGSA,A,3,14,27,15,22,18,29,21,09,06,03,,,1.9,0.9,1.7*3C
$GPGSV,3,1,12,21,82,079,21,18,65,346,34,15,43,046,38,22,36,284,29*7A
$GPGSV,3,2,12,09,31,108,30,06,29,293,25,27,29,079,26,14,22,214,28*74
$GPGSV,3,3,12,03,20,302,32,29,14,177,36,26,00,038,,51,49,195,36*7F
$GPRMC,150326.000,A,3352.3431,N,09831.2435,W,0.08,44.38,020412,,,D*4D
$GPGGA,150327.000,3352.3430,N,09831.2435,W,2,10,0.9,289.0,M,-23.7,M,3.8,0000*4A
$GPGSA,A,3,14,27,15,22,18,29,21,09,06,03,,,1.9,0.9,1.7*3C
$GPRMC,150327.000,A,3352.3430,N,09831.2435,W,0.06,49.91,020412,,,D*4D
$GPGGA,150328.000,3352.3430,N,09831.2435,W,2,10,0.9,289.0,M,-23.7,M,4.8,0000*42
$GPGSA,A,3,14,27,15,22,18,29,21,09,06,03,,,1.9,0.9,1.7*3C
$GPRMC,150328.000,A,3352.3430,N,09831.2435,W,0.08,43.24,020412,,,D*48
$GPGGA,150329.000,3352.3430,N,09831.2435,W,2,10,0.9,289.1,M,-23.7,M,0.8,0000*46
$GPGSA,A,3,14,27,15,22,18,29,21,09,06,03,,,1.9,0.9,1.7*3C
$GPRMC,150329.000,A,3352.3430,N,09831.2435,W,0.08,54.87,020412,,,D*46
$GPGGA,150330.000,3352.3430,N,09831.2435,W,2,10,0.9,289.1,M,-23.7,M,1.8,0000*4F
$GPGSA,A,3,14,27,15,22,18,29,21,09,06,03,,,1.9,0.9,1.7*3C
$GPRMC,150330.000,A,3352.3430,N,09831.2435,W,0.07,57.16,020412,,,D*4A
$GPGGA,150331.000,3352.3430,N,09831.2435,W,2,10,0.9,289.0,M,-23.7,M,2.8,0000*4C
$GPGSA,A,3,14,27,15,22,18,29,21,09,06,03,,,1.9,0.9,1.7*3C
$GPGSV,3,1,12,21,82,079,21,18,65,346,34,15,43,046,38,22,36,284,29*7A
$GPGSV,3,2,12,09,31,108,30,06,29,293,24,27,29,079,26,14,22,214,28*75
$GPGSV,3,3,12,03,20,302,33,29,14,177,36,26,00,038,,51,49,195,37*7F
$GPRMC,150331.000,A,3352.3430,N,09831.2435,W,0.08,43.99,020412,,,D*46
$GPGGA,150332.000,3352.3430,N,09831.2435,W,2,10,0.9,289.1,M,-23.7,M,3.8,0000*4F
$GPGSA,A,3,14,27,15,22,18,29,21,09,06,03,,,1.9,0.9,1.7*3C
$GPRMC,150332.000,A,3352.3430,N,09831.2435,W,0.07,32.56,020412,,,D*4F
$GPGGA,150333.000,3352.3430,N,09831.2435,W,2,10,0.9,289.2,M,-23.7,M,0.8,0000*4E
$GPGSA,A,3,14,27,15,22,18,29,21,09,06,03,,,1.9,0.9,1.7*3C
$GPRMC,150333.000,A,3352.3430,N,09831.2435,W,0.12,93.03,020412,,,D*41
$GPGGA,150334.000,3352.3430,N,09831.2435,W,2,10,0.9,289.0,M,-23.7,M,0.8,0000*4B
$GPGSA,A,3,14,27,15,22,18,29,21,09,06,03,,,1.9,0.9,1.7*3C
$GPRMC,150334.000,A,3352.3430,N,09831.2435,W,0.09,351.72,020412,,,D*77
$GPGGA,150335.000,3352.3430,N,09831.2436,W,2,10,0.9,289.0,M,-23.7,M,0.8,0000*49
$GPGSA,A,3,14,27,15,22,18,29,21,09,06,03,,,1.9,0.9,1.7*3C
$GPRMC,150335.000,A,3352.3430,N,09831.2436,W,0.11,347.68,020412,,,D*70
$GPGGA,150336.000,3352.3430,N,09831.2436,W,2,10,0.9,289.1,M,-23.7,M,1.8,0000*4A
$GPGSA,A,3,14,27,15,22,18,29,21,09,06,03,,,1.9,0.9,1.7*3C
$GPGSV,3,1,12,21,82,079,21,18,65,346,34,15,43,046,37,22,36,284,29*75
$GPGSV,3,2,12,09,31,108,31,06,29,293,24,27,29,079,25,14,22,214,28*77
$GPGSV,3,3,12,03,20,302,33,29,14,177,36,26,00,038,,51,49,195,39*71
$GPRMC,150336.000,A,3352.3430,N,09831.2436,W,0.12,70.05,020412,,,D*4C
$GPGGA,150337.000,3352.3430,N,09831.2436,W,2,10,0.9,289.1,M,-23.7,M,0.8,0000*4A
$GPGSA,A,3,14,27,15,22,18,29,21,09,06,03,,,1.9,0.9,1.7*3C
$GPRMC,150337.000,A,3352.3430,N,09831.2436,W,0.10,24.79,020412,,,D*45
$GPGGA,150338.000,3352.3430,N,09831.2435,W,2,10,0.9,289.0,M,-23.7,M,1.8,0000*46
$GPGSA,A,3,14,27,15,22,18,29,21,09,06,03,,,1.9,0.9,1.7*3C
$GPRMC,150338.000,A,3352.3430,N,09831.2435,W,0.19,75.76,020412,,,D*4B
$GPGGA,150339.000,3352.3429,N,09831.2435,W,2,10,0.9,289.2,M,-23.7,M,0.8,0000*4C
$GPGSA,A,3,14,27,15,22,18,29,21,09,06,03,,,1.9,0.9,1.7*3C
$GPRMC,150339.000,A,3352.3429,N,09831.2435,W,0.07,48.83,020412,,,D*49
$GPGGA,150340.000,3352.3429,N,09831.2435,W,2,10,0.9,289.4,M,-23.7,M,0.8,0000*44
$GPGSA,A,3,14,27,15,22,18,29,21,09,06,03,,,1.9,0.9,1.7*3C
$GPRMC,150340.000,A,3352.3429,N,09831.2435,W,0.12,62.86,020412,,,D*4E
$GPGGA,150341.000,3352.3429,N,09831.2436,W,2,10,0.9,289.4,M,-23.7,M,0.8,0000*46
$GPGSA,A,3,14,27,15,22,18,29,21,09,06,03,,,1.9,0.9,1.7*3C
$GPGSV,3,1,12,21,82,079,21,18,65,346,34,15,43,046,37,22,36,284,29*75
$GPGSV,3,2,12,09,31,108,31,06,29,293,23,27,29,079,25,14,22,214,28*70
$GPGSV,3,3,12,03,20,302,33,29,14,177,36,26,00,038,,51,49,195,37*7F
$GPRMC,150341.000,A,3352.3429,N,09831.2436,W,0.11,314.86,020412,,,D*7D
$GPGGA,150342.000,3352.3429,N,09831.2436,W,2,10,0.9,289.4,M,-23.7,M,1.8,0000*44
$GPGSA,A,3,14,27,15,22,18,29,21,09,06,03,,,1.9,0.9,1.7*3C
$GPRMC,150342.000,A,3352.3429,N,09831.2436,W,0.07,359.25,020412,,,D*79
$GPGGA,150343.000,3352.3429,N,09831.2436,W,2,10,0.9,289.3,M,-23.7,M,2.8,0000*41
$GPGSA,A,3,14,27,15,22,18,29,21,09,06,03,,,1.9,0.9,1.7*3C
$GPRMC,150343.000,A,3352.3429,N,09831.2436,W,0.13,55.43,020412,,,D*42
$GPGGA,150344.000,3352.3429,N,09831.2436,W,2,10,0.9,289.5,M,-23.7,M,3.8,0000*41
$GPGSA,A,3,14,27,15,22,18,29,21,09,06,03,,,1.9,0.9,1.7*3C
$GPRMC,150344.000,A,3352.3429,N,09831.2436,W,0.14,73.58,020412,,,D*4C
$GPGGA,150345.000,3352.3429,N,09831.2436,W,2,10,0.9,289.4,M,-23.7,M,0.8,0000*42
$GPGSA,A,3,14,27,15,22,18,29,21,09,06,03,,,1.9,0.9,1.7*3C
$GPRMC,150345.000,A,3352.3429,N,09831.2436,W,0.10,41.38,020412,,,D*4E
$GPGGA,150346.000,3352.3429,N,09831.2436,W,2,10,0.9,289.2,M,-23.7,M,0.8,0000*47
$GPGSA,A,3,14,27,15,22,18,29,21,09,06,03,,,1.9,0.9,1.7*3C
$GPGSV,3,1,12,21,82,079,21,18,65,346,34,15,43,046,37,22,36,284,29*75
$GPGSV,3,2,12,09,31,108,31,06,29,293,23,27,29,079,25,14,22,214,28*70
$GPGSV,3,3,12,03,20,302,33,29,14,177,35,26,00,038,,51,49,195,36*7D
$GPRMC,150346.000,A,3352.3429,N,09831.2436,W,0.13,70.33,020412,,,D*47
$GPGGA,150347.000,3352.3429,N,09831.2435,W,2,10,0.9,289.3,M,-23.7,M,0.8,0000*44
$GPGSA,A,3,14,27,15,22,18,29,21,09,06,03,,,1.9,0.9,1.7*3C
$GPRMC,150347.000,A,3352.3429,N,09831.2435,W,0.10,58.24,020412,,,D*4A
$GPGGA,150348.000,3352.3428,N,09831.2436,W,2,10,0.9,289.4,M,-23.7,M,1.8,0000*4F
$GPGSA,A,3,14,27,15,22,18,29,21,09,06,03,,,1.9,0.9,1.7*3C
$GPRMC,150348.000,A,3352.3428,N,09831.2436,W,0.06,352.75,020412,,,D*7D
$GPGGA,150349.000,3352.3428,N,09831.2436,W,2,10,0.9,289.5,M,-23.7,M,2.8,0000*4C
$GPGSA,A,3,14,27,15,22,18,29,21,09,06,03,,,1.9,0.9,1.7*3C
$GPRMC,150349.000,A,3352.3428,N,09831.2436,W,0.07,0.86,020412,,,D*75
$GPGGA,150350.000,3352.3428,N,09831.2436,W,2,10,0.9,289.5,M,-23.7,M,3.8,0000*45
$GPGSA,A,3,14,27,15,22,18,29,21,09,06,03,,,1.9,0.9,1.7*3C
$GPRMC,150350.000,A,3352.3428,N,09831.2436,W,0.08,76.70,020412,,,D*4A
$GPGGA,150351.000,3352.3428,N,09831.2436,W,2,10,0.9,289.5,M,-23.7,M,0.8,0000*47
$GPGSA,A,3,14,27,15,22,18,29,21,09,06,03,,,1.9,0.9,1.7*3C
$GPGSV,3,1,12,21,82,079,21,18,65,346,33,15,43,046,37,22,36,284,29*72
$GPGSV,3,2,12,09,31,108,31,06,29,293,23,27,29,079,25,14,22,214,28*70
$GPGSV,3,3,12,03,20,302,33,29,14,177,35,26,00,038,,51,49,195,36*7D
$GPRMC,150351.000,A,3352.3428,N,09831.2436,W,0.10,94.56,020412,,,D*4A
$GPGGA,150352.000,3352.3428,N,09831.2436,W,2,10,0.9,289.7,M,-23.7,M,0.8,0000*46
$GPGSA,A,3,14,27,15,22,18,29,21,09,06,03,,,1.9,0.9,1.7*3C
$GPRMC,150352.000,A,3352.3428,N,09831.2436,W,0.05,27.10,020412,,,D*47
$GPGGA,150353.000,3352.3428,N,09831.2436,W,2,10,0.9,289.6,M,-23.7,M,0.8,0000*46
$GPGSA,A,3,14,27,15,22,18,29,21,09,06,03,,,1.9,0.9,1.7*3C
$GPRMC,150353.000,A,3352.3428,N,09831.2436,W,0.06,5.80,020412,,,D*7C
$GPGGA,150354.000,3352.3428,N,09831.2436,W,2,10,0.9,289.6,M,-23.7,M,1.8,0000*40
$GPGSA,A,3,14,27,15,22,18,29,21,09,06,03,,,1.9,0.9,1.7*3C
$GPRMC,150354.000,A,3352.3428,N,09831.2436,W,0.09,337.41,020412,,,D*7B
$GPGGA,150355.000,3352.3428,N,09831.2437,W,2,10,0.9,289.7,M,-23.7,M,2.8,0000*42
$GPGSA,A,3,14,27,15,22,18,29,21,09,06,03,,,1.9,0.9,1.7*3C
$GPRMC,150355.000,A,3352.3428,N,09831.2437,W,0.07,14.73,020412,,,D*46
$GPGGA,150356.000,3352.3428,N,09831.2437,W,2,10,0.9,289.7,M,-23.7,M,0.8,0000*43
$GPGSA,A,3,14,27,15,22,18,29,21,09,06,03,,,1.9,0.9,1.7*3C
$GPGSV,3,1,12,21,82,079,21,18,65,346,33,15,43,046,37,22,36,284,30*7A
$GPGSV,3,2,12,09,31,108,31,06,29,293,23,27,29,079,26,14,22,214,27*7C
$GPGSV,3,3,12,03,20,302,32,29,14,177,35,26,00,038,,51,49,195,36*7C
$GPRMC,150356.000,A,3352.3428,N,09831.2437,W,0.06,42.00,020412,,,D*43
$GPGGA,150357.000,3352.3428,N,09831.2437,W,2,10,0.9,289.6,M,-23.7,M,0.8,0000*43
$GPGSA,A,3,14,27,15,22,18,29,21,09,06,03,,,1.9,0.9,1.7*3C
$GPRMC,150357.000,A,3352.3428,N,09831.2437,W,0.13,343.58,020412,,,D*79
$GPGGA,150358.000,3352.3428,N,09831.2437,W,2,10,0.9,289.6,M,-23.7,M,0.8,0000*4C
$GPGSA,A,3,14,27,15,22,18,29,21,09,06,03,,,1.9,0.9,1.7*3C
$GPRMC,150358.000,A,3352.3428,N,09831.2437,W,0.11,67.23,020412,,,D*4D
$GPGGA,150359.000,3352.3428,N,09831.2437,W,2,10,0.9,289.5,M,-23.7,M,0.8,0000*4E
$GPGSA,A,3,14,27,15,22,18,29,21,09,06,03,,,1.9,0.9,1.7*3C
$GPRMC,150359.000,A,3352.3428,N,09831.2437,W,0.09,18.32,020412,,,D*4D
$GPGGA,150400.000,3352.3428,N,09831.2437,W,2,10,0.9,289.3,M,-23.7,M,1.8,0000*42
$GPGSA,A,3,14,27,15,22,18,29,21,09,06,03,,,1.9,0.9,1.7*3C
$GPRMC,150400.000,A,3352.3428,N,09831.2437,W,0.13,351.18,020412,,,D*7B
$GPGGA,150401.000,3352.3429,N,09831.2437,W,2,10,0.9,289.2,M,-23.7,M,2.8,0000*40
$GPGSA,A,3,14,27,15,22,18,29,21,09,06,03,,,1.9,0.9,1.7*3C
$GPGSV,3,1,12,21,82,079,21,18,65,346,33,15,43,046,37,22,36,284,30*7A
$GPGSV,3,2,12,09,31,108,30,06,29,293,24,27,29,079,27,14,22,214,27*7B
$GPGSV,3,3,12,03,20,302,32,29,14,177,36,26,00,038,,51,49,195,36*7F
$GPRMC,150401.000,A,3352.3429,N,09831.2437,W,0.11,346.51,020412,,,D*72
$GPGGA,150402.000,3352.3428,N,09831.2437,W,2,10,0.9,289.4,M,-23.7,M,0.8,0000*46
$GPGSA,A,3,14,27,15,22,18,29,21,09,06,03,,,1.9,0.9,1.7*3C
$GPRMC,150402.000,A,3352.3428,N,09831.2437,W,0.11,359.02,020412,,,D*78
$GPGGA,150403.000,3352.3428,N,09831.2437,W,2,10,0.9,289.5,M,-23.7,M,0.8,0000*46
$GPGSA,A,3,14,27,15,22,18,29,21,09,06,03,,,1.9,0.9,1.7*3C
$GPRMC,150403.000,A,3352.3428,N,09831.2437,W,0.07,20.57,020412,,,D*43
$GPGGA,150404.000,3352.3428,N,09831.2437,W,2,10,0.9,289.7,M,-23.7,M,0.8,0000*43
$GPGSA,A,3,14,27,15,22,18,29,21,09,06,03,,,1.9,0.9,1.7*3C
$GPRMC,150404.000,A,3352.3428,N,09831.2437,W,0.09,32.49,020412,,,D*46
$GPGGA,150405.000,3352.3428,N,09831.2437,W,2,10,0.9,289.6,M,-23.7,M,0.8,0000*43
$GPGSA,A,3,14,27,15,22,18,29,21,09,06,03,,,1.9,0.9,1.7*3C
$GPRMC,150405.000,A,3352.3428,N,09831.2437,W,0.07,51.73,020412,,,D*45
$GPGGA,150406.000,3352.3428,N,09831.2437,W,2,10,0.9,289.6,M,-23.7,M,1.8,0000*41
$GPGSA,A,3,14,27,15,22,18,29,21,09,06,03,,,1.9,0.9,1.7*3C
$GPGSV,3,1,12,21,82,079,21,18,65,346,33,15,43,046,38,22,36,284,30*75
$GPGSV,3,2,12,09,31,108,30,06,29,293,25,27,29,079,27,14,22,214,26*7B
$GPGSV,3,3,12,03,20,302,32,29,14,177,36,26,00,038,,51,49,195,37*7E
$GPRMC,150406.000,A,3352.3428,N,09831.2437,W,0.09,45.34,020412,,,D*4E
$GPGGA,150407.000,3352.3428,N,09831.2437,W,2,10,0.9,289.6,M,-23.7,M,2.8,0000*43
$GPGSA,A,3,14,27,15,22,18,29,21,09,06,03,,,1.9,0.9,1.7*3C
$GPRMC,150407.000,A,3352.3428,N,09831.2437,W,0.09,34.79,020412,,,D*40
$GPGGA,150408.000,3352.3428,N,09831.2437,W,2,10,0.9,289.7,M,-23.7,M,3.8,0000*4C
$GPGSA,A,3,14,27,15,22,18,29,21,09,06,03,,,1.9,0.9,1.7*3C
$GPRMC,150408.000,A,3352.3428,N,09831.2437,W,0.11,43.17,020412,,,D*4E
$GPGGA,150409.000,3352.3428,N,09831.2437,W,2,10,0.9,289.8,M,-23.7,M,0.8,0000*41
$GPGSA,A,3,14,27,15,22,18,29,21,09,06,03,,,1.9,0.9,1.7*3C
$GPRMC,150409.000,A,3352.3428,N,09831.2437,W,0.08,51.89,020412,,,D*43
$GPGGA,150410.000,3352.3428,N,09831.2437,W,2,10,0.9,289.9,M,-23.7,M,0.8,0000*48
$GPGSA,A,3,14,27,15,22,18,29,21,09,06,03,,,1.9,0.9,1.7*3C
$GPRMC,150410.000,A,3352.3428,N,09831.2437,W,0.07,41.38,020412,,,D*4F
$GPGGA,150411.000,3352.3428,N,09831.2437,W,2,10,0.9,289.8,M,-23.7,M,0.8,0000*48
$GPGSA,A,3,14,27,15,22,18,29,21,09,06,03,,,1.9,0.9,1.7*3C
$GPGSV,3,1,12,21,82,079,21,18,65,346,33,15,43,046,38,22,36,284,30*75
$GPGSV,3,2,12,09,31,108,30,06,29,293,25,27,29,079,28,14,22,214,26*74
$GPGSV,3,3,12,03,20,302,32,29,14,177,36,26,00,038,,51,49,195,36*7F
$GPRMC,150411.000,A,3352.3428,N,09831.2437,W,0.06,20.77,020412,,,D*43
$GPGGA,150412.000,3352.3428,N,09831.2437,W,2,10,0.9,289.7,M,-23.7,M,0.8,0000*44
$GPGSA,A,3,14,27,15,22,18,29,21,09,06,03,,,1.9,0.9,1.7*3C
$GPRMC,150412.000,A,3352.3428,N,09831.2437,W,0.07,27.74,020412,,,D*45
$GPGGA,150413.000,3352.3428,N,09831.2437,W,2,10,0.9,289.9,M,-23.7,M,0.8,0000*4B
$GPGSA,A,3,14,27,15,22,18,29,21,09,06,03,,,1.9,0.9,1.7*3C
$GPRMC,150413.000,A,3352.3428,N,09831.2437,W,0.07,29.29,020412,,,D*42
$GPGGA,150414.000,3352.3428,N,09831.2437,W,2,10,0.9,289.9,M,-23.7,M,0.8,0000*4C
$GPGSA,A,3,14,27,15,22,18,29,21,09,06,03,,,1.9,0.9,1.7*3C
$GPRMC,150414.000,A,3352.3428,N,09831.2437,W,0.05,41.43,020412,,,D*45
$GPGGA,150415.000,3352.3428,N,09831.2437,W,2,10,0.9,289.8,M,-23.7,M,0.8,0000*4C
$GPGSA,A,3,14,27,15,22,18,29,21,09,06,03,,,1.9,0.9,1.7*3C
$GPRMC,150415.000,A,3352.3428,N,09831.2437,W,0.06,26.70,020412,,,D*46
$GPGGA,150416.000,3352.3428,N,09831.2437,W,2,10,0.9,290.0,M,-23.7,M,0.8,0000*4F
$GPGSA,A,3,14,27,15,22,18,29,21,09,06,03,,,1.9,0.9,1.7*3C
$GPGSV,3,1,12,21,82,079,21,18,65,346,33,15,43,046,38,22,36,284,31*74
$GPGSV,3,2,12,09,31,108,30,06,29,293,25,27,29,079,29,14,22,214,26*75
$GPGSV,3,3,12,03,20,302,31,29,14,177,36,26,00,038,,51,49,195,36*7C
$GPRMC,150416.000,A,3352.3428,N,09831.2437,W,0.06,47.26,020412,,,D*41
$GPGGA,150417.000,3352.3428,N,09831.2437,W,2,10,0.9,290.1,M,-23.7,M,0.8,0000*4F
$GPGSA,A,3,14,27,15,22,18,29,21,09,06,03,,,1.9,0.9,1.7*3C
$GPRMC,150417.000,A,3352.3428,N,09831.2437,W,0.07,52.85,020412,,,D*4C
$GPGGA,150418.000,3352.3428,N,09831.2437,W,2,10,0.9,290.0,M,-23.7,M,1.8,0000*40
$GPGSA,A,3,14,27,15,22,18,29,21,09,06,03,,,1.9,0.9,1.7*3C
$GPRMC,150418.000,A,3352.3428,N,09831.2437,W,0.09,33.75,020412,,,D*45
$GPGGA,150419.000,3352.3429,N,09831.2437,W,2,10,0.9,289.9,M,-23.7,M,2.8,0000*42
$GPGSA,A,3,14,27,15,22,18,29,21,09,06,03,,,1.9,0.9,1.7*3C
$GPRMC,150419.000,A,3352.3429,N,09831.2437,W,0.08,39.89,020412,,,D*4D
$GPGGA,150420.000,3352.3429,N,09831.2437,W,2,10,0.9,289.8,M,-23.7,M,3.8,0000*48
$GPGSA,A,3,14,27,15,22,18,29,21,09,06,03,,,1.9,0.9,1.7*3C
$GPRMC,150420.000,A,3352.3429,N,09831.2437,W,0.10,59.79,020412,,,D*47
$GPGGA,150421.000,3352.3428,N,09831.2437,W,2,10,0.9,289.9,M,-23.7,M,0.8,0000*4A
$GPGSA,A,3,14,27,15,22,18,29,21,09,06,03,,,1.9,0.9,1.7*3C
$GPGSV,3,1,12,21,82,079,21,18,65,346,33,15,43,046,38,22,36,284,31*74
$GPGSV,3,2,12,09,31,108,31,06,29,293,24,27,29,079,30,14,22,214,27*7C
$GPGSV,3,3,12,03,20,302,31,29,14,177,36,26,00,038,,51,49,195,36*7C
$GPRMC,150421.000,A,3352.3428,N,09831.2437,W,0.12,69.80,020412,,,D*40
$GPGGA,150422.000,3352.3428,N,09831.2437,W,2,10,0.9,289.9,M,-23.7,M,0.8,0000*49
$GPGSA,A,3,14,27,15,22,18,29,21,09,06,03,,,1.9,0.9,1.7*3C
$GPRMC,150422.000,A,3352.3428,N,09831.2437,W,0.10,42.95,020412,,,D*4C
$GPGGA,150423.000,3352.3429,N,09831.2437,W,2,10,0.9,289.8,M,-23.7,M,0.8,0000*48
$GPGSA,A,3,14,27,15,22,18,29,21,09,06,03,,,1.9,0.9,1.7*3C
$GPRMC,150423.000,A,3352.3429,N,09831.2437,W,0.11,74.11,020412,,,D*44
$GPGGA,150424.000,3352.3429,N,09831.2436,W,2,10,0.9,289.6,M,-23.7,M,1.8,0000*41
$GPGSA,A,3,14,27,15,22,18,29,21,09,06,03,,,1.9,0.9,1.7*3C
$GPRMC,150424.000,A,3352.3429,N,09831.2436,W,0.08,348.83,020412,,,D*7D
$GPGGA,150425.000,3352.3429,N,09831.2437,W,2,10,0.9,289.4,M,-23.7,M,2.8,0000*40
$GPGSA,A,3,14,27,15,22,18,29,21,09,06,03,,,1.9,0.9,1.7*3C
$GPRMC,150425.000,A,3352.3429,N,09831.2437,W,0.13,349.87,020412,,,D*72
$GPGGA,150426.000,3352.3430,N,09831.2437,W,2,10,0.9,289.2,M,-23.7,M,3.8,0000*4C
$GPGSA,A,3,14,27,15,22,18,29,21,09,06,03,,,1.9,0.9,1.7*3C
$GPGSV,3,1,12,21,82,079,22,18,65,346,33,15,43,046,38,22,36,284,31*77
$GPGSV,3,2,12,09,31,108,31,06,29,293,23,27,29,079,30,14,22,214,26*7A
$GPGSV,3,3,12,03,20,302,31,29,14,177,36,26,00,038,,51,49,195,36*7C
$GPRMC,150426.000,A,3352.3430,N,09831.2437,W,0.14,347.23,020412,,,D*7E
$GPGGA,150427.000,3352.3430,N,09831.2437,W,2,10,0.9,289.1,M,-23.7,M,0.8,0000*4D
$GPGSA,A,3,14,27,15,22,18,29,21,09,06,03,,,1.9,0.9,1.7*3C
$GPRMC,150427.000,A,3352.3430,N,09831.2437,W,0.11,53.30,020412,,,D*4E
$GPGGA,150428.000,3352.3430,N,09831.2437,W,2,10,0.9,289.2,M,-23.7,M,0.8,0000*41
$GPGSA,A,3,14,27,15,22,18,29,21,09,06,03,,,1.9,0.9,1.7*3C
$GPRMC,150428.000,A,3352.3430,N,09831.2437,W,0.13,8.55,020412,,,D*7E
$GPGGA,150429.000,3352.3430,N,09831.2437,W,2,10,0.9,289.2,M,-23.7,M,0.8,0000*40
$GPGSA,A,3,14,27,15,22,18,29,21,09,06,03,,,1.9,0.9,1.7*3C
$GPRMC,150429.000,A,3352.3430,N,09831.2437,W,0.18,40.21,020412,,,D*4B
$GPGGA,150430.000,3352.3430,N,09831.2437,W,2,10,0.9,289.3,M,-23.7,M,1.8,0000*48
$GPGSA,A,3,14,27,15,22,18,29,21,09,06,03,,,1.9,0.9,1.7*3C
$GPRMC,150430.000,A,3352.3430,N,09831.2437,W,0.17,57.07,020412,,,D*4E
$GPGGA,150431.000,3352.3431,N,09831.2438,W,2,10,0.9,289.4,M,-23.7,M,2.8,0000*43
$GPGSA,A,3,14,27,15,22,18,29,21,09,06,03,,,1.9,0.9,1.7*3C
$GPGSV,3,1,12,21,82,079,22,18,65,346,33,15,43,046,38,22,36,284,31*77
$GPGSV,3,2,12,09,31,108,31,06,29,293,22,27,29,079,30,14,22,214,26*7B
$GPGSV,3,3,12,03,20,302,31,29,14,177,35,26,00,038,,51,49,195,36*7F
$GPRMC,150431.000,A,3352.3431,N,09831.2438,W,0.16,3.68,020412,,,D*78
$GPGGA,150432.000,3352.3431,N,09831.2439,W,2,10,0.9,289.4,M,-23.7,M,3.8,0000*40
$GPGSA,A,3,14,27,15,22,18,29,21,09,06,03,,,1.9,0.9,1.7*3C
$GPRMC,150432.000,A,3352.3431,N,09831.2439,W,0.12,351.88,020412,,,D*74
$GPGGA,150433.000,3352.3431,N,09831.2440,W,2,10,0.9,289.5,M,-23.7,M,0.8,0000*4D
$GPGSA,A,3,14,27,15,22,18,29,21,09,06,03,,,1.9,0.9,1.7*3C
$GPRMC,150433.000,A,3352.3431,N,09831.2440,W,0.13,329.38,020412,,,D*7E
$GPGGA,150434.000,3352.3431,N,09831.2440,W,2,10,0.9,289.7,M,-23.7,M,0.8,0000*48
$GPGSA,A,3,14,27,15,22,18,29,21,09,06,03,,,1.9,0.9,1.7*3C
$GPRMC,150434.000,A,3352.3431,N,09831.2440,W,0.03,161.89,020412,,,D*7C
$GPGGA,150435.000,3352.3431,N,09831.2441,W,2,10,0.9,290.0,M,-23.7,M,0.8,0000*47
$GPGSA,A,3,14,27,15,22,18,29,21,09,06,03,,,1.9,0.9,1.7*3C
$GPRMC,150435.000,A,3352.3431,N,09831.2441,W,0.11,4.98,020412,,,D*7D
$GPGGA,150436.000,3352.3431,N,09831.2441,W,2,10,0.9,290.2,M,-23.7,M,0.8,0000*46
$GPGSA,A,3,14,27,15,22,18,29,21,09,06,03,,,1.9,0.9,1.7*3C
$GPGSV,3,1,12,21,82,079,23,18,65,346,33,15,43,046,38,22,36,284,31*76
$GPGSV,3,2,12,09,31,108,31,06,29,293,21,27,29,079,30,14,22,214,25*7B
$GPGSV,3,3,12,03,20,302,31,29,14,177,35,26,00,038,,51,49,195,36*7F
$GPRMC,150436.000,A,3352.3431,N,09831.2441,W,0.08,82.74,020412,,,D*4A
$GPGGA,150437.000,3352.3431,N,09831.2441,W,2,10,0.9,290.3,M,-23.7,M,1.8,0000*47
$GPGSA,A,3,14,27,15,22,18,29,21,09,06,03,,,1.9,0.9,1.7*3C
$GPRMC,150437.000,A,3352.3431,N,09831.2441,W,0.11,97.80,020412,,,D*4C
$GPGGA,150438.000,3352.3431,N,09831.2441,W,2,10,0.9,290.4,M,-23.7,M,2.8,0000*4C
$GPGSA,A,3,14,27,15,22,18,29,21,09,06,03,,,1.9,0.9,1.7*3C
$GPRMC,150438.000,A,3352.3431,N,09831.2441,W,0.11,60.95,020412,,,D*4F
$GPGGA,150439.000,3352.3430,N,09831.2441,W,2,10,0.9,290.6,M,-23.7,M,3.8,0000*4F
$GPGSA,A,3,14,27,15,22,18,29,21,09,06,03,,,1.9,0.9,1.7*3C
$GPRMC,150439.000,A,3352.3430,N,09831.2441,W,0.09,6.56,020412,,,D*79
$GPGGA,150440.000,3352.3431,N,09831.2442,W,2,10,0.9,290.9,M,-23.7,M,0.8,0000*4F
$GPGSA,A,3,14,27,15,22,18,29,21,09,06,03,,,1.9,0.9,1.7*3C
$GPRMC,150440.000,A,3352.3431,N,09831.2442,W,0.11,352.38,020412,,,D*76
$GPGGA,150441.000,3352.3430,N,09831.2442,W,2,10,0.9,291.0,M,-23.7,M,0.8,0000*47
$GPGSA,A,3,14,27,15,22,18,29,21,09,06,03,,,1.9,0.9,1.7*3C
$GPGSV,3,1,12,21,82,079,23,18,65,346,32,15,43,046,38,22,36,284,31*77
$GPGSV,3,2,12,09,31,108,32,06,29,293,18,27,29,079,30,14,22,214,25*72
$GPGSV,3,3,12,03,20,302,31,29,14,177,35,26,00,038,,51,49,195,38*71
$GPRMC,150441.000,A,3352.3430,N,09831.2442,W,0.09,253.98,020412,,,D*75
$GPGGA,150442.000,3352.3430,N,09831.2443,W,2,10,0.9,291.2,M,-23.7,M,0.8,0000*47
$GPGSA,A,3,14,27,15,22,18,29,21,09,06,03,,,1.9,0.9,1.7*3C
$GPRMC,150442.000,A,3352.3430,N,09831.2443,W,0.12,6.01,020412,,,D*7F
$GPGGA,150443.000,3352.3431,N,09831.2443,W,2,10,0.9,291.3,M,-23.7,M,1.8,0000*47
$GPGSA,A,3,14,27,15,22,18,29,21,09,06,03,,,1.9,0.9,1.7*3C
$GPRMC,150443.000,A,3352.3431,N,09831.2443,W,0.10,355.18,020412,,,D*70
$GPGGA,150444.000,3352.3431,N,09831.2443,W,2,10,0.9,291.3,M,-23.7,M,2.8,0000*43
$GPGSA,A,3,14,27,15,22,18,29,21,09,06,03,,,1.9,0.9,1.7*3C
$GPRMC,150444.000,A,3352.3431,N,09831.2443,W,0.11,67.82,020412,,,D*47
$GPGGA,150445.000,3352.3431,N,09831.2444,W,2,10,0.9,291.4,M,-23.7,M,0.8,0000*40
$GPGSA,A,3,14,27,15,22,18,29,21,09,06,03,,,1.9,0.9,1.7*3C
$GPRMC,150445.000,A,3352.3431,N,09831.2444,W,0.11,77.01,020412,,,D*4B
$GPGGA,150446.000,3352.3431,N,09831.2445,W,2,10,0.9,291.4,M,-23.7,M,0.8,0000*42
$GPGSA,A,3,14,27,15,22,18,29,21,09,06,03,,,1.9,0.9,1.7*3C
$GPGSV,3,1,12,21,82,079,24,18,65,346,32,15,43,046,38,22,36,284,31*70
$GPGSV,3,2,12,09,31,108,32,06,29,293,18,27,29,079,30,14,22,214,25*72
$GPGSV,3,3,12,03,20,302,31,29,14,177,34,26,00,038,,51,49,195,36*7E
$GPRMC,150446.000,A,3352.3431,N,09831.2445,W,0.02,32.50,020412,,,D*4E
$GPGGA,150447.000,3352.3430,N,09831.2445,W,2,10,0.9,291.4,M,-23.7,M,0.8,0000*42
$GPGSA,A,3,14,27,15,22,18,29,21,09,06,03,,,1.9,0.9,1.7*3C
$GPRMC,150447.000,A,3352.3430,N,09831.2445,W,0.09,86.73,020412,,,D*4B
$GPGGA,150448.000,3352.3430,N,09831.2446,W,2,10,0.9,291.2,M,-23.7,M,1.8,0000*49
$GPGSA,A,3,14,27,15,22,18,29,21,09,06,03,,,1.9,0.9,1.7*3C
$GPRMC,150448.000,A,3352.3430,N,09831.2446,W,0.13,78.70,020412,,,D*4E
$GPGGA,150449.000,3352.3430,N,09831.2446,W,2,10,0.9,291.3,M,-23.7,M,2.8,0000*4A
$GPGSA,A,3,14,27,15,22,18,29,21,09,06,03,,,1.9,0.9,1.7*3C
$GPRMC,150449.000,A,3352.3430,N,09831.2446,W,0.10,92.29,020412,,,D*44
$GPGGA,150450.000,3352.3430,N,09831.2447,W,2,10,0.9,291.3,M,-23.7,M,3.8,0000*42
$GPGSA,A,3,14,27,15,22,18,29,21,09,06,03,,,1.9,0.9,1.7*3C
$GPRMC,150450.000,A,3352.3430,N,09831.2447,W,0.10,96.37,020412,,,D*46
$GPGGA,150451.000,3352.3430,N,09831.2447,W,2,10,0.9,291.2,M,-23.7,M,0.8,0000*41
$GPGSA,A,3,14,27,15,22,18,29,21,09,06,03,,,1.9,0.9,1.7*3C
$GPGSV,3,1,12,21,82,079,24,18,65,346,32,15,43,046,38,22,36,284,31*70
$GPGSV,3,2,12,09,31,108,32,06,29,293,18,27,29,079,30,14,22,214,25*72
$GPGSV,3,3,12,03,20,302,31,29,14,177,34,26,00,038,,51,49,195,36*7E
$GPRMC,150451.000,A,3352.3430,N,09831.2447,W,0.09,128.80,020412,,,D*77
$GPGGA,150452.000,3352.3429,N,09831.2448,W,2,10,0.9,291.2,M,-23.7,M,0.8,0000*45
$GPGSA,A,3,14,27,15,22,18,29,21,09,06,03,,,1.9,0.9,1.7*3C
$GPRMC,150452.000,A,3352.3429,N,09831.2448,W,0.01,67.55,020412,,,D*49
$GPGGA,150453.000,3352.3429,N,09831.2448,W,2,10,0.9,291.2,M,-23.7,M,0.8,0000*44
$GPGSA,A,3,14,27,15,22,18,29,21,09,06,03,,,1.9,0.9,1.7*3C
$GPRMC,150453.000,A,3352.3429,N,09831.2448,W,0.12,84.75,020412,,,D*45
$GPGGA,150454.000,3352.3429,N,09831.2448,W,2,10,0.9,291.3,M,-23.7,M,1.8,0000*43
$GPGSA,A,3,14,27,15,22,18,29,21,09,06,03,,,1.9,0.9,1.7*3C
$GPRMC,150454.000,A,3352.3429,N,09831.2448,W,0.13,91.15,020412,,,D*41
$GPGGA,150455.000,3352.3429,N,09831.2448,W,2,10,0.9,291.2,M,-23.7,M,2.8,0000*40
$GPGSA,A,3,14,27,15,22,18,29,21,09,06,03,,,1.9,0.9,1.7*3C
$GPRMC,150455.000,A,3352.3429,N,09831.2448,W,0.16,71.98,020412,,,D*4E
$GPGGA,150456.000,3352.3429,N,09831.2448,W,2,10,0.9,291.1,M,-23.7,M,0.8,0000*42
$GPGSA,A,3,14,27,15,22,18,29,21,09,06,03,,,1.9,0.9,1.7*3C
$GPGSV,3,1,12,21,82,079,24,18,65,346,32,15,43,046,38,22,36,284,31*70
$GPGSV,3,2,12,09,31,108,32,06,29,293,18,27,29,079,30,14,22,214,25*72
$GPGSV,3,3,12,03,20,302,31,29,14,177,34,26,00,038,,51,49,195,38*70
$GPRMC,150456.000,A,3352.3429,N,09831.2448,W,0.12,67.43,020412,,,D*48
$GPGGA,150457.000,3352.3429,N,09831.2449,W,2,10,0.9,291.1,M,-23.7,M,0.8,0000*42
$GPGSA,A,3,14,27,15,22,18,29,21,09,06,03,,,1.9,0.9,1.7*3C
$GPRMC,150457.000,A,3352.3429,N,09831.2449,W,0.06,64.66,020412,,,D*49
$GPGGA,150458.000,3352.3429,N,09831.2449,W,2,10,0.9,291.2,M,-23.7,M,0.8,0000*4E
$GPGSA,A,3,14,27,15,22,18,29,21,09,06,03,,,1.9,0.9,1.7*3C
$GPRMC,150458.000,A,3352.3429,N,09831.2449,W,0.09,38.99,020412,,,D*40
$GPGGA,150459.000,3352.3429,N,09831.2449,W,2,10,0.9,291.1,M,-23.7,M,0.8,0000*4C
$GPGSA,A,3,14,27,15,22,18,29,21,09,06,03,,,1.9,0.9,1.7*3C
$GPRMC,150459.000,A,3352.3429,N,09831.2449,W,0.08,35.68,020412,,,D*43
$GPGGA,150500.000,3352.3430,N,09831.2450,W,2,10,0.9,291.1,M,-23.7,M,1.8,0000*40
$GPGSA,A,3,14,27,15,22,18,29,21,09,06,03,,,1.9,0.9,1.7*3C
$GPRMC,150500.000,A,3352.3430,N,09831.2450,W,0.09,15.39,020412,,,D*49
$GPGGA,150501.000,3352.3429,N,09831.2450,W,2,10,0.9,291.1,M,-23.7,M,0.8,0000*48
$GPGSA,A,3,14,27,15,22,18,29,21,09,06,03,,,1.9,0.9,1.7*3C
$GPGSV,3,1,12,21,82,079,25,18,65,346,32,15,43,046,38,22,36,284,32*72
$GPGSV,3,2,12,09,31,108,32,06,29,293,18,27,29,079,30,14,22,214,25*72
$GPGSV,3,3,12,03,20,302,30,29,14,177,34,26,00,038,,51,49,195,36*7F
$GPRMC,150501.000,A,3352.3429,N,09831.2450,W,0.07,60.60,020412,,,D*40
$GPGGA,150502.000,3352.3429,N,09831.2450,W,2,10,0.9,291.3,M,-23.7,M,1.8,0000*48
$GPGSA,A,3,14,27,15,22,18,29,21,09,06,03,,,1.9,0.9,1.7*3C
$GPRMC,150502.000,A,3352.3429,N,09831.2450,W,0.08,74.45,020412,,,D*4E
$GPGGA,150503.000,3352.3429,N,09831.2450,W,2,10,0.9,291.2,M,-23.7,M,0.8,0000*49
$GPGSA,A,3,14,27,15,22,18,29,21,09,06,03,,,1.9,0.9,1.7*3C
$GPRMC,150503.000,A,3352.3429,N,09831.2450,W,0.10,81.64,020412,,,D*4F
$GPGGA,150504.000,3352.3429,N,09831.2450,W,2,10,0.9,291.1,M,-23.7,M,0.8,0000*4D
$GPGSA,A,3,14,27,15,22,18,29,21,09,06,03,,,1.9,0.9,1.7*3C
$GPRMC,150504.000,A,3352.3429,N,09831.2450,W,0.10,349.61,020412,,,D*7A
$GPGGA,150505.000,3352.3429,N,09831.2451,W,2,10,0.9,291.1,M,-23.7,M,0.8,0000*4D
$GPGSA,A,3,14,27,15,22,18,29,21,09,06,03,,,1.9,0.9,1.7*3C
$GPRMC,150505.000,A,3352.3429,N,09831.2451,W,0.08,58.40,020412,,,D*43
$GPGGA,150506.000,3352.3429,N,09831.2451,W,2,10,0.9,291.0,M,-23.7,M,0.8,0000*4F
$GPGSA,A,3,14,27,15,22,18,29,21,09,06,03,,,1.9,0.9,1.7*3C
$GPGSV,3,1,12,21,82,079,25,18,65,346,32,15,43,046,38,22,36,284,31*71
$GPGSV,3,2,12,09,31,108,33,06,29,293,19,27,29,079,30,14,22,214,25*72
$GPGSV,3,3,12,03,20,302,30,29,14,177,34,26,00,038,,51,49,195,36*7F
$GPRMC,150506.000,A,3352.3429,N,09831.2451,W,0.12,72.32,020412,,,D*46
$GPGGA,150507.000,3352.3429,N,09831.2451,W,2,10,0.9,291.1,M,-23.7,M,1.8,0000*4E
$GPGSA,A,3,14,27,15,22,18,29,21,09,06,03,,,1.9,0.9,1.7*3C
$GPRMC,150507.000,A,3352.3429,N,09831.2451,W,0.08,40.60,020412,,,D*4A
$GPGGA,150508.000,3352.3430,N,09831.2451,W,2,10,0.9,290.9,M,-23.7,M,2.8,0000*43
$GPGSA,A,3,14,27,15,22,18,29,21,09,06,03,,,1.9,0.9,1.7*3C
$GPRMC,150508.000,A,3352.3430,N,09831.2451,W,0.11,54.80,020412,,,D*4E
$GPGGA,150509.000,3352.3430,N,09831.2451,W,2,10,0.9,290.8,M,-23.7,M,0.8,0000*41
$GPGSA,A,3,14,27,15,22,18,29,21,09,06,03,,,1.9,0.9,1.7*3C
$GPRMC,150509.000,A,3352.3430,N,09831.2451,W,0.10,12.02,020412,,,D*46
$GPGGA,150510.000,3352.3430,N,09831.2452,W,2,10,0.9,290.8,M,-23.7,M,0.8,0000*4A
$GPGSA,A,3,14,27,15,22,18,29,21,09,06,03,,,1.9,0.9,1.7*3C
$GPRMC,150510.000,A,3352.3430,N,09831.2452,W,0.09,326.80,020412,,,D*7B
$GPGGA,150511.000,3352.3430,N,09831.2452,W,2,10,0.9,290.9,M,-23.7,M,0.8,0000*4A
$GPGSA,A,3,14,27,15,22,18,29,21,09,06,03,,,1.9,0.9,1.7*3C
$GPGSV,3,1,12,21,82,079,25,18,65,346,32,15,43,046,38,22,36,284,31*71
$GPGSV,3,2,12,09,31,108,33,06,29,293,20,27,29,079,30,14,22,214,25*78
$GPGSV,3,3,12,03,20,302,30,29,14,177,34,26,00,038,,51,49,195,36*7F
$GPRMC,150511.000,A,3352.3430,N,09831.2452,W,0.06,314.18,020412,,,D*75
$GPGGA,150512.000,3352.3430,N,09831.2452,W,2,10,0.9,290.9,M,-23.7,M,1.8,0000*48
$GPGSA,A,3,14,27,15,22,18,29,21,09,06,03,,,1.9,0.9,1.7*3C
$GPRMC,150512.000,A,3352.3430,N,09831.2452,W,0.07,78.27,020412,,,D*42
$GPGGA,150513.000,3352.3430,N,09831.2452,W,2,10,0.9,290.8,M,-23.7,M,0.8,0000*49
$GPGSA,A,3,14,27,15,22,18,29,21,09,06,03,,,1.9,0.9,1.7*3C
$GPRMC,150513.000,A,3352.3430,N,09831.2452,W,0.06,69.92,020412,,,D*4C
$GPGGA,150514.000,3352.3429,N,09831.2452,W,2,10,0.9,290.8,M,-23.7,M,1.8,0000*47
$GPGSA,A,3,14,27,15,22,18,29,21,09,06,03,,,1.9,0.9,1.7*3C
$GPRMC,150514.000,A,3352.3429,N,09831.2452,W,0.10,93.88,020412,,,D*4A
$GPGGA,150515.000,3352.3429,N,09831.2452,W,2,10,0.9,290.8,M,-23.7,M,0.8,0000*47
$GPGSA,A,3,14,27,15,22,18,29,21,09,06,03,,,1.9,0.9,1.7*3C
$GPRMC,150515.000,A,3352.3429,N,09831.2452,W,0.09,356.25,020412,,,D*7E
$GPGGA,150516.000,3352.3429,N,09831.2452,W,2,10,0.9,290.8,M,-23.7,M,0.8,0000*44
$GPGSA,A,3,14,27,15,22,18,29,21,09,06,03,,,1.9,0.9,1.7*3C
$GPGSV,3,1,12,21,82,079,25,18,65,346,32,15,43,046,38,22,36,284,31*71
$GPGSV,3,2,12,09,31,108,33,06,29,293,21,27,29,079,30,14,22,214,26*7A
$GPGSV,3,3,12,03,20,302,30,29,14,177,34,26,00,038,,51,49,195,36*7F
$GPRMC,150516.000,A,3352.3429,N,09831.2452,W,0.08,22.57,020412,,,D*49
$GPGGA,150517.000,3352.3430,N,09831.2452,W,2,10,0.9,290.7,M,-23.7,M,0.8,0000*42
$GPGSA,A,3,14,27,15,22,18,29,21,09,06,03,,,1.9,0.9,1.7*3C
$GPRMC,150517.000,A,3352.3430,N,09831.2452,W,0.09,8.84,020412,,,D*77
$GPGGA,150518.000,3352.3430,N,09831.2453,W,2,10,0.9,290.8,M,-23.7,M,1.8,0000*42
$GPGSA,A,3,14,27,15,22,18,29,21,09,06,03,,,1.9,0.9,1.7*3C
$GPRMC,150518.000,A,3352.3430,N,09831.2453,W,0.13,81.11,020412,,,D*4F
$GPGGA,150519.000,3352.3430,N,09831.2452,W,2,10,0.9,290.7,M,-23.7,M,2.8,0000*4E
$GPGSA,A,3,14,27,15,22,18,29,21,09,06,03,,,1.9,0.9,1.7*3C
$GPRMC,150519.000,A,3352.3430,N,09831.2452,W,0.13,68.23,020412,,,D*49
$GPGGA,150520.000,3352.3430,N,09831.2452,W,2,10,0.9,290.8,M,-23.7,M,3.8,0000*4A
$GPGSA,A,3,14,27,15,22,18,29,21,09,06,03,,,1.9,0.9,1.7*3C
$GPRMC,150520.000,A,3352.3430,N,09831.2452,W,0.14,89.52,020412,,,D*4D
$GPGGA,150521.000,3352.3430,N,09831.2452,W,2,10,0.9,290.9,M,-23.7,M,0.8,0000*49
$GPGSA,A,3,14,27,15,22,18,29,21,09,06,03,,,1.9,0.9,1.7*3C
$GPGSV,3,1,12,21,82,079,25,18,65,346,31,15,43,046,38,22,36,284,32*71
$GPGSV,3,2,12,09,31,108,33,06,29,293,21,27,29,079,31,14,22,214,26*7B
$GPGSV,3,3,12,03,20,302,30,29,14,177,34,26,00,038,,51,49,195,36*7F
$GPRMC,150521.000,A,3352.3430,N,09831.2452,W,0.11,99.08,020412,,,D*47
$GPGGA,150522.000,3352.3429,N,09831.2452,W,2,10,0.9,290.9,M,-23.7,M,0.8,0000*42
$GPGSA,A,3,14,27,15,22,18,29,21,09,06,03,,,1.9,0.9,1.7*3C
$GPRMC,150522.000,A,3352.3429,N,09831.2452,W,0.05,329.06,020412,,,D*7F
$GPGGA,150523.000,3352.3429,N,09831.2453,W,2,10,0.9,291.0,M,-23.7,M,0.8,0000*4A
$GPGSA,A,3,14,27,15,22,18,29,21,09,06,03,,,1.9,0.9,1.7*3C
$GPRMC,150523.000,A,3352.3429,N,09831.2453,W,0.08,93.66,020412,,,D*46
$GPGGA,150524.000,3352.3429,N,09831.2453,W,2,10,0.9,291.2,M,-23.7,M,1.8,0000*4E
$GPGSA,A,3,14,27,15,22,18,29,21,09,06,03,,,1.9,0.9,1.7*3C
$GPRMC,150524.000,A,3352.3429,N,09831.2453,W,0.07,109.04,020412,,,D*78
$GPGGA,150525.000,3352.3429,N,09831.2453,W,2,10,0.9,291.1,M,-23.7,M,2.8,0000*4F
$GPGSA,A,3,14,27,15,22,18,29,21,09,06,03,,,1.9,0.9,1.7*3C
$GPRMC,150525.000,A,3352.3429,N,09831.2453,W,0.03,66.06,020412,,,D*47
$GPGGA,150526.000,3352.3429,N,09831.2453,W,2,10,0.9,291.1,M,-23.7,M,3.8,0000*4D
$GPGSA,A,3,14,27,15,22,18,29,21,09,06,03,,,1.9,0.9,1.7*3C
$GPGSV,3,1,12,21,82,079,25,18,65,346,31,15,43,046,38,22,36,284,32*71
$GPGSV,3,2,12,09,31,108,33,06,29,293,21,27,29,079,31,14,22,214,26*7B
$GPGSV,3,3,12,03,20,302,31,29,14,177,34,26,00,038,,51,49,195,39*71
$GPRMC,150526.000,A,3352.3429,N,09831.2453,W,0.07,323.58,020412,,,D*79
$GPGGA,150527.000,3352.3429,N,09831.2453,W,2,10,0.9,291.3,M,-23.7,M,0.8,0000*4D
$GPGSA,A,3,14,27,15,22,18,29,21,09,06,03,,,1.9,0.9,1.7*3C
$GPRMC,150527.000,A,3352.3429,N,09831.2453,W,0.13,62.02,020412,,,D*44
$GPGGA,150528.000,3352.3429,N,09831.2453,W,2,10,0.9,291.5,M,-23.7,M,0.8,0000*44
$GPGSA,A,3,14,27,15,22,18,29,21,09,06,03,,,1.9,0.9,1.7*3C
$GPRMC,150528.000,A,3352.3429,N,09831.2453,W,0.10,84.91,020412,,,D*4A
$GPGGA,150529.000,3352.3429,N,09831.2453,W,2,10,0.9,291.6,M,-23.7,M,0.8,0000*46
$GPGSA,A,3,14,27,15,22,18,29,21,09,06,03,,,1.9,0.9,1.7*3C
$GPRMC,150529.000,A,3352.3429,N,09831.2453,W,0.06,17.88,020412,,,D*4E
$GPGGA,150530.000,3352.3429,N,09831.2453,W,2,10,0.9,291.6,M,-23.7,M,1.8,0000*4F
$GPGSA,A,3,14,27,15,22,18,29,21,09,06,03,,,1.9,0.9,1.7*3C
$GPRMC,150530.000,A,3352.3429,N,09831.2453,W,0.08,351.42,020412,,,D*7F
$GPGGA,150531.000,3352.3429,N,09831.2453,W,2,10,0.9,291.6,M,-23.7,M,0.8,0000*4F
$GPGSA,A,3,14,27,15,22,18,29,21,09,06,03,,,1.9,0.9,1.7*3C
$GPGSV,3,1,12,21,82,079,26,18,65,346,31,15,43,046,38,22,36,284,32*72
$GPGSV,3,2,12,09,31,108,33,06,29,293,21,27,29,079,31,14,22,214,26*7B
$GPGSV,3,3,12,03,20,302,31,29,14,177,33,26,00,038,,51,49,195,38*77
$GPRMC,150531.000,A,3352.3429,N,09831.2453,W,0.07,54.76,020412,,,D*40
$GPGGA,150532.000,3352.3429,N,09831.2453,W,2,10,0.9,291.6,M,-23.7,M,0.8,0000*4C
$GPGSA,A,3,14,27,15,22,18,29,21,09,06,03,,,1.9,0.9,1.7*3C
$GPRMC,150532.000,A,3352.3429,N,09831.2453,W,0.10,69.23,020412,,,D*4B
$GPGGA,150533.000,3352.3429,N,09831.2453,W,2,10,0.9,291.6,M,-23.7,M,0.8,0000*4D
$GPGSA,A,3,14,27,15,22,18,29,21,09,06,03,,,1.9,0.9,1.7*3C
$GPRMC,150533.000,A,3352.3429,N,09831.2453,W,0.05,45.99,020412,,,D*41
$GPGGA,150534.000,3352.3429,N,09831.2453,W,2,10,0.9,291.7,M,-23.7,M,0.8,0000*4B
$GPGSA,A,3,14,27,15,22,18,29,21,09,06,03,,,1.9,0.9,1.7*3C
$GPRMC,150534.000,A,3352.3429,N,09831.2453,W,0.10,99.76,020412,,,D*42
$GPGGA,150535.000,3352.3429,N,09831.2453,W,2,10,0.9,291.7,M,-23.7,M,0.8,0000*4A
$GPGSA,A,3,14,27,15,22,18,29,21,09,06,03,,,1.9,0.9,1.7*3C
$GPRMC,150535.000,A,3352.3429,N,09831.2453,W,0.04,357.53,020412,,,D*70
$GPGGA,150536.000,3352.3429,N,09831.2453,W,2,10,0.9,291.7,M,-23.7,M,1.8,0000*48
$GPGSA,A,3,14,27,15,22,18,29,21,09,06,03,,,1.9,0.9,1.7*3C
$GPGSV,3,1,12,21,82,079,26,18,65,346,31,15,43,046,38,22,36,284,32*72
$GPGSV,3,2,12,09,31,108,32,06,29,293,21,27,29,079,32,14,22,214,26*79
$GPGSV,3,3,12,03,20,302,31,29,14,177,33,26,00,038,,51,49,195,39*76
$GPRMC,150536.000,A,3352.3429,N,09831.2453,W,0.09,82.21,020412,,,D*40
$GPGGA,150537.000,3352.3429,N,09831.2453,W,2,10,0.9,291.7,M,-23.7,M,2.8,0000*4A
$GPGSA,A,3,14,27,15,22,18,29,21,09,06,03,,,1.9,0.9,1.7*3C
$GPRMC,150537.000,A,3352.3429,N,09831.2453,W,0.05,339.74,020412,,,D*7E
$GPGGA,150538.000,3352.3429,N,09831.2453,W,2,10,0.9,291.7,M,-23.7,M,3.8,0000*44
$GPGSA,A,3,14,27,15,22,18,29,21,09,06,03,,,1.9,0.9,1.7*3C
$GPRMC,150538.000,A,3352.3429,N,09831.2453,W,0.04,6.52,020412,,,D*7B
$GPGGA,150539.000,3352.3429,N,09831.2453,W,2,10,0.9,291.7,M,-23.7,M,0.8,0000*46
$GPGSA,A,3,14,27,15,22,18,29,21,09,06,03,,,1.9,0.9,1.7*3C
$GPRMC,150539.000,A,3352.3429,N,09831.2453,W,0.09,80.45,020412,,,D*4F
$GPGGA,150540.000,3352.3429,N,09831.2453,W,2,10,0.9,291.6,M,-23.7,M,0.8,0000*49
$GPGSA,A,3,14,27,15,22,18,29,21,09,06,03,,,1.9,0.9,1.7*3C
$GPRMC,150540.000,A,3352.3429,N,09831.2453,W,0.10,2.21,020412,,,D*71
$GPGGA,150541.000,3352.3429,N,09831.2453,W,2,10,0.9,291.6,M,-23.7,M,0.8,0000*48
$GPGSA,A,3,14,27,15,22,18,29,21,09,06,03,,,1.9,0.9,1.7*3C
$GPGSV,3,1,12,21,82,079,26,18,65,346,31,15,43,046,38,22,36,284,33*73
$GPGSV,3,2,12,09,31,108,32,06,29,293,21,27,29,079,32,14,22,214,26*79
$GPGSV,3,3,12,03,20,302,31,29,14,177,33,26,00,038,,51,49,195,36*79
$GPRMC,150541.000,A,3352.3429,N,09831.2453,W,0.09,65.06,020412,,,D*4C
$GPGGA,150542.000,3352.3429,N,09831.2453,W,2,10,0.9,291.6,M,-23.7,M,1.8,0000*4A
$GPGSA,A,3,14,27,15,22,18,29,21,09,06,03,,,1.9,0.9,1.7*3C
$GPRMC,150542.000,A,3352.3429,N,09831.2453,W,0.10,5.92,020412,,,D*7C
$GPGGA,150543.000,3352.3429,N,09831.2453,W,2,10,0.9,291.5,M,-23.7,M,2.8,0000*4B
$GPGSA,A,3,14,27,15,22,18,29,21,09,06,03,,,1.9,0.9,1.7*3C
$GPRMC,150543.000,A,3352.3429,N,09831.2453,W,0.09,0.47,020412,,,D*78
$GPGGA,150544.000,3352.3429,N,09831.2453,W,2,10,0.9,291.4,M,-23.7,M,3.8,0000*4C
$GPGSA,A,3,14,27,15,22,18,29,21,09,06,03,,,1.9,0.9,1.7*3C
$GPRMC,150544.000,A,3352.3429,N,09831.2453,W,0.08,6.58,020412,,,D*76
$GPGGA,150545.000,3352.3430,N,09831.2453,W,2,10,0.9,291.4,M,-23.7,M,0.8,0000*46
$GPGSA,A,3,14,27,15,22,18,29,21,09,06,03,,,1.9,0.9,1.7*3C
$GPRMC,150545.000,A,3352.3430,N,09831.2453,W,0.06,343.60,020412,,,D*78
$GPGGA,150546.000,3352.3429,N,09831.2453,W,2,10,0.9,291.4,M,-23.7,M,0.8,0000*4D
$GPGSA,A,3,14,27,15,22,18,29,21,09,06,03,,,1.9,0.9,1.7*3C
$GPGSV,3,1,12,21,81,087,27,18,65,349,31,15,41,045,38,22,37,285,33*7E
$GPGSV,3,2,12,09,32,107,33,06,30,292,21,27,29,078,31,14,23,214,26*7E
