$GPGGA,070639.000,3353.7553,N,09832.0282,W,2,08,1.0,337.3,M,-23.7,M,0.8,0000*4C
$GPGSA,A,3,28,17,27,10,20,09,04,02,,,,,2.0,1.0,1.8*3D
$GPRMC,070639.000,A,3353.7553,N,09832.0282,W,0.14,110.95,300312,,,D*72
$GPGGA,070640.000,3353.7554,N,09832.0282,W,2,08,1.0,336.7,M,-23.7,M,0.8,0000*40
$GPGSA,A,3,28,17,27,10,20,09,04,02,,,,,2.0,1.0,1.8*3D
$GPRMC,070640.000,A,3353.7554,N,09832.0282,W,0.05,341.43,300312,,,D*76
$GPGGA,070641.000,3353.7555,N,09832.0280,W,2,08,1.0,336.2,M,-23.7,M,0.8,0000*47
$GPGSA,A,3,28,17,27,10,20,09,04,02,,,,,2.0,1.0,1.8*3D
$GPRMC,070641.000,A,3353.7555,N,09832.0280,W,0.35,102.90,300312,,,D*7C
$GPGGA,070642.000,3353.7556,N,09832.0279,W,2,08,1.0,335.3,M,-23.7,M,1.8,0000*42
$GPGSA,A,3,28,17,27,10,20,09,04,02,,,,,2.0,1.0,1.8*3D
$GPGSV,3,1,12,04,70,194,36,17,50,040,40,28,45,113,28,27,43,273,24*71
$GPGSV,3,2,12,02,37,213,30,09,36,294,22,10,15,152,29,20,15,058,25*79
$GPGSV,3,3,12,12,13,312,,32,00,036,,08,00,165,,51,49,195,45*70
$GPRMC,070642.000,A,3353.7556,N,09832.0279,W,0.15,340.03,300312,,,D*76
$GPGGA,070643.000,3353.7557,N,09832.0278,W,2,08,1.0,334.5,M,-23.7,M,0.8,0000*45
$GPGSA,A,3,28,17,27,10,20,09,04,02,,,,,2.0,1.0,1.8*3D
$GPRMC,070643.000,A,3353.7557,N,09832.0278,W,0.11,69.11,300312,,,D*48
$GPGGA,070644.000,3353.7558,N,09832.0278,W,2,08,1.0,333.6,M,-23.7,M,0.8,0000*49
$GPGSA,A,3,28,17,27,10,20,09,04,02,,,,,2.0,1.0,1.8*3D
$GPRMC,070644.000,A,3353.7558,N,09832.0278,W,0.42,329.21,300312,,,D*72
$GPGGA,070645.000,3353.7559,N,09832.0278,W,2,08,1.0,332.7,M,-23.7,M,0.8,0000*49
$GPGSA,A,3,28,17,27,10,20,09,04,02,,,,,2.0,1.0,1.8*3D
$GPRMC,070645.000,A,3353.7559,N,09832.0278,W,0.09,346.99,300312,,,D*77
$GPGGA,070646.000,3353.7559,N,09832.0277,W,2,08,1.0,331.9,M,-23.7,M,0.8,0000*48
$GPGSA,A,3,28,17,27,10,20,09,04,02,,,,,2.0,1.0,1.8*3D
$GPRMC,070646.000,A,3353.7559,N,09832.0277,W,0.22,72.32,300312,,,D*47
$GPGGA,070647.000,3353.7560,N,09832.0277,W,2,08,1.0,331.4,M,-23.7,M,0.8,0000*4E
$GPGSA,A,3,28,17,27,10,20,09,04,02,,,,,2.0,1.0,1.8*3D
$GPGSV,3,1,11,04,72,194,36,17,49,041,40,28,44,114,29,27,43,271,24*7C
$GPGSV,3,2,11,02,38,214,30,09,36,292,21,10,16,151,29,20,15,056,25*79
$GPGSV,3,3,11,12,14,313,,32,00,035,,51,49,195,39*47
$GPRMC,070647.000,A,3353.7560,N,09832.0277,W,0.16,76.10,300312,,,D*4F
$GPGGA,070648.000,3353.7561,N,09832.0276,W,2,08,1.0,331.0,M,-23.7,M,1.8,0000*44
$GPGSA,A,3,28,17,27,10,20,09,04,02,,,,,2.0,1.0,1.8*3D
$GPRMC,070648.000,A,3353.7561,N,09832.0276,W,0.13,110.26,300312,,,D*71
$GPGGA,070649.000,3353.7561,N,09832.0276,W,2,08,1.0,330.7,M,-23.7,M,2.8,0000*40
$GPGSA,A,3,28,17,27,10,20,09,04,02,,,,,2.0,1.0,1.8*3D
$GPRMC,070649.000,A,3353.7561,N,09832.0276,W,0.12,147.29,300312,,,D*7C
$GPGGA,070650.000,3353.7562,N,09832.0276,W,2,08,1.0,330.2,M,-23.7,M,0.8,0000*4C
$GPGSA,A,3,28,17,27,10,20,09,04,02,,,,,2.0,1.0,1.8*3D
$GPRMC,070650.000,A,3353.7562,N,09832.0276,W,0.26,304.34,300312,,,D*79
$GPGGA,070651.000,3353.7563,N,09832.0277,W,2,08,1.0,329.9,M,-23.7,M,0.8,0000*4E
$GPGSA,A,3,28,17,27,10,20,09,04,02,,,,,2.0,1.0,1.8*3D
$GPRMC,070651.000,A,3353.7563,N,09832.0277,W,0.15,315.03,300312,,,D*7C
$GPGGA,070652.000,3353.7563,N,09832.0277,W,2,08,1.0,329.7,M,-23.7,M,0.8,0000*43
$GPGSA,A,3,28,17,27,10,20,09,04,02,,,,,2.0,1.0,1.8*3D
$GPGSV,3,1,11,04,72,194,36,17,49,041,40,28,44,114,30,27,43,271,24*74
$GPGSV,3,2,11,02,38,214,31,09,36,292,22,10,16,151,29,20,15,056,25*7B
$GPGSV,3,3,11,12,14,313,,32,00,035,,51,49,195,39*47
$GPRMC,070652.000,A,3353.7563,N,09832.0277,W,0.09,161.19,300312,,,D*78
$GPGGA,070653.000,3353.7563,N,09832.0277,W,2,08,1.0,329.5,M,-23.7,M,0.8,0000*40
$GPGSA,A,3,28,17,27,10,20,09,04,02,,,,,2.0,1.0,1.8*3D
$GPRMC,070653.000,A,3353.7563,N,09832.0277,W,0.15,79.78,300312,,,D*4B
$GPGGA,070654.000,3353.7564,N,09832.0277,W,2,08,1.0,329.3,M,-23.7,M,1.8,0000*47
$GPGSA,A,3,28,17,27,10,20,09,04,02,,,,,2.0,1.0,1.8*3D
$GPRMC,070654.000,A,3353.7564,N,09832.0277,W,0.10,39.11,300312,,,D*45
$GPGGA,070655.000,3353.7565,N,09832.0277,W,2,08,1.0,329.1,M,-23.7,M,2.8,0000*46
$GPGSA,A,3,28,17,27,10,20,09,04,02,,,,,2.0,1.0,1.8*3D
$GPRMC,070655.000,A,3353.7565,N,09832.0277,W,0.19,314.85,300312,,,D*7D
$GPGGA,070656.000,3353.7565,N,09832.0277,W,2,08,1.0,329.0,M,-23.7,M,3.8,0000*45
$GPGSA,A,3,28,17,27,10,20,09,04,02,,,,,2.0,1.0,1.8*3D
$GPRMC,070656.000,A,3353.7565,N,09832.0277,W,0.25,87.80,300312,,,D*4D
$GPGGA,070657.000,3353.7566,N,09832.0277,W,2,08,1.0,328.7,M,-23.7,M,0.8,0000*42
$GPGSA,A,3,28,17,27,10,20,09,04,02,,,,,2.0,1.0,1.8*3D
$GPGSV,3,1,11,04,72,194,36,17,49,041,40,28,44,114,31,27,43,271,24*75
$GPGSV,3,2,11,02,38,214,31,09,36,292,23,10,16,151,29,20,15,056,25*7A
$GPGSV,3,3,11,12,14,313,,32,00,035,,51,49,195,39*47
$GPRMC,070657.000,A,3353.7566,N,09832.0277,W,0.15,338.51,300312,,,D*77
$GPGGA,070658.000,3353.7567,N,09832.0277,W,2,08,1.0,328.3,M,-23.7,M,0.8,0000*48
$GPGSA,A,3,28,17,27,10,20,09,04,02,,,,,2.0,1.0,1.8*3D
$GPRMC,070658.000,A,3353.7567,N,09832.0277,W,0.24,323.38,300312,,,D*7E
$GPGGA,070659.000,3353.7568,N,09832.0278,W,2,08,1.0,328.0,M,-23.7,M,0.8,0000*4A
$GPGSA,A,3,28,17,27,10,20,09,04,02,,,,,2.0,1.0,1.8*3D
$GPRMC,070659.000,A,3353.7568,N,09832.0278,W,0.06,318.72,300312,,,D*79
$GPGGA,070700.000,3353.7568,N,09832.0278,W,2,08,1.0,327.8,M,-23.7,M,1.8,0000*41
$GPGSA,A,3,28,17,27,10,20,09,04,02,,,,,2.0,1.0,1.8*3D
$GPRMC,070700.000,A,3353.7568,N,09832.0278,W,0.29,294.97,300312,,,D*77
$GPGGA,070701.000,3353.7568,N,09832.0279,W,2,08,1.0,327.6,M,-23.7,M,2.8,0000*4C
$GPGSA,A,3,28,17,27,10,20,09,04,02,,,,,2.0,1.0,1.8*3D
$GPRMC,070701.000,A,3353.7568,N,09832.0279,W,0.09,122.60,300312,,,D*73
$GPGGA,070702.000,3353.7568,N,09832.0279,W,2,08,1.0,327.5,M,-23.7,M,3.8,0000*4D
$GPGSA,A,3,28,17,27,10,20,09,04,02,,,,,2.0,1.0,1.8*3D
$GPGSV,3,1,11,04,72,194,36,17,49,041,40,28,44,114,31,27,43,271,23*72
$GPGSV,3,2,11,02,38,214,31,09,36,292,24,10,16,151,28,20,15,056,26*7F
$GPGSV,3,3,11,12,14,313,,32,00,035,,51,49,195,39*47
$GPRMC,070702.000,A,3353.7568,N,09832.0279,W,0.11,75.57,300312,,,D*4E
$GPGGA,070703.000,3353.7569,N,09832.0278,W,2,08,1.0,327.4,M,-23.7,M,0.8,0000*4E
$GPGSA,A,3,28,17,27,10,20,09,04,02,,,,,2.0,1.0,1.8*3D
$GPRMC,070703.000,A,3353.7569,N,09832.0278,W,0.10,87.75,300312,,,D*43
$GPGGA,070704.000,3353.7569,N,09832.0279,W,2,08,1.0,327.3,M,-23.7,M,0.8,0000*4F
$GPGSA,A,3,28,17,27,10,20,09,04,02,,,,,2.0,1.0,1.8*3D
$GPRMC,070704.000,A,3353.7569,N,09832.0279,W,0.15,308.30,300312,,,D*75
$GPGGA,070705.000,3353.7570,N,09832.0279,W,2,08,1.0,327.1,M,-23.7,M,0.8,0000*44
$GPGSA,A,3,28,17,27,10,20,09,04,02,,,,,2.0,1.0,1.8*3D
$GPRMC,070705.000,A,3353.7570,N,09832.0279,W,0.22,319.78,300312,,,D*74
$GPGGA,070706.000,3353.7570,N,09832.0280,W,2,08,1.0,327.0,M,-23.7,M,0.8,0000*40
$GPGSA,A,3,28,17,27,10,20,09,04,02,,,,,2.0,1.0,1.8*3D
$GPRMC,070706.000,A,3353.7570,N,09832.0280,W,0.17,331.05,300312,,,D*77
$GPGGA,070707.000,3353.7571,N,09832.0280,W,2,08,1.0,326.8,M,-23.7,M,1.8,0000*48
$GPGSA,A,3,28,17,27,10,20,09,04,02,,,,,2.0,1.0,1.8*3D
$GPGSV,3,1,11,04,72,194,36,17,49,041,39,28,44,114,32,27,43,271,24*78
$GPGSV,3,2,11,02,38,214,31,09,36,292,25,10,16,151,28,20,15,056,26*7E
$GPGSV,3,3,11,12,14,313,,32,00,035,,51,49,195,39*47
$GPRMC,070707.000,A,3353.7571,N,09832.0280,W,0.16,338.48,300312,,,D*76
$GPGGA,070708.000,3353.7572,N,09832.0280,W,2,08,1.0,326.7,M,-23.7,M,2.8,0000*48
$GPGSA,A,3,28,17,27,10,20,09,04,02,,,,,2.0,1.0,1.8*3D
$GPRMC,070708.000,A,3353.7572,N,09832.0280,W,0.15,328.09,300312,,,D*7D
$GPGGA,070709.000,3353.7572,N,09832.0281,W,2,08,1.0,326.6,M,-23.7,M,0.8,0000*4B
$GPGSA,A,3,28,17,27,10,20,09,04,02,,,,,2.0,1.0,1.8*3D
$GPRMC,070709.000,A,3353.7572,N,09832.0281,W,0.06,20.24,300312,,,D*4B
$GPGGA,070710.000,3353.7573,N,09832.0281,W,2,08,1.0,326.5,M,-23.7,M,0.8,0000*41
$GPGSA,A,3,28,17,27,10,20,09,04,02,,,,,2.0,1.0,1.8*3D
$GPRMC,070710.000,A,3353.7573,N,09832.0281,W,0.05,0.41,300312,,,D*70
$GPGGA,070711.000,3353.7573,N,09832.0281,W,2,08,1.0,326.3,M,-23.7,M,0.8,0000*46
$GPGSA,A,3,28,17,27,10,20,09,04,02,,,,,2.0,1.0,1.8*3D
$GPRMC,070711.000,A,3353.7573,N,09832.0281,W,0.08,292.17,300312,,,D*76
$GPGGA,070712.000,3353.7573,N,09832.0281,W,2,08,1.0,326.3,M,-23.7,M,1.8,0000*44
$GPGSA,A,3,28,17,27,10,20,09,04,02,,,,,2.0,1.0,1.8*3D
$GPGSV,3,1,11,04,72,194,36,17,49,041,39,28,44,114,32,27,43,271,24*78
$GPGSV,3,2,11,02,38,214,31,09,36,292,26,10,16,151,27,20,15,056,26*72
$GPGSV,3,3,11,12,14,313,,32,00,035,,51,49,195,39*47
$GPRMC,070712.000,A,3353.7573,N,09832.0281,W,0.11,230.34,300312,,,D*74
$GPGGA,070713.000,3353.7573,N,09832.0281,W,2,08,1.0,326.3,M,-23.7,M,2.8,0000*46
$GPGSA,A,3,28,17,27,10,20,09,04,02,,,,,2.0,1.0,1.8*3D
$GPRMC,070713.000,A,3353.7573,N,09832.0281,W,0.04,93.12,300312,,,D*4E
$GPGGA,070714.000,3353.7573,N,09832.0281,W,2,08,1.0,326.3,M,-23.7,M,0.8,0000*43
$GPGSA,A,3,28,17,27,10,20,09,04,02,,,,,2.0,1.0,1.8*3D
$GPRMC,070714.000,A,3353.7573,N,09832.0281,W,0.12,110.47,300312,,,D*74
$GPGGA,070715.000,3353.7573,N,09832.0280,W,2,08,1.0,326.3,M,-23.7,M,0.8,0000*43
$GPGSA,A,3,28,17,27,10,20,09,04,02,,,,,2.0,1.0,1.8*3D
$GPRMC,070715.000,A,3353.7573,N,09832.0280,W,0.14,114.49,300312,,,D*78
$GPGGA,070716.000,3353.7573,N,09832.0280,W,2,08,1.0,326.2,M,-23.7,M,0.8,0000*41
$GPGSA,A,3,28,17,27,10,20,09,04,02,,,,,2.0,1.0,1.8*3D
$GPRMC,070716.000,A,3353.7573,N,09832.0280,W,0.05,89.95,300312,,,D*4F
$GPGGA,070717.000,3353.7574,N,09832.0280,W,2,08,1.0,326.2,M,-23.7,M,0.8,0000*47
$GPGSA,A,3,28,17,27,10,20,09,04,02,,,,,2.0,1.0,1.8*3D
$GPGSV,3,1,11,04,72,194,36,17,49,042,40,28,43,115,31,27,43,271,24*70
$GPGSV,3,2,11,02,38,214,31,09,36,292,27,10,17,151,27,20,15,056,27*73
$GPGSV,3,3,11,12,14,313,,32,00,035,,51,49,195,39*47
$GPRMC,070717.000,A,3353.7574,N,09832.0280,W,0.12,45.94,300312,,,D*4E
$GPGGA,070718.000,3353.7574,N,09832.0279,W,2,08,1.0,326.2,M,-23.7,M,1.8,0000*4F
$GPGSA,A,3,28,17,27,10,20,09,04,02,,,,,2.0,1.0,1.8*3D
$GPRMC,070718.000,A,3353.7574,N,09832.0279,W,0.16,65.04,300312,,,D*48
$GPGGA,070719.000,3353.7575,N,09832.0279,W,2,08,1.0,326.2,M,-23.7,M,2.8,0000*4C
$GPGSA,A,3,28,17,27,10,20,09,04,02,,,,,2.0,1.0,1.8*3D
$GPRMC,070719.000,A,3353.7575,N,09832.0279,W,0.18,322.54,300312,,,D*73
$GPGGA,070720.000,3353.7575,N,09832.0279,W,2,08,1.0,326.2,M,-23.7,M,3.8,0000*47
$GPGSA,A,3,28,17,27,10,20,09,04,02,,,,,2.0,1.0,1.8*3D
$GPRMC,070720.000,A,3353.7575,N,09832.0279,W,0.19,321.55,300312,,,D*7A
$GPGGA,070721.000,3353.7575,N,09832.0279,W,2,08,1.0,326.2,M,-23.7,M,0.8,0000*45
$GPGSA,A,3,28,17,27,10,20,09,04,02,,,,,2.0,1.0,1.8*3D
$GPRMC,070721.000,A,3353.7575,N,09832.0279,W,0.07,45.34,300312,,,D*42
$GPGGA,070722.000,3353.7575,N,09832.0279,W,2,08,1.0,326.1,M,-23.7,M,0.8,0000*45
$GPGSA,A,3,28,17,27,10,20,09,04,02,,,,,2.0,1.0,1.8*3D
$GPGSV,3,1,11,04,72,194,36,17,49,042,40,28,43,115,31,27,43,271,24*70
$GPGSV,3,2,11,02,38,214,32,09,36,292,27,10,17,151,27,20,15,056,27*70
$GPGSV,3,3,11,12,14,313,,32,00,035,,51,49,195,39*47
$GPRMC,070722.000,A,3353.7575,N,09832.0279,W,0.04,51.36,300312,,,D*45
$GPGGA,070723.000,3353.7575,N,09832.0278,W,2,08,1.0,326.2,M,-23.7,M,0.8,0000*46
$GPGSA,A,3,28,17,27,10,20,09,04,02,,,,,2.0,1.0,1.8*3D
$GPRMC,070723.000,A,3353.7575,N,09832.0278,W,0.16,110.85,300312,,,D*7A
$GPGGA,070724.000,3353.7575,N,09832.0278,W,2,08,1.0,326.3,M,-23.7,M,1.8,0000*41
$GPGSA,A,3,28,17,27,10,20,09,04,02,,,,,2.0,1.0,1.8*3D
$GPRMC,070724.000,A,3353.7575,N,09832.0278,W,0.20,122.05,300312,,,D*71
$GPGGA,070725.000,3353.7574,N,09832.0277,W,2,08,1.0,326.4,M,-23.7,M,2.8,0000*4A
$GPGSA,A,3,28,17,27,10,20,09,04,02,,,,,2.0,1.0,1.8*3D
$GPRMC,070725.000,A,3353.7574,N,09832.0277,W,0.18,122.95,300312,,,D*7C
$GPGGA,070726.000,3353.7574,N,09832.0277,W,2,08,1.0,326.4,M,-23.7,M,3.8,0000*48
$GPGSA,A,3,28,17,27,10,20,09,04,02,,,,,2.0,1.0,1.8*3D
$GPRMC,070726.000,A,3353.7574,N,09832.0277,W,0.10,245.62,300312,,,D*7D
$GPGGA,070727.000,3353.7574,N,09832.0277,W,2,08,1.0,326.4,M,-23.7,M,0.8,0000*4A
$GPGSA,A,3,28,17,27,10,20,09,04,02,,,,,2.0,1.0,1.8*3D
$GPGSV,3,1,11,04,72,194,36,17,49,042,40,28,43,115,31,27,43,271,23*77
$GPGSV,3,2,11,02,38,214,32,09,36,292,28,10,17,151,27,20,15,056,26*7E
$GPGSV,3,3,11,12,14,313,,32,00,035,,51,49,195,39*47
$GPRMC,070727.000,A,3353.7574,N,09832.0277,W,0.10,286.67,300312,,,D*76
$GPGGA,070728.000,3353.7574,N,09832.0277,W,2,08,1.0,326.4,M,-23.7,M,0.8,0000*45
$GPGSA,A,3,28,17,27,10,20,09,04,02,,,,,2.0,1.0,1.8*3D
$GPRMC,070728.000,A,3353.7574,N,09832.0277,W,0.05,15.77,300312,,,D*44
$GPGGA,070729.000,3353.7574,N,09832.0278,W,2,08,1.0,326.3,M,-23.7,M,0.8,0000*4C
$GPGSA,A,3,28,17,27,10,20,09,04,02,,,,,2.0,1.0,1.8*3D
$GPRMC,070729.000,A,3353.7574,N,09832.0278,W,0.16,329.54,300312,,,D*75
$GPGGA,070730.000,3353.7575,N,09832.0278,W,2,08,1.0,326.4,M,-23.7,M,0.8,0000*42
$GPGSA,A,3,28,17,27,10,20,09,04,02,,,,,2.0,1.0,1.8*3D
$GPRMC,070730.000,A,3353.7575,N,09832.0278,W,0.18,298.06,300312,,,D*7E
$GPGGA,070731.000,3353.7575,N,09832.0279,W,2,08,1.0,326.4,M,-23.7,M,1.8,0000*43
$GPGSA,A,3,28,17,27,10,20,09,04,02,,,,,2.0,1.0,1.8*3D
$GPRMC,070731.000,A,3353.7575,N,09832.0279,W,0.18,317.32,300312,,,D*7F
$GPGGA,070732.000,3353.7576,N,09832.0279,W,2,08,1.0,326.3,M,-23.7,M,2.8,0000*47
$GPGSA,A,3,28,17,27,10,20,09,04,02,,,,,2.0,1.0,1.8*3D
$GPGSV,3,1,11,04,72,194,36,17,49,042,40,28,43,115,31,27,43,271,17*70
$GPGSV,3,2,11,02,38,214,32,09,36,292,29,10,17,151,26,20,15,056,23*7B
$GPGSV,3,3,11,12,14,313,,32,00,035,,51,49,195,38*46
$GPRMC,070732.000,A,3353.7576,N,09832.0279,W,0.19,325.49,300312,,,D*73
$GPGGA,070733.000,3353.7576,N,09832.0279,W,2,08,1.0,326.1,M,-23.7,M,0.8,0000*46
$GPGSA,A,3,28,17,27,10,20,09,04,02,,,,,2.0,1.0,1.8*3D
$GPRMC,070733.000,A,3353.7576,N,09832.0279,W,0.21,314.50,300312,,,D*73
$GPGGA,070734.000,3353.7576,N,09832.0280,W,2,08,1.0,326.2,M,-23.7,M,0.8,0000*44
$GPGSA,A,3,28,17,27,10,20,09,04,02,,,,,2.0,1.0,1.8*3D
$GPRMC,070734.000,A,3353.7576,N,09832.0280,W,0.22,277.83,300312,,,D*7B
$GPGGA,070735.000,3353.7576,N,09832.0280,W,2,08,1.0,326.4,M,-23.7,M,0.8,0000*43
$GPGSA,A,3,28,17,27,10,20,09,04,02,,,,,2.0,1.0,1.8*3D
$GPRMC,070735.000,A,3353.7576,N,09832.0280,W,0.08,156.65,300312,,,D*7A
$GPGGA,070736.000,3353.7576,N,09832.0280,W,2,08,1.0,326.4,M,-23.7,M,1.8,0000*41
$GPGSA,A,3,28,17,27,10,20,09,04,02,,,,,2.0,1.0,1.8*3D
$GPRMC,070736.000,A,3353.7576,N,09832.0280,W,0.12,85.27,300312,,,D*4B
$GPGGA,070737.000,3353.7576,N,09832.0279,W,2,08,1.0,326.6,M,-23.7,M,0.8,0000*45
$GPGSA,A,3,28,17,27,10,20,09,04,02,,,,,2.0,1.0,1.8*3D
$GPGSV,3,1,11,04,72,194,37,17,49,042,40,28,43,115,31,27,43,271,18*7E
$GPGSV,3,2,11,02,38,214,31,09,36,292,29,10,17,151,26,20,15,056,22*79
$GPGSV,3,3,11,12,14,313,,32,00,035,,51,49,195,39*47
$GPRMC,070737.000,A,3353.7576,N,09832.0279,W,0.07,181.71,300312,,,D*7E
$GPGGA,070738.000,3353.7576,N,09832.0279,W,2,08,1.0,326.6,M,-23.7,M,0.8,0000*4A
$GPGSA,A,3,28,17,27,10,20,09,04,02,,,,,2.0,1.0,1.8*3D
$GPRMC,070738.000,A,3353.7576,N,09832.0279,W,0.04,328.41,300312,,,D*70
$GPGGA,070739.000,3353.7576,N,09832.0279,W,2,08,1.0,326.5,M,-23.7,M,0.8,0000*48
$GPGSA,A,3,28,17,27,10,20,09,04,02,,,,,2.0,1.0,1.8*3D
$GPRMC,070739.000,A,3353.7576,N,09832.0279,W,0.12,355.74,300312,,,D*7A
$GPGGA,070740.000,3353.7576,N,09832.0279,W,2,08,1.0,326.5,M,-23.7,M,0.8,0000*46
$GPGSA,A,3,28,17,27,10,20,09,04,02,,,,,2.0,1.0,1.8*3D
$GPRMC,070740.000,A,3353.7576,N,09832.0279,W,0.14,345.98,300312,,,D*71
$GPGGA,070741.000,3353.7577,N,09832.0279,W,2,08,1.0,326.3,M,-23.7,M,0.8,0000*40
$GPGSA,A,3,28,17,27,10,20,09,04,02,,,,,2.0,1.0,1.8*3D
$GPRMC,070741.000,A,3353.7577,N,09832.0279,W,0.15,17.93,300312,,,D*4F
$GPGGA,070742.000,3353.7577,N,09832.0279,W,2,08,1.0,326.1,M,-23.7,M,1.8,0000*40
$GPGSA,A,3,28,17,27,10,20,09,04,02,,,,,2.0,1.0,1.8*3D
$GPGSV,3,1,11,04,72,194,37,17,49,042,40,28,43,115,31,27,43,271,18*7E
$GPGSV,3,2,11,02,38,214,31,09,36,292,30,10,17,151,27,20,15,056,21*73
$GPGSV,3,3,11,12,14,313,,32,00,035,,51,49,195,39*47
$GPRMC,070742.000,A,3353.7577,N,09832.0279,W,0.17,38.44,300312,,,D*49
$GPGGA,070743.000,3353.7577,N,09832.0279,W,2,08,1.0,326.2,M,-23.7,M,2.8,0000*41
$GPGSA,A,3,28,17,27,10,20,09,04,02,,,,,2.0,1.0,1.8*3D
$GPRMC,070743.000,A,3353.7577,N,09832.0279,W,0.05,0.78,300312,,,D*7F
$GPGGA,070744.000,3353.7577,N,09832.0280,W,2,08,1.0,326.3,M,-23.7,M,0.8,0000*43
$GPGSA,A,3,28,17,27,10,20,09,04,02,,,,,2.0,1.0,1.8*3D
$GPRMC,070744.000,A,3353.7577,N,09832.0280,W,0.06,305.88,300312,,,D*74
$GPGGA,070745.000,3353.7577,N,09832.0280,W,2,08,1.0,326.5,M,-23.7,M,0.8,0000*44
$GPGSA,A,3,28,17,27,10,20,09,04,02,,,,,2.0,1.0,1.8*3D
$GPRMC,070745.000,A,3353.7577,N,09832.0280,W,0.05,256.98,300312,,,D*70
$GPGGA,070746.000,3353.7577,N,09832.0280,W,2,08,1.0,326.4,M,-23.7,M,0.8,0000*46
$GPGSA,A,3,28,17,27,10,20,09,04,02,,,,,2.0,1.0,1.8*3D
$GPRMC,070746.000,A,3353.7577,N,09832.0280,W,0.14,62.00,300312,,,D*47
$GPGGA,070747.000,3353.7577,N,09832.0280,W,2,08,1.0,326.3,M,-23.7,M,0.8,0000*40
$GPGSA,A,3,28,17,27,10,20,09,04,02,,,,,2.0,1.0,1.8*3D
$GPGSV,3,1,11,04,72,194,37,17,49,042,40,28,43,115,32,27,43,271,17*72
$GPGSV,3,2,11,02,38,214,30,09,36,292,30,10,17,151,28,20,15,056,20*7C
$GPGSV,3,3,11,12,14,313,,32,00,035,,51,49,195,39*47
$GPRMC,070747.000,A,3353.7577,N,09832.0280,W,0.21,86.36,300312,,,D*4F
$GPGGA,070748.000,3353.7577,N,09832.0279,W,2,08,1.0,326.2,M,-23.7,M,1.8,0000*49
$GPGSA,A,3,28,17,27,10,20,09,04,02,,,,,2.0,1.0,1.8*3D
$GPRMC,070748.000,A,3353.7577,N,09832.0279,W,0.09,67.79,300312,,,D*48
$GPGGA,070749.000,3353.7577,N,09832.0279,W,2,08,1.0,326.2,M,-23.7,M,2.8,0000*4B
$GPGSA,A,3,28,17,27,10,20,09,04,02,,,,,2.0,1.0,1.8*3D
$GPRMC,070749.000,A,3353.7577,N,09832.0279,W,0.16,86.73,300312,,,D*42
$GPGGA,070750.000,3353.7577,N,09832.0279,W,2,08,1.0,326.0,M,-23.7,M,3.8,0000*40
$GPGSA,A,3,28,17,27,10,20,09,04,02,,,,,2.0,1.0,1.8*3D
$GPRMC,070750.000,A,3353.7577,N,09832.0279,W,0.09,340.83,300312,,,D*72
$GPGGA,070751.000,3353.7577,N,09832.0279,W,2,08,1.0,325.9,M,-23.7,M,0.8,0000*48
$GPGSA,A,3,28,17,27,10,20,09,04,02,,,,,2.0,1.0,1.8*3D
$GPRMC,070751.000,A,3353.7577,N,09832.0279,W,0.12,338.28,300312,,,D*77
$GPGGA,070752.000,3353.7577,N,09832.0280,W,2,08,1.0,326.0,M,-23.7,M,0.8,0000*47
$GPGSA,A,3,28,17,27,10,20,09,04,02,,,,,2.0,1.0,1.8*3D
$GPGSV,3,1,11,04,72,194,37,17,49,042,40,28,43,115,32,27,43,271,16*73
$GPGSV,3,2,11,02,38,214,30,09,36,292,30,10,17,151,28,20,15,056,20*7C
$GPGSV,3,3,11,12,14,313,,32,00,035,,51,49,195,39*47
$GPRMC,070752.000,A,3353.7577,N,09832.0280,W,0.23,283.25,300312,,,D*7C
$GPGGA,070753.000,3353.7578,N,09832.0281,W,2,08,1.0,325.8,M,-23.7,M,0.8,0000*43
$GPGSA,A,3,28,17,27,10,20,09,04,02,,,,,2.0,1.0,1.8*3D
$GPRMC,070753.000,A,3353.7578,N,09832.0281,W,0.24,330.49,300312,,,D*77
$GPGGA,070754.000,3353.7579,N,09832.0281,W,2,08,1.0,325.6,M,-23.7,M,1.8,0000*4A
$GPGSA,A,3,28,17,27,10,20,09,04,02,,,,,2.0,1.0,1.8*3D
$GPRMC,070754.000,A,3353.7579,N,09832.0281,W,0.23,341.21,300312,,,D*7E
$GPGGA,070755.000,3353.7579,N,09832.0281,W,2,08,1.0,325.4,M,-23.7,M,2.8,0000*4A
$GPGSA,A,3,28,17,27,10,20,09,04,02,,,,,2.0,1.0,1.8*3D
$GPRMC,070755.000,A,3353.7579,N,09832.0281,W,0.23,31.09,300312,,,D*41
$GPGGA,070756.000,3353.7580,N,09832.0281,W,2,08,1.0,325.2,M,-23.7,M,3.8,0000*48
$GPGSA,A,3,28,17,27,10,20,09,04,02,,,,,2.0,1.0,1.8*3D
$GPRMC,070756.000,A,3353.7580,N,09832.0281,W,0.21,6.31,300312,,,D*79
$GPGGA,070757.000,3353.7580,N,09832.0282,W,2,08,1.0,325.2,M,-23.7,M,0.8,0000*49
$GPGSA,A,3,28,17,27,10,20,09,04,02,,,,,2.0,1.0,1.8*3D
$GPGSV,3,1,11,04,72,194,38,17,49,042,40,28,43,115,32,27,43,271,16*7C
$GPGSV,3,2,11,02,38,214,31,09,36,292,30,10,17,151,28,20,15,056,19*77
$GPGSV,3,3,11,12,14,313,,32,00,035,,51,49,195,39*47
$GPRMC,070757.000,A,3353.7580,N,09832.0282,W,0.14,317.99,300312,,,D*7C
$GPGGA,070758.000,3353.7580,N,09832.0282,W,2,08,1.0,325.3,M,-23.7,M,0.8,0000*47
$GPGSA,A,3,28,17,27,10,20,09,04,02,,,,,2.0,1.0,1.8*3D
$GPRMC,070758.000,A,3353.7580,N,09832.0282,W,0.02,340.97,300312,,,D*78
$GPGGA,070759.000,3353.7579,N,09832.0282,W,2,08,1.0,325.5,M,-23.7,M,0.8,0000*46
$GPGSA,A,3,28,17,27,10,20,09,04,02,,,,,2.0,1.0,1.8*3D
$GPRMC,070759.000,A,3353.7579,N,09832.0282,W,0.19,254.11,300312,,,D*7F
$GPGGA,070800.000,3353.7579,N,09832.0282,W,2,08,1.0,325.6,M,-23.7,M,1.8,0000*47
$GPGSA,A,3,28,17,27,10,20,09,04,02,,,,,2.0,1.0,1.8*3D
$GPRMC,070800.000,A,3353.7579,N,09832.0282,W,0.12,281.50,300312,,,D*7A
$GPGGA,070801.000,3353.7579,N,09832.0282,W,2,08,1.0,325.6,M,-23.7,M,2.8,0000*45
$GPGSA,A,3,28,17,27,10,20,09,04,02,,,,,2.0,1.0,1.8*3D
$GPRMC,070801.000,A,3353.7579,N,09832.0282,W,0.13,88.51,300312,,,D*40
$GPGGA,070802.000,3353.7579,N,09832.0282,W,2,08,1.0,325.6,M,-23.7,M,3.8,0000*47
$GPGSA,A,3,28,17,27,10,20,09,04,02,,,,,2.0,1.0,1.8*3D
$GPGSV,3,1,11,04,72,194,38,17,49,042,40,28,43,115,31,27,43,271,18*71
$GPGSV,3,2,11,02,38,214,31,09,36,292,29,10,17,151,27,20,15,056,17*7E
$GPGSV,3,3,11,12,14,313,,32,00,035,,51,49,195,39*47
$GPRMC,070802.000,A,3353.7579,N,09832.0282,W,0.05,72.27,300312,,,D*40
$GPGGA,070803.000,3353.7579,N,09832.0282,W,2,08,1.0,325.7,M,-23.7,M,0.8,0000*44
$GPGSA,A,3,28,17,27,10,20,09,04,02,,,,,2.0,1.0,1.8*3D
$GPRMC,070803.000,A,3353.7579,N,09832.0282,W,0.08,33.67,300312,,,D*4D
$GPGGA,070804.000,3353.7579,N,09832.0282,W,2,08,1.0,325.9,M,-23.7,M,0.8,0000*4D
$GPGSA,A,3,28,17,27,10,20,09,04,02,,,,,2.0,1.0,1.8*3D
$GPRMC,070804.000,A,3353.7579,N,09832.0282,W,0.17,37.58,300312,,,D*4C
$GPGGA,070805.000,3353.7579,N,09832.0281,W,2,08,1.0,325.7,M,-23.7,M,0.8,0000*41
$GPGSA,A,3,28,17,27,10,20,09,04,02,,,,,2.0,1.0,1.8*3D
$GPRMC,070805.000,A,3353.7579,N,09832.0281,W,0.05,14.67,300312,,,D*40
$GPGGA,070806.000,3353.7579,N,09832.0282,W,2,07,1.2,325.6,M,-23.7,M,1.8,0000*4C
$GPGSA,A,3,28,17,27,10,09,04,02,,,,,,2.6,1.2,2.3*33
$GPRMC,070806.000,A,3353.7579,N,09832.0282,W,0.07,238.89,300312,,,D*7E
$GPGGA,070807.000,3353.7579,N,09832.0282,W,2,07,1.2,325.6,M,-23.7,M,2.8,0000*4E
$GPGSA,A,3,28,17,27,10,09,04,02,,,,,,2.6,1.2,2.3*33
$GPGSV,3,1,11,04,72,194,38,17,49,042,40,28,43,115,31,27,43,271,23*79
$GPGSV,3,2,11,02,38,214,31,09,36,292,29,10,17,151,21,20,15,056,*7E
$GPGSV,3,3,11,12,14,313,,32,00,035,,51,49,195,39*47
$GPRMC,070807.000,A,3353.7579,N,09832.0282,W,0.10,45.15,300312,,,D*44
$GPGGA,070808.000,3353.7579,N,09832.0282,W,2,07,1.2,325.8,M,-23.7,M,3.8,0000*4E
$GPGSA,A,3,28,17,27,10,09,04,02,,,,,,2.6,1.2,2.3*33
$GPRMC,070808.000,A,3353.7579,N,09832.0282,W,0.28,322.35,300312,,,D*70
$GPGGA,070809.000,3353.7580,N,09832.0282,W,2,07,1.2,326.0,M,-23.7,M,0.8,0000*41
$GPGSA,A,3,28,17,27,10,09,04,02,,,,,,2.6,1.2,2.3*33
$GPRMC,070809.000,A,3353.7580,N,09832.0282,W,0.18,339.81,300312,,,D*71
$GPGGA,070810.000,3353.7580,N,09832.0282,W,2,07,1.2,326.2,M,-23.7,M,0.8,0000*4B
$GPGSA,A,3,28,17,27,10,09,04,02,,,,,,2.6,1.2,2.3*33
$GPRMC,070810.000,A,3353.7580,N,09832.0282,W,0.21,329.74,300312,,,D*78
$GPGGA,070811.000,3353.7580,N,09832.0282,W,2,07,1.2,326.5,M,-23.7,M,0.8,0000*4D
$GPGSA,A,3,28,17,27,10,09,04,02,,,,,,2.6,1.2,2.3*33
$GPRMC,070811.000,A,3353.7580,N,09832.0282,W,0.03,242.58,300312,,,D*7B
$GPGGA,070812.000,3353.7580,N,09832.0282,W,2,07,1.2,326.7,M,-23.7,M,1.8,0000*4D
$GPGSA,A,3,28,17,27,10,09,04,02,,,,,,2.6,1.2,2.3*33
$GPGSV,3,1,11,04,72,194,39,17,49,042,40,28,43,115,31,27,43,271,23*78
$GPGSV,3,2,11,02,38,214,32,09,36,292,29,10,17,151,19,20,15,056,*76
$GPGSV,3,3,11,12,14,313,,32,00,035,,51,49,195,39*47
$GPRMC,070812.000,A,3353.7580,N,09832.0282,W,0.02,94.93,300312,,,D*47
$GPGGA,070813.000,3353.7579,N,09832.0282,W,2,07,1.2,326.8,M,-23.7,M,0.8,0000*44
$GPGSA,A,3,28,17,27,10,09,04,02,,,,,,2.6,1.2,2.3*33
$GPRMC,070813.000,A,3353.7579,N,09832.0282,W,0.16,185.32,300312,,,D*7F
$GPGGA,070814.000,3353.7579,N,09832.0281,W,2,06,1.3,327.0,M,-23.7,M,1.8,0000*48
$GPGSA,A,3,28,17,27,09,04,02,,,,,,,4.0,1.3,3.8*39
$GPRMC,070814.000,A,3353.7579,N,09832.0281,W,0.15,130.93,300312,,,D*7D
$GPGGA,070815.000,3353.7578,N,09832.0281,W,2,06,1.3,327.2,M,-23.7,M,0.8,0000*4B
$GPGSA,A,3,28,17,27,09,04,02,,,,,,,4.0,1.3,3.8*39
$GPRMC,070815.000,A,3353.7578,N,09832.0281,W,0.04,312.92,300312,,,D*7E
$GPGGA,070816.000,3353.7578,N,09832.0281,W,2,06,1.3,327.4,M,-23.7,M,0.8,0000*4E
$GPGSA,A,3,28,17,27,09,04,02,,,,,,,4.0,1.3,3.8*39
$GPRMC,070816.000,A,3353.7578,N,09832.0281,W,0.14,312.86,300312,,,D*79
$GPGGA,070817.000,3353.7579,N,09832.0281,W,2,06,1.3,327.4,M,-23.7,M,0.8,0000*4E
$GPGSA,A,3,28,17,27,09,04,02,,,,,,,4.0,1.3,3.8*39
$GPGSV,3,1,11,04,73,194,39,17,49,042,40,27,43,270,23,28,43,115,30*79
$GPGSV,3,2,11,02,39,214,32,09,36,291,28,10,17,151,,20,15,056,*7D
$GPGSV,3,3,11,12,14,313,,32,00,035,,51,49,195,39*47
$GPRMC,070817.000,A,3353.7579,N,09832.0281,W,0.15,321.28,300312,,,D*7C
$GPGGA,070818.000,3353.7579,N,09832.0281,W,2,06,1.3,327.5,M,-23.7,M,1.8,0000*41
$GPGSA,A,3,28,17,27,09,04,02,,,,,,,4.0,1.3,3.8*39
$GPRMC,070818.000,A,3353.7579,N,09832.0281,W,0.17,309.42,300312,,,D*77
$GPGGA,070819.000,3353.7579,N,09832.0281,W,2,06,1.3,327.5,M,-23.7,M,2.8,0000*43
$GPGSA,A,3,28,17,27,09,04,02,,,,,,,4.0,1.3,3.8*39
$GPRMC,070819.000,A,3353.7579,N,09832.0281,W,0.11,330.62,300312,,,D*78
$GPGGA,070820.000,3353.7579,N,09832.0281,W,2,06,1.3,327.5,M,-23.7,M,3.8,0000*48
$GPGSA,A,3,28,17,27,09,04,02,,,,,,,4.0,1.3,3.8*39
$GPRMC,070820.000,A,3353.7579,N,09832.0281,W,0.16,325.35,300312,,,D*73
$GPGGA,070821.000,3353.7579,N,09832.0281,W,2,06,1.3,327.6,M,-23.7,M,0.8,0000*49
$GPGSA,A,3,28,17,27,09,04,02,,,,,,,4.0,1.3,3.8*39
$GPRMC,070821.000,A,3353.7579,N,09832.0281,W,0.03,221.20,300312,,,D*77
$GPGGA,070822.000,3353.7579,N,09832.0280,W,2,07,1.2,327.5,M,-23.7,M,0.8,0000*48
$GPGSA,A,3,28,17,27,20,09,04,02,,,,,,2.6,1.2,2.3*30
$GPGSV,3,1,11,04,73,194,39,17,49,042,40,27,43,270,22,28,43,115,29*70
$GPGSV,3,2,11,02,39,214,32,09,36,291,28,10,17,151,,20,15,056,19*75
$GPGSV,3,3,11,12,14,313,,32,00,035,,51,49,195,39*47
$GPRMC,070822.000,A,3353.7579,N,09832.0280,W,0.21,119.67,300312,,,D*7E
$GPGGA,070823.000,3353.7578,N,09832.0280,W,2,07,1.2,327.8,M,-23.7,M,0.8,0000*45
$GPGSA,A,3,28,17,27,20,09,04,02,,,,,,2.6,1.2,2.3*30
$GPRMC,070823.000,A,3353.7578,N,09832.0280,W,0.10,222.02,300312,,,D*74
$GPGGA,070824.000,3353.7578,N,09832.0280,W,2,07,1.2,327.9,M,-23.7,M,1.8,0000*42
$GPGSA,A,3,28,17,27,20,09,04,02,,,,,,2.6,1.2,2.3*30
$GPRMC,070824.000,A,3353.7578,N,09832.0280,W,0.09,248.92,300312,,,D*7E
$GPGGA,070825.000,3353.7577,N,09832.0279,W,2,07,1.2,327.9,M,-23.7,M,0.8,0000*4B
$GPGSA,A,3,28,17,27,20,09,04,02,,,,,,2.6,1.2,2.3*30
$GPRMC,070825.000,A,3353.7577,N,09832.0279,W,0.02,183.90,300312,,,D*7B
$GPGGA,070826.000,3353.7577,N,09832.0279,W,2,07,1.2,328.0,M,-23.7,M,0.8,0000*4E
$GPGSA,A,3,28,17,27,20,09,04,02,,,,,,2.6,1.2,2.3*30
$GPRMC,070826.000,A,3353.7577,N,09832.0279,W,0.20,123.97,300312,,,D*75
$GPGGA,070827.000,3353.7576,N,09832.0277,W,2,07,1.2,328.1,M,-23.7,M,0.8,0000*41
$GPGSA,A,3,28,17,27,20,09,04,02,,,,,,2.6,1.2,2.3*30
$GPGSV,3,1,11,04,73,194,39,17,49,042,40,27,43,270,23,28,43,115,29*71
$GPGSV,3,2,11,02,39,214,32,09,36,291,28,10,17,151,,20,15,056,19*75
$GPGSV,3,3,11,12,14,313,,32,00,035,,51,49,195,39*47
$GPRMC,070827.000,A,3353.7576,N,09832.0277,W,0.31,100.67,300312,,,D*75
$GPGGA,070828.000,3353.7576,N,09832.0276,W,2,07,1.2,328.1,M,-23.7,M,0.8,0000*4F
$GPGSA,A,3,28,17,27,20,09,04,02,,,,,,2.6,1.2,2.3*30
$GPRMC,070828.000,A,3353.7576,N,09832.0276,W,0.35,98.37,300312,,,D*4A
$GPGGA,070829.000,3353.7576,N,09832.0275,W,2,07,1.2,328.0,M,-23.7,M,0.8,0000*4C
$GPGSA,A,3,28,17,27,20,09,04,02,,,,,,2.6,1.2,2.3*30
$GPRMC,070829.000,A,3353.7576,N,09832.0275,W,0.12,330.55,300312,,,D*78
$GPGGA,070830.000,3353.7576,N,09832.0275,W,2,08,1.0,328.0,M,-23.7,M,0.8,0000*49
$GPGSA,A,3,28,17,27,20,10,09,04,02,,,,,2.0,1.0,1.8*3D
$GPRMC,070830.000,A,3353.7576,N,09832.0275,W,0.09,205.06,300312,,,D*7B
$GPGGA,070831.000,3353.7576,N,09832.0275,W,2,08,1.0,327.9,M,-23.7,M,1.8,0000*4F
$GPGSA,A,3,28,17,27,20,10,09,04,02,,,,,2.0,1.0,1.8*3D
$GPRMC,070831.000,A,3353.7576,N,09832.0275,W,0.18,329.69,300312,,,D*7C
$GPGGA,070832.000,3353.7576,N,09832.0275,W,2,08,1.0,327.8,M,-23.7,M,2.8,0000*4E
$GPGSA,A,3,28,17,27,20,10,09,04,02,,,,,2.0,1.0,1.8*3D
$GPGSV,3,1,11,04,73,194,39,17,49,042,40,27,43,270,23,28,43,115,29*71
$GPGSV,3,2,11,02,39,214,31,09,36,291,27,10,17,151,24,20,15,056,19*7F
$GPGSV,3,3,11,12,14,313,,32,00,035,,51,49,195,39*47
$GPRMC,070832.000,A,3353.7576,N,09832.0275,W,0.04,338.92,300312,,,D*76
$GPGGA,070833.000,3353.7576,N,09832.0275,W,2,08,1.0,327.7,M,-23.7,M,0.8,0000*42
$GPGSA,A,3,28,17,27,20,10,09,04,02,,,,,2.0,1.0,1.8*3D
$GPRMC,070833.000,A,3353.7576,N,09832.0275,W,0.25,293.73,300312,,,D*7B
$GPGGA,070834.000,3353.7575,N,09832.0276,W,2,08,1.0,327.5,M,-23.7,M,0.8,0000*47
$GPGSA,A,3,28,17,27,20,10,09,04,02,,,,,2.0,1.0,1.8*3D
$GPRMC,070834.000,A,3353.7575,N,09832.0276,W,0.10,199.61,300312,,,D*70
$GPGGA,070835.000,3353.7575,N,09832.0275,W,2,08,1.0,327.7,M,-23.7,M,0.8,0000*47
$GPGSA,A,3,28,17,27,20,10,09,04,02,,,,,2.0,1.0,1.8*3D
$GPRMC,070835.000,A,3353.7575,N,09832.0275,W,0.16,275.40,300312,,,D*76
$GPGGA,070836.000,3353.7574,N,09832.0275,W,2,08,1.0,327.6,M,-23.7,M,1.8,0000*45
$GPGSA,A,3,28,17,27,20,10,09,04,02,,,,,2.0,1.0,1.8*3D
$GPRMC,070836.000,A,3353.7574,N,09832.0275,W,0.06,114.79,300312,,,D*7B
$GPGGA,070837.000,3353.7574,N,09832.0274,W,2,08,1.0,327.6,M,-23.7,M,2.8,0000*46
$GPGSA,A,3,28,17,27,20,10,09,04,02,,,,,2.0,1.0,1.8*3D
$GPGSV,3,1,11,04,73,194,39,17,49,042,40,27,43,270,23,28,43,115,30*79
$GPGSV,3,2,11,02,39,214,31,09,36,291,27,10,17,151,25,20,15,056,20*74
$GPGSV,3,3,11,12,14,313,,32,00,035,,51,49,195,39*47
$GPRMC,070837.000,A,3353.7574,N,09832.0274,W,0.07,310.61,300312,,,D*75
$GPGGA,070838.000,3353.7574,N,09832.0274,W,2,08,1.0,327.6,M,-23.7,M,3.8,0000*48
$GPGSA,A,3,28,17,27,20,10,09,04,02,,,,,2.0,1.0,1.8*3D
$GPRMC,070838.000,A,3353.7574,N,09832.0274,W,0.14,83.15,300312,,,D*42
$GPGGA,070839.000,3353.7574,N,09832.0273,W,2,08,1.0,327.8,M,-23.7,M,0.8,0000*43
$GPGSA,A,3,28,17,27,20,10,09,04,02,,,,,2.0,1.0,1.8*3D
$GPRMC,070839.000,A,3353.7574,N,09832.0273,W,0.06,125.37,300312,,,D*7A
$GPGGA,070840.000,3353.7573,N,09832.0273,W,2,08,1.0,327.7,M,-23.7,M,0.8,0000*45
$GPGSA,A,3,28,17,27,20,10,09,04,02,,,,,2.0,1.0,1.8*3D
$GPRMC,070840.000,A,3353.7573,N,09832.0273,W,0.33,113.46,300312,,,D*76
$GPGGA,070841.000,3353.7573,N,09832.0272,W,2,08,1.0,327.7,M,-23.7,M,0.8,0000*45
$GPGSA,A,3,28,17,27,20,10,09,04,02,,,,,2.0,1.0,1.8*3D
$GPRMC,070841.000,A,3353.7573,N,09832.0272,W,0.10,13.09,300312,,,D*4D
$GPGGA,070842.000,3353.7573,N,09832.0272,W,2,08,1.0,327.5,M,-23.7,M,1.8,0000*45
$GPGSA,A,3,28,17,27,20,10,09,04,02,,,,,2.0,1.0,1.8*3D
$GPGSV,3,1,11,04,73,194,39,17,49,042,39,27,43,270,23,28,43,115,31*76
$GPGSV,3,2,11,02,39,214,31,09,36,291,27,10,17,151,26,20,15,056,19*7D
$GPGSV,3,3,11,12,14,313,,32,00,035,,51,49,195,39*47
$GPRMC,070842.000,A,3353.7573,N,09832.0272,W,0.21,337.36,300312,,,D*75
$GPGGA,070843.000,3353.7573,N,09832.0272,W,2,08,1.0,327.6,M,-23.7,M,2.8,0000*44
$GPGSA,A,3,28,17,27,20,10,09,04,02,,,,,2.0,1.0,1.8*3D
$GPRMC,070843.000,A,3353.7573,N,09832.0272,W,0.02,117.74,300312,,,D*73
$GPGGA,070844.000,3353.7573,N,09832.0272,W,2,08,1.0,327.6,M,-23.7,M,0.8,0000*41
$GPGSA,A,3,28,17,27,20,10,09,04,02,,,,,2.0,1.0,1.8*3D
$GPRMC,070844.000,A,3353.7573,N,09832.0272,W,0.05,76.88,300312,,,D*46
$GPGGA,070845.000,3353.7573,N,09832.0272,W,2,08,1.0,327.7,M,-23.7,M,0.8,0000*41
$GPGSA,A,3,28,17,27,20,10,09,04,02,,,,,2.0,1.0,1.8*3D
$GPRMC,070845.000,A,3353.7573,N,09832.0272,W,0.09,152.07,300312,,,D*7B
$GPGGA,070846.000,3353.7572,N,09832.0272,W,2,08,1.0,327.8,M,-23.7,M,0.8,0000*4C
$GPGSA,A,3,28,17,27,20,10,09,04,02,,,,,2.0,1.0,1.8*3D
$GPRMC,070846.000,A,3353.7572,N,09832.0272,W,0.23,268.98,300312,,,D*7D
$GPGGA,070847.000,3353.7572,N,09832.0271,W,2,08,1.0,328.0,M,-23.7,M,0.8,0000*49
$GPGSA,A,3,28,17,27,20,10,09,04,02,,,,,2.0,1.0,1.8*3D
$GPGSV,3,1,11,04,73,194,39,17,49,042,39,27,43,270,23,28,43,115,32*75
$GPGSV,3,2,11,02,39,214,31,09,36,291,27,10,17,151,26,20,15,056,18*7C
$GPGSV,3,3,11,12,14,313,,32,00,035,,51,49,195,39*47
$GPRMC,070847.000,A,3353.7572,N,09832.0271,W,0.09,139.00,300312,,,D*71
$GPGGA,070848.000,3353.7571,N,09832.0271,W,2,08,1.0,328.0,M,-23.7,M,1.8,0000*44
$GPGSA,A,3,28,17,27,20,10,09,04,02,,,,,2.0,1.0,1.8*3D
$GPRMC,070848.000,A,3353.7571,N,09832.0271,W,0.03,67.46,300312,,,D*4F
$GPGGA,070849.000,3353.7571,N,09832.0271,W,2,08,1.0,328.0,M,-23.7,M,2.8,0000*46
$GPGSA,A,3,28,17,27,20,10,09,04,02,,,,,2.0,1.0,1.8*3D
$GPRMC,070849.000,A,3353.7571,N,09832.0271,W,0.12,296.29,300312,,,D*7B
$GPGGA,070850.000,3353.7571,N,09832.0271,W,2,08,1.0,328.2,M,-23.7,M,0.8,0000*4E
$GPGSA,A,3,28,17,27,20,10,09,04,02,,,,,2.0,1.0,1.8*3D
$GPRMC,070850.000,A,3353.7571,N,09832.0271,W,0.12,103.05,300312,,,D*72
$GPGGA,070851.000,3353.7571,N,09832.0270,W,2,08,1.0,328.2,M,-23.7,M,0.8,0000*4E
$GPGSA,A,3,28,17,27,20,10,09,04,02,,,,,2.0,1.0,1.8*3D
$GPRMC,070851.000,A,3353.7571,N,09832.0270,W,0.23,85.54,300312,,,D*4B
$GPGGA,070852.000,3353.7571,N,09832.0269,W,2,08,1.0,328.4,M,-23.7,M,0.8,0000*43
$GPGSA,A,3,28,17,27,20,10,09,04,02,,,,,2.0,1.0,1.8*3D
$GPGSV,3,1,11,04,73,194,39,17,49,042,39,27,43,270,24,28,43,115,33*73
$GPGSV,3,2,11,02,39,214,31,09,36,291,27,10,17,151,27,20,15,056,17*72
$GPGSV,3,3,11,12,14,313,,32,00,035,,51,49,195,39*47
$GPRMC,070852.000,A,3353.7571,N,09832.0269,W,0.13,297.57,300312,,,D*71
$GPGGA,070853.000,3353.7571,N,09832.0270,W,2,08,1.0,328.5,M,-23.7,M,0.8,0000*4B
$GPGSA,A,3,28,17,27,20,10,09,04,02,,,,,2.0,1.0,1.8*3D
$GPRMC,070853.000,A,3353.7571,N,09832.0270,W,0.07,280.47,300312,,,D*7A
$GPGGA,070854.000,3353.7571,N,09832.0270,W,2,08,1.0,328.6,M,-23.7,M,1.8,0000*4E
$GPGSA,A,3,28,17,27,20,10,09,04,02,,,,,2.0,1.0,1.8*3D
$GPRMC,070854.000,A,3353.7571,N,09832.0270,W,0.17,282.52,300312,,,D*7A
$GPGGA,070855.000,3353.7571,N,09832.0271,W,2,08,1.0,328.7,M,-23.7,M,2.8,0000*4C
$GPGSA,A,3,28,17,27,20,10,09,04,02,,,,,2.0,1.0,1.8*3D
$GPRMC,070855.000,A,3353.7571,N,09832.0271,W,0.23,292.93,300312,,,D*71
$GPGGA,070856.000,3353.7571,N,09832.0271,W,2,08,1.0,328.5,M,-23.7,M,3.8,0000*4C
$GPGSA,A,3,28,17,27,20,10,09,04,02,,,,,2.0,1.0,1.8*3D
$GPRMC,070856.000,A,3353.7571,N,09832.0271,W,0.19,330.33,300312,,,D*78
$GPGGA,070857.000,3353.7572,N,09832.0271,W,2,08,1.0,328.4,M,-23.7,M,0.8,0000*4C
$GPGSA,A,3,28,17,27,20,10,09,04,02,,,,,2.0,1.0,1.8*3D
$GPGSV,3,1,11,04,73,194,39,17,49,042,38,27,43,270,24,28,43,115,34*75
$GPGSV,3,2,11,02,39,214,31,09,36,291,26,10,17,151,27,20,15,056,17*73
$GPGSV,3,3,11,12,14,313,,32,00,035,,51,49,195,39*47
$GPRMC,070857.000,A,3353.7572,N,09832.0271,W,0.20,314.54,300312,,,D*77
$GPGGA,070858.000,3353.7572,N,09832.0272,W,2,08,1.0,328.2,M,-23.7,M,0.8,0000*46
$GPGSA,A,3,28,17,27,20,10,09,04,02,,,,,2.0,1.0,1.8*3D
$GPRMC,070858.000,A,3353.7572,N,09832.0272,W,0.11,5.27,300312,,,D*7E
$GPGGA,070859.000,3353.7571,N,09832.0271,W,2,08,1.0,328.4,M,-23.7,M,0.8,0000*41
$GPGSA,A,3,28,17,27,20,10,09,04,02,,,,,2.0,1.0,1.8*3D
$GPRMC,070859.000,A,3353.7571,N,09832.0271,W,0.10,219.91,300312,,,D*7C
$GPGGA,070900.000,3353.7571,N,09832.0271,W,2,08,1.0,328.7,M,-23.7,M,0.8,0000*4F
$GPGSA,A,3,28,17,27,20,10,09,04,02,,,,,2.0,1.0,1.8*3D
$GPRMC,070900.000,A,3353.7571,N,09832.0271,W,0.11,152.01,300312,,,D*75
$GPGGA,070901.000,3353.7571,N,09832.0271,W,2,08,1.0,328.6,M,-23.7,M,1.8,0000*4E
$GPGSA,A,3,28,17,27,20,10,09,04,02,,,,,2.0,1.0,1.8*3D
$GPRMC,070901.000,A,3353.7571,N,09832.0271,W,0.12,11.86,300312,,,D*4E
$GPGGA,070902.000,3353.7571,N,09832.0271,W,2,08,1.0,328.6,M,-23.7,M,2.8,0000*4E
$GPGSA,A,3,28,17,27,20,10,09,04,02,,,,,2.0,1.0,1.8*3D
$GPGSV,3,1,11,04,73,194,40,17,49,042,38,27,43,270,24,28,43,115,34*7B
$GPGSV,3,2,11,02,39,214,32,09,36,291,25,10,17,151,28,20,15,056,18*73
$GPGSV,3,3,11,12,14,313,,32,00,035,,51,49,195,39*47
$GPRMC,070902.000,A,3353.7571,N,09832.0271,W,0.17,6.32,300312,,,D*71
$GPGGA,070903.000,3353.7572,N,09832.0271,W,2,08,1.0,328.6,M,-23.7,M,0.8,0000*4E
$GPGSA,A,3,28,17,27,20,10,09,04,02,,,,,2.0,1.0,1.8*3D
$GPRMC,070903.000,A,3353.7572,N,09832.0271,W,0.21,342.20,300312,,,D*76
$GPGGA,070904.000,3353.7572,N,09832.0271,W,2,08,1.0,328.8,M,-23.7,M,0.8,0000*47
$GPGSA,A,3,28,17,27,20,10,09,04,02,,,,,2.0,1.0,1.8*3D
$GPRMC,070904.000,A,3353.7572,N,09832.0271,W,0.14,336.43,300312,,,D*71
$GPGGA,070905.000,3353.7572,N,09832.0271,W,2,08,1.0,328.8,M,-23.7,M,0.8,0000*46
$GPGSA,A,3,28,17,27,20,10,09,04,02,,,,,2.0,1.0,1.8*3D
$GPRMC,070905.000,A,3353.7572,N,09832.0271,W,0.11,277.04,300312,,,D*72
$GPGGA,070906.000,3353.7572,N,09832.0271,W,2,08,1.0,328.9,M,-23.7,M,1.8,0000*45
$GPGSA,A,3,28,17,27,20,10,09,04,02,,,,,2.0,1.0,1.8*3D
$GPRMC,070906.000,A,3353.7572,N,09832.0271,W,0.16,257.03,300312,,,D*73
$GPGGA,070907.000,3353.7572,N,09832.0271,W,2,08,1.0,329.0,M,-23.7,M,0.8,0000*4D
$GPGSA,A,3,28,17,27,20,10,09,04,02,,,,,2.0,1.0,1.8*3D
$GPGSV,3,1,11,04,73,194,40,17,49,042,37,27,43,270,24,28,43,115,34*74
$GPGSV,3,2,11,02,39,214,31,09,36,291,25,10,17,151,28,20,15,056,18*70
$GPGSV,3,3,11,12,14,313,,32,00,035,,51,49,195,39*47
$GPRMC,070907.000,A,3353.7572,N,09832.0271,W,0.15,261.02,300312,,,D*75
$GPGGA,070908.000,3353.7572,N,09832.0272,W,2,08,1.0,328.9,M,-23.7,M,1.8,0000*48
$GPGSA,A,3,28,17,27,20,10,09,04,02,,,,,2.0,1.0,1.8*3D
$GPRMC,070908.000,A,3353.7572,N,09832.0272,W,0.12,351.86,300312,,,D*70
$GPGGA,070909.000,3353.7572,N,09832.0272,W,2,08,1.0,328.9,M,-23.7,M,0.8,0000*48
$GPGSA,A,3,28,17,27,20,10,09,04,02,,,,,2.0,1.0,1.8*3D
$GPRMC,070909.000,A,3353.7572,N,09832.0272,W,0.09,275.96,300312,,,D*7D
$GPGGA,070910.000,3353.7572,N,09832.0272,W,2,08,1.0,329.0,M,-23.7,M,0.8,0000*48
$GPGSA,A,3,28,17,27,20,10,09,04,02,,,,,2.0,1.0,1.8*3D
$GPRMC,070910.000,A,3353.7572,N,09832.0272,W,0.16,238.13,300312,,,D*7F
$GPGGA,070911.000,3353.7571,N,09832.0272,W,2,08,1.0,329.2,M,-23.7,M,0.8,0000*48
$GPGSA,A,3,28,17,27,20,10,09,04,02,,,,,2.0,1.0,1.8*3D
$GPRMC,070911.000,A,3353.7571,N,09832.0272,W,0.15,222.97,300312,,,D*79
$GPGGA,070912.000,3353.7571,N,09832.0272,W,2,08,1.0,329.4,M,-23.7,M,1.8,0000*4C
$GPGSA,A,3,28,17,27,20,10,09,04,02,,,,,2.0,1.0,1.8*3D
$GPGSV,3,1,11,04,73,194,40,17,49,042,37,27,43,270,25,28,43,115,34*75
$GPGSV,3,2,11,02,39,214,30,09,36,291,25,10,17,151,28,20,15,056,20*7A
$GPGSV,3,3,11,12,14,313,,32,00,035,,51,49,195,39*47
$GPRMC,070912.000,A,3353.7571,N,09832.0272,W,0.11,235.18,300312,,,D*7F
$GPGGA,070913.000,3353.7571,N,09832.0272,W,2,08,1.0,329.6,M,-23.7,M,2.8,0000*4C
$GPGSA,A,3,28,17,27,20,10,09,04,02,,,,,2.0,1.0,1.8*3D
$GPRMC,070913.000,A,3353.7571,N,09832.0272,W,0.16,221.19,300312,,,D*7D
$GPGGA,070914.000,3353.7570,N,09832.0272,W,2,08,1.0,329.7,M,-23.7,M,3.8,0000*4A
$GPGSA,A,3,28,17,27,20,10,09,04,02,,,,,2.0,1.0,1.8*3D
$GPRMC,070914.000,A,3353.7570,N,09832.0272,W,0.04,349.38,300312,,,D*74
$GPGGA,070915.000,3353.7570,N,09832.0271,W,2,08,1.0,329.7,M,-23.7,M,0.8,0000*4B
$GPGSA,A,3,28,17,27,20,10,09,04,02,,,,,2.0,1.0,1.8*3D
$GPRMC,070915.000,A,3353.7570,N,09832.0271,W,0.12,36.00,300312,,,D*41
$GPGGA,070916.000,3353.7570,N,09832.0271,W,2,08,1.0,329.9,M,-23.7,M,0.8,0000*46
$GPGSA,A,3,28,17,27,20,10,09,04,02,,,,,2.0,1.0,1.8*3D
$GPRMC,070916.000,A,3353.7570,N,09832.0271,W,0.08,295.80,300312,,,D*7A
$GPGGA,070917.000,3353.7571,N,09832.0272,W,2,08,1.0,329.8,M,-23.7,M,0.8,0000*44
$GPGSA,A,3,28,17,27,20,10,09,04,02,,,,,2.0,1.0,1.8*3D
$GPGSV,3,1,11,04,73,194,40,17,49,042,37,27,43,270,25,28,43,115,34*75
$GPGSV,3,2,11,02,39,214,30,09,36,291,25,10,17,151,28,20,15,056,21*7B
$GPGSV,3,3,11,12,14,313,,32,00,035,,51,49,195,39*47
$GPRMC,070917.000,A,3353.7571,N,09832.0272,W,0.10,334.58,300312,,,D*7F
$GPGGA,070918.000,3353.7571,N,09832.0272,W,2,08,1.0,329.8,M,-23.7,M,1.8,0000*4A
$GPGSA,A,3,28,17,27,20,10,09,04,02,,,,,2.0,1.0,1.8*3D
$GPRMC,070918.000,A,3353.7571,N,09832.0272,W,0.06,302.22,300312,,,D*7F
$GPGGA,070919.000,3353.7571,N,09832.0272,W,2,08,1.0,329.8,M,-23.7,M,2.8,0000*48
$GPGSA,A,3,28,17,27,20,10,09,04,02,,,,,2.0,1.0,1.8*3D
$GPRMC,070919.000,A,3353.7571,N,09832.0272,W,0.08,332.07,300312,,,D*74
$GPGGA,070920.000,3353.7571,N,09832.0272,W,2,08,1.0,329.6,M,-23.7,M,3.8,0000*4D
$GPGSA,A,3,28,17,27,20,10,09,04,02,,,,,2.0,1.0,1.8*3D
$GPRMC,070920.000,A,3353.7571,N,09832.0272,W,0.18,15.17,300312,,,D*48
$GPGGA,070921.000,3353.7571,N,09832.0272,W,2,08,1.0,329.5,M,-23.7,M,0.8,0000*4C
$GPGSA,A,3,28,17,27,20,10,09,04,02,,,,,2.0,1.0,1.8*3D
$GPRMC,070921.000,A,3353.7571,N,09832.0272,W,0.07,347.18,300312,,,D*7C
$GPGGA,070922.000,3353.7571,N,09832.0272,W,2,08,1.0,329.4,M,-23.7,M,0.8,0000*4E
$GPGSA,A,3,28,17,27,20,10,09,04,02,,,,,2.0,1.0,1.8*3D
$GPGSV,3,1,11,04,73,194,40,17,49,042,37,27,43,270,26,28,43,115,34*76
$GPGSV,3,2,11,02,39,214,30,09,36,291,25,10,17,151,28,20,15,056,22*78
$GPGSV,3,3,11,12,14,313,,32,00,035,,51,49,195,39*47
$GPRMC,070922.000,A,3353.7571,N,09832.0272,W,0.10,245.01,300312,,,D*72
$GPGGA,070923.000,3353.7570,N,09832.0272,W,2,08,1.0,329.4,M,-23.7,M,0.8,0000*4E
$GPGSA,A,3,28,17,27,20,10,09,04,02,,,,,2.0,1.0,1.8*3D
$GPRMC,070923.000,A,3353.7570,N,09832.0272,W,0.04,42.01,300312,,,D*42
$GPGGA,070924.000,3353.7570,N,09832.0272,W,2,08,1.0,329.5,M,-23.7,M,0.8,0000*48
$GPGSA,A,3,28,17,27,20,10,09,04,02,,,,,2.0,1.0,1.8*3D
$GPRMC,070924.000,A,3353.7570,N,09832.0272,W,0.13,228.27,300312,,,D*79
$GPGGA,070925.000,3353.7570,N,09832.0272,W,2,08,1.0,329.6,M,-23.7,M,1.8,0000*4B
$GPGSA,A,3,28,17,27,20,10,09,04,02,,,,,2.0,1.0,1.8*3D
$GPRMC,070925.000,A,3353.7570,N,09832.0272,W,0.02,186.03,300312,,,D*79
$GPGGA,070926.000,3353.7569,N,09832.0272,W,2,08,1.0,329.7,M,-23.7,M,2.8,0000*42
$GPGSA,A,3,28,17,27,20,10,09,04,02,,,,,2.0,1.0,1.8*3D
$GPRMC,070926.000,A,3353.7569,N,09832.0272,W,0.10,236.75,300312,,,D*78
$GPGGA,070927.000,3353.7569,N,09832.0272,W,2,08,1.0,329.7,M,-23.7,M,0.8,0000*41
$GPGSA,A,3,28,17,27,20,10,09,04,02,,,,,2.0,1.0,1.8*3D
$GPGSV,3,1,11,04,73,194,40,17,49,042,36,27,43,270,25,28,43,115,34*74
$GPGSV,3,2,11,02,39,214,30,09,36,291,25,10,17,151,28,20,15,056,23*79
$GPGSV,3,3,11,12,14,313,,32,00,035,,51,49,195,39*47
$GPRMC,070927.000,A,3353.7569,N,09832.0272,W,0.13,32.03,300312,,,D*4D
$GPGGA,070928.000,3353.7570,N,09832.0272,W,2,08,1.0,329.9,M,-23.7,M,0.8,0000*48
$GPGSA,A,3,28,17,27,20,10,09,04,02,,,,,2.0,1.0,1.8*3D
$GPRMC,070928.000,A,3353.7570,N,09832.0272,W,0.17,284.75,300312,,,D*70
$GPGGA,070929.000,3353.7570,N,09832.0272,W,2,08,1.0,329.9,M,-23.7,M,0.8,0000*49
$GPGSA,A,3,28,17,27,20,10,09,04,02,,,,,2.0,1.0,1.8*3D
$GPRMC,070929.000,A,3353.7570,N,09832.0272,W,0.10,352.27,300312,,,D*7B
$GPGGA,070930.000,3353.7570,N,09832.0272,W,2,08,1.0,329.7,M,-23.7,M,0.8,0000*4F
$GPGSA,A,3,28,17,27,20,10,09,04,02,,,,,2.0,1.0,1.8*3D
$GPRMC,070930.000,A,3353.7570,N,09832.0272,W,0.21,1.00,300312,,,D*71
$GPGGA,070931.000,3353.7570,N,09832.0272,W,2,08,1.0,329.6,M,-23.7,M,1.8,0000*4E
$GPGSA,A,3,28,17,27,20,10,09,04,02,,,,,2.0,1.0,1.8*3D
$GPRMC,070931.000,A,3353.7570,N,09832.0272,W,0.14,23.43,300312,,,D*41
$GPGGA,070932.000,3353.7570,N,09832.0273,W,2,08,1.0,329.5,M,-23.7,M,2.8,0000*4C
$GPGSA,A,3,28,17,27,20,10,09,04,02,,,,,2.0,1.0,1.8*3D
$GPGSV,3,1,11,04,73,194,41,17,49,042,36,27,43,270,19,28,43,115,34*7A
$GPGSV,3,2,11,02,39,214,30,09,36,291,25,10,17,151,28,20,15,056,24*7E
$GPGSV,3,3,11,12,14,313,,32,00,035,,51,49,195,39*47
$GPRMC,070932.000,A,3353.7570,N,09832.0273,W,0.20,287.89,300312,,,D*7E
$GPGGA,070933.000,3353.7570,N,09832.0273,W,2,08,1.0,329.3,M,-23.7,M,0.8,0000*49
$GPGSA,A,3,28,17,27,20,10,09,04,02,,,,,2.0,1.0,1.8*3D
$GPRMC,070933.000,A,3353.7570,N,09832.0273,W,0.19,296.94,300312,,,D*79
$GPGGA,070934.000,3353.7571,N,09832.0274,W,2,08,1.0,329.1,M,-23.7,M,0.8,0000*4A
$GPGSA,A,3,28,17,27,20,10,09,04,02,,,,,2.0,1.0,1.8*3D
$GPRMC,070934.000,A,3353.7571,N,09832.0274,W,0.18,317.51,300312,,,D*78
$GPGGA,070935.000,3353.7571,N,09832.0274,W,2,08,1.0,329.0,M,-23.7,M,0.8,0000*4A
$GPGSA,A,3,28,17,27,20,10,09,04,02,,,,,2.0,1.0,1.8*3D
$GPRMC,070935.000,A,3353.7571,N,09832.0274,W,0.17,323.71,300312,,,D*73
$GPGGA,070936.000,3353.7571,N,09832.0274,W,2,08,1.0,329.0,M,-23.7,M,1.8,0000*48
$GPGSA,A,3,28,17,27,20,10,09,04,02,,,,,2.0,1.0,1.8*3D
$GPRMC,070936.000,A,3353.7571,N,09832.0274,W,0.15,65.83,300312,,,D*4E
$GPGGA,070937.000,3353.7570,N,09832.0273,W,2,08,1.0,329.1,M,-23.7,M,2.8,0000*4D
$GPGSA,A,3,28,17,27,20,10,09,04,02,,,,,2.0,1.0,1.8*3D
$GPGSV,3,1,11,04,73,194,40,17,49,042,36,27,43,270,19,28,43,115,34*7B
$GPGSV,3,2,11,02,39,214,30,09,36,291,26,10,17,151,28,20,15,056,24*7D
$GPGSV,3,3,11,12,14,313,,32,00,035,,51,49,195,39*47
$GPRMC,070937.000,A,3353.7570,N,09832.0273,W,0.12,167.13,300312,,,D*74
$GPGGA,070938.000,3353.7570,N,09832.0273,W,2,08,1.0,329.2,M,-23.7,M,3.8,0000*40
$GPGSA,A,3,28,17,27,20,10,09,04,02,,,,,2.0,1.0,1.8*3D
$GPRMC,070938.000,A,3353.7570,N,09832.0273,W,0.10,110.55,300312,,,D*7B
$GPGGA,070939.000,3353.7570,N,09832.0273,W,2,08,1.0,329.3,M,-23.7,M,0.8,0000*43
$GPGSA,A,3,28,17,27,20,10,09,04,02,,,,,2.0,1.0,1.8*3D
$GPRMC,070939.000,A,3353.7570,N,09832.0273,W,0.08,261.12,300312,,,D*75
$GPGGA,070940.000,3353.7570,N,09832.0273,W,2,08,1.0,329.3,M,-23.7,M,0.8,0000*4D
$GPGSA,A,3,28,17,27,20,10,09,04,02,,,,,2.0,1.0,1.8*3D
$GPRMC,070940.000,A,3353.7570,N,09832.0273,W,0.22,331.60,300312,,,D*72
$GPGGA,070941.000,3353.7570,N,09832.0273,W,2,08,1.0,329.2,M,-23.7,M,0.8,0000*4D
$GPGSA,A,3,28,17,27,20,10,09,04,02,,,,,2.0,1.0,1.8*3D
$GPRMC,070941.000,A,3353.7570,N,09832.0273,W,0.20,329.45,300312,,,D*7F
$GPGGA,070942.000,3353.7571,N,09832.0274,W,2,08,1.0,329.0,M,-23.7,M,1.8,0000*4B
$GPGSA,A,3,28,17,27,20,10,09,04,02,,,,,2.0,1.0,1.8*3D
$GPGSV,3,1,11,04,73,194,40,17,49,042,35,27,43,270,20,28,43,115,33*75
$GPGSV,3,2,11,02,39,214,31,09,36,291,26,10,17,151,28,20,15,056,23*7B
$GPGSV,3,3,11,12,14,313,,32,00,035,,51,49,195,39*47
$GPRMC,070942.000,A,3353.7571,N,09832.0274,W,0.30,353.43,300312,,,D*70
$GPGGA,070943.000,3353.7571,N,09832.0274,W,2,08,1.0,329.0,M,-23.7,M,2.8,0000*49
$GPGSA,A,3,28,17,27,20,10,09,04,02,,,,,2.0,1.0,1.8*3D
$GPRMC,070943.000,A,3353.7571,N,09832.0274,W,0.18,43.42,300312,,,D*48
$GPGGA,070944.000,3353.7572,N,09832.0274,W,2,08,1.0,328.9,M,-23.7,M,3.8,0000*44
$GPGSA,A,3,28,17,27,20,10,09,04,02,,,,,2.0,1.0,1.8*3D
$GPRMC,070944.000,A,3353.7572,N,09832.0274,W,0.13,276.49,300312,,,D*78
$GPGGA,070945.000,3353.7571,N,09832.0274,W,2,08,1.0,328.8,M,-23.7,M,0.8,0000*44
$GPGSA,A,3,28,17,27,20,10,09,04,02,,,,,2.0,1.0,1.8*3D
$GPRMC,070945.000,A,3353.7571,N,09832.0274,W,0.19,246.80,300312,,,D*76
$GPGGA,070946.000,3353.7571,N,09832.0274,W,2,08,1.0,328.8,M,-23.7,M,0.8,0000*47
$GPGSA,A,3,28,17,27,20,10,09,04,02,,,,,2.0,1.0,1.8*3D
$GPRMC,070946.000,A,3353.7571,N,09832.0274,W,0.14,208.75,300312,,,D*78
$GPGGA,070947.000,3353.7571,N,09832.0274,W,2,08,1.0,328.8,M,-23.7,M,0.8,0000*46
$GPGSA,A,3,28,17,27,20,10,09,04,02,,,,,2.0,1.0,1.8*3D
$GPGSV,3,1,11,04,73,194,40,17,49,042,34,27,43,270,20,28,43,115,33*74
$GPGSV,3,2,11,02,39,214,30,09,36,291,26,10,17,151,27,20,15,056,22*74
$GPGSV,3,3,11,12,14,313,,32,00,035,,51,49,195,38*46
$GPRMC,070947.000,A,3353.7571,N,09832.0274,W,0.16,49.53,300312,,,D*48
$GPGGA,070948.000,3353.7571,N,09832.0274,W,2,08,1.0,328.9,M,-23.7,M,0.8,0000*48
$GPGSA,A,3,28,17,27,20,10,09,04,02,,,,,2.0,1.0,1.8*3D
$GPRMC,070948.000,A,3353.7571,N,09832.0274,W,0.12,199.69,300312,,,D*76
$GPGGA,070949.000,3353.7570,N,09832.0274,W,2,08,1.0,329.1,M,-23.7,M,1.8,0000*40
$GPGSA,A,3,28,17,27,20,10,09,04,02,,,,,2.0,1.0,1.8*3D
$GPRMC,070949.000,A,3353.7570,N,09832.0274,W,0.25,249.06,300312,,,D*75
$GPGGA,070950.000,3353.7570,N,09832.0274,W,2,08,1.0,329.1,M,-23.7,M,0.8,0000*49
$GPGSA,A,3,28,17,27,20,10,09,04,02,,,,,2.0,1.0,1.8*3D
$GPRMC,070950.000,A,3353.7570,N,09832.0274,W,0.09,353.39,300312,,,D*75
$GPGGA,070951.000,3353.7570,N,09832.0274,W,2,08,1.0,329.2,M,-23.7,M,0.8,0000*4B
$GPGSA,A,3,28,17,27,20,10,09,04,02,,,,,2.0,1.0,1.8*3D
$GPRMC,070951.000,A,3353.7570,N,09832.0274,W,0.08,323.40,300312,,,D*7C
$GPGGA,070952.000,3353.7570,N,09832.0274,W,2,08,1.0,329.3,M,-23.7,M,0.8,0000*49
$GPGSA,A,3,28,17,27,20,10,09,04,02,,,,,2.0,1.0,1.8*3D
$GPGSV,3,1,11,04,73,194,40,17,49,042,34,27,43,270,20,28,43,115,33*74
$GPGSV,3,2,11,02,39,214,30,09,36,291,25,10,17,151,27,20,15,056,21*74
$GPGSV,3,3,11,12,14,313,,32,00,035,,51,49,195,39*47
$GPRMC,070952.000,A,3353.7570,N,09832.0274,W,0.18,117.09,300312,,,D*76
$GPGGA,070953.000,3353.7569,N,09832.0274,W,2,08,1.0,329.4,M,-23.7,M,0.8,0000*47
$GPGSA,A,3,28,17,27,20,10,09,04,02,,,,,2.0,1.0,1.8*3D
$GPRMC,070953.000,A,3353.7569,N,09832.0274,W,0.30,154.74,300312,,,D*78
$GPGGA,070954.000,3353.7569,N,09832.0274,W,2,08,1.0,329.3,M,-23.7,M,1.8,0000*46
$GPGSA,A,3,28,17,27,20,10,09,04,02,,,,,2.0,1.0,1.8*3D
$GPRMC,070954.000,A,3353.7569,N,09832.0274,W,0.12,23.76,300312,,,D*4C
$GPGGA,070955.000,3353.7570,N,09832.0274,W,2,08,1.0,329.1,M,-23.7,M,0.8,0000*4C
$GPGSA,A,3,28,17,27,20,10,09,04,02,,,,,2.0,1.0,1.8*3D
$GPRMC,070955.000,A,3353.7570,N,09832.0274,W,0.30,359.62,300312,,,D*7E
$GPGGA,070956.000,3353.7570,N,09832.0274,W,2,08,1.0,328.9,M,-23.7,M,1.8,0000*47
$GPGSA,A,3,28,17,27,20,10,09,04,02,,,,,2.0,1.0,1.8*3D
$GPRMC,070956.000,A,3353.7570,N,09832.0274,W,0.21,53.24,300312,,,D*46
$GPGGA,070957.000,3353.7571,N,09832.0274,W,2,08,1.0,328.7,M,-23.7,M,0.8,0000*48
$GPGSA,A,3,28,17,27,20,10,09,04,02,,,,,2.0,1.0,1.8*3D
$GPGSV,3,1,11,04,73,194,40,17,49,042,33,27,43,270,20,28,43,115,33*73
$GPGSV,3,2,11,02,39,214,29,09,36,291,25,10,17,151,26,20,15,056,21*7D
$GPGSV,3,3,11,12,14,313,,32,00,035,,51,49,195,39*47
$GPRMC,070957.000,A,3353.7571,N,09832.0274,W,0.26,29.72,300312,,,D*4F
$GPGGA,070958.000,3353.7571,N,09832.0274,W,2,08,1.0,328.5,M,-23.7,M,0.8,0000*45
$GPGSA,A,3,28,17,27,20,10,09,04,02,,,,,2.0,1.0,1.8*3D
$GPRMC,070958.000,A,3353.7571,N,09832.0274,W,0.14,39.24,300312,,,D*43
$GPGGA,070959.000,3353.7571,N,09832.0273,W,2,08,1.0,328.4,M,-23.7,M,0.8,0000*42
$GPGSA,A,3,28,17,27,20,10,09,04,02,,,,,2.0,1.0,1.8*3D
$GPRMC,070959.000,A,3353.7571,N,09832.0273,W,0.31,61.68,300312,,,D*47
$GPGGA,071000.000,3353.7571,N,09832.0273,W,2,08,1.0,328.3,M,-23.7,M,1.8,0000*40
$GPGSA,A,3,28,17,27,20,10,09,04,02,,,,,2.0,1.0,1.8*3D
$GPRMC,071000.000,A,3353.7571,N,09832.0273,W,0.28,123.43,300312,,,D*75
$GPGGA,071001.000,3353.7571,N,09832.0273,W,2,08,1.0,328.5,M,-23.7,M,0.8,0000*46
$GPGSA,A,3,28,17,27,20,10,09,04,02,,,,,2.0,1.0,1.8*3D
$GPRMC,071001.000,A,3353.7571,N,09832.0273,W,0.08,216.46,300312,,,D*76
$GPGGA,071002.000,3353.7571,N,09832.0273,W,2,08,1.0,328.6,M,-23.7,M,1.8,0000*47
$GPGSA,A,3,28,17,27,20,10,09,04,02,,,,,2.0,1.0,1.8*3D
$GPGSV,3,1,11,04,73,194,40,17,49,042,33,27,43,270,21,28,43,115,33*72
$GPGSV,3,2,11,02,39,214,29,09,36,291,25,10,17,151,20,20,15,056,21*7B
$GPGSV,3,3,11,12,14,313,,32,00,035,,51,49,195,39*47
$GPRMC,071002.000,A,3353.7571,N,09832.0273,W,0.19,317.65,300312,,,D*74
$GPGGA,071003.000,3353.7571,N,09832.0274,W,2,08,1.0,328.8,M,-23.7,M,0.8,0000*4E
$GPGSA,A,3,28,17,27,20,10,09,04,02,,,,,2.0,1.0,1.8*3D
$GPRMC,071003.000,A,3353.7571,N,09832.0274,W,0.10,301.04,300312,,,D*7B
$GPGGA,071004.000,3353.7572,N,09832.0274,W,2,08,1.0,328.9,M,-23.7,M,0.8,0000*4B
$GPGSA,A,3,28,17,27,20,10,09,04,02,,,,,2.0,1.0,1.8*3D
$GPRMC,071004.000,A,3353.7572,N,09832.0274,W,0.31,7.93,300312,,,D*77
$GPGGA,071005.000,3353.7572,N,09832.0274,W,2,08,1.0,328.8,M,-23.7,M,0.8,0000*4B
$GPGSA,A,3,28,17,27,20,10,09,04,02,,,,,2.0,1.0,1.8*3D
$GPRMC,071005.000,A,3353.7572,N,09832.0274,W,0.30,96.73,300312,,,D*41
$GPGGA,071006.000,3353.7571,N,09832.0274,W,2,08,1.0,328.5,M,-23.7,M,1.8,0000*47
$GPGSA,A,3,28,17,27,20,10,09,04,02,,,,,2.0,1.0,1.8*3D
$GPRMC,071006.000,A,3353.7571,N,09832.0274,W,0.10,106.49,300312,,,D*72
$GPGGA,071007.000,3353.7571,N,09832.0275,W,2,08,1.0,328.5,M,-23.7,M,2.8,0000*44
$GPGSA,A,3,28,17,27,20,10,09,04,02,,,,,2.0,1.0,1.8*3D
$GPGSV,3,1,11,04,73,194,40,17,49,042,33,27,43,270,22,28,43,115,33*71
$GPGSV,3,2,11,02,39,214,29,09,36,291,25,10,17,151,20,20,15,056,22*78
$GPGSV,3,3,11,12,14,313,,32,00,035,,51,49,195,39*47
$GPRMC,071007.000,A,3353.7571,N,09832.0275,W,0.25,274.02,300312,,,D*7D
$GPGGA,071008.000,3353.7572,N,09832.0276,W,2,08,1.0,328.5,M,-23.7,M,3.8,0000*4A
$GPGSA,A,3,28,17,27,20,10,09,04,02,,,,,2.0,1.0,1.8*3D
$GPRMC,071008.000,A,3353.7572,N,09832.0276,W,0.17,43.92,300312,,,D*4C
$GPGGA,071009.000,3353.7571,N,09832.0276,W,2,08,1.0,328.3,M,-23.7,M,0.8,0000*4D
$GPGSA,A,3,28,17,27,20,10,09,04,02,,,,,2.0,1.0,1.8*3D
$GPRMC,071009.000,A,3353.7571,N,09832.0276,W,0.31,137.83,300312,,,D*78
$GPGGA,071010.000,3353.7570,N,09832.0276,W,2,08,1.0,328.1,M,-23.7,M,0.8,0000*46
$GPGSA,A,3,28,17,27,20,10,09,04,02,,,,,2.0,1.0,1.8*3D
$GPRMC,071010.000,A,3353.7570,N,09832.0276,W,0.30,157.93,300312,,,D*77
$GPGGA,071011.000,3353.7570,N,09832.0276,W,2,08,1.0,328.1,M,-23.7,M,0.8,0000*47
$GPGSA,A,3,28,17,27,20,10,09,04,02,,,,,2.0,1.0,1.8*3D
$GPRMC,071011.000,A,3353.7570,N,09832.0276,W,0.20,292.42,300312,,,D*71
$GPGGA,071012.000,3353.7570,N,09832.0276,W,2,08,1.0,328.1,M,-23.7,M,1.8,0000*45
$GPGSA,A,3,28,17,27,20,10,09,04,02,,,,,2.0,1.0,1.8*3D
$GPGSV,3,1,11,04,73,194,40,17,49,042,33,27,43,270,23,28,43,115,32*71
$GPGSV,3,2,11,02,39,214,28,09,36,291,25,10,17,151,21,20,15,056,24*7E
$GPGSV,3,3,11,12,14,313,,32,00,035,,51,49,195,39*47
$GPRMC,071012.000,A,3353.7570,N,09832.0276,W,0.12,102.01,300312,,,D*7E
$GPGGA,071013.000,3353.7570,N,09832.0277,W,2,08,1.0,328.2,M,-23.7,M,2.8,0000*45
$GPGSA,A,3,28,17,27,20,10,09,04,02,,,,,2.0,1.0,1.8*3D
$GPRMC,071013.000,A,3353.7570,N,09832.0277,W,0.19,249.30,300312,,,D*7B
$GPGGA,071014.000,3353.7570,N,09832.0277,W,2,08,1.0,328.2,M,-23.7,M,3.8,0000*43
$GPGSA,A,3,28,17,27,20,10,09,04,02,,,,,2.0,1.0,1.8*3D
$GPRMC,071014.000,A,3353.7570,N,09832.0277,W,0.23,214.90,300312,,,D*77
$GPGGA,071015.000,3353.7570,N,09832.0278,W,2,08,1.0,328.3,M,-23.7,M,0.8,0000*4F
$GPGSA,A,3,28,17,27,20,10,09,04,02,,,,,2.0,1.0,1.8*3D
$GPRMC,071015.000,A,3353.7570,N,09832.0278,W,0.33,308.24,300312,,,D*7B
$GPGGA,071016.000,3353.7571,N,09832.0280,W,2,08,1.0,328.5,M,-23.7,M,0.8,0000*4C
$GPGSA,A,3,28,17,27,20,10,09,04,02,,,,,2.0,1.0,1.8*3D
$GPRMC,071016.000,A,3353.7571,N,09832.0280,W,0.46,299.97,300312,,,D*7D
$GPGGA,071017.000,3353.7572,N,09832.0281,W,2,08,1.0,328.3,M,-23.7,M,0.8,0000*49
$GPGSA,A,3,28,17,27,20,10,09,04,02,,,,,2.0,1.0,1.8*3D
$GPGSV,3,1,11,04,73,194,40,17,49,042,33,27,43,270,22,28,43,115,32*70
$GPGSV,3,2,11,02,39,214,28,09,36,291,24,10,17,151,22,20,15,056,25*7D
$GPGSV,3,3,11,12,14,313,,32,00,035,,51,49,195,39*47
$GPRMC,071017.000,A,3353.7572,N,09832.0281,W,0.33,303.77,300312,,,D*70
$GPGGA,071018.000,3353.7572,N,09832.0283,W,2,08,1.0,328.2,M,-23.7,M,0.8,0000*45
$GPGSA,A,3,28,17,27,20,10,09,04,02,,,,,2.0,1.0,1.8*3D
$GPRMC,071018.000,A,3353.7572,N,09832.0283,W,0.54,296.57,300312,,,D*73
$GPGGA,071019.000,3353.7573,N,09832.0283,W,2,08,1.0,328.1,M,-23.7,M,1.8,0000*47
$GPGSA,A,3,28,17,27,20,10,09,04,02,,,,,2.0,1.0,1.8*3D
$GPRMC,071019.000,A,3353.7573,N,09832.0283,W,0.20,68.16,300312,,,D*46
$GPGGA,071020.000,3353.7573,N,09832.0283,W,2,08,1.0,328.3,M,-23.7,M,2.8,0000*4C
$GPGSA,A,3,28,17,27,20,10,09,04,02,,,,,2.0,1.0,1.8*3D
$GPRMC,071020.000,A,3353.7573,N,09832.0283,W,0.30,109.79,300312,,,D*72
$GPGGA,071021.000,3353.7573,N,09832.0282,W,2,08,1.0,328.3,M,-23.7,M,0.8,0000*4E
$GPGSA,A,3,28,17,27,20,10,09,04,02,,,,,2.0,1.0,1.8*3D
$GPRMC,071021.000,A,3353.7573,N,09832.0282,W,0.27,84.76,300312,,,D*4F
$GPGGA,071022.000,3353.7573,N,09832.0282,W,2,08,1.0,328.3,M,-23.7,M,0.8,0000*4D
$GPGSA,A,3,28,17,27,20,10,09,04,02,,,,,2.0,1.0,1.8*3D
$GPGSV,3,1,11,04,73,194,39,17,49,042,33,27,43,270,18,28,43,115,32*77
$GPGSV,3,2,11,02,39,214,29,09,36,291,21,10,17,151,24,20,15,056,25*7F
$GPGSV,3,3,11,12,14,313,,32,00,035,,51,49,195,39*47
$GPRMC,071022.000,A,3353.7573,N,09832.0282,W,0.24,331.47,300312,,,D*70
$GPGGA,071023.000,3353.7573,N,09832.0282,W,2,08,1.0,328.3,M,-23.7,M,0.8,0000*4C
$GPGSA,A,3,28,17,27,20,10,09,04,02,,,,,2.0,1.0,1.8*3D
$GPRMC,071023.000,A,3353.7573,N,09832.0282,W,0.11,107.64,300312,,,D*71
$GPGGA,071024.000,3353.7573,N,09832.0281,W,2,08,1.0,328.5,M,-23.7,M,1.8,0000*4F
$GPGSA,A,3,28,17,27,20,10,09,04,02,,,,,2.0,1.0,1.8*3D
$GPRMC,071024.000,A,3353.7573,N,09832.0281,W,0.47,112.24,300312,,,D*76
$GPGGA,071025.000,3353.7573,N,09832.0280,W,2,08,1.0,328.6,M,-23.7,M,2.8,0000*4F
$GPGSA,A,3,28,17,27,20,10,09,04,02,,,,,2.0,1.0,1.8*3D
$GPRMC,071025.000,A,3353.7573,N,09832.0280,W,0.31,123.37,300312,,,D*77
$GPGGA,071026.000,3353.7573,N,09832.0280,W,2,08,1.0,328.7,M,-23.7,M,0.8,0000*4F
$GPGSA,A,3,28,17,27,20,10,09,04,02,,,,,2.0,1.0,1.8*3D
$GPRMC,071026.000,A,3353.7573,N,09832.0280,W,0.09,74.34,300312,,,D*4F
$GPGGA,071027.000,3353.7573,N,09832.0279,W,2,08,1.0,328.9,M,-23.7,M,0.8,0000*46
$GPGSA,A,3,28,17,27,20,10,09,04,02,,,,,2.0,1.0,1.8*3D
$GPGSV,3,1,11,04,73,194,39,17,49,042,33,27,43,270,20,28,43,115,31*7F
$GPGSV,3,2,11,02,39,214,29,09,36,291,21,10,17,151,25,20,15,056,26*7D
$GPGSV,3,3,11,12,14,313,,32,00,035,,51,49,195,38*46
$GPRMC,071027.000,A,3353.7573,N,09832.0279,W,0.16,94.38,300312,,,D*44
$GPGGA,071028.000,3353.7573,N,09832.0279,W,2,08,1.0,329.1,M,-23.7,M,0.8,0000*40
$GPGSA,A,3,28,17,27,20,10,09,04,02,,,,,2.0,1.0,1.8*3D
$GPRMC,071028.000,A,3353.7573,N,09832.0279,W,0.14,0.04,300312,,,D*7B
$GPGGA,071029.000,3353.7574,N,09832.0280,W,2,08,1.0,329.0,M,-23.7,M,0.8,0000*41
$GPGSA,A,3,28,17,27,20,10,09,04,02,,,,,2.0,1.0,1.8*3D
$GPRMC,071029.000,A,3353.7574,N,09832.0280,W,0.18,350.49,300312,,,D*78
$GPGGA,071030.000,3353.7574,N,09832.0281,W,2,08,1.0,328.9,M,-23.7,M,1.8,0000*41
$GPGSA,A,3,28,17,27,20,10,09,04,02,,,,,2.0,1.0,1.8*3D
$GPRMC,071030.000,A,3353.7574,N,09832.0281,W,0.37,315.82,300312,,,D*7A
$GPGGA,071031.000,3353.7575,N,09832.0282,W,2,08,1.0,328.8,M,-23.7,M,2.8,0000*40
$GPGSA,A,3,28,17,27,20,10,09,04,02,,,,,2.0,1.0,1.8*3D
$GPRMC,071031.000,A,3353.7575,N,09832.0282,W,0.14,323.91,300312,,,D*7F
$GPGGA,071032.000,3353.7575,N,09832.0282,W,2,08,1.0,328.8,M,-23.7,M,3.8,0000*42
$GPGSA,A,3,28,17,27,20,10,09,04,02,,,,,2.0,1.0,1.8*3D
$GPGSV,3,1,11,04,73,194,39,17,49,042,33,27,43,270,21,28,43,115,32*7D
$GPGSV,3,2,11,02,39,214,29,09,36,291,20,10,17,151,26,20,15,056,25*7C
$GPGSV,3,3,11,12,14,313,,32,00,035,,51,49,195,39*47
$GPRMC,071032.000,A,3353.7575,N,09832.0282,W,0.08,331.98,300312,,,D*7B
$GPGGA,071033.000,3353.7575,N,09832.0282,W,2,08,1.0,328.7,M,-23.7,M,0.8,0000*4F
$GPGSA,A,3,28,17,27,20,10,09,04,02,,,,,2.0,1.0,1.8*3D
$GPRMC,071033.000,A,3353.7575,N,09832.0282,W,0.08,106.77,300312,,,D*7D
$GPGGA,071034.000,3353.7575,N,09832.0282,W,2,08,1.0,328.7,M,-23.7,M,0.8,0000*48
$GPGSA,A,3,28,17,27,20,10,09,04,02,,,,,2.1,1.0,1.8*3C
$GPRMC,071034.000,A,3353.7575,N,09832.0282,W,0.04,134.79,300312,,,D*79
$GPGGA,071035.000,3353.7575,N,09832.0282,W,2,08,1.0,328.7,M,-23.7,M,0.8,0000*49
$GPGSA,A,3,28,17,27,20,10,09,04,02,,,,,2.1,1.0,1.8*3C
$GPRMC,071035.000,A,3353.7575,N,09832.0282,W,0.07,334.48,300312,,,D*7B
$GPGGA,071036.000,3353.7575,N,09832.0282,W,2,08,1.0,328.6,M,-23.7,M,1.8,0000*4A
$GPGSA,A,3,28,17,27,20,10,09,04,02,,,,,2.1,1.0,1.8*3C
$GPRMC,071036.000,A,3353.7575,N,09832.0282,W,0.17,299.65,300312,,,D*70
$GPGGA,071037.000,3353.7576,N,09832.0283,W,2,08,1.0,328.6,M,-23.7,M,0.8,0000*48
$GPGSA,A,3,28,17,27,20,10,09,04,02,,,,,2.1,1.0,1.8*3C
$GPGSV,3,1,11,04,73,194,39,17,49,042,32,27,43,270,21,28,43,115,32*7C
$GPGSV,3,2,11,02,39,214,29,09,36,291,19,10,17,151,25,20,15,056,25*75
$GPGSV,3,3,11,12,14,313,,32,00,035,,51,49,195,39*47
$GPRMC,071037.000,A,3353.7576,N,09832.0283,W,0.44,321.95,300312,,,D*78
$GPGGA,071038.000,3353.7577,N,09832.0284,W,2,08,1.0,328.5,M,-23.7,M,1.8,0000*43
$GPGSA,A,3,28,17,27,20,10,09,04,02,,,,,2.1,1.0,1.8*3C
$GPRMC,071038.000,A,3353.7577,N,09832.0284,W,0.32,311.70,300312,,,D*78
$GPGGA,071039.000,3353.7577,N,09832.0284,W,2,08,1.0,328.5,M,-23.7,M,0.8,0000*43
$GPGSA,A,3,28,17,27,20,10,09,04,02,,,,,2.1,1.0,1.8*3C
$GPRMC,071039.000,A,3353.7577,N,09832.0284,W,0.11,330.27,300312,,,D*79
$GPGGA,071040.000,3353.7578,N,09832.0285,W,2,08,1.0,328.4,M,-23.7,M,0.8,0000*42
$GPGSA,A,3,28,17,27,20,10,09,04,02,,,,,2.1,1.0,1.8*3C
$GPRMC,071040.000,A,3353.7578,N,09832.0285,W,0.40,341.83,300312,,,D*75
$GPGGA,071041.000,3353.7579,N,09832.0285,W,2,08,1.0,328.2,M,-23.7,M,0.8,0000*44
$GPGSA,A,3,28,17,27,20,10,09,04,02,,,,,2.1,1.0,1.8*3C
$GPRMC,071041.000,A,3353.7579,N,09832.0285,W,0.33,13.11,300312,,,D*4E
$GPGGA,071042.000,3353.7580,N,09832.0285,W,2,08,1.0,328.1,M,-23.7,M,1.8,0000*43
$GPGSA,A,3,28,17,27,20,10,09,04,02,,,,,2.1,1.0,1.8*3C
$GPGSV,3,1,11,04,73,194,39,17,49,042,32,27,43,270,16,28,43,115,33*79
$GPGSV,3,2,11,02,39,214,29,09,36,291,19,10,17,151,25,20,15,056,24*74
$GPGSV,3,3,11,12,14,313,,32,00,035,,51,49,195,39*47
