$GPGGA,023334.000,3353.7508,N,09832.0247,W,2,09,0.9,321.5,M,-23.7,M,0.8,0000*4D
$GPGSA,A,3,23,11,19,07,13,03,28,08,01,,,,1.8,0.9,1.6*39
$GPRMC,023334.000,A,3353.7508,N,09832.0247,W,0.20,316.46,300312,,,D*76
$GPGGA,023335.000,3353.7508,N,09832.0248,W,2,09,0.9,321.3,M,-23.7,M,0.8,0000*45
$GPGSA,A,3,23,11,19,07,13,03,28,08,01,,,,1.8,0.9,1.6*39
$GPRMC,023335.000,A,3353.7508,N,09832.0248,W,0.14,296.32,300312,,,D*75
$GPGGA,023336.000,3353.7509,N,09832.0248,W,2,09,0.9,321.2,M,-23.7,M,1.8,0000*47
$GPGSA,A,3,23,11,19,07,13,03,28,08,01,,,,1.8,0.9,1.6*39
$GPRMC,023336.000,A,3353.7509,N,09832.0248,W,0.11,109.10,300312,,,D*77
$GPGGA,023337.000,3353.7509,N,09832.0248,W,2,09,0.9,321.1,M,-23.7,M,2.8,0000*46
$GPGSA,A,3,23,11,19,07,13,03,28,08,01,,,,1.8,0.9,1.6*39
$GPRMC,023337.000,A,3353.7509,N,09832.0248,W,0.02,66.56,300312,,,D*4E
$GPGGA,023338.000,3353.7509,N,09832.0248,W,2,09,0.9,321.0,M,-23.7,M,3.8,0000*49
$GPGSA,A,3,23,11,19,07,13,03,28,08,01,,,,1.8,0.9,1.6*39
$GPGSV,3,1,12,07,73,042,39,19,48,056,41,08,47,325,31,13,40,183,42*72
$GPGSV,3,2,12,28,33,270,19,11,32,123,33,01,15,137,26,03,14,043,28*72
$GPGSV,3,3,12,23,13,168,35,17,10,208,,26,09,323,,06,03,040,16*74
$GPRMC,023338.000,A,3353.7509,N,09832.0248,W,0.17,114.50,300312,,,D*77
$GPGGA,023339.000,3353.7509,N,09832.0248,W,2,09,0.9,321.0,M,-23.7,M,0.8,0000*4B
$GPGSA,A,3,23,11,19,07,13,03,28,08,01,,,,1.8,0.9,1.6*39
$GPRMC,023339.000,A,3353.7509,N,09832.0248,W,0.21,123.08,300312,,,D*7A
$GPGGA,023340.000,3353.7509,N,09832.0248,W,2,09,0.9,320.9,M,-23.7,M,0.8,0000*4D
$GPGSA,A,3,23,11,19,07,13,03,28,08,01,,,,1.8,0.9,1.6*39
$GPRMC,023340.000,A,3353.7509,N,09832.0248,W,0.09,260.50,300312,,,D*77
$GPGGA,023341.000,3353.7509,N,09832.0249,W,2,09,0.9,320.8,M,-23.7,M,0.8,0000*4C
$GPGSA,A,3,23,11,19,07,13,03,28,08,01,,,,1.8,0.9,1.6*39
$GPRMC,023341.000,A,3353.7509,N,09832.0249,W,0.23,296.86,300312,,,D*7D
$GPGGA,023342.000,3353.7509,N,09832.0250,W,2,09,0.9,320.8,M,-23.7,M,1.8,0000*46
$GPGSA,A,3,23,11,19,07,13,03,28,08,01,,,,1.8,0.9,1.6*39
$GPRMC,023342.000,A,3353.7509,N,09832.0250,W,0.04,302.40,300312,,,D*75
$GPGGA,023343.000,3353.7509,N,09832.0249,W,2,09,0.9,320.8,M,-23.7,M,2.8,0000*4C
$GPGSA,A,3,23,11,19,07,13,03,28,08,01,,,,1.8,0.9,1.6*39
$GPGSV,3,1,12,07,73,045,39,08,48,326,31,19,47,055,41,13,40,183,42*75
$GPGSV,3,2,12,28,33,271,20,11,33,122,33,01,16,136,26,03,13,043,28*7C
$GPGSV,3,3,12,23,12,168,35,17,10,208,,26,09,323,,06,02,040,17*75
$GPRMC,023343.000,A,3353.7509,N,09832.0249,W,0.18,106.36,300312,,,D*76
$GPGGA,023344.000,3353.7509,N,09832.0249,W,2,09,0.9,320.7,M,-23.7,M,3.8,0000*45
$GPGSA,A,3,23,11,19,07,13,03,28,08,01,,,,1.8,0.9,1.6*39
$GPRMC,023344.000,A,3353.7509,N,09832.0249,W,0.08,286.05,300312,,,D*7B
$GPGGA,023345.000,3353.7510,N,09832.0250,W,2,09,0.9,320.7,M,-23.7,M,0.8,0000*47
$GPGSA,A,3,23,11,19,07,13,03,28,08,01,,,,1.8,0.9,1.6*39
$GPRMC,023345.000,A,3353.7510,N,09832.0250,W,0.10,84.00,300312,,,D*46
$GPGGA,023346.000,3353.7510,N,09832.0249,W,2,09,0.9,320.7,M,-23.7,M,0.8,0000*4C
$GPGSA,A,3,23,11,19,07,13,03,28,08,01,,,,1.8,0.9,1.6*39
$GPRMC,023346.000,A,3353.7510,N,09832.0249,W,0.09,76.08,300312,,,D*40
$GPGGA,023347.000,3353.7510,N,09832.0249,W,2,09,0.9,320.6,M,-23.7,M,0.8,0000*4C
$GPGSA,A,3,23,11,19,07,13,03,28,08,01,,,,1.8,0.9,1.6*39
$GPRMC,023347.000,A,3353.7510,N,09832.0249,W,0.08,118.45,300312,,,D*70
$GPGGA,023348.000,3353.7510,N,09832.0249,W,2,09,0.9,320.6,M,-23.7,M,0.8,0000*43
$GPGSA,A,3,23,11,19,07,13,03,28,08,01,,,,1.8,0.9,1.6*39
$GPGSV,3,1,12,07,73,045,39,08,48,326,30,19,47,055,41,13,40,183,42*74
$GPGSV,3,2,12,28,33,271,21,11,33,122,33,01,16,136,26,03,13,043,28*7D
$GPGSV,3,3,12,23,12,168,35,17,10,208,,26,09,323,,06,02,040,16*74
$GPRMC,023348.000,A,3353.7510,N,09832.0249,W,0.17,121.81,300312,,,D*73
$GPGGA,023349.000,3353.7510,N,09832.0249,W,2,09,0.9,320.5,M,-23.7,M,1.8,0000*40
$GPGSA,A,3,23,11,19,07,13,03,28,08,01,,,,1.8,0.9,1.6*39
$GPRMC,023349.000,A,3353.7510,N,09832.0249,W,0.02,130.95,300312,,,D*73
$GPGGA,023350.000,3353.7510,N,09832.0249,W,2,09,0.9,320.5,M,-23.7,M,2.8,0000*4B
$GPGSA,A,3,23,11,19,07,13,03,28,08,01,,,,1.8,0.9,1.6*39
$GPRMC,023350.000,A,3353.7510,N,09832.0249,W,0.26,115.67,300312,,,D*77
$GPGGA,023351.000,3353.7510,N,09832.0249,W,2,09,0.9,320.4,M,-23.7,M,0.8,0000*49
$GPGSA,A,3,23,11,19,07,13,03,28,08,01,,,,1.8,0.9,1.6*39
$GPRMC,023351.000,A,3353.7510,N,09832.0249,W,0.07,238.64,300312,,,D*7A
$GPGGA,023352.000,3353.7510,N,09832.0250,W,2,09,0.9,320.3,M,-23.7,M,0.8,0000*45
$GPGSA,A,3,23,11,19,07,13,03,28,08,01,,,,1.8,0.9,1.6*39
$GPRMC,023352.000,A,3353.7510,N,09832.0250,W,0.16,270.91,300312,,,D*77
$GPGGA,023353.000,3353.7510,N,09832.0250,W,2,09,0.9,320.3,M,-23.7,M,0.8,0000*44
$GPGSA,A,3,23,11,19,07,13,03,28,08,01,,,,1.8,0.9,1.6*39
$GPGSV,3,1,12,07,73,045,39,08,48,326,30,19,47,055,41,13,40,183,42*74
$GPGSV,3,2,12,28,33,271,23,11,33,122,33,01,16,136,26,03,13,043,28*7F
$GPGSV,3,3,12,23,12,168,35,17,10,208,,26,09,323,,06,02,040,16*74
$GPRMC,023353.000,A,3353.7510,N,09832.0250,W,0.02,85.05,300312,,,D*46
$GPGGA,023354.000,3353.7510,N,09832.0250,W,2,09,0.9,320.3,M,-23.7,M,1.8,0000*42
$GPGSA,A,3,23,11,19,07,13,03,28,08,01,,,,1.8,0.9,1.6*39
$GPRMC,023354.000,A,3353.7510,N,09832.0250,W,0.13,111.14,300312,,,D*7D
$GPGGA,023355.000,3353.7510,N,09832.0251,W,2,09,0.9,320.3,M,-23.7,M,0.8,0000*43
$GPGSA,A,3,23,11,19,07,13,03,28,08,01,,,,1.8,0.9,1.6*39
$GPRMC,023355.000,A,3353.7510,N,09832.0251,W,0.01,142.50,300312,,,D*78
$GPGGA,023356.000,3353.7511,N,09832.0251,W,2,09,0.9,320.3,M,-23.7,M,1.8,0000*40
$GPGSA,A,3,23,11,19,07,13,03,28,08,01,,,,1.8,0.9,1.6*39
$GPRMC,023356.000,A,3353.7511,N,09832.0251,W,0.02,94.27,300312,,,D*43
$GPGGA,023357.000,3353.7511,N,09832.0251,W,2,09,0.9,320.3,M,-23.7,M,0.8,0000*40
$GPGSA,A,3,23,11,19,07,13,03,28,08,01,,,,1.8,0.9,1.6*39
$GPRMC,023357.000,A,3353.7511,N,09832.0251,W,0.11,90.82,300312,,,D*4B
$GPGGA,023358.000,3353.7511,N,09832.0251,W,2,09,0.9,320.3,M,-23.7,M,0.8,0000*4F
$GPGSA,A,3,23,11,19,07,13,03,28,08,01,,,,1.8,0.9,1.6*39
$GPGSV,3,1,12,07,73,045,39,08,48,326,29,19,47,055,41,13,40,183,42*7C
$GPGSV,3,2,12,28,33,271,24,11,33,122,33,01,16,136,26,03,13,043,28*78
$GPGSV,3,3,12,23,12,168,35,17,10,208,,26,09,323,,06,02,040,15*77
$GPRMC,023358.000,A,3353.7511,N,09832.0251,W,0.12,89.51,300312,,,D*41
$GPGGA,023359.000,3353.7511,N,09832.0251,W,2,09,0.9,320.3,M,-23.7,M,0.8,0000*4E
$GPGSA,A,3,23,11,19,07,13,03,28,08,01,,,,1.8,0.9,1.6*39
$GPRMC,023359.000,A,3353.7511,N,09832.0251,W,0.15,118.55,300312,,,D*7A
$GPGGA,023400.000,3353.7511,N,09832.0251,W,2,09,0.9,320.2,M,-23.7,M,1.8,0000*45
$GPGSA,A,3,23,11,19,07,13,03,28,08,01,,,,1.8,0.9,1.6*39
$GPRMC,023400.000,A,3353.7511,N,09832.0251,W,0.12,126.23,300312,,,D*7A
$GPGGA,023401.000,3353.7511,N,09832.0251,W,2,09,0.9,320.1,M,-23.7,M,0.8,0000*46
$GPGSA,A,3,23,11,19,07,13,03,28,08,01,,,,1.8,0.9,1.6*39
$GPRMC,023401.000,A,3353.7511,N,09832.0251,W,0.19,116.20,300312,,,D*70
$GPGGA,023402.000,3353.7511,N,09832.0250,W,2,09,0.9,320.1,M,-23.7,M,1.8,0000*45
$GPGSA,A,3,23,11,19,07,13,03,28,08,01,,,,1.8,0.9,1.6*39
$GPRMC,023402.000,A,3353.7511,N,09832.0250,W,0.23,117.31,300312,,,D*7A
$GPGGA,023403.000,3353.7511,N,09832.0250,W,2,09,0.9,320.1,M,-23.7,M,0.8,0000*45
$GPGSA,A,3,23,11,19,07,13,03,28,08,01,,,,1.8,0.9,1.6*39
$GPGSV,3,1,12,07,73,045,39,08,48,326,30,19,47,055,41,13,40,183,42*74
$GPGSV,3,2,12,28,33,271,24,11,33,122,33,01,16,136,26,03,13,043,28*78
$GPGSV,3,3,12,23,12,168,35,17,10,208,,26,09,323,,06,02,040,13*71
$GPRMC,023403.000,A,3353.7511,N,09832.0250,W,0.12,142.47,300312,,,D*78
$GPGGA,023404.000,3353.7511,N,09832.0250,W,2,09,0.9,320.0,M,-23.7,M,0.8,0000*43
$GPGSA,A,3,23,11,19,07,13,03,28,08,01,,,,1.8,0.9,1.6*39
$GPRMC,023404.000,A,3353.7511,N,09832.0250,W,0.09,160.08,300312,,,D*7E
$GPGGA,023405.000,3353.7511,N,09832.0251,W,2,09,0.9,320.0,M,-23.7,M,0.8,0000*43
$GPGSA,A,3,23,11,19,07,13,03,28,08,01,,,,1.8,0.9,1.6*39
$GPRMC,023405.000,A,3353.7511,N,09832.0251,W,0.03,101.99,300312,,,D*7B
$GPGGA,023406.000,3353.7511,N,09832.0251,W,2,09,0.9,320.1,M,-23.7,M,0.8,0000*41
$GPGSA,A,3,23,11,19,07,13,03,28,08,01,,,,1.8,0.9,1.6*39
$GPRMC,023406.000,A,3353.7511,N,09832.0251,W,0.03,110.63,300312,,,D*7D
$GPGGA,023407.000,3353.7511,N,09832.0251,W,2,09,0.9,320.1,M,-23.7,M,1.8,0000*41
$GPGSA,A,3,23,11,19,07,13,03,28,08,01,,,,1.8,0.9,1.6*39
$GPRMC,023407.000,A,3353.7511,N,09832.0251,W,0.02,86.33,300312,,,D*46
$GPGGA,023408.000,3353.7512,N,09832.0251,W,2,09,0.9,320.1,M,-23.7,M,2.8,0000*4E
$GPGSA,A,3,23,11,19,07,13,03,28,08,01,,,,1.8,0.9,1.6*39
$GPGSV,3,1,12,07,73,045,39,08,48,326,30,19,47,055,41,13,40,183,41*77
$GPGSV,3,2,12,28,33,271,25,11,33,122,33,01,16,136,26,03,13,043,28*79
$GPGSV,3,3,12,23,12,168,35,17,10,208,,26,09,323,,06,02,040,*73
$GPRMC,023408.000,A,3353.7512,N,09832.0251,W,0.03,114.45,300312,,,D*70
$GPGGA,023409.000,3353.7512,N,09832.0251,W,2,09,0.9,320.1,M,-23.7,M,0.8,0000*4D
$GPGSA,A,3,23,11,19,07,13,03,28,08,01,,,,1.8,0.9,1.6*39
$GPRMC,023409.000,A,3353.7512,N,09832.0251,W,0.11,90.22,300312,,,D*4E
$GPGGA,023410.000,3353.7512,N,09832.0251,W,2,09,0.9,320.1,M,-23.7,M,0.8,0000*45
$GPGSA,A,3,23,11,19,07,13,03,28,08,01,,,,1.8,0.9,1.6*39
$GPRMC,023410.000,A,3353.7512,N,09832.0251,W,0.08,75.53,300312,,,D*43
$GPGGA,023411.000,3353.7512,N,09832.0251,W,2,09,0.9,320.1,M,-23.7,M,0.8,0000*44
$GPGSA,A,3,23,11,19,07,13,03,28,08,01,,,,1.8,0.9,1.6*39
$GPRMC,023411.000,A,3353.7512,N,09832.0251,W,0.12,115.93,300312,,,D*72
$GPGGA,023412.000,3353.7512,N,09832.0251,W,2,09,0.9,320.1,M,-23.7,M,0.8,0000*47
$GPGSA,A,3,23,11,19,07,13,03,28,08,01,,,,1.8,0.9,1.6*39
$GPRMC,023412.000,A,3353.7512,N,09832.0251,W,0.11,127.09,300312,,,D*70
$GPGGA,023413.000,3353.7512,N,09832.0251,W,2,09,0.9,320.1,M,-23.7,M,1.8,0000*47
$GPGSA,A,3,23,11,19,07,13,03,28,08,01,,,,1.8,0.9,1.6*39
$GPGSV,3,1,12,07,73,045,39,08,48,326,30,19,47,055,41,13,40,183,41*77
$GPGSV,3,2,12,28,33,271,26,11,33,122,33,01,16,136,27,03,13,043,28*7B
$GPGSV,3,3,12,23,12,168,35,17,10,208,,26,09,323,,06,02,040,*73
$GPRMC,023413.000,A,3353.7512,N,09832.0251,W,0.11,118.79,300312,,,D*7A
$GPGGA,023414.000,3353.7512,N,09832.0251,W,2,09,0.9,320.1,M,-23.7,M,2.8,0000*43
$GPGSA,A,3,23,11,19,07,13,03,28,08,01,,,,1.8,0.9,1.6*39
$GPRMC,023414.000,A,3353.7512,N,09832.0251,W,0.13,120.05,300312,,,D*7F
$GPGGA,023415.000,3353.7512,N,09832.0251,W,2,09,0.9,320.1,M,-23.7,M,0.8,0000*40
$GPGSA,A,3,23,11,19,07,13,03,28,08,01,,,,1.8,0.9,1.6*39
$GPRMC,023415.000,A,3353.7512,N,09832.0251,W,0.08,161.22,300312,,,D*74
$GPGGA,023416.000,3353.7512,N,09832.0251,W,2,09,0.9,320.1,M,-23.7,M,0.8,0000*43
$GPGSA,A,3,23,11,19,07,13,03,28,08,01,,,,1.8,0.9,1.6*39
$GPRMC,023416.000,A,3353.7512,N,09832.0251,W,0.11,154.29,300312,,,D*72
$GPGGA,023417.000,3353.7512,N,09832.0251,W,2,09,0.9,320.2,M,-23.7,M,0.8,0000*41
$GPGSA,A,3,23,11,19,07,13,03,28,08,01,,,,1.8,0.9,1.6*39
$GPRMC,023417.000,A,3353.7512,N,09832.0251,W,0.06,117.52,300312,,,D*7E
$GPGGA,023418.000,3353.7512,N,09832.0251,W,2,09,0.9,320.2,M,-23.7,M,0.8,0000*4E
$GPGSA,A,3,23,11,19,07,13,03,28,08,01,,,,1.8,0.9,1.6*39
$GPGSV,3,1,12,07,73,046,40,08,48,326,29,19,47,055,41,13,39,183,41*7C
$GPGSV,3,2,12,28,33,271,26,11,33,122,33,01,16,136,28,03,13,043,28*74
$GPGSV,3,3,12,23,12,168,35,17,11,208,,26,10,323,,06,02,040,*7A
$GPRMC,023418.000,A,3353.7512,N,09832.0251,W,0.00,293.67,300312,,,D*7E
$GPGGA,023419.000,3353.7512,N,09832.0251,W,2,09,0.9,320.2,M,-23.7,M,1.8,0000*4E
$GPGSA,A,3,23,11,19,07,13,03,28,08,01,,,,1.8,0.9,1.6*39
$GPRMC,023419.000,A,3353.7512,N,09832.0251,W,0.10,114.34,300312,,,D*74
$GPGGA,023420.000,3353.7512,N,09832.0251,W,2,09,0.9,320.2,M,-23.7,M,0.8,0000*45
$GPGSA,A,3,23,11,19,07,13,03,28,08,01,,,,1.8,0.9,1.6*39
$GPRMC,023420.000,A,3353.7512,N,09832.0251,W,0.05,118.03,300312,,,D*72
$GPGGA,023421.000,3353.7512,N,09832.0252,W,2,09,0.9,320.1,M,-23.7,M,0.8,0000*44
$GPGSA,A,3,23,11,19,07,13,03,28,08,01,,,,1.8,0.9,1.6*39
$GPRMC,023421.000,A,3353.7512,N,09832.0252,W,0.11,93.41,300312,,,D*41
$GPGGA,023422.000,3353.7512,N,09832.0252,W,2,09,0.9,320.1,M,-23.7,M,0.8,0000*47
$GPGSA,A,3,23,11,19,07,13,03,28,08,01,,,,1.8,0.9,1.6*39
$GPRMC,023422.000,A,3353.7512,N,09832.0252,W,0.09,83.29,300312,,,D*44
$GPGGA,023423.000,3353.7513,N,09832.0252,W,2,09,0.9,320.1,M,-23.7,M,0.8,0000*47
$GPGSA,A,3,23,11,19,07,13,03,28,08,01,,,,1.8,0.9,1.6*39
$GPGSV,3,1,12,07,73,046,39,08,48,326,29,19,47,055,41,13,39,183,41*72
$GPGSV,3,2,12,28,33,271,26,11,33,122,33,01,16,136,28,03,13,043,28*74
$GPGSV,3,3,12,23,12,168,34,17,11,208,,26,10,323,,06,02,040,*7B
$GPRMC,023423.000,A,3353.7513,N,09832.0252,W,0.11,118.91,300312,,,D*7D
$GPGGA,023424.000,3353.7513,N,09832.0252,W,2,09,0.9,320.0,M,-23.7,M,1.8,0000*40
$GPGSA,A,3,23,11,19,07,13,03,28,08,01,,,,1.8,0.9,1.6*39
$GPRMC,023424.000,A,3353.7513,N,09832.0252,W,0.11,119.76,300312,,,D*72
$GPGGA,023425.000,3353.7513,N,09832.0252,W,2,09,0.9,320.0,M,-23.7,M,2.8,0000*42
$GPGSA,A,3,23,11,19,07,13,03,28,08,01,,,,1.8,0.9,1.6*39
$GPRMC,023425.000,A,3353.7513,N,09832.0252,W,0.07,127.45,300312,,,D*79
$GPGGA,023426.000,3353.7513,N,09832.0252,W,2,09,0.9,320.0,M,-23.7,M,0.8,0000*43
$GPGSA,A,3,23,11,19,07,13,03,28,08,01,,,,1.8,0.9,1.6*39
$GPRMC,023426.000,A,3353.7513,N,09832.0252,W,0.10,116.46,300312,,,D*7D
$GPGGA,023427.000,3353.7513,N,09832.0252,W,2,09,0.9,319.9,M,-23.7,M,0.8,0000*41
$GPGSA,A,3,23,11,19,07,13,03,28,08,01,,,,1.8,0.9,1.6*39
$GPRMC,023427.000,A,3353.7513,N,09832.0252,W,0.07,182.67,300312,,,D*74
$GPGGA,023428.000,3353.7513,N,09832.0252,W,2,09,0.9,319.9,M,-23.7,M,0.8,0000*4E
$GPGSA,A,3,23,11,19,07,13,03,28,08,01,,,,1.8,0.9,1.6*39
$GPGSV,3,1,12,07,73,046,39,08,48,326,29,19,47,055,41,13,39,183,41*72
$GPGSV,3,2,12,28,33,271,26,11,33,122,32,01,16,136,28,03,13,043,28*75
$GPGSV,3,3,12,23,12,168,34,17,11,208,,26,10,323,,06,02,040,*7B
$GPRMC,023428.000,A,3353.7513,N,09832.0252,W,0.10,152.25,300312,,,D*76
$GPGGA,023429.000,3353.7513,N,09832.0252,W,2,09,0.9,319.9,M,-23.7,M,0.8,0000*4F
$GPGSA,A,3,23,11,19,07,13,03,28,08,01,,,,1.8,0.9,1.6*39
$GPRMC,023429.000,A,3353.7513,N,09832.0252,W,0.01,82.56,300312,,,D*4F
$GPGGA,023430.000,3353.7513,N,09832.0253,W,2,09,0.9,320.0,M,-23.7,M,1.8,0000*44
$GPGSA,A,3,23,11,19,07,13,03,28,08,01,,,,1.8,0.9,1.6*39
$GPRMC,023430.000,A,3353.7513,N,09832.0253,W,0.02,98.76,300312,,,D*4C
$GPGGA,023431.000,3353.7513,N,09832.0253,W,2,09,0.9,320.0,M,-23.7,M,2.8,0000*46
$GPGSA,A,3,23,11,19,07,13,03,28,08,01,,,,1.8,0.9,1.6*39
$GPRMC,023431.000,A,3353.7513,N,09832.0253,W,0.03,110.44,300312,,,D*7C
$GPGGA,023432.000,3353.7513,N,09832.0253,W,2,09,0.9,320.0,M,-23.7,M,3.8,0000*44
$GPGSA,A,3,23,11,19,07,13,03,28,08,01,,,,1.8,0.9,1.6*39
$GPRMC,023432.000,A,3353.7513,N,09832.0253,W,0.03,114.16,300312,,,D*7C
$GPGGA,023433.000,3353.7513,N,09832.0253,W,2,09,0.9,320.0,M,-23.7,M,0.8,0000*46
$GPGSA,A,3,23,11,19,07,13,03,28,08,01,,,,1.8,0.9,1.6*39
$GPGSV,3,1,12,07,73,046,39,08,48,326,29,19,47,055,41,13,39,183,41*72
$GPGSV,3,2,12,28,33,271,26,11,33,122,32,01,16,136,28,03,13,043,28*75
$GPGSV,3,3,12,23,12,168,34,17,11,208,,26,10,323,,06,02,040,*7B
$GPRMC,023433.000,A,3353.7513,N,09832.0253,W,0.08,75.03,300312,,,D*44
$GPGGA,023434.000,3353.7513,N,09832.0253,W,2,09,0.9,320.0,M,-23.7,M,0.8,0000*41
$GPGSA,A,3,23,11,19,07,13,03,28,08,01,,,,1.8,0.9,1.6*39
$GPRMC,023434.000,A,3353.7513,N,09832.0253,W,0.06,65.08,300312,,,D*47
$GPGGA,023435.000,3353.7514,N,09832.0253,W,2,09,0.9,319.9,M,-23.7,M,0.8,0000*44
$GPGSA,A,3,23,11,19,07,13,03,28,08,01,,,,1.8,0.9,1.6*39
$GPRMC,023435.000,A,3353.7514,N,09832.0253,W,0.10,86.71,300312,,,D*45
$GPGGA,023436.000,3353.7514,N,09832.0253,W,2,09,0.9,319.9,M,-23.7,M,0.8,0000*47
$GPGSA,A,3,23,11,19,07,13,03,28,08,01,,,,1.8,0.9,1.6*39
$GPRMC,023436.000,A,3353.7514,N,09832.0253,W,0.13,90.39,300312,,,D*4E
$GPGGA,023437.000,3353.7514,N,09832.0252,W,2,09,0.9,319.9,M,-23.7,M,0.8,0000*47
$GPGSA,A,3,23,11,19,07,13,03,28,08,01,,,,1.8,0.9,1.6*39
$GPRMC,023437.000,A,3353.7514,N,09832.0252,W,0.15,95.35,300312,,,D*41
$GPGGA,023438.000,3353.7514,N,09832.0252,W,2,09,0.9,319.9,M,-23.7,M,1.8,0000*49
$GPGSA,A,3,23,11,19,07,13,03,28,08,01,,,,1.8,0.9,1.6*39
$GPGSV,3,1,12,07,73,046,39,08,48,326,29,19,47,055,41,13,39,183,41*72
$GPGSV,3,2,12,28,33,271,25,11,33,122,32,01,16,136,29,03,13,043,28*77
$GPGSV,3,3,12,23,12,168,34,17,11,208,,26,10,323,,06,02,040,*7B
$GPRMC,023438.000,A,3353.7514,N,09832.0252,W,0.16,96.65,300312,,,D*4B
$GPGGA,023439.000,3353.7514,N,09832.0252,W,2,09,0.9,319.8,M,-23.7,M,0.8,0000*48
$GPGSA,A,3,23,11,19,07,13,03,28,08,01,,,,1.8,0.9,1.6*39
$GPRMC,023439.000,A,3353.7514,N,09832.0252,W,0.06,116.12,300312,,,D*72
$GPGGA,023440.000,3353.7514,N,09832.0252,W,2,09,0.9,319.8,M,-23.7,M,0.8,0000*46
$GPGSA,A,3,23,11,19,07,13,03,28,08,01,,,,1.8,0.9,1.6*39
$GPRMC,023440.000,A,3353.7514,N,09832.0252,W,0.05,121.77,300312,,,D*78
$GPGGA,023441.000,3353.7514,N,09832.0252,W,2,09,0.9,320.1,M,-23.7,M,0.8,0000*44
$GPGSA,A,3,23,11,19,07,13,03,28,08,01,,,,1.8,0.9,1.6*39
$GPRMC,023441.000,A,3353.7514,N,09832.0252,W,0.08,156.73,300312,,,D*70
$GPGGA,023442.000,3353.7514,N,09832.0252,W,2,09,0.9,320.4,M,-23.7,M,1.8,0000*43
$GPGSA,A,3,23,11,19,07,13,03,28,08,01,,,,1.8,0.9,1.6*39
$GPRMC,023442.000,A,3353.7514,N,09832.0252,W,0.08,175.02,300312,,,D*74
$GPGGA,023443.000,3353.7513,N,09832.0252,W,2,09,0.9,320.7,M,-23.7,M,0.8,0000*47
$GPGSA,A,3,23,11,19,07,13,03,28,08,01,,,,1.8,0.9,1.6*39
$GPGSV,3,1,12,07,73,046,39,08,48,326,29,19,47,055,41,13,39,183,41*72
$GPGSV,3,2,12,28,33,271,25,11,33,122,31,01,16,136,29,03,13,043,28*74
$GPGSV,3,3,12,23,12,168,33,17,11,208,,26,10,323,,06,02,040,*7C
$GPRMC,023443.000,A,3353.7513,N,09832.0252,W,0.07,170.10,300312,,,D*7B
$GPGGA,023444.000,3353.7513,N,09832.0253,W,2,09,0.9,320.9,M,-23.7,M,1.8,0000*4E
$GPGSA,A,3,23,11,19,07,13,03,28,08,01,,,,1.8,0.9,1.6*39
$GPRMC,023444.000,A,3353.7513,N,09832.0253,W,0.06,190.69,300312,,,D*7C
$GPGGA,023445.000,3353.7513,N,09832.0253,W,2,09,0.9,321.1,M,-23.7,M,0.8,0000*47
$GPGSA,A,3,23,11,19,07,13,03,28,08,01,,,,1.8,0.9,1.6*39
$GPRMC,023445.000,A,3353.7513,N,09832.0253,W,0.08,119.45,300312,,,D*7C
$GPGGA,023446.000,3353.7514,N,09832.0253,W,2,09,0.9,321.2,M,-23.7,M,0.8,0000*40
$GPGSA,A,3,23,11,19,07,13,03,28,08,01,,,,1.8,0.9,1.6*39
$GPRMC,023446.000,A,3353.7514,N,09832.0253,W,0.04,146.08,300312,,,D*77
$GPGGA,023447.000,3353.7514,N,09832.0254,W,2,09,0.9,321.3,M,-23.7,M,0.8,0000*47
$GPGSA,A,3,23,11,19,07,13,03,28,08,01,,,,1.8,0.9,1.6*39
$GPRMC,023447.000,A,3353.7514,N,09832.0254,W,0.10,87.71,300312,,,D*46
$GPGGA,023448.000,3353.7514,N,09832.0254,W,2,09,0.9,321.4,M,-23.7,M,1.8,0000*4E
$GPGSA,A,3,23,11,19,07,13,03,28,08,01,,,,1.8,0.9,1.6*39
$GPGSV,3,1,12,07,73,046,39,08,48,326,28,19,47,055,41,13,39,183,42*70
$GPGSV,3,2,12,28,33,271,26,11,33,122,32,01,16,136,30,03,13,043,29*7D
$GPGSV,3,3,12,23,12,168,33,17,11,208,,26,10,323,,06,02,040,*7C
$GPRMC,023448.000,A,3353.7514,N,09832.0254,W,0.11,93.41,300312,,,D*4E
$GPGGA,023449.000,3353.7514,N,09832.0254,W,2,09,0.9,321.4,M,-23.7,M,0.8,0000*4E
$GPGSA,A,3,23,11,19,07,13,03,28,08,01,,,,1.8,0.9,1.6*39
$GPRMC,023449.000,A,3353.7514,N,09832.0254,W,0.10,87.77,300312,,,D*4E
$GPGGA,023450.000,3353.7515,N,09832.0254,W,2,09,0.9,321.4,M,-23.7,M,0.8,0000*47
$GPGSA,A,3,23,11,19,07,13,03,28,08,01,,,,1.8,0.9,1.6*39
$GPRMC,023450.000,A,3353.7515,N,09832.0254,W,0.08,78.63,300312,,,D*4B
$GPGGA,023451.000,3353.7515,N,09832.0254,W,2,09,0.9,321.4,M,-23.7,M,0.8,0000*46
$GPGSA,A,3,23,11,19,07,13,03,28,08,01,,,,1.8,0.9,1.6*39
$GPRMC,023451.000,A,3353.7515,N,09832.0254,W,0.02,100.89,300312,,,D*7A
$GPGGA,023452.000,3353.7515,N,09832.0255,W,2,09,0.9,321.5,M,-23.7,M,0.8,0000*45
$GPGSA,A,3,23,11,19,07,13,03,28,08,01,,,,1.8,0.9,1.6*39
$GPRMC,023452.000,A,3353.7515,N,09832.0255,W,0.05,114.07,300312,,,D*7C
$GPGGA,023453.000,3353.7515,N,09832.0255,W,2,09,0.9,321.6,M,-23.7,M,0.8,0000*47
$GPGSA,A,3,23,11,19,07,13,03,28,08,01,,,,1.8,0.9,1.6*39
$GPGSV,3,1,12,07,73,046,39,08,48,326,28,19,47,055,41,13,39,183,42*70
$GPGSV,3,2,12,28,33,271,26,11,33,122,32,01,16,136,30,03,13,043,29*7D
$GPGSV,3,3,12,23,12,168,33,17,11,208,,26,10,323,,06,02,040,*7C
$GPRMC,023453.000,A,3353.7515,N,09832.0255,W,0.05,202.76,300312,,,D*7F
$GPGGA,023454.000,3353.7515,N,09832.0256,W,2,09,0.9,321.7,M,-23.7,M,1.8,0000*43
$GPGSA,A,3,23,11,19,07,13,03,28,08,01,,,,1.8,0.9,1.6*39
$GPRMC,023454.000,A,3353.7515,N,09832.0256,W,0.05,217.65,300312,,,D*7D
$GPGGA,023455.000,3353.7516,N,09832.0256,W,2,09,0.9,321.7,M,-23.7,M,2.8,0000*42
$GPGSA,A,3,23,11,19,07,13,03,28,08,01,,,,1.8,0.9,1.6*39
$GPRMC,023455.000,A,3353.7516,N,09832.0256,W,0.05,208.28,300312,,,D*78
$GPGGA,023456.000,3353.7516,N,09832.0257,W,2,09,0.9,321.8,M,-23.7,M,3.8,0000*4E
$GPGSA,A,3,23,11,19,07,13,03,28,08,01,,,,1.8,0.9,1.6*39
$GPRMC,023456.000,A,3353.7516,N,09832.0257,W,0.05,201.01,300312,,,D*78
$GPGGA,023457.000,3353.7516,N,09832.0257,W,2,09,0.9,321.9,M,-23.7,M,0.8,0000*4D
$GPGSA,A,3,23,11,19,07,13,03,28,08,01,,,,1.8,0.9,1.6*39
$GPRMC,023457.000,A,3353.7516,N,09832.0257,W,0.04,142.46,300312,,,D*7F
$GPGGA,023458.000,3353.7516,N,09832.0258,W,2,09,0.9,322.0,M,-23.7,M,0.8,0000*47
$GPGSA,A,3,23,11,19,07,13,03,28,08,01,,,,1.8,0.9,1.6*39
$GPGSV,3,1,12,07,73,046,39,08,48,326,28,19,47,055,41,13,39,183,42*70
$GPGSV,3,2,12,28,33,271,27,11,33,122,32,01,16,136,30,03,13,043,29*7C
$GPGSV,3,3,12,23,12,168,32,17,11,208,,26,10,323,,06,02,040,*7D
$GPRMC,023458.000,A,3353.7516,N,09832.0258,W,0.02,102.59,300312,,,D*73
$GPGGA,023459.000,3353.7516,N,09832.0258,W,2,09,0.9,322.0,M,-23.7,M,0.8,0000*46
$GPGSA,A,3,23,11,19,07,13,03,28,08,01,,,,1.8,0.9,1.6*39
$GPRMC,023459.000,A,3353.7516,N,09832.0258,W,0.11,91.38,300312,,,D*4C
$GPGGA,023500.000,3353.7517,N,09832.0258,W,2,09,0.9,321.9,M,-23.7,M,1.8,0000*41
$GPGSA,A,3,23,11,19,07,13,03,28,08,01,,,,1.8,0.9,1.6*39
$GPRMC,023500.000,A,3353.7517,N,09832.0258,W,0.08,89.26,300312,,,D*4E
$GPGGA,023501.000,3353.7517,N,09832.0258,W,2,09,0.9,321.9,M,-23.7,M,2.8,0000*43
$GPGSA,A,3,23,11,19,07,13,03,28,08,01,,,,1.8,0.9,1.5*3A
$GPRMC,023501.000,A,3353.7517,N,09832.0258,W,0.10,83.18,300312,,,D*41
$GPGGA,023502.000,3353.7517,N,09832.0258,W,2,09,0.9,321.9,M,-23.7,M,3.8,0000*41
$GPGSA,A,3,23,11,19,07,13,03,28,08,01,,,,1.8,0.9,1.5*3A
$GPRMC,023502.000,A,3353.7517,N,09832.0258,W,0.10,91.57,300312,,,D*4A
$GPGGA,023503.000,3353.7517,N,09832.0258,W,2,09,0.9,321.9,M,-23.7,M,0.8,0000*43
$GPGSA,A,3,23,11,19,07,13,03,28,08,01,,,,1.8,0.9,1.5*3A
$GPGSV,3,1,12,07,73,046,39,08,48,326,28,19,47,055,41,13,39,183,42*70
$GPGSV,3,2,12,28,33,271,27,11,33,122,32,01,16,136,30,03,13,043,29*7C
$GPGSV,3,3,12,23,12,168,32,17,11,208,20,26,10,323,,06,02,040,*7F
$GPRMC,023503.000,A,3353.7517,N,09832.0258,W,0.03,120.00,300312,,,D*70
$GPGGA,023504.000,3353.7517,N,09832.0258,W,2,09,0.9,321.9,M,-23.7,M,0.8,0000*44
$GPGSA,A,3,23,11,19,07,13,03,28,08,01,,,,1.8,0.9,1.5*3A
$GPRMC,023504.000,A,3353.7517,N,09832.0258,W,0.07,103.61,300312,,,D*75
$GPGGA,023505.000,3353.7518,N,09832.0259,W,2,09,0.9,321.9,M,-23.7,M,0.8,0000*4B
$GPGSA,A,3,23,11,19,07,13,03,28,08,01,,,,1.8,0.9,1.5*3A
$GPRMC,023505.000,A,3353.7518,N,09832.0259,W,0.05,227.84,300312,,,D*76
$GPGGA,023506.000,3353.7518,N,09832.0259,W,2,09,0.9,321.9,M,-23.7,M,1.8,0000*49
$GPGSA,A,3,23,11,19,07,13,03,28,08,01,,,,1.8,0.9,1.5*3A
$GPRMC,023506.000,A,3353.7518,N,09832.0259,W,0.05,192.79,300312,,,D*7A
$GPGGA,023507.000,3353.7518,N,09832.0259,W,2,09,0.9,322.0,M,-23.7,M,2.8,0000*41
$GPGSA,A,3,23,11,19,07,13,03,28,08,01,,,,1.8,0.9,1.5*3A
$GPRMC,023507.000,A,3353.7518,N,09832.0259,W,0.03,213.09,300312,,,D*70
$GPGGA,023508.000,3353.7518,N,09832.0260,W,2,09,0.9,322.0,M,-23.7,M,3.8,0000*45
$GPGSA,A,3,23,11,19,07,13,03,28,08,01,,,,1.8,0.9,1.5*3A
$GPGSV,3,1,12,07,73,046,39,08,48,326,28,19,47,055,41,13,39,183,42*70
$GPGSV,3,2,12,28,33,271,26,11,33,122,32,01,16,136,30,03,13,043,28*7C
$GPGSV,3,3,12,23,12,168,31,17,11,208,20,26,10,323,,06,02,040,*7C
$GPRMC,023508.000,A,3353.7518,N,09832.0260,W,0.05,211.26,300312,,,D*7C
$GPGGA,023509.000,3353.7518,N,09832.0260,W,2,09,0.9,322.0,M,-23.7,M,0.8,0000*47
$GPGSA,A,3,23,11,19,07,13,03,28,08,01,,,,1.8,0.9,1.5*3A
$GPRMC,023509.000,A,3353.7518,N,09832.0260,W,0.02,118.35,300312,,,D*72
$GPGGA,023510.000,3353.7518,N,09832.0261,W,2,09,0.9,322.0,M,-23.7,M,0.8,0000*4E
$GPGSA,A,3,23,11,19,07,13,03,28,08,01,,,,1.8,0.9,1.5*3A
$GPRMC,023510.000,A,3353.7518,N,09832.0261,W,0.01,184.25,300312,,,D*7C
$GPGGA,023511.000,3353.7518,N,09832.0261,W,2,09,0.9,322.0,M,-23.7,M,0.8,0000*4F
$GPGSA,A,3,23,11,19,07,13,03,28,08,01,,,,1.8,0.9,1.5*3A
$GPRMC,023511.000,A,3353.7518,N,09832.0261,W,0.11,94.76,300312,,,D*4A
$GPGGA,023512.000,3353.7519,N,09832.0260,W,2,09,0.9,321.9,M,-23.7,M,1.8,0000*47
$GPGSA,A,3,23,11,19,07,13,03,28,08,01,,,,1.8,0.9,1.5*3A
$GPRMC,023512.000,A,3353.7519,N,09832.0260,W,0.09,88.05,300312,,,D*49
$GPGGA,023513.000,3353.7519,N,09832.0260,W,2,09,0.9,321.9,M,-23.7,M,2.8,0000*45
$GPGSA,A,3,23,11,19,07,13,03,28,08,01,,,,1.8,0.9,1.5*3A
$GPGSV,3,1,12,07,73,046,39,08,48,326,28,19,47,055,41,13,39,183,42*70
$GPGSV,3,2,12,28,33,271,26,11,33,122,31,01,16,136,30,03,13,043,28*7F
$GPGSV,3,3,12,23,12,168,31,17,11,208,20,26,10,323,,06,02,040,*7C
$GPRMC,023513.000,A,3353.7519,N,09832.0260,W,0.12,85.82,300312,,,D*40
$GPGGA,023514.000,3353.7519,N,09832.0260,W,2,09,0.9,321.9,M,-23.7,M,3.8,0000*43
$GPGSA,A,3,23,11,19,07,13,03,28,08,01,,,,1.8,0.9,1.5*3A
$GPRMC,023514.000,A,3353.7519,N,09832.0260,W,0.11,96.65,300312,,,D*4F
$GPGGA,023515.000,3353.7519,N,09832.0260,W,2,09,0.9,321.8,M,-23.7,M,0.8,0000*40
$GPGSA,A,3,23,11,19,07,13,03,28,08,01,,,,1.8,0.9,1.5*3A
$GPRMC,023515.000,A,3353.7519,N,09832.0260,W,0.06,112.28,300312,,,D*7C
$GPGGA,023516.000,3353.7519,N,09832.0260,W,2,09,0.9,321.8,M,-23.7,M,0.8,0000*43
$GPGSA,A,3,23,11,19,07,13,03,28,08,01,,,,1.8,0.9,1.5*3A
$GPRMC,023516.000,A,3353.7519,N,09832.0260,W,0.07,114.31,300312,,,D*70
$GPGGA,023517.000,3353.7519,N,09832.0260,W,2,09,0.9,321.9,M,-23.7,M,0.8,0000*43
$GPGSA,A,3,23,11,19,07,13,03,28,08,01,,,,1.8,0.9,1.5*3A
$GPRMC,023517.000,A,3353.7519,N,09832.0260,W,0.05,222.46,300312,,,D*75
$GPGGA,023518.000,3353.7519,N,09832.0260,W,2,09,0.9,321.9,M,-23.7,M,1.8,0000*4D
$GPGSA,A,3,23,11,19,07,13,03,28,08,01,,,,1.8,0.9,1.5*3A
$GPGSV,3,1,12,07,73,048,39,08,48,326,28,19,47,055,41,13,39,183,42*7E
$GPGSV,3,2,12,28,33,272,25,11,33,121,31,01,16,136,30,03,13,043,28*7C
$GPGSV,3,3,12,23,12,168,31,17,11,208,21,26,10,322,,06,02,040,*7C
$GPRMC,023518.000,A,3353.7519,N,09832.0260,W,0.08,261.37,300312,,,D*76
$GPGGA,023519.000,3353.7519,N,09832.0260,W,2,09,0.9,322.0,M,-23.7,M,2.8,0000*45
$GPGSA,A,3,23,11,19,07,13,03,28,08,01,,,,1.8,0.9,1.5*3A
$GPRMC,023519.000,A,3353.7519,N,09832.0260,W,0.06,156.20,300312,,,D*78
$GPGGA,023520.000,3353.7519,N,09832.0260,W,2,09,0.9,322.0,M,-23.7,M,3.8,0000*4E
$GPGSA,A,3,23,11,19,07,13,03,28,08,01,,,,1.8,0.9,1.5*3A
$GPRMC,023520.000,A,3353.7519,N,09832.0260,W,0.05,182.30,300312,,,D*79
$GPGGA,023521.000,3353.7519,N,09832.0261,W,2,09,0.9,322.1,M,-23.7,M,0.8,0000*4C
$GPGSA,A,3,23,11,19,07,13,03,28,08,01,,,,1.8,0.9,1.5*3A
$GPRMC,023521.000,A,3353.7519,N,09832.0261,W,0.05,127.13,300312,,,D*77
$GPGGA,023522.000,3353.7519,N,09832.0261,W,2,09,0.9,322.1,M,-23.7,M,0.8,0000*4F
$GPGSA,A,3,23,11,19,07,13,03,28,08,01,,,,1.8,0.9,1.5*3A
$GPRMC,023522.000,A,3353.7519,N,09832.0261,W,0.07,107.06,300312,,,D*70
$GPGGA,023523.000,3353.7519,N,09832.0261,W,2,09,0.9,322.0,M,-23.7,M,0.8,0000*4F
$GPGSA,A,3,23,11,19,07,13,03,28,08,01,,,,1.8,0.9,1.5*3A
$GPGSV,3,1,12,07,73,048,39,08,48,326,28,19,47,055,41,13,39,183,43*7F
$GPGSV,3,2,12,28,33,272,25,11,33,121,31,01,16,136,30,03,13,043,28*7C
$GPGSV,3,3,12,23,12,168,31,17,11,208,20,26,10,322,,06,02,040,*7D
$GPRMC,023523.000,A,3353.7519,N,09832.0261,W,0.10,320.20,300312,,,D*74
$GPGGA,023524.000,3353.7520,N,09832.0261,W,2,09,0.9,322.0,M,-23.7,M,0.8,0000*42
$GPGSA,A,3,23,11,19,07,13,03,28,08,01,,,,1.8,0.9,1.5*3A
$GPRMC,023524.000,A,3353.7520,N,09832.0261,W,0.11,324.10,300312,,,D*7F
$GPGGA,023525.000,3353.7520,N,09832.0261,W,2,09,0.9,322.0,M,-23.7,M,0.8,0000*43
$GPGSA,A,3,23,11,19,07,13,03,28,08,01,,,,1.8,0.9,1.5*3A
$GPRMC,023525.000,A,3353.7520,N,09832.0261,W,0.06,26.95,300312,,,D*44
$GPGGA,023526.000,3353.7520,N,09832.0261,W,2,09,0.9,322.0,M,-23.7,M,0.8,0000*40
$GPGSA,A,3,23,11,19,07,13,03,28,08,01,,,,1.8,0.9,1.5*3A
$GPRMC,023526.000,A,3353.7520,N,09832.0261,W,0.20,97.63,300312,,,D*40
$GPGGA,023527.000,3353.7521,N,09832.0261,W,2,09,0.9,322.0,M,-23.7,M,0.8,0000*40
$GPGSA,A,3,23,11,19,07,13,03,28,08,01,,,,1.8,0.9,1.5*3A
$GPRMC,023527.000,A,3353.7521,N,09832.0261,W,0.13,296.82,300312,,,D*7C
$GPGGA,023528.000,3353.7521,N,09832.0261,W,2,09,0.9,322.0,M,-23.7,M,0.8,0000*4F
$GPGSA,A,3,23,11,19,07,13,03,28,08,01,,,,1.8,0.9,1.5*3A
$GPGSV,3,1,12,07,73,048,39,08,48,326,27,19,47,055,41,13,39,183,43*70
$GPGSV,3,2,12,28,33,272,24,11,33,121,31,01,16,136,30,03,13,043,28*7D
$GPGSV,3,3,12,23,12,168,31,17,11,208,20,26,10,322,,06,02,040,*7D
$GPRMC,023528.000,A,3353.7521,N,09832.0261,W,0.15,113.98,300312,,,D*70
$GPGGA,023529.000,3353.7521,N,09832.0261,W,2,09,0.9,322.0,M,-23.7,M,0.8,0000*4E
$GPGSA,A,3,23,11,19,07,13,03,28,08,01,,,,1.8,0.9,1.5*3A
$GPRMC,023529.000,A,3353.7521,N,09832.0261,W,0.15,134.39,300312,,,D*7F
$GPGGA,023530.000,3353.7520,N,09832.0260,W,2,09,0.9,322.1,M,-23.7,M,1.8,0000*46
$GPGSA,A,3,23,11,19,07,13,03,28,08,01,,,,1.8,0.9,1.5*3A
$GPRMC,023530.000,A,3353.7520,N,09832.0260,W,0.15,135.28,300312,,,D*76
$GPGGA,023531.000,3353.7520,N,09832.0260,W,2,09,0.9,322.0,M,-23.7,M,0.8,0000*47
$GPGSA,A,3,23,11,19,07,13,03,28,08,01,,,,1.8,0.9,1.5*3A
$GPRMC,023531.000,A,3353.7520,N,09832.0260,W,0.06,231.27,300312,,,D*7D
$GPGGA,023532.000,3353.7520,N,09832.0261,W,2,09,0.9,322.0,M,-23.7,M,1.8,0000*44
$GPGSA,A,3,23,11,19,07,13,03,28,08,01,,,,1.8,0.9,1.5*3A
$GPRMC,023532.000,A,3353.7520,N,09832.0261,W,0.06,195.39,300312,,,D*7D
$GPGGA,023533.000,3353.7520,N,09832.0260,W,2,09,0.9,322.0,M,-23.7,M,0.8,0000*45
$GPGSA,A,3,23,11,19,07,13,03,28,08,01,,,,1.8,0.9,1.5*3A
$GPGSV,3,1,12,07,73,048,39,08,48,326,27,19,47,055,42,13,39,183,43*73
$GPGSV,3,2,12,28,33,272,23,11,33,121,32,01,16,136,31,03,13,043,28*78
$GPGSV,3,3,12,23,12,168,30,17,11,208,20,26,10,322,,06,02,040,*7C
$GPRMC,023533.000,A,3353.7520,N,09832.0260,W,0.19,122.16,300312,,,D*72
$GPGGA,023534.000,3353.7520,N,09832.0260,W,2,09,0.9,321.9,M,-23.7,M,0.8,0000*48
$GPGSA,A,3,23,11,19,07,13,03,28,08,01,,,,1.8,0.9,1.5*3A
$GPRMC,023534.000,A,3353.7520,N,09832.0260,W,0.13,124.04,300312,,,D*7A
$GPGGA,023535.000,3353.7520,N,09832.0260,W,2,09,0.9,321.9,M,-23.7,M,0.8,0000*49
$GPGSA,A,3,23,11,19,07,13,03,28,08,01,,,,1.8,0.9,1.5*3A
$GPRMC,023535.000,A,3353.7520,N,09832.0260,W,0.02,61.44,300312,,,D*4F
$GPGGA,023536.000,3353.7520,N,09832.0260,W,2,09,0.9,321.9,M,-23.7,M,1.8,0000*4B
$GPGSA,A,3,23,11,19,07,13,03,28,08,01,,,,1.8,0.9,1.5*3A
$GPRMC,023536.000,A,3353.7520,N,09832.0260,W,0.20,105.02,300312,,,D*7D
$GPGGA,023537.000,3353.7521,N,09832.0260,W,2,09,0.9,321.8,M,-23.7,M,0.8,0000*4B
$GPGSA,A,3,23,11,19,07,13,03,28,08,01,,,,1.8,0.9,1.5*3A
$GPRMC,023537.000,A,3353.7521,N,09832.0260,W,0.06,323.01,300312,,,D*7C
$GPGGA,023538.000,3353.7521,N,09832.0260,W,2,09,0.9,321.7,M,-23.7,M,0.8,0000*4B
$GPGSA,A,3,23,11,19,07,13,03,28,08,01,,,,1.8,0.9,1.5*3A
$GPGSV,3,1,12,07,73,048,39,08,48,326,26,19,47,055,42,13,39,183,43*72
$GPGSV,3,2,12,28,33,272,22,11,33,121,32,01,16,136,31,03,13,043,27*76
$GPGSV,3,3,12,23,12,168,30,17,11,208,20,26,10,322,,06,02,040,*7C
$GPRMC,023538.000,A,3353.7521,N,09832.0260,W,0.11,303.97,300312,,,D*78
$GPGGA,023539.000,3353.7522,N,09832.0261,W,2,09,0.9,321.6,M,-23.7,M,0.8,0000*49
$GPGSA,A,3,23,11,19,07,13,03,28,08,01,,,,1.8,0.9,1.5*3A
$GPRMC,023539.000,A,3353.7522,N,09832.0261,W,0.23,301.22,300312,,,D*76
$GPGGA,023540.000,3353.7522,N,09832.0262,W,2,09,0.9,321.4,M,-23.7,M,0.8,0000*46
$GPGSA,A,3,23,11,19,07,13,03,28,08,01,,,,1.8,0.9,1.5*3A
$GPRMC,023540.000,A,3353.7522,N,09832.0262,W,0.24,304.45,300312,,,D*78
$GPGGA,023541.000,3353.7523,N,09832.0262,W,2,09,0.9,321.4,M,-23.7,M,0.8,0000*46
$GPGSA,A,3,23,11,19,07,13,03,28,08,01,,,,1.8,0.9,1.5*3A
$GPRMC,023541.000,A,3353.7523,N,09832.0262,W,0.05,126.77,300312,,,D*78
$GPGGA,023542.000,3353.7522,N,09832.0262,W,2,09,0.9,321.4,M,-23.7,M,0.8,0000*44
$GPGSA,A,3,23,11,19,07,13,03,28,08,01,,,,1.8,0.9,1.5*3A
$GPRMC,023542.000,A,3353.7522,N,09832.0262,W,0.19,121.58,300312,,,D*7D
$GPGGA,023543.000,3353.7522,N,09832.0262,W,2,09,0.9,321.2,M,-23.7,M,1.8,0000*42
$GPGSA,A,3,23,11,19,07,13,03,28,08,01,,,,1.8,0.9,1.5*3A
$GPGSV,3,1,12,07,73,048,39,08,48,326,25,19,47,055,42,13,39,183,42*70
$GPGSV,3,2,12,28,33,272,22,11,33,121,33,01,16,136,32,03,13,043,27*74
$GPGSV,3,3,12,23,12,168,29,17,11,208,19,26,10,322,,06,02,040,*7E
$GPRMC,023543.000,A,3353.7522,N,09832.0262,W,0.08,280.80,300312,,,D*71
$GPGGA,023544.000,3353.7523,N,09832.0262,W,2,09,0.9,321.1,M,-23.7,M,2.8,0000*44
$GPGSA,A,3,23,11,19,07,13,03,28,08,01,,,,1.8,0.9,1.5*3A
$GPRMC,023544.000,A,3353.7523,N,09832.0262,W,0.02,227.18,300312,,,D*71
$GPGGA,023545.000,3353.7523,N,09832.0262,W,2,09,0.9,321.1,M,-23.7,M,0.8,0000*47
$GPGSA,A,3,23,11,19,07,13,03,28,08,01,,,,1.8,0.9,1.5*3A
$GPRMC,023545.000,A,3353.7523,N,09832.0262,W,0.13,123.33,300312,,,D*7E
$GPGGA,023546.000,3353.7522,N,09832.0262,W,2,09,0.9,321.1,M,-23.7,M,0.8,0000*45
$GPGSA,A,3,23,11,19,07,13,03,28,08,01,,,,1.8,0.9,1.5*3A
$GPRMC,023546.000,A,3353.7522,N,09832.0262,W,0.19,121.09,300312,,,D*7D
$GPGGA,023547.000,3353.7522,N,09832.0261,W,2,09,0.9,321.2,M,-23.7,M,0.8,0000*44
$GPGSA,A,3,23,11,19,07,13,03,28,08,01,,,,1.8,0.9,1.5*3A
$GPGSV,3,1,12,07,73,049,39,08,49,326,25,19,46,054,42,13,39,183,42*70
$GPGSV,3,2,12,28,34,272,22,11,33,121,34,01,16,135,32,03,12,043,27*76
$GPGSV,3,3,12,23,11,168,29,17,11,208,20,26,10,322,,06,02,040,*77
$GPRMC,023547.000,A,3353.7522,N,09832.0261,W,0.27,109.83,300312,,,D*7A
$GPGGA,023548.000,3353.7522,N,09832.0261,W,2,09,0.9,321.2,M,-23.7,M,1.8,0000*4A
$GPGSA,A,3,23,11,19,07,13,03,28,08,01,,,,1.8,0.9,1.5*3A
$GPGSV,3,1,12,07,73,049,39,08,49,326,25,19,46,054,42,13,39,183,42*70
$GPGSV,3,2,12,28,34,272,23,11,33,121,34,01,16,135,32,03,12,043,27*77
$GPGSV,3,3,12,23,11,168,29,17,11,208,20,26,10,322,,06,02,040,*77
$GPRMC,023548.000,A,3353.7522,N,09832.0261,W,0.06,88.18,300312,,,D*4C
$GPGGA,023549.000,3353.7522,N,09832.0261,W,2,09,0.9,321.2,M,-23.7,M,2.8,0000*48
$GPGSA,A,3,23,11,19,07,13,03,28,08,01,,,,1.8,0.9,1.5*3A
$GPRMC,023549.000,A,3353.7522,N,09832.0261,W,0.17,103.75,300312,,,D*74
$GPGGA,023550.000,3353.7522,N,09832.0260,W,2,09,0.9,321.2,M,-23.7,M,3.8,0000*40
$GPGSA,A,3,23,11,19,07,13,03,28,08,01,,,,1.8,0.9,1.5*3A
$GPRMC,023550.000,A,3353.7522,N,09832.0260,W,0.03,78.42,300312,,,D*41
$GPGGA,023551.000,3353.7523,N,09832.0261,W,2,09,0.9,321.2,M,-23.7,M,0.8,0000*42
$GPGSA,A,3,23,11,19,07,13,03,28,08,01,,,,1.8,0.9,1.5*3A
$GPRMC,023551.000,A,3353.7523,N,09832.0261,W,0.07,316.41,300312,,,D*7C
$GPGGA,023552.000,3353.7523,N,09832.0261,W,2,09,0.9,321.2,M,-23.7,M,0.8,0000*41
$GPGSA,A,3,23,11,19,07,13,03,28,08,01,,,,1.8,0.9,1.5*3A
$GPRMC,023552.000,A,3353.7523,N,09832.0261,W,0.08,96.39,300312,,,D*44
$GPGGA,023553.000,3353.7523,N,09832.0261,W,2,09,0.9,321.2,M,-23.7,M,0.8,0000*40
$GPGSA,A,3,23,11,19,07,13,03,28,08,01,,,,1.8,0.9,1.5*3A
$GPGSV,3,1,12,07,73,049,39,08,49,326,25,19,46,054,42,13,39,183,42*70
$GPGSV,3,2,12,28,34,272,24,11,33,121,34,01,16,135,32,03,12,043,26*71
$GPGSV,3,3,12,23,11,168,29,17,11,208,20,26,10,322,,06,02,040,*77
$GPRMC,023553.000,A,3353.7523,N,09832.0261,W,0.05,243.85,300312,,,D*75
$GPGGA,023554.000,3353.7523,N,09832.0262,W,2,09,0.9,321.1,M,-23.7,M,1.8,0000*46
$GPGSA,A,3,23,11,19,07,13,03,28,08,01,,,,1.8,0.9,1.5*3A
$GPRMC,023554.000,A,3353.7523,N,09832.0262,W,0.14,283.40,300312,,,D*74
$GPGGA,023555.000,3353.7523,N,09832.0262,W,2,09,0.9,321.1,M,-23.7,M,0.8,0000*46
$GPGSA,A,3,23,11,19,07,13,03,28,08,01,,,,1.8,0.9,1.5*3A
$GPRMC,023555.000,A,3353.7523,N,09832.0262,W,0.10,130.58,300312,,,D*73
$GPGGA,023556.000,3353.7523,N,09832.0262,W,2,09,0.9,321.1,M,-23.7,M,1.8,0000*44
$GPGSA,A,3,23,11,19,07,13,03,28,08,01,,,,1.8,0.9,1.5*3A
$GPRMC,023556.000,A,3353.7523,N,09832.0262,W,0.08,267.54,300312,,,D*74
$GPGGA,023557.000,3353.7523,N,09832.0262,W,2,09,0.9,321.1,M,-23.7,M,0.8,0000*44
$GPGSA,A,3,23,11,19,07,13,03,28,08,01,,,,1.8,0.9,1.5*3A
$GPRMC,023557.000,A,3353.7523,N,09832.0262,W,0.15,116.73,300312,,,D*79
$GPGGA,023558.000,3353.7523,N,09832.0262,W,2,09,0.9,321.0,M,-23.7,M,0.8,0000*4A
$GPGSA,A,3,23,11,19,07,13,03,28,08,01,,,,1.8,0.9,1.5*3A
$GPGSV,3,1,12,07,73,049,39,08,49,326,25,19,46,054,42,13,39,183,42*70
$GPGSV,3,2,12,28,34,272,24,11,33,121,34,01,16,135,32,03,12,043,26*71
$GPGSV,3,3,12,23,11,168,29,17,11,208,19,26,10,322,,06,02,040,*7D
$GPRMC,023558.000,A,3353.7523,N,09832.0262,W,0.01,128.11,300312,,,D*7A
$GPGGA,023559.000,3353.7523,N,09832.0262,W,2,09,0.9,321.0,M,-23.7,M,0.8,0000*4B
$GPGSA,A,3,23,11,19,07,13,03,28,08,01,,,,1.8,0.9,1.5*3A
$GPRMC,023559.000,A,3353.7523,N,09832.0262,W,0.20,98.38,300312,,,D*49
$GPGGA,023600.000,3353.7523,N,09832.0261,W,2,09,0.9,321.0,M,-23.7,M,1.8,0000*46
$GPGSA,A,3,23,11,19,07,13,03,28,08,01,,,,1.8,0.9,1.5*3A
$GPRMC,023600.000,A,3353.7523,N,09832.0261,W,0.28,103.42,300312,,,D*73
$GPGGA,023601.000,3353.7524,N,09832.0261,W,2,09,0.9,321.0,M,-23.7,M,2.8,0000*43
$GPGSA,A,3,23,11,19,07,13,03,28,08,01,,,,1.8,0.9,1.5*3A
$GPRMC,023601.000,A,3353.7524,N,09832.0261,W,0.16,94.30,300312,,,D*42
$GPGGA,023602.000,3353.7524,N,09832.0261,W,2,09,0.9,321.0,M,-23.7,M,0.8,0000*42
$GPGSA,A,3,23,11,19,07,13,03,28,08,01,,,,1.8,0.9,1.5*3A
$GPRMC,023602.000,A,3353.7524,N,09832.0261,W,0.15,93.85,300312,,,D*4B
$GPGGA,023603.000,3353.7524,N,09832.0261,W,2,09,0.9,320.9,M,-23.7,M,0.8,0000*4B
$GPGSA,A,3,23,11,19,07,13,03,28,08,01,,,,1.8,0.9,1.5*3A
$GPGSV,3,1,12,07,73,049,39,08,49,326,26,19,46,054,42,13,39,183,42*73
$GPGSV,3,2,12,28,34,272,24,11,33,121,34,01,16,135,32,03,12,043,26*71
$GPGSV,3,3,12,23,11,168,29,17,11,208,18,26,10,322,,06,02,040,*7C
$GPRMC,023603.000,A,3353.7524,N,09832.0261,W,0.05,111.11,300312,,,D*7D
$GPGGA,023604.000,3353.7524,N,09832.0262,W,2,09,0.9,320.8,M,-23.7,M,0.8,0000*4E
$GPGSA,A,3,23,11,19,07,13,03,28,08,01,,,,1.8,0.9,1.5*3A
$GPRMC,023604.000,A,3353.7524,N,09832.0262,W,0.02,88.25,300312,,,D*48
$GPGGA,023605.000,3353.7525,N,09832.0262,W,2,09,0.9,320.7,M,-23.7,M,0.8,0000*41
$GPGSA,A,3,23,11,19,07,13,03,28,08,01,,,,1.8,0.9,1.5*3A
$GPRMC,023605.000,A,3353.7525,N,09832.0262,W,0.09,159.48,300312,,,D*75
$GPGGA,023606.000,3353.7525,N,09832.0263,W,2,09,0.9,320.5,M,-23.7,M,1.8,0000*40
$GPGSA,A,3,23,11,19,07,13,03,28,08,01,,,,1.8,0.9,1.5*3A
$GPRMC,023606.000,A,3353.7525,N,09832.0263,W,0.06,222.42,300312,,,D*7D
$GPGGA,023607.000,3353.7525,N,09832.0264,W,2,09,0.9,320.4,M,-23.7,M,2.8,0000*44
$GPGSA,A,3,23,11,19,07,13,03,28,08,01,,,,1.8,0.9,1.5*3A
$GPRMC,023607.000,A,3353.7525,N,09832.0264,W,0.24,281.43,300312,,,D*73
$GPGGA,023608.000,3353.7526,N,09832.0265,W,2,09,0.9,320.2,M,-23.7,M,3.8,0000*4E
$GPGSA,A,3,23,11,19,07,13,03,28,08,01,,,,1.8,0.9,1.5*3A
$GPGSV,3,1,12,07,73,049,39,08,49,326,27,19,46,054,42,13,39,183,42*72
$GPGSV,3,2,12,28,34,272,24,11,33,121,34,01,16,135,32,03,12,043,26*71
$GPGSV,3,3,12,23,11,168,30,17,11,208,18,26,10,322,,06,02,040,*74
$GPRMC,023608.000,A,3353.7526,N,09832.0265,W,0.29,283.64,300312,,,D*74
$GPGGA,023609.000,3353.7526,N,09832.0266,W,2,09,0.9,320.0,M,-23.7,M,0.8,0000*4D
$GPGSA,A,3,23,11,19,07,13,03,28,08,01,,,,1.8,0.9,1.5*3A
$GPRMC,023609.000,A,3353.7526,N,09832.0266,W,0.07,277.05,300312,,,D*76
$GPGGA,023610.000,3353.7526,N,09832.0267,W,2,09,0.9,319.9,M,-23.7,M,0.8,0000*47
$GPGSA,A,3,23,11,19,07,13,03,28,08,01,,,,1.8,0.9,1.5*3A
$GPRMC,023610.000,A,3353.7526,N,09832.0267,W,0.09,277.76,300312,,,D*75
$GPGGA,023611.000,3353.7526,N,09832.0267,W,2,09,0.9,319.8,M,-23.7,M,0.8,0000*47
$GPGSA,A,3,23,11,19,07,13,03,28,08,01,,,,1.8,0.9,1.5*3A
$GPRMC,023611.000,A,3353.7526,N,09832.0267,W,0.08,316.57,300312,,,D*70
$GPGGA,023612.000,3353.7526,N,09832.0267,W,2,09,0.9,319.8,M,-23.7,M,0.8,0000*44
$GPGSA,A,3,23,11,19,07,13,03,28,08,01,,,,1.8,0.9,1.5*3A
$GPRMC,023612.000,A,3353.7526,N,09832.0267,W,0.14,101.72,300312,,,D*7D
$GPGGA,023613.000,3353.7526,N,09832.0266,W,2,09,0.9,319.8,M,-23.7,M,0.8,0000*44
$GPGSA,A,3,23,11,19,07,13,03,28,08,01,,,,1.8,0.9,1.5*3A
$GPGSV,3,1,12,07,73,049,39,08,49,326,28,19,46,054,42,13,39,183,42*7D
$GPGSV,3,2,12,28,34,272,24,11,33,121,33,01,16,135,32,03,12,043,26*76
$GPGSV,3,3,12,23,11,168,30,17,11,208,18,26,10,322,,06,02,040,*74
$GPRMC,023613.000,A,3353.7526,N,09832.0266,W,0.21,104.38,300312,,,D*70
$GPGGA,023614.000,3353.7526,N,09832.0266,W,2,09,0.9,319.8,M,-23.7,M,0.8,0000*43
$GPGSA,A,3,23,11,19,07,13,03,28,08,01,,,,1.8,0.9,1.5*3A
$GPRMC,023614.000,A,3353.7526,N,09832.0266,W,0.13,101.96,300312,,,D*77
$GPGGA,023615.000,3353.7526,N,09832.0265,W,2,09,0.9,319.9,M,-23.7,M,0.8,0000*40
$GPGSA,A,3,23,11,19,07,13,03,28,08,01,,,,1.8,0.9,1.5*3A
$GPRMC,023615.000,A,3353.7526,N,09832.0265,W,0.24,101.12,300312,,,D*7D
$GPGGA,023616.000,3353.7526,N,09832.0265,W,2,09,0.9,319.9,M,-23.7,M,0.8,0000*43
$GPGSA,A,3,23,11,19,07,13,03,28,08,01,,,,1.8,0.9,1.5*3A
$GPRMC,023616.000,A,3353.7526,N,09832.0265,W,0.14,97.71,300312,,,D*46
$GPGGA,023617.000,3353.7527,N,09832.0265,W,2,09,0.9,319.8,M,-23.7,M,0.8,0000*42
$GPGSA,A,3,23,11,19,07,13,03,28,08,01,,,,1.8,0.9,1.5*3A
$GPRMC,023617.000,A,3353.7527,N,09832.0265,W,0.10,123.53,300312,,,D*7C
$GPGGA,023618.000,3353.7527,N,09832.0265,W,2,09,0.9,319.7,M,-23.7,M,0.8,0000*42
$GPGSA,A,3,23,11,19,07,13,03,28,08,01,,,,1.8,0.9,1.5*3A
$GPGSV,3,1,12,07,73,050,39,08,49,326,29,19,46,054,42,13,38,183,42*75
$GPGSV,3,2,12,28,34,272,24,11,33,121,33,01,16,135,33,03,12,043,26*77
$GPGSV,3,3,12,17,11,208,17,23,11,168,30,26,10,322,,06,02,040,*7B
$GPRMC,023618.000,A,3353.7527,N,09832.0265,W,0.05,286.17,300312,,,D*7B
$GPGGA,023619.000,3353.7527,N,09832.0265,W,2,09,0.9,319.7,M,-23.7,M,1.8,0000*42
$GPGSA,A,3,23,11,19,07,13,03,28,08,01,,,,1.8,0.9,1.5*3A
$GPRMC,023619.000,A,3353.7527,N,09832.0265,W,0.05,254.98,300312,,,D*72
$GPGGA,023620.000,3353.7527,N,09832.0266,W,2,09,0.9,319.6,M,-23.7,M,2.8,0000*49
$GPGSA,A,3,23,11,19,07,13,03,28,08,01,,,,1.8,0.9,1.5*3A
$GPRMC,023620.000,A,3353.7527,N,09832.0266,W,0.07,121.19,300312,,,D*71
$GPGGA,023621.000,3353.7527,N,09832.0266,W,2,09,0.9,319.6,M,-23.7,M,0.8,0000*4A
$GPGSA,A,3,23,11,19,07,13,03,28,08,01,,,,1.8,0.9,1.5*3A
$GPRMC,023621.000,A,3353.7527,N,09832.0266,W,0.06,204.40,300312,,,D*79
$GPGGA,023622.000,3353.7527,N,09832.0266,W,2,09,0.9,319.5,M,-23.7,M,0.8,0000*4A
$GPGSA,A,3,23,11,19,07,13,03,28,08,01,,,,1.8,0.9,1.5*3A
$GPRMC,023622.000,A,3353.7527,N,09832.0266,W,0.08,154.66,300312,,,D*76
$GPGGA,023623.000,3353.7527,N,09832.0266,W,2,09,0.9,319.5,M,-23.7,M,0.8,0000*4B
$GPGSA,A,3,23,11,19,07,13,03,28,08,01,,,,1.8,0.9,1.5*3A
$GPGSV,3,1,12,07,73,050,39,08,49,326,29,19,46,054,42,13,38,183,42*75
$GPGSV,3,2,12,28,34,272,25,11,33,121,32,01,16,135,33,03,12,043,26*77
$GPGSV,3,3,12,17,11,208,16,23,11,168,30,26,10,322,,06,02,040,*7A
$GPRMC,023623.000,A,3353.7527,N,09832.0266,W,0.03,122.21,300312,,,D*7E
$GPGGA,023624.000,3353.7527,N,09832.0266,W,2,09,0.9,319.4,M,-23.7,M,1.8,0000*4C
$GPGSA,A,3,23,11,19,07,13,03,28,08,01,,,,1.8,0.9,1.5*3A
$GPRMC,023624.000,A,3353.7527,N,09832.0266,W,0.05,116.81,300312,,,D*72
$GPGGA,023625.000,3353.7527,N,09832.0266,W,2,09,0.9,319.4,M,-23.7,M,2.8,0000*4E
$GPGSA,A,3,23,11,19,07,13,03,28,08,01,,,,1.8,0.9,1.5*3A
$GPRMC,023625.000,A,3353.7527,N,09832.0266,W,0.05,120.55,300312,,,D*7F
$GPGGA,023626.000,3353.7527,N,09832.0266,W,2,09,0.9,319.4,M,-23.7,M,3.8,0000*4C
$GPGSA,A,3,23,11,19,07,13,03,28,08,01,,,,1.8,0.9,1.5*3A
$GPRMC,023626.000,A,3353.7527,N,09832.0266,W,0.08,112.70,300312,,,D*77
$GPGGA,023627.000,3353.7527,N,09832.0266,W,2,09,0.9,319.4,M,-23.7,M,0.8,0000*4E
$GPGSA,A,3,23,11,19,07,13,03,28,08,01,,,,1.8,0.9,1.5*3A
$GPRMC,023627.000,A,3353.7527,N,09832.0266,W,0.09,88.85,300312,,,D*4F
$GPGGA,023628.000,3353.7528,N,09832.0266,W,2,09,0.9,319.4,M,-23.7,M,0.8,0000*4E
$GPGSA,A,3,23,11,19,07,13,03,28,08,01,,,,1.8,0.9,1.5*3A
$GPGSV,3,1,12,07,73,050,39,08,49,326,29,19,46,054,42,13,38,183,42*75
$GPGSV,3,2,12,28,34,272,25,11,33,121,32,01,16,135,33,03,12,043,26*77
$GPGSV,3,3,12,17,11,208,14,23,11,168,31,26,10,322,,06,02,040,*79
$GPRMC,023628.000,A,3353.7528,N,09832.0266,W,0.10,88.29,300312,,,D*41
$GPGGA,023629.000,3353.7528,N,09832.0266,W,2,09,0.9,319.3,M,-23.7,M,0.8,0000*48
$GPGSA,A,3,23,11,19,07,13,03,28,08,01,,,,1.8,0.9,1.5*3A
$GPRMC,023629.000,A,3353.7528,N,09832.0266,W,0.05,115.72,300312,,,D*7F
$GPGGA,023630.000,3353.7528,N,09832.0266,W,2,09,0.9,319.3,M,-23.7,M,1.8,0000*41
$GPGSA,A,3,23,11,19,07,13,03,28,08,01,,,,1.8,0.9,1.5*3A
$GPRMC,023630.000,A,3353.7528,N,09832.0266,W,0.08,119.92,300312,,,D*78
$GPGGA,023631.000,3353.7528,N,09832.0266,W,2,09,0.9,319.3,M,-23.7,M,2.8,0000*43
$GPGSA,A,3,23,11,19,07,13,03,28,08,01,,,,1.8,0.9,1.5*3A
$GPRMC,023631.000,A,3353.7528,N,09832.0266,W,0.06,128.32,300312,,,D*7F
$GPGGA,023632.000,3353.7528,N,09832.0266,W,2,09,0.9,319.2,M,-23.7,M,3.8,0000*40
$GPGSA,A,3,23,11,19,07,13,03,28,08,01,,,,1.8,0.9,1.5*3A
$GPRMC,023632.000,A,3353.7528,N,09832.0266,W,0.06,111.45,300312,,,D*76
$GPGGA,023633.000,3353.7528,N,09832.0267,W,2,09,0.9,319.1,M,-23.7,M,0.8,0000*40
$GPGSA,A,3,23,11,19,07,13,03,28,08,01,,,,1.8,0.9,1.5*3A
$GPGSV,3,1,12,07,73,050,39,08,49,326,29,19,46,054,41,13,38,183,42*76
$GPGSV,3,2,12,28,34,272,25,11,33,121,32,01,16,135,33,03,12,043,25*74
$GPGSV,3,3,12,17,11,208,,23,11,168,31,26,10,322,,06,02,040,*7C
$GPRMC,023633.000,A,3353.7528,N,09832.0267,W,0.07,179.22,300312,,,D*78
$GPGGA,023634.000,3353.7528,N,09832.0267,W,2,09,0.9,319.1,M,-23.7,M,0.8,0000*47
$GPGSA,A,3,23,11,19,07,13,03,28,08,01,,,,1.8,0.9,1.5*3A
$GPRMC,023634.000,A,3353.7528,N,09832.0267,W,0.07,164.51,300312,,,D*77
$GPGGA,023635.000,3353.7528,N,09832.0267,W,2,09,0.9,319.0,M,-23.7,M,0.8,0000*47
$GPGSA,A,3,23,11,19,07,13,03,28,08,01,,,,1.8,0.9,1.5*3A
$GPRMC,023635.000,A,3353.7528,N,09832.0267,W,0.07,116.13,300312,,,D*75
$GPGGA,023636.000,3353.7528,N,09832.0267,W,2,09,0.9,319.0,M,-23.7,M,0.8,0000*44
$GPGSA,A,3,23,11,19,07,13,03,28,08,01,,,,1.8,0.9,1.5*3A
$GPRMC,023636.000,A,3353.7528,N,09832.0267,W,0.07,117.14,300312,,,D*70
$GPGGA,023637.000,3353.7528,N,09832.0267,W,2,09,0.9,319.0,M,-23.7,M,1.8,0000*44
$GPGSA,A,3,23,11,19,07,13,03,28,08,01,,,,1.8,0.9,1.5*3A
$GPRMC,023637.000,A,3353.7528,N,09832.0267,W,0.02,134.12,300312,,,D*73
$GPGGA,023638.000,3353.7528,N,09832.0267,W,2,09,0.9,319.0,M,-23.7,M,0.8,0000*4A
$GPGSA,A,3,23,11,19,07,13,03,28,08,01,,,,1.8,0.9,1.5*3A
$GPGSV,3,1,12,07,73,050,39,08,49,326,29,19,46,054,41,13,38,183,42*76
$GPGSV,3,2,12,28,34,272,24,11,33,121,32,01,16,135,33,03,12,043,25*75
$GPGSV,3,3,12,17,11,208,,23,11,168,31,26,10,322,,06,02,040,*7C
$GPRMC,023638.000,A,3353.7528,N,09832.0267,W,0.01,154.85,300312,,,D*77
$GPGGA,023639.000,3353.7529,N,09832.0268,W,2,09,0.9,318.9,M,-23.7,M,0.8,0000*4D
$GPGSA,A,3,23,11,19,07,13,03,28,08,01,,,,1.8,0.9,1.5*3A
$GPRMC,023639.000,A,3353.7529,N,09832.0268,W,0.12,321.80,300312,,,D*7F
$GPGGA,023640.000,3353.7529,N,09832.0268,W,2,09,0.9,318.7,M,-23.7,M,0.8,0000*4D
$GPGSA,A,3,23,11,19,07,13,03,28,08,01,,,,1.8,0.9,1.5*3A
$GPRMC,023640.000,A,3353.7529,N,09832.0268,W,0.10,340.70,300312,,,D*7B
$GPGGA,023641.000,3353.7530,N,09832.0269,W,2,09,0.9,318.6,M,-23.7,M,0.8,0000*44
$GPGSA,A,3,23,11,19,07,13,03,28,08,01,,,,1.8,0.9,1.5*3A
$GPRMC,023641.000,A,3353.7530,N,09832.0269,W,0.16,294.16,300312,,,D*7D
$GPGGA,023642.000,3353.7530,N,09832.0270,W,2,09,0.9,318.4,M,-23.7,M,1.8,0000*4C
$GPGSA,A,3,23,11,19,07,13,03,28,08,01,,,,1.8,0.9,1.5*3A
$GPRMC,023642.000,A,3353.7530,N,09832.0270,W,0.19,302.90,300312,,,D*79
$GPGGA,023643.000,3353.7531,N,09832.0270,W,2,09,0.9,318.3,M,-23.7,M,2.8,0000*48
$GPGSA,A,3,23,11,19,07,13,03,28,08,01,,,,1.8,0.9,1.5*3A
$GPGSV,3,1,12,07,73,050,39,08,49,326,29,19,46,054,41,13,38,183,42*76
$GPGSV,3,2,12,28,34,272,23,11,33,121,32,01,16,135,33,03,12,043,25*72
$GPGSV,3,3,12,17,11,208,,23,11,168,32,26,10,322,,06,02,040,*7F
$GPRMC,023643.000,A,3353.7531,N,09832.0270,W,0.08,98.33,300312,,,D*40
$GPGGA,023644.000,3353.7531,N,09832.0270,W,2,09,0.9,318.2,M,-23.7,M,3.8,0000*4F
$GPGSA,A,3,23,11,19,07,13,03,28,08,01,,,,1.8,0.9,1.5*3A
$GPRMC,023644.000,A,3353.7531,N,09832.0270,W,0.10,295.02,300312,,,D*73
$GPGGA,023645.000,3353.7531,N,09832.0270,W,2,09,0.9,318.2,M,-23.7,M,0.8,0000*4D
$GPGSA,A,3,23,11,19,07,13,03,28,08,01,,,,1.8,0.9,1.5*3A
$GPRMC,023645.000,A,3353.7531,N,09832.0270,W,0.10,137.41,300312,,,D*7E
$GPGGA,023646.000,3353.7531,N,09832.0270,W,2,09,0.9,318.2,M,-23.7,M,0.8,0000*4E
$GPGSA,A,3,23,11,19,07,13,03,28,08,01,,,,1.8,0.9,1.5*3A
$GPRMC,023646.000,A,3353.7531,N,09832.0270,W,0.10,147.29,300312,,,D*74
$GPGGA,023647.000,3353.7531,N,09832.0271,W,2,09,0.9,318.1,M,-23.7,M,0.8,0000*4D
$GPGSA,A,3,23,11,19,07,13,03,28,08,01,,,,1.8,0.9,1.5*3A
$GPRMC,023647.000,A,3353.7531,N,09832.0271,W,0.11,295.17,300312,,,D*74
$GPGGA,023648.000,3353.7531,N,09832.0271,W,2,09,0.9,318.1,M,-23.7,M,1.8,0000*43
$GPGSA,A,3,23,11,19,07,13,03,28,08,01,,,,1.8,0.9,1.5*3A
$GPGSV,3,1,12,07,73,050,39,08,49,327,29,19,46,054,40,13,38,183,42*76
$GPGSV,3,2,12,28,34,272,22,11,33,121,32,01,17,135,33,03,12,043,24*73
$GPGSV,3,3,12,17,12,208,,23,11,168,32,26,11,322,,06,01,040,*7E
$GPRMC,023648.000,A,3353.7531,N,09832.0271,W,0.07,96.87,300312,,,D*44
$GPGGA,023649.000,3353.7531,N,09832.0271,W,2,09,0.9,318.1,M,-23.7,M,2.8,0000*41
$GPGSA,A,3,23,11,19,07,13,03,28,08,01,,,,1.8,0.9,1.5*3A
$GPRMC,023649.000,A,3353.7531,N,09832.0271,W,0.14,100.06,300312,,,D*70
$GPGGA,023650.000,3353.7531,N,09832.0270,W,2,09,0.9,318.2,M,-23.7,M,3.8,0000*4A
$GPGSA,A,3,23,11,19,07,13,03,28,08,01,,,,1.8,0.9,1.5*3A
$GPRMC,023650.000,A,3353.7531,N,09832.0270,W,0.21,119.53,300312,,,D*77
$GPGGA,023651.000,3353.7531,N,09832.0270,W,2,09,0.9,318.3,M,-23.7,M,0.8,0000*49
$GPGSA,A,3,23,11,19,07,13,03,28,08,01,,,,1.8,0.9,1.5*3A
$GPRMC,023651.000,A,3353.7531,N,09832.0270,W,0.03,7.10,300312,,,D*7F
$GPGGA,023652.000,3353.7531,N,09832.0270,W,2,09,0.9,318.4,M,-23.7,M,0.8,0000*4D
$GPGSA,A,3,23,11,19,07,13,03,28,08,01,,,,1.8,0.9,1.5*3A
$GPRMC,023652.000,A,3353.7531,N,09832.0270,W,0.07,312.52,300312,,,D*79
$GPGGA,023653.000,3353.7531,N,09832.0270,W,2,09,0.9,318.4,M,-23.7,M,0.8,0000*4C
$GPGSA,A,3,23,11,19,07,13,03,28,08,01,,,,1.8,0.9,1.5*3A
$GPGSV,3,1,12,07,73,050,38,08,49,327,28,19,46,054,40,13,38,183,42*76
$GPGSV,3,2,12,28,34,272,21,11,33,121,32,01,17,135,33,03,12,043,24*70
$GPGSV,3,3,12,17,12,208,,23,11,168,32,26,11,322,,06,01,040,*7E
$GPRMC,023653.000,A,3353.7531,N,09832.0270,W,0.04,159.75,300312,,,D*73
$GPGGA,023654.000,3353.7531,N,09832.0270,W,2,09,0.9,318.5,M,-23.7,M,1.8,0000*4B
$GPGSA,A,3,23,11,19,07,13,03,28,08,01,,,,1.8,0.9,1.5*3A
$GPRMC,023654.000,A,3353.7531,N,09832.0270,W,0.18,116.57,300312,,,D*72
$GPGGA,023655.000,3353.7531,N,09832.0270,W,2,09,0.9,318.5,M,-23.7,M,2.8,0000*49
$GPGSA,A,3,23,11,19,07,13,03,28,08,01,,,,1.8,0.9,1.5*3A
$GPRMC,023655.000,A,3353.7531,N,09832.0270,W,0.26,113.18,300312,,,D*70
$GPGGA,023656.000,3353.7531,N,09832.0269,W,2,09,0.9,318.6,M,-23.7,M,3.8,0000*40
$GPGSA,A,3,23,11,19,07,13,03,28,08,01,,,,1.8,0.9,1.5*3A
$GPRMC,023656.000,A,3353.7531,N,09832.0269,W,0.21,119.65,300312,,,D*7C
$GPGGA,023657.000,3353.7531,N,09832.0269,W,2,09,0.9,318.6,M,-23.7,M,0.8,0000*42
$GPGSA,A,3,23,11,19,07,13,03,28,08,01,,,,1.8,0.9,1.5*3A
$GPRMC,023657.000,A,3353.7531,N,09832.0269,W,0.10,184.37,300312,,,D*7C
$GPGGA,023658.000,3353.7531,N,09832.0269,W,2,09,0.9,318.6,M,-23.7,M,0.8,0000*4D
$GPGSA,A,3,23,11,19,07,13,03,28,08,01,,,,1.8,0.9,1.5*3A
$GPGSV,3,1,12,07,73,050,38,08,49,327,28,19,46,054,40,13,38,183,42*76
$GPGSV,3,2,12,28,34,272,22,11,33,121,32,01,17,135,32,03,12,043,24*72
$GPGSV,3,3,12,17,12,208,23,23,11,168,33,26,11,322,,06,01,040,*7E
$GPRMC,023658.000,A,3353.7531,N,09832.0269,W,0.16,150.20,300312,,,D*7A
$GPGGA,023659.000,3353.7531,N,09832.0269,W,2,09,0.9,318.7,M,-23.7,M,0.8,0000*4D
$GPGSA,A,3,23,11,19,07,13,03,28,08,01,,,,1.8,0.9,1.5*3A
$GPRMC,023659.000,A,3353.7531,N,09832.0269,W,0.14,106.97,300312,,,D*76
$GPGGA,023700.000,3353.7531,N,09832.0269,W,2,09,0.9,318.7,M,-23.7,M,0.8,0000*40
$GPGSA,A,3,23,11,19,07,13,03,28,08,01,,,,1.8,0.9,1.5*3A
$GPRMC,023700.000,A,3353.7531,N,09832.0269,W,0.11,124.14,300312,,,D*75
$GPGGA,023701.000,3353.7531,N,09832.0269,W,2,09,0.9,318.7,M,-23.7,M,0.8,0000*41
$GPGSA,A,3,23,11,19,07,13,03,28,08,01,,,,1.8,0.9,1.5*3A
$GPRMC,023701.000,A,3353.7531,N,09832.0269,W,0.06,125.70,300312,,,D*71
$GPGGA,023702.000,3353.7531,N,09832.0268,W,2,09,0.9,318.9,M,-23.7,M,0.8,0000*4D
$GPGSA,A,3,23,11,19,07,13,03,28,08,01,,,,1.8,0.9,1.5*3A
$GPRMC,023702.000,A,3353.7531,N,09832.0268,W,0.25,128.92,300312,,,D*73
$GPGGA,023703.000,3353.7530,N,09832.0268,W,2,09,0.9,319.1,M,-23.7,M,0.8,0000*44
$GPGSA,A,3,23,11,19,07,13,03,28,08,01,,,,1.8,0.9,1.5*3A
$GPGSV,3,1,12,07,73,050,38,08,49,327,29,19,46,054,40,13,38,183,42*77
$GPGSV,3,2,12,28,34,272,21,11,33,121,32,01,17,135,32,03,12,043,24*71
$GPGSV,3,3,12,17,12,208,22,23,11,168,33,26,11,322,,06,01,040,*7F
$GPRMC,023703.000,A,3353.7530,N,09832.0268,W,0.07,176.73,300312,,,D*77
$GPGGA,023704.000,3353.7530,N,09832.0268,W,2,09,0.9,319.4,M,-23.7,M,0.8,0000*46
$GPGSA,A,3,23,11,19,07,13,03,28,08,01,,,,1.8,0.9,1.5*3A
$GPRMC,023704.000,A,3353.7530,N,09832.0268,W,0.10,167.68,300312,,,D*7C
$GPGGA,023705.000,3353.7530,N,09832.0268,W,2,09,0.9,319.5,M,-23.7,M,0.8,0000*46
$GPGSA,A,3,23,11,19,07,13,03,28,08,01,,,,1.8,0.9,1.5*3A
$GPRMC,023705.000,A,3353.7530,N,09832.0268,W,0.26,122.46,300312,,,D*75
$GPGGA,023706.000,3353.7530,N,09832.0267,W,2,09,0.9,319.5,M,-23.7,M,0.8,0000*4A
$GPGSA,A,3,23,11,19,07,13,03,28,08,01,,,,1.8,0.9,1.5*3A
$GPRMC,023706.000,A,3353.7530,N,09832.0267,W,0.29,120.41,300312,,,D*73
$GPGGA,023707.000,3353.7530,N,09832.0267,W,2,09,0.9,319.5,M,-23.7,M,1.8,0000*4A
$GPGSA,A,3,23,11,19,07,13,03,28,08,01,,,,1.8,0.9,1.5*3A
$GPRMC,023707.000,A,3353.7530,N,09832.0267,W,0.05,236.14,300312,,,D*78
$GPGGA,023708.000,3353.7530,N,09832.0268,W,2,09,0.9,319.5,M,-23.7,M,2.8,0000*49
$GPGSA,A,3,23,11,19,07,13,03,28,08,01,,,,1.8,0.9,1.5*3A
$GPGSV,3,1,12,07,73,050,38,08,49,327,29,19,46,054,40,13,38,183,41*74
$GPGSV,3,2,12,28,34,272,21,11,33,121,32,01,17,135,32,03,12,043,23*76
$GPGSV,3,3,12,17,12,208,21,23,11,168,33,26,11,322,,06,01,040,*7C
$GPRMC,023708.000,A,3353.7530,N,09832.0268,W,0.06,234.05,300312,,,D*79
$GPGGA,023709.000,3353.7530,N,09832.0268,W,2,09,0.9,319.6,M,-23.7,M,0.8,0000*49
$GPGSA,A,3,23,11,19,07,13,03,28,08,01,,,,1.8,0.9,1.5*3A
$GPRMC,023709.000,A,3353.7530,N,09832.0268,W,0.18,244.07,300312,,,D*72
$GPGGA,023710.000,3353.7530,N,09832.0268,W,2,09,0.9,319.6,M,-23.7,M,0.8,0000*41
$GPGSA,A,3,23,11,19,07,13,03,28,08,01,,,,1.8,0.9,1.5*3A
$GPRMC,023710.000,A,3353.7530,N,09832.0268,W,0.07,194.26,300312,,,D*79
$GPGGA,023711.000,3353.7530,N,09832.0269,W,2,09,0.9,319.6,M,-23.7,M,0.8,0000*41
$GPGSA,A,3,23,11,19,07,13,03,28,08,01,,,,1.8,0.9,1.5*3A
$GPRMC,023711.000,A,3353.7530,N,09832.0269,W,0.07,311.28,300312,,,D*78
$GPGGA,023712.000,3353.7530,N,09832.0269,W,2,09,0.9,319.6,M,-23.7,M,1.8,0000*43
$GPGSA,A,3,23,11,19,07,13,03,28,08,01,,,,1.8,0.9,1.5*3A
$GPRMC,023712.000,A,3353.7530,N,09832.0269,W,0.19,103.26,300312,,,D*7B
$GPGGA,023713.000,3353.7530,N,09832.0269,W,2,09,0.9,319.6,M,-23.7,M,2.8,0000*41
$GPGSA,A,3,23,11,19,07,13,03,28,08,01,,,,1.8,0.9,1.5*3A
$GPGSV,3,1,12,07,73,050,37,08,49,327,29,19,46,054,40,13,38,183,41*7B
$GPGSV,3,2,12,28,34,272,21,11,33,121,32,01,17,135,32,03,12,043,24*71
$GPGSV,3,3,12,17,12,208,20,23,11,168,34,26,11,322,,06,01,040,*7A
$GPRMC,023713.000,A,3353.7530,N,09832.0269,W,0.16,98.92,300312,,,D*49
$GPGGA,023714.000,3353.7530,N,09832.0268,W,2,09,0.9,319.9,M,-23.7,M,0.8,0000*4A
$GPGSA,A,3,23,11,19,07,13,03,28,08,01,,,,1.8,0.9,1.5*3A
$GPRMC,023714.000,A,3353.7530,N,09832.0268,W,0.13,141.43,300312,,,D*73
$GPGGA,023715.000,3353.7530,N,09832.0268,W,2,09,0.9,319.9,M,-23.7,M,0.8,0000*4B
$GPGSA,A,3,23,11,19,07,13,03,28,08,01,,,,1.8,0.9,1.5*3A
$GPRMC,023715.000,A,3353.7530,N,09832.0268,W,0.10,265.53,300312,,,D*75
$GPGGA,023716.000,3353.7531,N,09832.0269,W,2,09,0.9,319.9,M,-23.7,M,0.8,0000*48
$GPGSA,A,3,23,11,19,07,13,03,28,08,01,,,,1.8,0.9,1.5*3A
$GPRMC,023716.000,A,3353.7531,N,09832.0269,W,0.12,297.36,300312,,,D*7A
$GPGGA,023717.000,3353.7531,N,09832.0269,W,2,09,0.9,319.9,M,-23.7,M,0.8,0000*49
$GPGSA,A,3,23,11,19,07,13,03,28,08,01,,,,1.8,0.9,1.5*3A
$GPRMC,023717.000,A,3353.7531,N,09832.0269,W,0.03,223.44,300312,,,D*71
$GPGGA,023718.000,3353.7531,N,09832.0269,W,2,09,0.9,319.9,M,-23.7,M,1.8,0000*47
$GPGSA,A,3,23,11,19,07,13,03,28,08,01,,,,1.8,0.9,1.5*3A
$GPGSV,3,1,12,07,73,051,37,08,49,327,29,19,46,054,40,13,38,183,41*7A
$GPGSV,3,2,12,28,34,273,20,11,34,120,32,01,17,135,33,03,12,043,24*76
$GPGSV,3,3,12,17,12,208,20,23,11,168,34,26,11,322,,06,01,040,*7A
$GPRMC,023718.000,A,3353.7531,N,09832.0269,W,0.15,124.35,300312,,,D*7B
$GPGGA,023719.000,3353.7530,N,09832.0269,W,2,09,0.9,320.0,M,-23.7,M,2.8,0000*47
$GPGSA,A,3,23,11,19,07,13,03,28,08,01,,,,1.8,0.9,1.5*3A
$GPRMC,023719.000,A,3353.7530,N,09832.0269,W,0.18,121.16,300312,,,D*72
$GPGGA,023720.000,3353.7530,N,09832.0269,W,2,09,0.9,320.1,M,-23.7,M,0.8,0000*4E
$GPGSA,A,3,23,11,19,07,13,03,28,08,01,,,,1.8,0.9,1.5*3A
$GPRMC,023720.000,A,3353.7530,N,09832.0269,W,0.14,181.54,300312,,,D*78
$GPGGA,023721.000,3353.7530,N,09832.0269,W,2,09,0.9,320.1,M,-23.7,M,0.8,0000*4F
$GPGSA,A,3,23,11,19,07,13,03,28,08,01,,,,1.8,0.9,1.5*3A
$GPRMC,023721.000,A,3353.7530,N,09832.0269,W,0.12,280.24,300312,,,D*7A
$GPGGA,023722.000,3353.7530,N,09832.0270,W,2,09,0.9,319.9,M,-23.7,M,0.8,0000*46
$GPGSA,A,3,23,11,19,07,13,03,28,08,01,,,,1.8,0.9,1.5*3A
$GPRMC,023722.000,A,3353.7530,N,09832.0270,W,0.12,299.12,300312,,,D*7C
$GPGGA,023723.000,3353.7531,N,09832.0270,W,2,09,0.9,319.9,M,-23.7,M,0.8,0000*46
$GPGSA,A,3,23,11,19,07,13,03,28,08,01,,,,1.8,0.9,1.5*3A
$GPGSV,3,1,12,07,73,051,37,08,49,327,29,19,46,054,40,13,38,183,41*7A
$GPGSV,3,2,12,28,34,273,18,11,34,120,32,01,17,135,33,03,12,043,24*7D
$GPGSV,3,3,12,17,12,208,19,23,11,168,34,26,11,322,,06,01,040,*70
$GPRMC,023723.000,A,3353.7531,N,09832.0270,W,0.16,303.43,300312,,,D*7E
$GPGGA,023724.000,3353.7531,N,09832.0271,W,2,09,0.9,320.0,M,-23.7,M,0.8,0000*43
$GPGSA,A,3,23,11,19,07,13,03,28,08,01,,,,1.8,0.9,1.5*3A
$GPRMC,023724.000,A,3353.7531,N,09832.0271,W,0.18,286.47,300312,,,D*7E
$GPGGA,023725.000,3353.7531,N,09832.0271,W,2,09,0.9,320.0,M,-23.7,M,1.8,0000*43
$GPGSA,A,3,23,11,19,07,13,03,28,08,01,,,,1.8,0.9,1.5*3A
$GPRMC,023725.000,A,3353.7531,N,09832.0271,W,0.20,312.35,300312,,,D*7D
$GPGGA,023726.000,3353.7532,N,09832.0271,W,2,08,1.3,320.0,M,-23.7,M,2.8,0000*4A
$GPGSA,A,3,23,11,19,07,13,03,08,01,,,,,2.1,1.3,1.6*32
$GPRMC,023726.000,A,3353.7532,N,09832.0271,W,0.04,352.44,300312,,,D*79
$GPGGA,023727.000,3353.7532,N,09832.0272,W,2,09,0.9,320.0,M,-23.7,M,0.8,0000*40
$GPGSA,A,3,23,11,19,07,13,03,28,08,01,,,,1.8,0.9,1.5*3A
$GPRMC,023727.000,A,3353.7532,N,09832.0272,W,0.21,289.10,300312,,,D*7A
$GPGGA,023728.000,3353.7532,N,09832.0272,W,2,09,0.9,319.9,M,-23.7,M,0.8,0000*4C
$GPGSA,A,3,23,11,19,07,13,03,28,08,01,,,,1.8,0.9,1.5*3A
$GPGSV,3,1,12,07,73,051,37,08,49,327,30,19,46,054,39,13,38,183,41*7C
$GPGSV,3,2,12,28,34,273,13,11,34,120,32,01,17,135,33,03,12,043,23*71
$GPGSV,3,3,12,17,12,208,18,23,11,168,35,26,11,322,,06,01,040,*70
$GPRMC,023728.000,A,3353.7532,N,09832.0272,W,0.19,305.24,300312,,,D*7C
$GPGGA,023729.000,3353.7532,N,09832.0273,W,2,09,0.9,319.9,M,-23.7,M,0.8,0000*4C
$GPGSA,A,3,23,11,19,07,13,03,28,08,01,,,,1.8,0.9,1.5*3A
$GPRMC,023729.000,A,3353.7532,N,09832.0273,W,0.21,268.20,300312,,,D*79
$GPGGA,023730.000,3353.7532,N,09832.0273,W,2,08,1.3,320.0,M,-23.7,M,0.8,0000*4D
$GPGSA,A,3,23,11,19,07,13,03,08,01,,,,,2.1,1.3,1.6*32
$GPRMC,023730.000,A,3353.7532,N,09832.0273,W,0.13,227.72,300312,,,D*7C
$GPGGA,023731.000,3353.7532,N,09832.0274,W,2,08,1.3,320.1,M,-23.7,M,0.8,0000*4A
$GPGSA,A,3,23,11,19,07,13,03,08,01,,,,,2.1,1.3,1.6*32
$GPRMC,023731.000,A,3353.7532,N,09832.0274,W,0.10,237.23,300312,,,D*7C
$GPGGA,023732.000,3353.7532,N,09832.0274,W,2,08,1.3,320.1,M,-23.7,M,0.8,0000*49
$GPGSA,A,3,23,11,19,07,13,03,08,01,,,,,2.1,1.3,1.6*32
$GPRMC,023732.000,A,3353.7532,N,09832.0274,W,0.08,219.41,300312,,,D*7E
