$GPGGA,171230.000,3353.7533,N,09832.0242,W,2,06,1.6,309.6,M,-23.7,M,1.8,0000*4A
$GPGSA,A,3,14,21,31,18,22,09,,,,,,,2.9,1.6,2.4*3C
$GPRMC,171230.000,A,3353.7533,N,09832.0242,W,0.05,17.52,010412,,,D*4D
$GPGGA,171231.000,3353.7533,N,09832.0242,W,2,06,1.6,309.6,M,-23.7,M,2.8,0000*48
$GPGSA,A,3,14,21,31,18,22,09,,,,,,,2.9,1.6,2.4*3C
$GPRMC,171231.000,A,3353.7533,N,09832.0242,W,0.06,26.32,010412,,,D*4B
$GPGGA,171232.000,3353.7533,N,09832.0243,W,2,06,1.6,309.6,M,-23.7,M,0.8,0000*48
$GPGSA,A,3,14,21,31,18,22,09,,,,,,,2.9,1.6,2.4*3C
$GPRMC,171232.000,A,3353.7533,N,09832.0243,W,0.07,55.33,010412,,,D*4D
$GPGGA,171233.000,3353.7532,N,09832.0243,W,2,06,1.6,309.6,M,-23.7,M,0.8,0000*48
$GPGSA,A,3,14,21,31,18,22,09,,,,,,,2.9,1.6,2.4*3C
$GPGSV,3,1,12,22,68,005,36,14,68,283,31,18,43,085,33,21,25,157,35*74
$GPGSV,3,2,12,09,23,043,30,31,19,189,29,19,17,283,,06,12,236,14*76
$GPGSV,3,3,12,03,09,247,,11,08,317,,27,06,035,19,12,04,087,*79
$GPRMC,171233.000,A,3353.7532,N,09832.0243,W,0.11,91.01,010412,,,D*43
$GPGGA,171234.000,3353.7532,N,09832.0242,W,2,06,1.6,309.6,M,-23.7,M,0.8,0000*4E
$GPGSA,A,3,14,21,31,18,22,09,,,,,,,2.9,1.6,2.4*3C
$GPRMC,171234.000,A,3353.7532,N,09832.0242,W,0.15,91.71,010412,,,D*46
$GPGGA,171235.000,3353.7532,N,09832.0242,W,2,06,1.6,309.6,M,-23.7,M,0.8,0000*4F
$GPGSA,A,3,14,21,31,18,22,09,,,,,,,2.9,1.6,2.4*3C
$GPRMC,171235.000,A,3353.7532,N,09832.0242,W,0.13,87.84,010412,,,D*4C
$GPGGA,171236.000,3353.7532,N,09832.0242,W,2,06,1.6,309.5,M,-23.7,M,1.8,0000*4E
$GPGSA,A,3,14,21,31,18,22,09,,,,,,,2.9,1.6,2.4*3C
$GPRMC,171236.000,A,3353.7532,N,09832.0242,W,0.19,85.01,010412,,,D*4A
$GPGGA,171237.000,3353.7532,N,09832.0242,W,2,06,1.6,309.5,M,-23.7,M,2.8,0000*4C
$GPGSA,A,3,14,21,31,18,22,09,,,,,,,2.9,1.6,2.4*3C
$GPRMC,171237.000,A,3353.7532,N,09832.0242,W,0.15,86.28,010412,,,D*4F
$GPGGA,171238.000,3353.7532,N,09832.0243,W,2,06,1.6,309.4,M,-23.7,M,3.8,0000*42
$GPGSA,A,3,14,21,31,18,22,09,,,,,,,2.9,1.6,2.4*3C
$GPRMC,171238.000,A,3353.7532,N,09832.0243,W,0.14,81.11,010412,,,D*4D
$GPGGA,171239.000,3353.7532,N,09832.0243,W,2,06,1.6,309.3,M,-23.7,M,0.8,0000*47
$GPGSA,A,3,14,21,31,18,22,09,,,,,,,2.9,1.6,2.4*3C
$GPRMC,171239.000,A,3353.7532,N,09832.0243,W,0.06,29.64,010412,,,D*4F
$GPGGA,171240.000,3353.7533,N,09832.0244,W,2,06,1.6,309.2,M,-23.7,M,0.8,0000*4E
$GPGSA,A,3,14,21,31,18,22,09,,,,,,,2.9,1.6,2.4*3C
$GPRMC,171240.000,A,3353.7533,N,09832.0244,W,0.08,42.00,010412,,,D*46
$GPGGA,171241.000,3353.7533,N,09832.0245,W,2,06,1.6,309.2,M,-23.7,M,0.8,0000*4E
$GPGSA,A,3,14,21,31,18,22,09,,,,,,,2.9,1.6,2.4*3C
$GPRMC,171241.000,A,3353.7533,N,09832.0245,W,0.05,31.68,010412,,,D*41
$GPGGA,171242.000,3353.7533,N,09832.0246,W,2,06,1.6,309.2,M,-23.7,M,1.8,0000*4F
$GPGSA,A,3,14,21,31,18,22,09,,,,,,,2.9,1.6,2.4*3C
$GPGSV,3,1,12,22,68,005,35,14,68,283,30,18,43,085,34,21,25,157,35*71
$GPGSV,3,2,12,09,23,043,30,31,19,189,29,19,17,283,,06,12,236,*73
$GPGSV,3,3,12,03,09,247,,11,08,317,,27,06,035,17,12,04,087,*77
$GPRMC,171242.000,A,3353.7533,N,09832.0246,W,0.06,14.55,010412,,,D*4B
$GPGGA,171243.000,3353.7533,N,09832.0246,W,2,06,1.6,309.2,M,-23.7,M,2.8,0000*4D
$GPGSA,A,3,14,21,31,18,22,09,,,,,,,2.9,1.6,2.4*3C
$GPGSV,3,1,12,22,68,005,35,14,68,283,30,18,43,085,33,21,25,157,35*76
$GPGSV,3,2,12,09,23,043,30,31,19,189,29,19,17,283,,06,12,236,*73
$GPGSV,3,3,12,03,09,247,,11,08,317,,27,06,035,17,12,04,087,*77
$GPRMC,171243.000,A,3353.7533,N,09832.0246,W,0.06,63.83,010412,,,D*41
$GPGGA,171244.000,3353.7533,N,09832.0247,W,2,06,1.6,309.3,M,-23.7,M,3.8,0000*4B
$GPGSA,A,3,14,21,31,18,22,09,,,,,,,2.9,1.6,2.4*3C
$GPRMC,171244.000,A,3353.7533,N,09832.0247,W,0.05,25.48,010412,,,D*41
$GPGGA,171245.000,3353.7533,N,09832.0247,W,2,06,1.6,309.3,M,-23.7,M,0.8,0000*49
$GPGSA,A,3,14,21,31,18,22,09,,,,,,,2.9,1.6,2.4*3C
$GPRMC,171245.000,A,3353.7533,N,09832.0247,W,0.13,82.23,010412,,,D*47
$GPGGA,171246.000,3353.7533,N,09832.0247,W,2,06,1.6,309.3,M,-23.7,M,0.8,0000*4A
$GPGSA,A,3,14,21,31,18,22,09,,,,,,,2.9,1.6,2.4*3C
$GPRMC,171246.000,A,3353.7533,N,09832.0247,W,0.14,94.94,010412,,,D*48
$GPGGA,171247.000,3353.7533,N,09832.0245,W,2,06,1.6,309.8,M,-23.7,M,0.8,0000*42
$GPGSA,A,3,14,21,31,18,22,09,,,,,,,2.9,1.6,2.4*3C
$GPRMC,171247.000,A,3353.7533,N,09832.0245,W,0.20,89.88,010412,,,D*4D
$GPGGA,171248.000,3353.7533,N,09832.0243,W,2,06,1.6,310.3,M,-23.7,M,1.8,0000*49
$GPGSA,A,3,14,21,31,18,22,09,,,,,,,2.9,1.6,2.4*3C
$GPGSV,3,1,12,22,68,005,35,14,68,283,31,18,43,085,33,21,25,157,35*77
$GPGSV,3,2,12,09,23,043,30,31,19,189,30,19,17,283,,06,12,236,*7B
$GPGSV,3,3,12,03,09,247,,11,08,317,,27,06,035,17,12,04,087,*77
$GPRMC,171248.000,A,3353.7533,N,09832.0243,W,0.19,84.19,010412,,,D*4B
$GPGGA,171249.000,3353.7533,N,09832.0242,W,2,06,1.6,310.6,M,-23.7,M,2.8,0000*4F
$GPGSA,A,3,14,21,31,18,22,09,,,,,,,2.9,1.6,2.4*3C
$GPRMC,171249.000,A,3353.7533,N,09832.0242,W,0.19,87.01,010412,,,D*41
$GPGGA,171250.000,3353.7534,N,09832.0240,W,2,06,1.6,311.0,M,-23.7,M,3.8,0000*44
$GPGSA,A,3,14,21,31,18,22,09,,,,,,,2.9,1.6,2.4*3C
$GPRMC,171250.000,A,3353.7534,N,09832.0240,W,0.24,93.55,010412,,,D*46
$GPGGA,171251.000,3353.7534,N,09832.0239,W,2,06,1.6,311.3,M,-23.7,M,0.8,0000*4B
$GPGSA,A,3,14,21,31,18,22,09,,,,,,,2.9,1.6,2.4*3C
$GPRMC,171251.000,A,3353.7534,N,09832.0239,W,0.10,71.43,010412,,,D*45
$GPGGA,171252.000,3353.7534,N,09832.0238,W,2,06,1.6,311.6,M,-23.7,M,0.8,0000*4C
$GPGSA,A,3,14,21,31,18,22,09,,,,,,,2.9,1.6,2.4*3C
$GPRMC,171252.000,A,3353.7534,N,09832.0238,W,0.12,68.64,010412,,,D*48
$GPGGA,171253.000,3353.7534,N,09832.0237,W,2,06,1.6,311.9,M,-23.7,M,0.8,0000*4D
$GPGSA,A,3,14,21,31,18,22,09,,,,,,,2.9,1.6,2.4*3C
$GPGSV,3,1,12,22,68,005,35,14,68,283,31,18,43,085,32,21,25,157,34*77
$GPGSV,3,2,12,09,23,043,29,31,19,189,30,19,17,283,18,06,12,236,*7A
$GPGSV,3,3,12,03,09,247,,11,08,317,,27,06,035,18,12,04,087,*78
$GPRMC,171253.000,A,3353.7534,N,09832.0237,W,0.09,83.86,010412,,,D*45
$GPGGA,171254.000,3353.7534,N,09832.0237,W,2,06,1.6,312.2,M,-23.7,M,1.8,0000*43
$GPGSA,A,3,14,21,31,18,22,09,,,,,,,2.9,1.6,2.4*3C
$GPRMC,171254.000,A,3353.7534,N,09832.0237,W,0.11,88.81,010412,,,D*47
$GPGGA,171255.000,3353.7534,N,09832.0236,W,2,06,1.6,312.5,M,-23.7,M,2.8,0000*47
$GPGSA,A,3,14,21,31,18,22,09,,,,,,,2.9,1.6,2.4*3C
$GPRMC,171255.000,A,3353.7534,N,09832.0236,W,0.09,79.76,010412,,,D*48
$GPGGA,171256.000,3353.7535,N,09832.0235,W,2,06,1.6,312.7,M,-23.7,M,0.8,0000*46
$GPGSA,A,3,14,21,31,18,22,09,,,,,,,2.9,1.6,2.4*3C
$GPRMC,171256.000,A,3353.7535,N,09832.0235,W,0.11,84.02,010412,,,D*41
$GPGGA,171257.000,3353.7535,N,09832.0235,W,2,06,1.6,312.9,M,-23.7,M,0.8,0000*49
$GPGSA,A,3,14,21,31,18,22,09,,,,,,,2.9,1.6,2.4*3C
$GPRMC,171257.000,A,3353.7535,N,09832.0235,W,0.18,104.10,010412,,,D*73
$GPGGA,171258.000,3353.7534,N,09832.0234,W,2,06,1.6,313.1,M,-23.7,M,0.8,0000*4F
$GPGSA,A,3,14,21,31,18,22,09,,,,,,,2.9,1.6,2.4*3C
$GPRMC,171258.000,A,3353.7534,N,09832.0234,W,0.20,110.66,010412,,,D*73
$GPGGA,171259.000,3353.7534,N,09832.0233,W,2,06,1.6,313.2,M,-23.7,M,0.8,0000*4A
$GPGSA,A,3,14,21,31,18,22,09,,,,,,,2.9,1.6,2.4*3C
$GPRMC,171259.000,A,3353.7534,N,09832.0233,W,0.22,99.12,010412,,,D*44
$GPGGA,171300.000,3353.7535,N,09832.0232,W,2,06,1.6,313.2,M,-23.7,M,0.8,0000*47
$GPGSA,A,3,14,21,31,18,22,09,,,,,,,2.9,1.6,2.4*3C
$GPRMC,171300.000,A,3353.7535,N,09832.0232,W,0.20,96.36,010412,,,D*42
$GPGGA,171301.000,3353.7535,N,09832.0231,W,2,06,1.6,313.3,M,-23.7,M,0.8,0000*44
$GPGSA,A,3,14,21,31,18,22,09,,,,,,,2.9,1.6,2.4*3C
$GPRMC,171301.000,A,3353.7535,N,09832.0231,W,0.17,98.99,010412,,,D*4F
$GPGGA,171302.000,3353.7533,N,09832.0225,W,2,06,1.6,314.2,M,-23.7,M,1.8,0000*43
$GPGSA,A,3,14,21,31,18,22,09,,,,,,,2.9,1.6,2.4*3C
$GPGSV,3,1,12,22,68,005,35,14,68,283,31,18,43,085,25,21,25,157,35*70
$GPGSV,3,2,12,09,23,043,29,31,19,189,29,19,17,283,16,06,12,236,*7C
$GPGSV,3,3,12,03,09,247,,11,08,317,,27,06,035,18,12,04,087,*78
$GPRMC,171302.000,A,3353.7533,N,09832.0225,W,0.42,96.25,010412,,,D*46
$GPGGA,171303.000,3353.7531,N,09832.0219,W,2,06,1.6,315.3,M,-23.7,M,0.8,0000*4E
$GPGSA,A,3,14,21,31,18,22,09,,,,,,,2.9,1.6,2.4*3C
$GPGSV,3,1,12,22,68,005,35,14,68,283,31,18,43,085,26,21,25,157,35*73
$GPGSV,3,2,12,09,23,043,29,31,19,189,29,19,17,283,16,06,12,236,*7C
$GPGSV,3,3,12,03,09,247,,11,08,317,,27,06,035,18,12,04,087,*78
$GPRMC,171303.000,A,3353.7531,N,09832.0219,W,0.37,105.33,010412,,,D*74
$GPGGA,171304.000,3353.7528,N,09832.0208,W,2,06,1.6,317.2,M,-23.7,M,0.8,0000*42
$GPGSA,A,3,14,21,31,18,22,09,,,,,,,2.9,1.6,2.4*3C
$GPRMC,171304.000,A,3353.7528,N,09832.0208,W,0.54,101.33,010412,,,D*7A
$GPGGA,171305.000,3353.7527,N,09832.0201,W,2,06,1.6,318.5,M,-23.7,M,0.8,0000*4D
$GPGSA,A,3,14,21,31,18,22,09,,,,,,,2.9,1.6,2.4*3C
$GPRMC,171305.000,A,3353.7527,N,09832.0201,W,0.49,107.04,010412,,,D*73
$GPGGA,171306.000,3353.7525,N,09832.0196,W,2,06,1.6,319.4,M,-23.7,M,1.8,0000*40
$GPGSA,A,3,14,21,31,18,22,09,,,,,,,2.9,1.6,2.4*3C
$GPRMC,171306.000,A,3353.7525,N,09832.0196,W,0.46,111.44,010412,,,D*73
$GPGGA,171307.000,3353.7524,N,09832.0193,W,2,06,1.6,320.2,M,-23.7,M,2.8,0000*4A
$GPGSA,A,3,14,21,31,18,22,09,,,,,,,2.9,1.6,2.4*3C
$GPRMC,171307.000,A,3353.7524,N,09832.0193,W,0.46,110.45,010412,,,D*76
$GPGGA,171308.000,3353.7523,N,09832.0190,W,2,06,1.6,320.8,M,-23.7,M,0.8,0000*49
$GPGSA,A,3,14,21,31,18,22,09,,,,,,,2.9,1.6,2.4*3C
$GPGSV,3,1,12,22,68,005,36,14,68,283,31,18,43,085,26,21,25,157,35*70
$GPGSV,3,2,12,09,23,043,29,31,19,189,29,19,17,283,16,06,12,236,*7C
$GPGSV,3,3,12,03,09,247,,11,08,317,,27,06,035,18,12,04,087,*78
$GPRMC,171308.000,A,3353.7523,N,09832.0190,W,0.45,113.16,010412,,,D*7B
$GPGGA,171309.000,3353.7523,N,09832.0188,W,2,06,1.6,321.2,M,-23.7,M,0.8,0000*4A
$GPGSA,A,3,14,21,31,18,22,09,,,,,,,2.9,1.6,2.4*3C
$GPRMC,171309.000,A,3353.7523,N,09832.0188,W,0.51,113.49,010412,,,D*7C
$GPGGA,171310.000,3353.7522,N,09832.0187,W,2,06,1.6,321.4,M,-23.7,M,0.8,0000*4A
$GPGSA,A,3,14,21,31,18,22,09,,,,,,,2.9,1.6,2.4*3C
$GPRMC,171310.000,A,3353.7522,N,09832.0187,W,0.45,117.81,010412,,,D*7F
$GPGGA,171311.000,3353.7522,N,09832.0186,W,2,06,1.6,321.5,M,-23.7,M,0.8,0000*4B
$GPGSA,A,3,14,21,31,18,22,09,,,,,,,2.9,1.6,2.4*3C
$GPRMC,171311.000,A,3353.7522,N,09832.0186,W,0.45,110.10,010412,,,D*70
$GPGGA,171312.000,3353.7522,N,09832.0187,W,2,06,1.6,321.4,M,-23.7,M,1.8,0000*49
$GPGSA,A,3,14,21,31,18,22,09,,,,,,,2.9,1.6,2.4*3C
$GPRMC,171312.000,A,3353.7522,N,09832.0187,W,0.38,110.34,010412,,,D*7E
$GPGGA,171313.000,3353.7522,N,09832.0187,W,2,06,1.6,321.2,M,-23.7,M,0.8,0000*4F
$GPGSA,A,3,14,21,31,18,22,09,,,,,,,2.9,1.6,2.4*3C
$GPGSV,3,1,12,22,68,005,36,14,68,283,31,18,43,085,27,21,25,157,35*71
$GPGSV,3,2,12,09,23,043,29,31,19,189,28,19,17,283,14,06,12,236,*7F
$GPGSV,3,3,12,03,09,247,22,11,08,317,,27,06,035,18,12,04,087,*78
$GPRMC,171313.000,A,3353.7522,N,09832.0187,W,0.32,110.10,010412,,,D*73
$GPGGA,171314.000,3353.7522,N,09832.0188,W,2,06,1.6,320.9,M,-23.7,M,1.8,0000*4C
$GPGSA,A,3,14,21,31,18,22,09,,,,,,,2.9,1.6,2.4*3C
$GPRMC,171314.000,A,3353.7522,N,09832.0188,W,0.27,109.82,010412,,,D*7C
$GPGGA,171315.000,3353.7523,N,09832.0190,W,2,06,1.6,320.6,M,-23.7,M,0.8,0000*4B
$GPGSA,A,3,14,21,31,18,22,09,,,,,,,2.9,1.6,2.4*3C
$GPRMC,171315.000,A,3353.7523,N,09832.0190,W,0.14,91.19,010412,,,D*47
$GPGGA,171316.000,3353.7524,N,09832.0192,W,2,06,1.6,320.3,M,-23.7,M,0.8,0000*48
$GPGSA,A,3,14,21,31,18,22,09,,,,,,,2.9,1.6,2.4*3C
$GPRMC,171316.000,A,3353.7524,N,09832.0192,W,0.11,72.02,010412,,,D*43
$GPGGA,171317.000,3353.7524,N,09832.0193,W,2,06,1.6,320.0,M,-23.7,M,0.8,0000*4B
$GPGSA,A,3,14,21,31,18,22,09,,,,,,,2.9,1.6,2.4*3C
$GPRMC,171317.000,A,3353.7524,N,09832.0193,W,0.09,65.36,010412,,,D*4B
$GPGGA,171318.000,3353.7525,N,09832.0195,W,2,06,1.6,319.8,M,-23.7,M,0.8,0000*41
$GPGSA,A,3,14,21,31,18,22,09,,,,,,,2.9,1.6,2.4*3C
$GPRMC,171318.000,A,3353.7525,N,09832.0195,W,0.05,82.63,010412,,,D*46
$GPGGA,171319.000,3353.7525,N,09832.0196,W,2,06,1.6,319.5,M,-23.7,M,1.8,0000*4F
$GPGSA,A,3,14,21,31,18,22,09,,,,,,,2.9,1.6,2.4*3C
$GPRMC,171319.000,A,3353.7525,N,09832.0196,W,0.09,11.29,010412,,,D*4C
$GPGGA,171320.000,3353.7525,N,09832.0198,W,2,06,1.6,319.4,M,-23.7,M,2.8,0000*49
$GPGSA,A,3,14,21,31,18,22,09,,,,,,,2.9,1.6,2.4*3C
$GPRMC,171320.000,A,3353.7525,N,09832.0198,W,0.09,26.64,010412,,,D*45
$GPGGA,171321.000,3353.7526,N,09832.0199,W,2,06,1.6,319.1,M,-23.7,M,0.8,0000*4D
$GPGSA,A,3,14,21,31,18,22,09,,,,,,,2.9,1.6,2.4*3C
$GPRMC,171321.000,A,3353.7526,N,09832.0199,W,0.07,80.79,010412,,,D*48
$GPGGA,171322.000,3353.7526,N,09832.0200,W,2,06,1.6,318.9,M,-23.7,M,0.8,0000*44
$GPGSA,A,3,14,21,31,18,22,09,,,,,,,2.9,1.6,2.4*3C
$GPRMC,171322.000,A,3353.7526,N,09832.0200,W,0.03,66.40,010412,,,D*4E
$GPGGA,171323.000,3353.7526,N,09832.0201,W,2,06,1.6,318.5,M,-23.7,M,0.8,0000*48
$GPGSA,A,3,14,21,31,18,22,09,,,,,,,2.9,1.6,2.4*3C
$GPGSV,3,1,12,22,68,005,36,14,68,283,29,18,43,085,27,21,25,157,35*78
$GPGSV,3,2,12,09,23,043,30,31,19,189,27,19,17,283,16,06,12,236,*7A
$GPGSV,3,3,12,03,09,247,15,11,08,317,,27,06,035,18,12,04,087,*7C
$GPRMC,171323.000,A,3353.7526,N,09832.0201,W,0.09,62.51,010412,,,D*40
$GPGGA,171324.000,3353.7526,N,09832.0202,W,2,06,1.6,318.3,M,-23.7,M,1.8,0000*4B
$GPGSA,A,3,14,21,31,18,22,09,,,,,,,2.9,1.6,2.4*3C
$GPRMC,171324.000,A,3353.7526,N,09832.0202,W,0.07,48.24,010412,,,D*40
$GPGGA,171325.000,3353.7527,N,09832.0203,W,2,06,1.6,318.0,M,-23.7,M,2.8,0000*4A
$GPGSA,A,3,14,21,31,18,22,09,,,,,,,2.9,1.6,2.4*3C
$GPRMC,171325.000,A,3353.7527,N,09832.0203,W,0.05,1.14,010412,,,D*7D
$GPGGA,171326.000,3353.7527,N,09832.0203,W,2,06,1.6,317.8,M,-23.7,M,3.8,0000*4F
$GPGSA,A,3,14,21,31,18,22,09,,,,,,,2.9,1.6,2.4*3C
$GPRMC,171326.000,A,3353.7527,N,09832.0203,W,0.10,50.65,010412,,,D*48
$GPGGA,171327.000,3353.7527,N,09832.0203,W,2,06,1.6,317.6,M,-23.7,M,0.8,0000*43
$GPGSA,A,3,14,21,31,18,22,09,,,,,,,2.9,1.6,2.4*3C
$GPRMC,171327.000,A,3353.7527,N,09832.0203,W,0.08,20.02,010412,,,D*46
$GPGGA,171328.000,3353.7527,N,09832.0203,W,2,06,1.6,317.5,M,-23.7,M,0.8,0000*4F
$GPGSA,A,3,14,21,31,18,22,09,,,,,,,2.9,1.6,2.4*3C
$GPGSV,3,1,12,22,68,005,36,14,68,283,29,18,43,085,27,21,25,157,35*78
$GPGSV,3,2,12,09,23,043,30,31,19,189,27,19,17,283,16,06,12,236,15*7E
$GPGSV,3,3,12,03,09,247,17,11,08,317,,27,06,035,19,12,04,087,*7F
$GPRMC,171328.000,A,3353.7527,N,09832.0203,W,0.11,7.95,010412,,,D*7A
$GPGGA,171329.000,3353.7527,N,09832.0204,W,2,06,1.6,317.4,M,-23.7,M,0.8,0000*48
$GPGSA,A,3,14,21,31,18,22,09,,,,,,,2.9,1.6,2.4*3C
$GPRMC,171329.000,A,3353.7527,N,09832.0204,W,0.07,3.96,010412,,,D*7C
$GPGGA,171330.000,3353.7527,N,09832.0204,W,2,06,1.6,317.3,M,-23.7,M,0.8,0000*47
$GPGSA,A,3,14,21,31,18,22,09,,,,,,,2.9,1.6,2.4*3C
$GPRMC,171330.000,A,3353.7527,N,09832.0204,W,0.05,346.97,010412,,,D*75
$GPGGA,171331.000,3353.7527,N,09832.0204,W,2,06,1.6,317.3,M,-23.7,M,0.8,0000*46
$GPGSA,A,3,14,21,31,18,22,09,,,,,,,2.9,1.6,2.4*3C
$GPRMC,171331.000,A,3353.7527,N,09832.0204,W,0.09,27.97,010412,,,D*4C
$GPGGA,171332.000,3353.7527,N,09832.0209,W,2,06,1.6,316.2,M,-23.7,M,1.8,0000*49
$GPGSA,A,3,14,21,31,18,22,09,,,,,,,2.9,1.6,2.4*3C
$GPRMC,171332.000,A,3353.7527,N,09832.0209,W,0.05,331.67,010412,,,D*75
$GPGGA,171333.000,3353.7526,N,09832.0209,W,2,06,1.6,316.1,M,-23.7,M,0.8,0000*4B
$GPGSA,A,3,14,21,31,18,22,09,,,,,,,2.9,1.6,2.4*3C
$GPGSV,3,1,12,22,68,005,36,14,68,283,28,18,43,085,27,21,25,157,36*7A
$GPGSV,3,2,12,09,23,043,30,31,19,189,27,19,17,283,16,06,12,236,*7A
$GPGSV,3,3,12,03,09,247,18,11,08,317,,27,06,035,19,12,04,087,*70
$GPRMC,171333.000,A,3353.7526,N,09832.0209,W,0.03,37.54,010412,,,D*46
$GPGGA,171334.000,3353.7526,N,09832.0213,W,2,06,1.6,315.1,M,-23.7,M,0.8,0000*44
$GPGSA,A,3,14,21,31,18,22,09,,,,,,,2.9,1.6,2.4*3C
$GPRMC,171334.000,A,3353.7526,N,09832.0213,W,0.06,293.47,010412,,,D*71
$GPGGA,171335.000,3353.7526,N,09832.0212,W,2,06,1.6,315.0,M,-23.7,M,0.8,0000*45
$GPGSA,A,3,14,21,31,18,22,09,,,,,,,2.9,1.6,2.4*3C
$GPRMC,171335.000,A,3353.7526,N,09832.0212,W,0.08,37.79,010412,,,D*4E
$GPGGA,171336.000,3353.7526,N,09832.0215,W,2,06,1.6,314.8,M,-23.7,M,1.8,0000*49
$GPGSA,A,3,14,21,31,18,22,09,,,,,,,2.9,1.6,2.4*3C
$GPRMC,171336.000,A,3353.7526,N,09832.0215,W,0.07,321.65,010412,,,D*7C
$GPGGA,171337.000,3353.7526,N,09832.0219,W,2,06,1.6,313.9,M,-23.7,M,2.8,0000*41
$GPGSA,A,3,14,21,31,18,22,09,,,,,,,2.9,1.6,2.4*3C
$GPRMC,171337.000,A,3353.7526,N,09832.0219,W,0.08,338.35,010412,,,D*73
$GPGGA,171338.000,3353.7526,N,09832.0223,W,2,06,1.6,313.2,M,-23.7,M,3.8,0000*4D
$GPGSA,A,3,14,21,31,18,22,09,,,,,,,2.9,1.6,2.4*3C
$GPRMC,171338.000,A,3353.7526,N,09832.0223,W,0.15,302.90,010412,,,D*7F
$GPGGA,171339.000,3353.7526,N,09832.0226,W,2,06,1.6,312.7,M,-23.7,M,0.8,0000*4E
$GPGSA,A,3,14,21,31,18,22,09,,,,,,,2.9,1.6,2.4*3C
$GPRMC,171339.000,A,3353.7526,N,09832.0226,W,0.18,310.42,010412,,,D*7A
$GPGGA,171340.000,3353.7526,N,09832.0229,W,2,06,1.6,312.3,M,-23.7,M,0.8,0000*4B
$GPGSA,A,3,14,21,31,18,22,09,,,,,,,2.9,1.6,2.4*3C
$GPRMC,171340.000,A,3353.7526,N,09832.0229,W,0.21,322.56,010412,,,D*75
$GPGGA,171341.000,3353.7526,N,09832.0231,W,2,06,1.6,312.0,M,-23.7,M,0.8,0000*40
$GPGSA,A,3,14,21,31,18,22,09,,,,,,,2.9,1.6,2.4*3C
$GPRMC,171341.000,A,3353.7526,N,09832.0231,W,0.18,307.26,010412,,,D*77
$GPGGA,171342.000,3353.7526,N,09832.0232,W,2,06,1.6,311.8,M,-23.7,M,1.8,0000*4A
$GPGSA,A,3,14,21,31,18,22,09,,,,,,,2.9,1.6,2.4*3C
$GPGSV,3,1,12,22,68,005,37,14,68,283,26,18,43,085,27,21,25,157,37*74
$GPGSV,3,2,12,09,23,043,31,31,19,189,28,19,17,283,16,06,12,236,*74
$GPGSV,3,3,12,03,09,247,18,11,08,317,,27,06,035,19,12,04,087,*70
$GPRMC,171342.000,A,3353.7526,N,09832.0232,W,0.18,316.45,010412,,,D*72
$GPGGA,171343.000,3353.7526,N,09832.0234,W,2,06,1.6,311.7,M,-23.7,M,2.8,0000*41
$GPGSA,A,3,14,21,31,18,22,09,,,,,,,2.9,1.6,2.4*3C
$GPGSV,3,1,12,22,68,005,37,14,68,283,26,18,43,085,27,21,25,157,37*74
$GPGSV,3,2,12,09,23,043,31,31,19,189,28,19,17,283,16,06,12,236,*74
$GPGSV,3,3,12,03,09,247,19,11,08,317,,27,06,035,19,12,04,087,*71
$GPRMC,171343.000,A,3353.7526,N,09832.0234,W,0.14,322.43,010412,,,D*78
$GPGGA,171344.000,3353.7526,N,09832.0235,W,2,06,1.6,311.6,M,-23.7,M,3.8,0000*47
$GPGSA,A,3,14,21,31,18,22,09,,,,,,,2.9,1.6,2.4*3C
$GPRMC,171344.000,A,3353.7526,N,09832.0235,W,0.11,315.34,010412,,,D*7F
$GPGGA,171345.000,3353.7526,N,09832.0237,W,2,06,1.6,311.5,M,-23.7,M,0.8,0000*44
$GPGSA,A,3,14,21,31,18,22,09,,,,,,,2.9,1.6,2.4*3C
$GPRMC,171345.000,A,3353.7526,N,09832.0237,W,0.07,324.92,010412,,,D*75
$GPGGA,171346.000,3353.7526,N,09832.0238,W,2,06,1.6,311.2,M,-23.7,M,0.8,0000*4F
$GPGSA,A,3,14,21,31,18,22,09,,,,,,,2.9,1.6,2.4*3C
$GPRMC,171346.000,A,3353.7526,N,09832.0238,W,0.02,31.61,010412,,,D*47
$GPGGA,171347.000,3353.7526,N,09832.0239,W,2,06,1.6,311.0,M,-23.7,M,0.8,0000*4D
$GPGSA,A,3,14,21,31,18,22,09,,,,,,,2.9,1.6,2.4*3C
$GPRMC,171347.000,A,3353.7526,N,09832.0239,W,0.09,57.66,010412,,,D*4B
$GPGGA,171348.000,3353.7526,N,09832.0241,W,2,06,1.6,310.7,M,-23.7,M,0.8,0000*4B
$GPGSA,A,3,14,21,31,18,22,09,,,,,,,2.9,1.6,2.4*3C
$GPGSV,3,1,12,22,68,005,37,14,68,283,26,18,43,085,27,21,25,157,37*74
$GPGSV,3,2,12,09,23,043,31,31,19,189,28,19,17,283,18,06,12,236,*7A
$GPGSV,3,3,12,03,09,247,20,11,08,317,,27,06,035,19,12,04,087,*7B
$GPRMC,171348.000,A,3353.7526,N,09832.0241,W,0.08,18.63,010412,,,D*44
$GPGGA,171349.000,3353.7526,N,09832.0242,W,2,06,1.6,310.5,M,-23.7,M,0.8,0000*4B
$GPGSA,A,3,14,21,31,18,22,09,,,,,,,2.9,1.6,2.4*3C
$GPRMC,171349.000,A,3353.7526,N,09832.0242,W,0.06,334.88,010412,,,D*70
$GPGGA,171350.000,3353.7526,N,09832.0243,W,2,06,1.6,310.2,M,-23.7,M,1.8,0000*44
$GPGSA,A,3,14,21,31,18,22,09,,,,,,,2.9,1.6,2.4*3C
$GPRMC,171350.000,A,3353.7526,N,09832.0243,W,0.09,20.07,010412,,,D*47
$GPGGA,171351.000,3353.7526,N,09832.0244,W,2,06,1.6,310.1,M,-23.7,M,0.8,0000*40
$GPGSA,A,3,14,21,31,18,22,09,,,,,,,2.9,1.6,2.4*3C
$GPRMC,171351.000,A,3353.7526,N,09832.0244,W,0.11,356.95,010412,,,D*71
$GPGGA,171352.000,3353.7526,N,09832.0245,W,2,06,1.6,310.1,M,-23.7,M,0.8,0000*42
$GPGSA,A,3,14,21,31,18,22,09,,,,,,,2.9,1.6,2.4*3C
$GPRMC,171352.000,A,3353.7526,N,09832.0245,W,0.14,354.77,010412,,,D*78
$GPGGA,171353.000,3353.7526,N,09832.0246,W,2,06,1.6,310.1,M,-23.7,M,0.8,0000*40
$GPGSA,A,3,14,21,31,18,22,09,,,,,,,2.9,1.6,2.4*3C
$GPGSV,3,1,12,22,68,005,37,14,68,283,26,18,43,085,27,21,25,157,37*74
$GPGSV,3,2,12,09,23,043,31,31,19,189,29,19,17,283,19,06,12,236,*7A
$GPGSV,3,3,12,03,09,247,20,11,08,317,,27,06,035,19,12,04,087,*7B
$GPRMC,171353.000,A,3353.7526,N,09832.0246,W,0.09,0.47,010412,,,D*77
$GPGGA,171354.000,3353.7525,N,09832.0241,W,2,06,1.6,310.0,M,-23.7,M,1.8,0000*43
$GPGSA,A,3,14,21,31,18,22,09,,,,,,,2.9,1.6,2.4*3C
$GPRMC,171354.000,A,3353.7525,N,09832.0241,W,0.09,56.35,010412,,,D*42
$GPGGA,171355.000,3353.7525,N,09832.0236,W,2,06,1.6,309.9,M,-23.7,M,0.8,0000*42
$GPGSA,A,3,14,21,31,18,22,09,,,,,,,2.9,1.6,2.4*3C
$GPRMC,171355.000,A,3353.7525,N,09832.0236,W,0.15,69.09,010412,,,D*4D
$GPGGA,171356.000,3353.7522,N,09832.0227,W,2,06,1.6,310.8,M,-23.7,M,1.8,0000*4E
$GPGSA,A,3,14,21,31,18,22,09,,,,,,,2.9,1.6,2.4*3C
$GPRMC,171356.000,A,3353.7522,N,09832.0227,W,0.37,89.81,010412,,,D*47
$GPGGA,171357.000,3353.7521,N,09832.0222,W,2,06,1.6,311.0,M,-23.7,M,0.8,0000*41
$GPGSA,A,3,14,21,31,18,22,09,,,,,,,2.9,1.6,2.4*3C
$GPRMC,171357.000,A,3353.7521,N,09832.0222,W,0.46,95.41,010412,,,D*47
$GPGGA,171358.000,3353.7520,N,09832.0216,W,2,06,1.6,311.3,M,-23.7,M,0.8,0000*4B
$GPGSA,A,3,14,21,31,18,22,09,,,,,,,2.9,1.6,2.4*3C
$GPRMC,171358.000,A,3353.7520,N,09832.0216,W,0.43,98.41,010412,,,D*46
$GPGGA,171359.000,3353.7519,N,09832.0212,W,2,06,1.6,311.5,M,-23.7,M,0.8,0000*42
$GPGSA,A,3,14,21,31,18,22,09,,,,,,,2.9,1.6,2.4*3C
$GPRMC,171359.000,A,3353.7519,N,09832.0212,W,0.22,106.73,010412,,,D*79
$GPGGA,171400.000,3353.7517,N,09832.0204,W,2,06,1.6,312.4,M,-23.7,M,1.8,0000*43
$GPGSA,A,3,14,21,31,18,22,09,,,,,,,2.9,1.6,2.4*3C
$GPRMC,171400.000,A,3353.7517,N,09832.0204,W,0.24,111.64,010412,,,D*7D
$GPGGA,171401.000,3353.7516,N,09832.0198,W,2,06,1.6,313.1,M,-23.7,M,0.8,0000*40
$GPGSA,A,3,14,21,31,18,22,09,,,,,,,2.9,1.6,2.4*3C
$GPRMC,171401.000,A,3353.7516,N,09832.0198,W,0.34,101.55,010412,,,D*79
$GPGGA,171402.000,3353.7515,N,09832.0195,W,2,06,1.6,313.4,M,-23.7,M,1.8,0000*49
$GPGSA,A,3,14,21,31,18,22,09,,,,,,,2.9,1.6,2.4*3C
$GPGSV,3,1,12,22,68,005,37,14,68,283,27,18,43,085,21,21,25,157,38*7C
$GPGSV,3,2,12,09,23,043,31,31,19,189,30,19,17,283,20,06,12,236,*78
$GPGSV,3,3,12,03,09,247,18,11,08,317,,27,06,035,18,12,04,087,*71
$GPRMC,171402.000,A,3353.7515,N,09832.0195,W,0.51,102.39,010412,,,D*7E
$GPGGA,171403.000,3353.7514,N,09832.0192,W,2,06,1.6,313.7,M,-23.7,M,0.8,0000*4C
$GPGSA,A,3,14,21,31,18,22,09,,,,,,,2.9,1.6,2.4*3C
$GPGSV,3,1,12,22,68,005,37,14,68,283,27,18,43,085,21,21,25,157,38*7C
$GPGSV,3,2,12,09,23,043,31,31,19,189,30,19,17,283,19,06,12,236,*72
$GPGSV,3,3,12,03,09,247,17,11,08,317,,27,06,035,18,12,04,087,*7E
$GPRMC,171403.000,A,3353.7514,N,09832.0192,W,0.60,97.84,010412,,,D*40
$GPGGA,171404.000,3353.7514,N,09832.0192,W,2,06,1.6,313.6,M,-23.7,M,0.8,0000*4A
$GPGSA,A,3,14,21,31,18,22,09,,,,,,,2.9,1.6,2.4*3C
$GPRMC,171404.000,A,3353.7514,N,09832.0192,W,0.55,96.40,010412,,,D*48
$GPGGA,171405.000,3353.7513,N,09832.0187,W,2,06,1.6,314.3,M,-23.7,M,0.8,0000*4A
$GPGSA,A,3,14,21,31,18,22,09,,,,,,,2.9,1.6,2.4*3C
$GPRMC,171405.000,A,3353.7513,N,09832.0187,W,0.67,98.22,010412,,,D*41
$GPGGA,171406.000,3353.7513,N,09832.0185,W,2,06,1.6,314.5,M,-23.7,M,1.8,0000*4C
$GPGSA,A,3,14,21,31,18,22,09,,,,,,,2.9,1.6,2.4*3C
$GPRMC,171406.000,A,3353.7513,N,09832.0185,W,0.65,98.37,010412,,,D*46
$GPGGA,171407.000,3353.7513,N,09832.0188,W,2,06,1.6,314.1,M,-23.7,M,2.8,0000*47
$GPGSA,A,3,14,21,31,18,22,09,,,,,,,2.9,1.6,2.4*3C
$GPRMC,171407.000,A,3353.7513,N,09832.0188,W,0.27,108.96,010412,,,D*7F
$GPGGA,171408.000,3353.7515,N,09832.0194,W,2,06,1.6,313.1,M,-23.7,M,3.8,0000*45
$GPGSA,A,3,14,21,31,18,22,09,,,,,,,2.9,1.6,2.4*3C
$GPGSV,3,1,12,22,68,005,37,14,68,283,27,18,43,085,22,21,25,157,38*7F
$GPGSV,3,2,12,09,23,043,31,31,19,189,30,19,17,283,20,06,12,236,*78
$GPGSV,3,3,12,03,09,247,17,11,08,317,,27,06,035,17,12,04,087,*71
$GPRMC,171408.000,A,3353.7515,N,09832.0194,W,0.08,279.52,010412,,,D*7B
$GPGGA,171409.000,3353.7515,N,09832.0190,W,2,06,1.6,314.1,M,-23.7,M,0.8,0000*44
$GPGSA,A,3,14,21,31,18,22,09,,,,,,,2.9,1.6,2.4*3C
$GPRMC,171409.000,A,3353.7515,N,09832.0190,W,0.12,123.98,010412,,,D*7F
$GPGGA,171410.000,3353.7514,N,09832.0187,W,2,06,1.6,314.8,M,-23.7,M,0.8,0000*42
$GPGSA,A,3,14,21,31,18,22,09,,,,,,,2.9,1.6,2.4*3C
$GPRMC,171410.000,A,3353.7514,N,09832.0187,W,0.12,122.84,010412,,,D*7C
$GPGGA,171411.000,3353.7514,N,09832.0183,W,2,06,1.6,315.6,M,-23.7,M,0.8,0000*48
$GPGSA,A,3,14,21,31,18,22,09,,,,,,,2.9,1.6,2.4*3C
$GPRMC,171411.000,A,3353.7514,N,09832.0183,W,0.57,100.26,010412,,,D*70
$GPGGA,171412.000,3353.7514,N,09832.0181,W,2,06,1.6,315.9,M,-23.7,M,1.8,0000*47
$GPGSA,A,3,14,21,31,18,22,09,,,,,,,2.9,1.6,2.4*3C
$GPRMC,171412.000,A,3353.7514,N,09832.0181,W,0.45,103.26,010412,,,D*71
$GPGGA,171413.000,3353.7515,N,09832.0184,W,2,06,1.6,315.6,M,-23.7,M,2.8,0000*4E
$GPGSA,A,3,14,21,31,18,22,09,,,,,,,2.9,1.6,2.3*3B
$GPGSV,3,1,12,22,68,005,37,14,68,283,27,18,43,085,22,21,25,157,38*7F
$GPGSV,3,2,12,09,23,043,31,31,19,189,31,19,17,283,19,06,12,236,*73
$GPGSV,3,3,12,03,09,247,18,11,08,317,,27,06,035,16,12,04,087,*7F
$GPRMC,171413.000,A,3353.7515,N,09832.0184,W,0.11,120.97,010412,,,D*7E
$GPGGA,171414.000,3353.7516,N,09832.0186,W,2,06,1.6,315.3,M,-23.7,M,3.8,0000*4C
$GPGSA,A,3,14,21,31,18,22,09,,,,,,,2.9,1.6,2.3*3B
$GPRMC,171414.000,A,3353.7516,N,09832.0186,W,0.14,98.68,010412,,,D*4F
$GPGGA,171415.000,3353.7517,N,09832.0189,W,2,06,1.6,315.0,M,-23.7,M,0.8,0000*43
$GPGSA,A,3,14,21,31,18,22,09,,,,,,,2.9,1.6,2.3*3B
$GPRMC,171415.000,A,3353.7517,N,09832.0189,W,0.03,248.75,010412,,,D*75
$GPGGA,171416.000,3353.7518,N,09832.0192,W,2,06,1.6,314.7,M,-23.7,M,0.8,0000*43
$GPGSA,A,3,14,21,31,18,22,09,,,,,,,2.9,1.6,2.3*3B
$GPRMC,171416.000,A,3353.7518,N,09832.0192,W,0.12,71.72,010412,,,D*4C
$GPGGA,171417.000,3353.7519,N,09832.0193,W,2,06,1.6,314.8,M,-23.7,M,0.8,0000*4D
$GPGSA,A,3,14,21,31,18,22,09,,,,,,,2.9,1.6,2.3*3B
$GPRMC,171417.000,A,3353.7519,N,09832.0193,W,0.31,83.40,010412,,,D*40
$GPGGA,171418.000,3353.7520,N,09832.0196,W,2,06,1.6,314.3,M,-23.7,M,0.8,0000*46
$GPGSA,A,3,14,21,31,18,22,09,,,,,,,2.9,1.6,2.3*3B
$GPGSV,3,1,12,22,68,005,37,14,68,283,27,18,43,085,22,21,25,157,38*7F
$GPGSV,3,2,12,09,23,043,30,31,19,189,32,19,17,283,19,06,12,236,*71
$GPGSV,3,3,12,03,09,247,18,11,08,317,,27,06,035,16,12,04,087,*7F
$GPRMC,171418.000,A,3353.7520,N,09832.0196,W,0.04,312.80,010412,,,D*71
$GPGGA,171419.000,3353.7521,N,09832.0199,W,2,06,1.6,314.0,M,-23.7,M,1.8,0000*4B
$GPGSA,A,3,14,21,31,18,22,09,,,,,,,2.9,1.6,2.3*3B
$GPRMC,171419.000,A,3353.7521,N,09832.0199,W,0.07,312.08,010412,,,D*7D
$GPGGA,171420.000,3353.7523,N,09832.0203,W,2,06,1.6,313.3,M,-23.7,M,2.8,0000*44
$GPGSA,A,3,14,21,31,18,22,09,,,,,,,2.9,1.6,2.3*3B
$GPRMC,171420.000,A,3353.7523,N,09832.0203,W,0.13,33.27,010412,,,D*4D
$GPGGA,171421.000,3353.7524,N,09832.0204,W,2,06,1.6,313.0,M,-23.7,M,0.8,0000*44
$GPGSA,A,3,14,21,31,18,22,09,,,,,,,2.9,1.6,2.3*3B
$GPRMC,171421.000,A,3353.7524,N,09832.0204,W,0.03,333.12,010412,,,D*78
$GPGGA,171422.000,3353.7525,N,09832.0206,W,2,06,1.6,312.9,M,-23.7,M,0.8,0000*4C
$GPGSA,A,3,14,21,31,18,22,09,,,,,,,2.9,1.6,2.3*3B
$GPGSV,3,1,12,22,68,005,37,14,68,283,27,18,43,085,23,21,25,157,38*7E
$GPGSV,3,2,12,09,23,043,30,31,19,189,32,19,17,283,18,06,12,236,*70
$GPGSV,3,3,12,03,09,247,19,11,08,317,,27,06,035,17,12,04,087,*7F
$GPRMC,171422.000,A,3353.7525,N,09832.0206,W,0.21,69.34,010412,,,D*40
$GPGGA,171423.000,3353.7525,N,09832.0204,W,2,06,1.6,313.4,M,-23.7,M,0.8,0000*43
$GPGSA,A,3,14,21,31,18,22,09,,,,,,,2.9,1.6,2.3*3B
$GPGSV,3,1,12,22,68,005,37,14,68,283,26,18,43,085,23,21,25,157,38*7F
$GPGSV,3,2,12,09,23,043,29,31,19,189,32,19,17,283,18,06,12,236,*78
$GPGSV,3,3,12,03,09,247,19,11,08,317,,27,06,035,17,12,04,087,*7F
$GPRMC,171423.000,A,3353.7525,N,09832.0204,W,0.03,116.18,010412,,,D*74
$GPGGA,171424.000,3353.7524,N,09832.0197,W,2,06,1.6,314.6,M,-23.7,M,1.8,0000*48
$GPGSA,A,3,14,21,31,18,22,09,,,,,,,2.9,1.6,2.3*3B
$GPRMC,171424.000,A,3353.7524,N,09832.0197,W,0.17,103.32,010412,,,D*72
$GPGGA,171425.000,3353.7522,N,09832.0189,W,2,06,1.6,316.1,M,-23.7,M,0.8,0000*44
$GPGSA,A,3,14,21,31,18,22,09,,,,,,,2.9,1.6,2.3*3B
$GPRMC,171425.000,A,3353.7522,N,09832.0189,W,0.37,105.95,010412,,,D*73
$GPGGA,171426.000,3353.7522,N,09832.0187,W,2,05,2.5,316.5,M,-23.7,M,1.8,0000*4F
$GPGSA,A,3,14,21,31,22,09,,,,,,,,4.0,2.5,3.1*3E
$GPRMC,171426.000,A,3353.7522,N,09832.0187,W,0.17,109.19,010412,,,D*74
$GPGGA,171427.000,3353.7522,N,09832.0186,W,2,05,2.5,316.9,M,-23.7,M,0.8,0000*42
$GPGSA,A,3,14,21,31,22,09,,,,,,,,4.0,2.5,3.1*3E
$GPRMC,171427.000,A,3353.7522,N,09832.0186,W,0.06,121.53,010412,,,D*70
$GPGGA,171428.000,3353.7522,N,09832.0185,W,2,05,2.5,317.2,M,-23.7,M,0.8,0000*44
$GPGSA,A,3,14,21,31,22,09,,,,,,,,4.0,2.5,3.1*3E
$GPGSV,3,1,12,22,68,005,37,14,68,283,26,18,43,085,15,21,25,157,38*7A
$GPGSV,3,2,12,09,23,043,29,31,19,189,33,19,17,283,17,06,12,236,*76
$GPGSV,3,3,12,03,09,247,19,11,08,317,,27,06,035,17,12,04,087,*7F
$GPRMC,171428.000,A,3353.7522,N,09832.0185,W,0.09,126.84,010412,,,D*7E
$GPGGA,171429.000,3353.7521,N,09832.0183,W,2,05,2.5,317.6,M,-23.7,M,0.8,0000*44
$GPGSA,A,3,14,21,31,22,09,,,,,,,,4.0,2.5,3.1*3E
$GPRMC,171429.000,A,3353.7521,N,09832.0183,W,0.09,122.96,010412,,,D*7D
$GPGGA,171430.000,3353.7521,N,09832.0182,W,2,05,2.5,317.9,M,-23.7,M,1.8,0000*43
$GPGSA,A,3,14,21,31,22,09,,,,,,,,4.0,2.5,3.1*3E
$GPRMC,171430.000,A,3353.7521,N,09832.0182,W,0.12,107.42,010412,,,D*70
$GPGGA,171431.000,3353.7521,N,09832.0180,W,2,05,2.5,318.2,M,-23.7,M,2.8,0000*47
$GPGSA,A,3,14,21,31,22,09,,,,,,,,4.0,2.5,3.1*3E
$GPRMC,171431.000,A,3353.7521,N,09832.0180,W,0.03,184.47,010412,,,D*7D
$GPGGA,171432.000,3353.7522,N,09832.0182,W,2,05,2.5,318.8,M,-23.7,M,3.8,0000*4E
$GPGSA,A,3,14,21,31,22,09,,,,,,,,4.0,2.5,3.1*3E
$GPRMC,171432.000,A,3353.7522,N,09832.0182,W,0.24,99.82,010412,,,D*4E
$GPGGA,171433.000,3353.7522,N,09832.0183,W,2,05,2.5,319.2,M,-23.7,M,0.8,0000*46
$GPGSA,A,3,14,21,31,22,09,,,,,,,,4.0,2.5,3.1*3E
$GPGSV,3,1,12,22,68,005,37,14,68,283,19,18,43,085,,21,25,157,38*72
$GPGSV,3,2,12,09,23,043,29,31,19,189,33,19,17,283,18,06,12,236,20*7B
$GPGSV,3,3,12,03,09,247,19,11,08,317,,27,06,035,17,12,04,087,*7F
$GPRMC,171433.000,A,3353.7522,N,09832.0183,W,0.27,103.69,010412,,,D*7A
$GPGGA,171434.000,3353.7522,N,09832.0185,W,2,05,2.5,319.6,M,-23.7,M,0.8,0000*43
$GPGSA,A,3,14,21,31,22,09,,,,,,,,4.0,2.5,3.1*3E
$GPRMC,171434.000,A,3353.7522,N,09832.0185,W,0.55,101.68,010412,,,D*7D
$GPGGA,171435.000,3353.7522,N,09832.0185,W,2,05,2.5,319.9,M,-23.7,M,0.8,0000*4D
$GPGSA,A,3,14,21,31,22,09,,,,,,,,4.0,2.5,3.1*3E
$GPRMC,171435.000,A,3353.7522,N,09832.0185,W,0.42,103.42,010412,,,D*70
$GPGGA,171436.000,3353.7522,N,09832.0183,W,2,05,2.5,320.2,M,-23.7,M,0.8,0000*49
$GPGSA,A,3,14,21,31,22,09,,,,,,,,4.0,2.5,3.1*3E
$GPRMC,171436.000,A,3353.7522,N,09832.0183,W,0.27,100.42,010412,,,D*75
$GPGGA,171437.000,3353.7522,N,09832.0185,W,2,05,2.5,320.5,M,-23.7,M,0.8,0000*49
$GPGSA,A,3,14,21,31,22,09,,,,,,,,4.0,2.5,3.1*3E
$GPRMC,171437.000,A,3353.7522,N,09832.0185,W,0.56,101.36,010412,,,D*76
$GPGGA,171438.000,3353.7522,N,09832.0185,W,2,05,2.5,320.8,M,-23.7,M,0.8,0000*4B
$GPGSA,A,3,14,21,31,22,09,,,,,,,,4.0,2.5,3.1*3E
$GPGSV,3,1,12,22,68,005,37,14,68,283,21,18,43,085,,21,25,157,38*79
$GPGSV,3,2,12,09,23,043,29,31,19,189,33,19,17,283,18,06,12,236,19*71
$GPGSV,3,3,12,03,09,247,18,11,08,317,,27,06,035,17,12,04,087,*7E
$GPRMC,171438.000,A,3353.7522,N,09832.0185,W,0.76,102.10,010412,,,D*7C
$GPGGA,171439.000,3353.7523,N,09832.0188,W,2,05,2.5,321.1,M,-23.7,M,0.8,0000*4E
$GPGSA,A,3,14,21,31,22,09,,,,,,,,4.0,2.5,3.1*3E
$GPRMC,171439.000,A,3353.7523,N,09832.0188,W,0.33,100.89,010412,,,D*72
$GPGGA,171440.000,3353.7523,N,09832.0189,W,2,06,1.6,321.3,M,-23.7,M,0.8,0000*40
$GPGSA,A,3,14,21,31,18,22,09,,,,,,,2.9,1.6,2.3*3B
$GPRMC,171440.000,A,3353.7523,N,09832.0189,W,0.03,151.38,010412,,,D*70
$GPGGA,171441.000,3353.7523,N,09832.0188,W,2,06,1.6,321.6,M,-23.7,M,0.8,0000*45
$GPGSA,A,3,14,21,31,18,22,09,,,,,,,2.9,1.6,2.3*3B
$GPRMC,171441.000,A,3353.7523,N,09832.0188,W,0.06,242.24,010412,,,D*79
$GPGGA,171442.000,3353.7523,N,09832.0186,W,2,06,1.6,322.2,M,-23.7,M,0.8,0000*4F
$GPGSA,A,3,14,21,31,18,22,09,,,,,,,2.9,1.6,2.3*3B
$GPGSV,3,1,12,22,68,005,37,14,68,283,21,18,43,085,20,21,25,157,38*7B
$GPGSV,3,2,12,09,23,043,28,31,19,189,33,19,17,283,18,06,12,236,18*71
$GPGSV,3,3,12,03,09,247,17,11,08,317,,27,06,035,16,12,04,087,*70
$GPRMC,171442.000,A,3353.7523,N,09832.0186,W,0.33,103.34,010412,,,D*75
$GPGGA,171443.000,3353.7523,N,09832.0189,W,2,06,1.6,322.5,M,-23.7,M,1.8,0000*47
$GPGSA,A,3,14,21,31,18,22,09,,,,,,,2.9,1.6,2.3*3B
$GPGSV,3,1,12,22,68,005,37,14,68,283,21,18,43,085,20,21,25,157,38*7B
$GPGSV,3,2,12,09,23,043,28,31,19,189,33,19,17,283,17,06,12,236,18*7E
$GPGSV,3,3,12,03,09,247,17,11,08,317,,27,06,035,16,12,04,087,*70
$GPRMC,171443.000,A,3353.7523,N,09832.0189,W,0.37,110.76,010412,,,D*7B
$GPGGA,171444.000,3353.7524,N,09832.0193,W,2,06,1.6,322.3,M,-23.7,M,2.8,0000*49
$GPGSA,A,3,14,21,31,18,22,09,,,,,,,2.9,1.6,2.3*3B
$GPRMC,171444.000,A,3353.7524,N,09832.0193,W,0.09,238.58,010412,,,D*78
$GPGGA,171445.000,3353.7525,N,09832.0193,W,2,06,1.6,322.0,M,-23.7,M,0.8,0000*48
$GPGSA,A,3,14,21,31,18,22,09,,,,,,,2.9,1.6,2.3*3B
$GPRMC,171445.000,A,3353.7525,N,09832.0193,W,0.30,115.96,010412,,,D*7C
$GPGGA,171446.000,3353.7526,N,09832.0197,W,2,06,1.6,321.7,M,-23.7,M,0.8,0000*48
$GPGSA,A,3,14,21,31,18,22,09,,,,,,,2.9,1.6,2.3*3B
$GPRMC,171446.000,A,3353.7526,N,09832.0197,W,0.11,96.07,010412,,,D*49
$GPGGA,171447.000,3353.7525,N,09832.0192,W,2,06,1.6,322.3,M,-23.7,M,0.8,0000*48
$GPGSA,A,3,14,21,31,18,22,09,,,,,,,2.9,1.6,2.3*3B
$GPRMC,171447.000,A,3353.7525,N,09832.0192,W,0.79,98.53,010412,,,D*4F
$GPGGA,171448.000,3353.7525,N,09832.0189,W,2,06,1.6,322.1,M,-23.7,M,1.8,0000*4E
$GPGSA,A,3,14,21,31,18,22,09,,,,,,,2.9,1.6,2.3*3B
$GPGSV,3,1,12,22,68,005,37,14,68,283,21,18,43,085,21,21,25,157,38*7A
$GPGSV,3,2,12,09,23,043,27,31,19,189,33,19,17,283,15,06,12,236,19*72
$GPGSV,3,3,12,03,09,247,16,11,08,317,,27,06,035,15,12,04,087,*72
$GPRMC,171448.000,A,3353.7525,N,09832.0189,W,0.88,100.17,010412,,,D*74
$GPGGA,171449.000,3353.7531,N,09832.0193,W,2,06,1.6,319.4,M,-23.7,M,0.8,0000*4D
$GPGSA,A,3,14,21,31,18,22,09,,,,,,,2.9,1.6,2.3*3B
$GPRMC,171449.000,A,3353.7531,N,09832.0193,W,0.10,31.82,010412,,,D*45
$GPGGA,171450.000,3353.7536,N,09832.0199,W,2,06,1.6,316.9,M,-23.7,M,1.8,0000*4B
$GPGSA,A,3,14,21,31,18,22,09,,,,,,,2.9,1.6,2.3*3B
$GPRMC,171450.000,A,3353.7536,N,09832.0199,W,0.29,319.85,010412,,,D*74
$GPGGA,171451.000,3353.7540,N,09832.0205,W,2,06,1.6,315.3,M,-23.7,M,0.8,0000*45
$GPGSA,A,3,14,21,31,18,22,09,,,,,,,2.9,1.6,2.3*3B
$GPRMC,171451.000,A,3353.7540,N,09832.0205,W,0.22,6.70,010412,,,D*7E
$GPGGA,171452.000,3353.7545,N,09832.0212,W,2,06,1.6,312.7,M,-23.7,M,0.8,0000*46
$GPGSA,A,3,14,21,31,18,22,09,,,,,,,2.9,1.6,2.3*3B
$GPRMC,171452.000,A,3353.7545,N,09832.0212,W,0.51,331.92,010412,,,D*71
$GPGGA,171453.000,3353.7552,N,09832.0219,W,2,06,1.6,309.6,M,-23.7,M,0.8,0000*41
$GPGSA,A,3,14,21,31,18,22,09,,,,,,,2.9,1.6,2.3*3B
$GPGSV,3,1,12,22,68,005,37,14,68,283,21,18,43,085,26,21,25,157,38*7D
$GPGSV,3,2,12,09,23,043,26,31,19,189,33,19,17,283,15,06,12,236,19*73
$GPGSV,3,3,12,03,09,247,16,11,08,317,,27,06,035,16,12,04,087,*71
$GPRMC,171453.000,A,3353.7552,N,09832.0219,W,0.42,339.89,010412,,,D*7D
$GPGGA,171454.000,3353.7557,N,09832.0224,W,2,06,1.6,307.1,M,-23.7,M,0.8,0000*44
$GPGSA,A,3,14,21,31,18,22,09,,,,,,,2.9,1.6,2.3*3B
$GPRMC,171454.000,A,3353.7557,N,09832.0224,W,0.41,350.49,010412,,,D*71
$GPGGA,171455.000,3353.7560,N,09832.0228,W,2,06,1.6,305.8,M,-23.7,M,1.8,0000*47
$GPGSA,A,3,14,21,31,18,22,09,,,,,,,2.9,1.6,2.3*3B
$GPRMC,171455.000,A,3353.7560,N,09832.0228,W,0.49,21.83,010412,,,D*43
$GPGGA,171456.000,3353.7565,N,09832.0235,W,2,06,1.6,303.1,M,-23.7,M,2.8,0000*41
$GPGSA,A,3,14,21,31,18,22,09,,,,,,,2.9,1.6,2.3*3B
$GPRMC,171456.000,A,3353.7565,N,09832.0235,W,0.44,347.41,010412,,,D*79
$GPGGA,171457.000,3353.7569,N,09832.0240,W,2,06,1.6,300.9,M,-23.7,M,0.8,0000*47
$GPGSA,A,3,14,21,31,18,22,09,,,,,,,2.9,1.6,2.3*3B
$GPRMC,171457.000,A,3353.7569,N,09832.0240,W,0.79,309.28,010412,,,D*7D
$GPGGA,171458.000,3353.7570,N,09832.0237,W,2,06,1.6,300.3,M,-23.7,M,0.8,0000*4A
$GPGSA,A,3,14,21,31,18,22,09,,,,,,,2.9,1.6,2.3*3B
$GPRMC,171458.000,A,3353.7570,N,09832.0237,W,0.47,350.66,010412,,,D*71
$GPGGA,171459.000,3353.7573,N,09832.0238,W,2,06,1.6,298.9,M,-23.7,M,0.8,0000*4D
$GPGSA,A,3,14,21,31,18,22,09,,,,,,,2.9,1.6,2.3*3B
$GPRMC,171459.000,A,3353.7573,N,09832.0238,W,0.67,328.62,010412,,,D*75
$GPGGA,171500.000,3353.7576,N,09832.0241,W,2,06,1.6,297.6,M,-23.7,M,1.8,0000*4A
$GPGSA,A,3,14,21,31,18,22,09,,,,,,,2.9,1.6,2.3*3B
$GPRMC,171500.000,A,3353.7576,N,09832.0241,W,0.82,314.60,010412,,,D*75
$GPGGA,171501.000,3353.7576,N,09832.0236,W,2,06,1.6,297.5,M,-23.7,M,2.8,0000*4B
$GPGSA,A,3,14,21,31,18,22,09,,,,,,,2.9,1.6,2.3*3B
$GPRMC,171501.000,A,3353.7576,N,09832.0236,W,0.44,348.59,010412,,,D*7D
$GPGGA,171502.000,3353.7577,N,09832.0231,W,2,05,2.5,296.8,M,-23.7,M,3.8,0000*40
$GPGSA,A,3,14,21,31,22,09,,,,,,,,4.0,2.5,3.1*3E
$GPRMC,171502.000,A,3353.7577,N,09832.0231,W,0.45,25.45,010412,,,D*4C
$GPGGA,171503.000,3353.7578,N,09832.0228,W,2,06,1.6,295.8,M,-23.7,M,0.8,0000*45
$GPGSA,A,3,14,21,31,18,22,09,,,,,,,2.9,1.6,2.3*3B
$GPGSV,3,1,12,22,68,005,37,14,68,283,21,18,43,085,18,21,25,157,37*7F
$GPGSV,3,2,12,09,23,043,26,31,19,189,32,19,17,283,18,06,12,236,18*7E
$GPGSV,3,3,12,03,09,247,16,11,08,317,,27,06,035,16,12,04,087,*71
$GPRMC,171503.000,A,3353.7578,N,09832.0228,W,0.53,20.85,010412,,,D*44
$GPGGA,171504.000,3353.7579,N,09832.0228,W,2,06,1.6,295.4,M,-23.7,M,0.8,0000*4F
$GPGSA,A,3,14,21,31,18,22,09,,,,,,,2.9,1.6,2.3*3B
$GPRMC,171504.000,A,3353.7579,N,09832.0228,W,0.45,19.95,010412,,,D*4E
$GPGGA,171505.000,3353.7580,N,09832.0233,W,2,06,1.6,294.4,M,-23.7,M,0.8,0000*43
$GPGSA,A,3,14,21,31,18,22,09,,,,,,,2.9,1.6,2.3*3B
$GPRMC,171505.000,A,3353.7580,N,09832.0233,W,0.43,12.02,010412,,,D*40
$GPGGA,171506.000,3353.7580,N,09832.0233,W,2,05,2.5,294.6,M,-23.7,M,0.8,0000*41
$GPGSA,A,3,14,21,31,22,09,,,,,,,,4.0,2.5,3.1*3E
$GPRMC,171506.000,A,3353.7580,N,09832.0233,W,0.37,345.28,010412,,,D*79
$GPGGA,171507.000,3353.7580,N,09832.0235,W,2,06,1.6,294.4,M,-23.7,M,1.8,0000*46
$GPGSA,A,3,14,21,31,18,22,09,,,,,,,2.9,1.6,2.3*3B
$GPRMC,171507.000,A,3353.7580,N,09832.0235,W,0.32,36.40,010412,,,D*42
$GPGGA,171508.000,3353.7581,N,09832.0237,W,2,06,1.6,294.1,M,-23.7,M,2.8,0000*4C
$GPGSA,A,3,14,21,31,18,22,09,,,,,,,2.9,1.6,2.3*3B
$GPGSV,3,1,12,22,68,005,37,14,68,283,21,18,43,085,19,21,25,157,37*7E
$GPGSV,3,2,12,09,23,043,27,31,19,189,31,19,17,283,18,06,12,236,17*73
$GPGSV,3,3,12,03,09,247,15,11,08,317,,27,06,035,15,12,04,087,*71
$GPRMC,171508.000,A,3353.7581,N,09832.0237,W,0.36,323.65,010412,,,D*7A
$GPGGA,171509.000,3353.7581,N,09832.0243,W,2,06,1.6,294.0,M,-23.7,M,0.8,0000*4D
$GPGSA,A,3,14,21,31,18,22,09,,,,,,,2.9,1.6,2.3*3B
$GPRMC,171509.000,A,3353.7581,N,09832.0243,W,0.87,288.51,010412,,,D*75
$GPGGA,171510.000,3353.7582,N,09832.0250,W,2,06,1.6,294.1,M,-23.7,M,0.8,0000*45
$GPGSA,A,3,14,21,31,18,22,09,,,,,,,2.9,1.6,2.3*3B
$GPRMC,171510.000,A,3353.7582,N,09832.0250,W,1.14,286.11,010412,,,D*7D
$GPGGA,171511.000,3353.7582,N,09832.0250,W,2,05,2.5,294.1,M,-23.7,M,0.8,0000*47
$GPGSA,A,3,14,21,31,22,09,,,,,,,,4.0,2.5,3.1*3E
$GPRMC,171511.000,A,3353.7582,N,09832.0250,W,0.36,301.21,010412,,,D*70
$GPGGA,171512.000,3353.7582,N,09832.0248,W,2,06,1.6,293.5,M,-23.7,M,1.8,0000*4C
$GPGSA,A,3,14,21,31,18,22,09,,,,,,,2.9,1.6,2.3*3B
$GPRMC,171512.000,A,3353.7582,N,09832.0248,W,0.32,304.55,010412,,,D*78
$GPGGA,171513.000,3353.7581,N,09832.0242,W,2,05,2.5,293.4,M,-23.7,M,2.8,0000*45
$GPGSA,A,3,14,21,31,22,09,,,,,,,,4.0,2.5,3.1*3E
$GPGSV,3,1,12,22,68,005,36,14,68,283,21,18,43,085,19,21,25,157,37*7F
$GPGSV,3,2,12,09,23,043,27,31,19,189,30,19,17,283,18,06,12,236,16*73
$GPGSV,3,3,12,03,09,247,16,11,08,317,,27,06,035,16,12,04,087,*71
$GPRMC,171513.000,A,3353.7581,N,09832.0242,W,0.16,354.15,010412,,,D*77
$GPGGA,171514.000,3353.7581,N,09832.0242,W,2,05,2.5,293.6,M,-23.7,M,0.8,0000*42
$GPGSA,A,3,14,21,31,22,09,,,,,,,,4.0,2.5,3.1*3E
$GPRMC,171514.000,A,3353.7581,N,09832.0242,W,0.26,311.04,010412,,,D*72
$GPGGA,171515.000,3353.7580,N,09832.0236,W,2,05,2.5,293.6,M,-23.7,M,0.8,0000*41
$GPGSA,A,3,14,21,31,22,09,,,,,,,,4.0,2.5,3.1*3E
$GPRMC,171515.000,A,3353.7580,N,09832.0236,W,0.12,341.31,010412,,,D*75
$GPGGA,171516.000,3353.7579,N,09832.0232,W,2,05,2.5,293.8,M,-23.7,M,0.8,0000*4E
$GPGSA,A,3,14,21,31,22,09,,,,,,,,4.0,2.5,3.1*3E
$GPRMC,171516.000,A,3353.7579,N,09832.0232,W,0.18,52.34,010412,,,D*4A
$GPGGA,171517.000,3353.7578,N,09832.0226,W,2,05,2.5,294.1,M,-23.7,M,0.8,0000*45
$GPGSA,A,3,14,21,31,22,09,,,,,,,,4.0,2.5,3.1*3E
$GPRMC,171517.000,A,3353.7578,N,09832.0226,W,0.50,89.26,010412,,,D*46
$GPGGA,171518.000,3353.7575,N,09832.0218,W,2,06,1.6,295.5,M,-23.7,M,1.8,0000*4D
$GPGSA,A,3,14,21,31,18,22,09,,,,,,,2.9,1.6,2.3*3B
$GPRMC,171518.000,A,3353.7575,N,09832.0218,W,0.11,72.62,010412,,,D*48
$GPGGA,171519.000,3353.7576,N,09832.0223,W,2,06,1.6,295.3,M,-23.7,M,2.8,0000*42
$GPGSA,A,3,14,21,31,18,22,09,,,,,,,2.9,1.6,2.3*3B
$GPRMC,171519.000,A,3353.7576,N,09832.0223,W,0.47,277.68,010412,,,D*7C
$GPGGA,171520.000,3353.7576,N,09832.0227,W,2,06,1.6,295.0,M,-23.7,M,3.8,0000*4E
$GPGSA,A,3,14,21,31,18,22,09,,,,,,,2.9,1.6,2.3*3B
$GPRMC,171520.000,A,3353.7576,N,09832.0227,W,0.51,277.02,010412,,,D*79
$GPGGA,171521.000,3353.7576,N,09832.0229,W,2,05,1.9,295.1,M,-23.7,M,0.8,0000*4F
$GPGSA,A,3,21,31,18,22,09,,,,,,,,3.1,1.9,2.4*3F
$GPRMC,171521.000,A,3353.7576,N,09832.0229,W,0.10,315.29,010412,,,D*7F
$GPGGA,171522.000,3353.7576,N,09832.0232,W,2,05,1.9,294.9,M,-23.7,M,0.8,0000*4F
$GPGSA,A,3,21,31,18,22,09,,,,,,,,3.1,1.9,2.4*3F
$GPGSV,3,1,12,22,68,009,37,14,68,287,11,18,43,086,25,21,24,157,38*77
$GPGSV,3,2,12,09,22,043,27,31,20,189,29,19,17,282,18,06,11,235,16*71
$GPGSV,3,3,12,11,09,316,,03,09,246,17,27,05,034,17,12,04,086,*73
$GPRMC,171522.000,A,3353.7576,N,09832.0232,W,0.08,359.89,010412,,,D*7D
$GPGGA,171523.000,3353.7575,N,09832.0230,W,2,05,1.9,295.5,M,-23.7,M,0.8,0000*42
$GPGSA,A,3,21,31,18,22,09,,,,,,,,3.1,1.9,2.4*3F
$GPGSV,3,1,12,22,68,009,37,14,68,287,11,18,43,086,25,21,24,157,38*77
$GPGSV,3,2,12,09,22,043,28,31,20,189,29,19,17,282,18,06,11,235,16*7E
$GPGSV,3,3,12,11,09,316,,03,09,246,16,27,05,034,17,12,04,086,*72
$GPRMC,171523.000,A,3353.7575,N,09832.0230,W,0.05,340.62,010412,,,D*7D
$GPGGA,171524.000,3353.7576,N,09832.0233,W,2,05,1.9,295.4,M,-23.7,M,1.8,0000*45
$GPGSA,A,3,21,31,18,22,09,,,,,,,,3.1,1.9,2.4*3F
$GPRMC,171524.000,A,3353.7576,N,09832.0233,W,0.06,31.27,010412,,,D*4D
$GPGGA,171525.000,3353.7576,N,09832.0237,W,2,05,1.9,295.0,M,-23.7,M,0.8,0000*45
$GPGSA,A,3,21,31,18,22,09,,,,,,,,3.1,1.9,2.4*3F
$GPRMC,171525.000,A,3353.7576,N,09832.0237,W,0.11,308.81,010412,,,D*7B
$GPGGA,171526.000,3353.7577,N,09832.0243,W,2,05,1.9,294.4,M,-23.7,M,1.8,0000*40
$GPGSA,A,3,21,31,18,22,09,,,,,,,,3.1,1.9,2.4*3F
$GPRMC,171526.000,A,3353.7577,N,09832.0243,W,0.12,326.82,010412,,,D*76
$GPGGA,171527.000,3353.7579,N,09832.0250,W,2,05,1.9,293.5,M,-23.7,M,0.8,0000*4A
$GPGSA,A,3,21,31,18,22,09,,,,,,,,3.1,1.9,2.4*3F
$GPRMC,171527.000,A,3353.7579,N,09832.0250,W,0.12,328.72,010412,,,D*7A
$GPGGA,171528.000,3353.7580,N,09832.0257,W,2,05,1.9,292.7,M,-23.7,M,0.8,0000*47
$GPGSA,A,3,21,31,18,22,09,,,,,,,,3.1,1.9,2.4*3F
$GPGSV,3,1,12,22,68,009,37,14,68,287,12,18,43,086,25,21,24,157,38*74
$GPGSV,3,2,12,09,22,043,28,31,20,189,29,19,17,282,17,06,11,235,18*7F
$GPGSV,3,3,12,11,09,316,,03,09,246,15,27,05,034,18,12,04,086,*7E
$GPRMC,171528.000,A,3353.7580,N,09832.0257,W,0.16,314.49,010412,,,D*77
$GPGGA,171529.000,3353.7581,N,09832.0263,W,2,06,1.6,292.0,M,-23.7,M,0.8,0000*4B
$GPGSA,A,3,14,21,31,18,22,09,,,,,,,2.9,1.6,2.3*3B
$GPRMC,171529.000,A,3353.7581,N,09832.0263,W,0.26,301.06,010412,,,D*7C
$GPGGA,171530.000,3353.7583,N,09832.0270,W,2,05,1.9,291.3,M,-23.7,M,1.8,0000*4E
$GPGSA,A,3,21,31,18,22,09,,,,,,,,3.1,1.9,2.4*3F
$GPRMC,171530.000,A,3353.7583,N,09832.0270,W,0.24,298.03,010412,,,D*72
$GPGGA,171531.000,3353.7584,N,09832.0276,W,2,05,1.9,290.5,M,-23.7,M,2.8,0000*4A
$GPGSA,A,3,21,31,18,22,09,,,,,,,,3.1,1.9,2.4*3F
$GPRMC,171531.000,A,3353.7584,N,09832.0276,W,0.16,324.71,010412,,,D*70
$GPGGA,171532.000,3353.7585,N,09832.0283,W,2,05,1.9,289.8,M,-23.7,M,3.8,0000*46
$GPGSA,A,3,21,31,18,22,09,,,,,,,,3.1,1.9,2.4*3F
$GPRMC,171532.000,A,3353.7585,N,09832.0283,W,0.40,290.08,010412,,,D*7B
$GPGGA,171533.000,3353.7587,N,09832.0291,W,2,05,1.9,288.9,M,-23.7,M,0.8,0000*45
$GPGSA,A,3,21,31,18,22,09,,,,,,,,3.1,1.9,2.4*3F
$GPGSV,3,1,12,22,68,009,37,14,68,287,11,18,43,086,25,21,24,157,38*77
$GPGSV,3,2,12,09,22,043,29,31,20,189,29,19,17,282,16,06,11,235,19*7E
$GPGSV,3,3,12,11,09,316,,03,09,246,,27,05,034,18,12,04,086,*7A
$GPRMC,171533.000,A,3353.7587,N,09832.0291,W,0.31,310.46,010412,,,D*7E
$GPGGA,171534.000,3353.7587,N,09832.0293,W,2,05,1.9,288.9,M,-23.7,M,0.8,0000*40
$GPGSA,A,3,21,31,18,22,09,,,,,,,,3.1,1.9,2.4*3F
$GPRMC,171534.000,A,3353.7587,N,09832.0293,W,0.13,17.20,010412,,,D*4F
$GPGGA,171535.000,3353.7585,N,09832.0289,W,2,05,1.9,289.6,M,-23.7,M,0.8,0000*46
$GPGSA,A,3,21,31,18,22,09,,,,,,,,3.1,1.9,2.4*3F
$GPRMC,171535.000,A,3353.7585,N,09832.0289,W,0.16,327.58,010412,,,D*7D
$GPGGA,171536.000,3353.7583,N,09832.0279,W,2,05,1.9,291.1,M,-23.7,M,1.8,0000*43
$GPGSA,A,3,21,31,18,22,09,,,,,,,,3.1,1.9,2.4*3F
$GPRMC,171536.000,A,3353.7583,N,09832.0279,W,0.19,73.99,010412,,,D*47
$GPGGA,171537.000,3353.7582,N,09832.0277,W,2,05,1.9,291.6,M,-23.7,M,0.8,0000*4B
$GPGSA,A,3,21,31,18,22,09,,,,,,,,3.1,1.9,2.4*3F
$GPRMC,171537.000,A,3353.7582,N,09832.0277,W,0.06,28.07,010412,,,D*4E
$GPGGA,171538.000,3353.7580,N,09832.0270,W,2,05,1.9,292.7,M,-23.7,M,0.8,0000*43
$GPGSA,A,3,21,31,18,22,09,,,,,,,,3.1,1.9,2.4*3F
$GPRMC,171538.000,A,3353.7580,N,09832.0270,W,0.10,296.36,010412,,,D*76
$GPGGA,171539.000,3353.7578,N,09832.0265,W,2,05,1.9,293.7,M,-23.7,M,0.8,0000*40
$GPGSA,A,3,21,31,18,22,09,,,,,,,,3.1,1.9,2.4*3F
$GPRMC,171539.000,A,3353.7578,N,09832.0265,W,0.15,280.78,010412,,,D*7C
$GPGGA,171540.000,3353.7575,N,09832.0260,W,2,05,1.9,294.6,M,-23.7,M,0.8,0000*40
$GPGSA,A,3,21,31,18,22,09,,,,,,,,3.1,1.9,2.4*3F
$GPRMC,171540.000,A,3353.7575,N,09832.0260,W,0.32,259.95,010412,,,D*78
$GPGGA,171541.000,3353.7573,N,09832.0256,W,2,06,1.6,295.5,M,-23.7,M,0.8,0000*4C
$GPGSA,A,3,14,21,31,18,22,09,,,,,,,2.9,1.6,2.3*3B
$GPRMC,171541.000,A,3353.7573,N,09832.0256,W,0.08,139.04,010412,,,D*7E
$GPGGA,171542.000,3353.7570,N,09832.0250,W,2,06,1.6,296.6,M,-23.7,M,0.8,0000*4A
$GPGSA,A,3,14,21,31,18,22,09,,,,,,,2.9,1.6,2.3*3B
$GPGSV,3,1,12,22,68,009,38,14,68,287,16,18,43,086,21,21,24,157,38*7B
$GPGSV,3,2,12,09,22,043,30,31,20,189,29,19,17,282,14,06,11,235,20*7E
$GPGSV,3,3,12,11,09,316,,03,09,246,,27,05,034,18,12,04,086,*7A
$GPRMC,171542.000,A,3353.7570,N,09832.0250,W,0.28,121.24,010412,,,D*71
$GPGGA,171543.000,3353.7568,N,09832.0245,W,2,06,1.6,297.6,M,-23.7,M,1.8,0000*46
$GPGSA,A,3,14,21,31,18,22,09,,,,,,,2.9,1.6,2.3*3B
$GPGSV,3,1,12,22,68,009,38,14,68,287,16,18,43,086,21,21,24,157,38*7B
$GPGSV,3,2,12,09,22,043,30,31,20,189,29,19,17,282,14,06,11,235,20*7E
$GPGSV,3,3,12,11,09,316,,03,09,246,,27,05,034,18,12,04,086,*7A
$GPRMC,171543.000,A,3353.7568,N,09832.0245,W,0.17,141.72,010412,,,D*74
$GPGGA,171544.000,3353.7569,N,09832.0250,W,2,06,1.6,297.3,M,-23.7,M,2.8,0000*42
$GPGSA,A,3,14,21,31,18,22,09,,,,,,,2.9,1.6,2.3*3B
$GPRMC,171544.000,A,3353.7569,N,09832.0250,W,0.23,260.27,010412,,,D*71
$GPGGA,171545.000,3353.7569,N,09832.0254,W,2,06,1.6,297.1,M,-23.7,M,0.8,0000*47
$GPGSA,A,3,14,21,31,18,22,09,,,,,,,2.9,1.6,2.3*3B
$GPRMC,171545.000,A,3353.7569,N,09832.0254,W,0.42,271.63,010412,,,D*73
$GPGGA,171546.000,3353.7569,N,09832.0258,W,2,06,1.6,296.9,M,-23.7,M,0.8,0000*41
$GPGSA,A,3,14,21,31,18,22,09,,,,,,,2.9,1.6,2.3*3B
$GPRMC,171546.000,A,3353.7569,N,09832.0258,W,0.03,128.92,010412,,,D*78
$GPGGA,171547.000,3353.7569,N,09832.0258,W,2,06,1.6,297.1,M,-23.7,M,0.8,0000*49
$GPGSA,A,3,14,21,31,18,22,09,,,,,,,2.9,1.6,2.3*3B
$GPRMC,171547.000,A,3353.7569,N,09832.0258,W,0.03,55.26,010412,,,D*4D
$GPGGA,171548.000,3353.7568,N,09832.0255,W,2,06,1.6,297.7,M,-23.7,M,1.8,0000*4D
$GPGSA,A,3,14,21,31,18,22,09,,,,,,,2.9,1.6,2.3*3B
$GPGSV,3,1,12,22,68,009,38,14,68,287,18,18,43,086,25,21,24,157,38*71
$GPGSV,3,2,12,09,22,043,30,31,20,189,29,19,17,282,13,06,11,235,21*78
$GPGSV,3,3,12,11,09,316,,03,09,246,,27,05,034,18,12,04,086,*7A
$GPRMC,171548.000,A,3353.7568,N,09832.0255,W,0.18,102.51,010412,,,D*77
$GPGGA,171549.000,3353.7567,N,09832.0253,W,2,06,1.6,298.0,M,-23.7,M,2.8,0000*4E
$GPGSA,A,3,14,21,31,18,22,09,,,,,,,2.9,1.6,2.3*3B
$GPRMC,171549.000,A,3353.7567,N,09832.0253,W,0.54,99.44,010412,,,D*40
$GPGGA,171550.000,3353.7566,N,09832.0250,W,2,06,1.6,298.3,M,-23.7,M,3.8,0000*46
$GPGSA,A,3,14,21,31,18,22,09,,,,,,,2.9,1.6,2.3*3B
$GPRMC,171550.000,A,3353.7566,N,09832.0250,W,0.63,99.94,010412,,,D*43
$GPGGA,171551.000,3353.7566,N,09832.0248,W,2,06,1.6,298.5,M,-23.7,M,0.8,0000*4B
$GPGSA,A,3,14,21,31,18,22,09,,,,,,,2.9,1.6,2.3*3B
$GPRMC,171551.000,A,3353.7566,N,09832.0248,W,0.49,98.00,010412,,,D*4F
$GPGGA,171552.000,3353.7565,N,09832.0247,W,2,06,1.6,298.8,M,-23.7,M,0.8,0000*49
$GPGSA,A,3,14,21,31,18,22,09,,,,,,,2.9,1.6,2.3*3B
$GPRMC,171552.000,A,3353.7565,N,09832.0247,W,0.13,104.49,010412,,,D*76
$GPGGA,171553.000,3353.7564,N,09832.0242,W,2,06,1.6,299.8,M,-23.7,M,0.8,0000*4D
$GPGSA,A,3,14,21,31,18,22,09,,,,,,,2.9,1.6,2.3*3B
$GPGSV,3,1,12,22,68,009,38,14,68,287,18,18,43,086,26,21,24,157,38*72
$GPGSV,3,2,12,09,22,043,30,31,20,189,30,19,17,282,,06,11,235,21*72
$GPGSV,3,3,12,11,09,316,15,03,09,246,,27,05,034,18,12,04,086,*7E
$GPRMC,171553.000,A,3353.7564,N,09832.0242,W,0.25,107.19,010412,,,D*70
$GPGGA,171554.000,3353.7564,N,09832.0242,W,2,06,1.6,300.0,M,-23.7,M,1.8,0000*42
$GPGSA,A,3,14,21,31,18,22,09,,,,,,,2.9,1.6,2.3*3B
$GPRMC,171554.000,A,3353.7564,N,09832.0242,W,0.20,115.40,010412,,,D*7D
$GPGGA,171555.000,3353.7563,N,09832.0240,W,2,06,1.6,300.4,M,-23.7,M,0.8,0000*43
$GPGSA,A,3,14,21,31,18,22,09,,,,,,,2.9,1.6,2.3*3B
$GPRMC,171555.000,A,3353.7563,N,09832.0240,W,0.21,111.83,010412,,,D*73
$GPGGA,171556.000,3353.7563,N,09832.0240,W,2,06,1.6,300.6,M,-23.7,M,1.8,0000*43
$GPGSA,A,3,14,21,31,18,22,09,,,,,,,2.9,1.6,2.3*3B
$GPRMC,171556.000,A,3353.7563,N,09832.0240,W,0.05,175.54,010412,,,D*7E
$GPGGA,171557.000,3353.7563,N,09832.0242,W,2,06,1.6,300.7,M,-23.7,M,0.8,0000*40
$GPGSA,A,3,14,21,31,18,22,09,,,,,,,2.9,1.6,2.3*3B
$GPRMC,171557.000,A,3353.7563,N,09832.0242,W,0.09,257.41,010412,,,D*76
$GPGGA,171558.000,3353.7563,N,09832.0243,W,2,06,1.6,300.8,M,-23.7,M,0.8,0000*41
$GPGSA,A,3,14,21,31,18,22,09,,,,,,,2.9,1.6,2.3*3B
$GPGSV,3,1,12,22,68,009,38,14,68,287,18,18,43,086,27,21,24,157,37*7C
$GPGSV,3,2,12,09,22,043,30,31,20,189,31,19,17,282,,06,11,235,21*73
$GPGSV,3,3,12,11,09,316,14,03,09,246,,27,05,034,17,12,04,086,*70
$GPRMC,171558.000,A,3353.7563,N,09832.0243,W,0.12,107.57,010412,,,D*73
$GPGGA,171559.000,3353.7563,N,09832.0243,W,2,06,1.6,300.8,M,-23.7,M,0.8,0000*40
$GPGSA,A,3,14,21,31,18,22,09,,,,,,,2.9,1.6,2.3*3B
$GPRMC,171559.000,A,3353.7563,N,09832.0243,W,0.48,102.49,010412,,,D*77
$GPGGA,171600.000,3353.7563,N,09832.0245,W,2,06,1.6,300.6,M,-23.7,M,1.8,0000*46
$GPGSA,A,3,14,21,31,18,22,09,,,,,,,2.9,1.6,2.3*3B
$GPRMC,171600.000,A,3353.7563,N,09832.0245,W,0.29,91.66,010412,,,D*4F
$GPGGA,171601.000,3353.7564,N,09832.0246,W,2,06,1.6,300.5,M,-23.7,M,2.8,0000*43
$GPGSA,A,3,14,21,31,18,22,09,,,,,,,2.8,1.6,2.3*3A
$GPRMC,171601.000,A,3353.7564,N,09832.0246,W,0.10,78.76,010412,,,D*46
$GPGGA,171602.000,3353.7565,N,09832.0248,W,2,06,1.6,300.3,M,-23.7,M,0.8,0000*4B
$GPGSA,A,3,14,21,31,18,22,09,,,,,,,2.8,1.6,2.3*3A
$GPGSV,3,1,12,22,68,009,38,14,68,287,20,18,43,086,27,21,24,157,37*77
$GPGSV,3,2,12,09,22,043,31,31,20,189,31,19,17,282,,06,11,235,21*72
$GPGSV,3,3,12,11,09,316,,03,09,246,16,27,05,034,16,12,04,086,*73
$GPRMC,171602.000,A,3353.7565,N,09832.0248,W,0.06,51.48,010412,,,D*4B
$GPGGA,171603.000,3353.7565,N,09832.0250,W,2,06,1.6,300.2,M,-23.7,M,0.8,0000*42
$GPGSA,A,3,14,21,31,18,22,09,,,,,,,2.8,1.6,2.3*3A
$GPGSV,3,1,12,22,68,009,38,14,68,287,20,18,43,086,28,21,24,157,37*78
$GPGSV,3,2,12,09,22,043,31,31,20,189,31,19,17,282,,06,11,235,21*72
$GPGSV,3,3,12,11,09,316,,03,09,246,16,27,05,034,16,12,04,086,*73
$GPRMC,171603.000,A,3353.7565,N,09832.0250,W,0.09,327.36,010412,,,D*77
$GPGGA,171604.000,3353.7566,N,09832.0253,W,2,06,1.6,300.0,M,-23.7,M,0.8,0000*47
$GPGSA,A,3,14,21,31,18,22,09,,,,,,,2.8,1.6,2.3*3A
$GPRMC,171604.000,A,3353.7566,N,09832.0253,W,0.05,310.00,010412,,,D*7D
$GPGGA,171605.000,3353.7566,N,09832.0254,W,2,06,1.6,299.8,M,-23.7,M,0.8,0000*48
$GPGSA,A,3,14,21,31,18,22,09,,,,,,,2.8,1.6,2.3*3A
$GPRMC,171605.000,A,3353.7566,N,09832.0254,W,0.03,57.54,010412,,,D*4C
$GPGGA,171606.000,3353.7566,N,09832.0255,W,2,06,1.6,299.7,M,-23.7,M,1.8,0000*44
$GPGSA,A,3,14,21,31,18,22,09,,,,,,,2.8,1.6,2.3*3A
$GPRMC,171606.000,A,3353.7566,N,09832.0255,W,0.25,100.68,010412,,,D*76
$GPGGA,171607.000,3353.7566,N,09832.0256,W,2,06,1.6,299.7,M,-23.7,M,2.8,0000*45
$GPGSA,A,3,14,21,31,18,22,09,,,,,,,2.8,1.6,2.3*3A
$GPRMC,171607.000,A,3353.7566,N,09832.0256,W,0.20,97.94,010412,,,D*4D
$GPGGA,171608.000,3353.7566,N,09832.0256,W,2,06,1.6,299.6,M,-23.7,M,3.8,0000*4A
$GPGSA,A,3,14,21,31,18,22,09,,,,,,,2.8,1.6,2.3*3A
$GPGSV,3,1,12,22,68,009,38,14,68,287,20,18,43,086,27,21,24,157,37*77
$GPGSV,3,2,12,09,22,043,31,31,20,189,30,19,17,282,,06,11,235,22*70
$GPGSV,3,3,12,11,09,316,,03,09,246,15,27,05,034,,12,04,086,*77
$GPRMC,171608.000,A,3353.7566,N,09832.0256,W,0.38,101.43,010412,,,D*7F
$GPGGA,171609.000,3353.7566,N,09832.0255,W,2,06,1.6,299.6,M,-23.7,M,0.8,0000*4B
$GPGSA,A,3,14,21,31,18,22,09,,,,,,,2.8,1.6,2.3*3A
$GPRMC,171609.000,A,3353.7566,N,09832.0255,W,0.45,99.67,010412,,,D*41
$GPGGA,171610.000,3353.7566,N,09832.0255,W,2,06,1.6,299.7,M,-23.7,M,0.8,0000*42
$GPGSA,A,3,14,21,31,18,22,09,,,,,,,2.8,1.6,2.3*3A
$GPRMC,171610.000,A,3353.7566,N,09832.0255,W,0.16,89.48,010412,,,D*43
$GPGGA,171611.000,3353.7566,N,09832.0255,W,2,06,1.6,299.8,M,-23.7,M,0.8,0000*4C
$GPGSA,A,3,14,21,31,18,22,09,,,,,,,2.8,1.6,2.3*3A
$GPRMC,171611.000,A,3353.7566,N,09832.0255,W,0.11,325.16,010412,,,D*7B
$GPGGA,171612.000,3353.7566,N,09832.0256,W,2,06,1.6,299.9,M,-23.7,M,0.8,0000*4D
$GPGSA,A,3,14,21,31,18,22,09,,,,,,,2.8,1.6,2.3*3A
$GPRMC,171612.000,A,3353.7566,N,09832.0256,W,0.20,303.07,010412,,,D*7D
$GPGGA,171613.000,3353.7566,N,09832.0256,W,2,06,1.6,300.1,M,-23.7,M,0.8,0000*45
$GPGSA,A,3,14,21,31,18,22,09,,,,,,,2.8,1.6,2.3*3A
$GPGSV,3,1,12,22,68,009,38,14,68,287,21,18,43,086,27,21,24,157,36*77
$GPGSV,3,2,12,09,22,043,31,31,20,189,30,19,17,282,,06,11,235,21*73
$GPGSV,3,3,12,11,09,316,,03,09,246,14,27,05,034,,12,04,086,*76
$GPRMC,171613.000,A,3353.7566,N,09832.0256,W,0.17,301.86,010412,,,D*73
$GPGGA,171614.000,3353.7566,N,09832.0255,W,2,06,1.6,300.2,M,-23.7,M,0.8,0000*42
$GPGSA,A,3,14,21,31,18,22,09,,,,,,,2.8,1.6,2.3*3A
$GPRMC,171614.000,A,3353.7566,N,09832.0255,W,0.22,82.62,010412,,,D*43
$GPGGA,171615.000,3353.7566,N,09832.0253,W,2,06,1.6,300.4,M,-23.7,M,0.8,0000*43
$GPGSA,A,3,14,21,31,18,22,09,,,,,,,2.8,1.6,2.3*3A
$GPRMC,171615.000,A,3353.7566,N,09832.0253,W,0.43,93.98,010412,,,D*46
$GPGGA,171616.000,3353.7566,N,09832.0253,W,2,06,1.6,300.5,M,-23.7,M,0.8,0000*41
$GPGSA,A,3,14,21,31,18,22,09,,,,,,,2.8,1.6,2.3*3A
$GPRMC,171616.000,A,3353.7566,N,09832.0253,W,0.08,71.13,010412,,,D*45
$GPGGA,171617.000,3353.7565,N,09832.0252,W,2,06,1.6,300.7,M,-23.7,M,0.8,0000*40
$GPGSA,A,3,14,21,31,18,22,09,,,,,,,2.8,1.6,2.3*3A
$GPRMC,171617.000,A,3353.7565,N,09832.0252,W,0.00,109.18,010412,,,D*7B
$GPGGA,171618.000,3353.7565,N,09832.0251,W,2,06,1.6,300.9,M,-23.7,M,1.8,0000*43
$GPGSA,A,3,14,21,31,18,22,09,,,,,,,2.8,1.6,2.3*3A
$GPGSV,3,1,12,22,68,010,38,14,68,288,22,18,42,087,27,21,23,157,36*74
$GPGSV,3,2,12,09,22,042,31,31,21,189,30,19,17,282,,06,11,235,13*72
$GPGSV,3,3,12,11,09,316,,03,08,245,13,25,05,123,24,12,05,086,*71
$GPRMC,171618.000,A,3353.7565,N,09832.0251,W,0.36,104.10,010412,,,D*77
$GPGGA,171619.000,3353.7564,N,09832.0250,W,2,06,1.6,301.0,M,-23.7,M,0.8,0000*4B
$GPGSA,A,3,14,21,31,18,22,09,,,,,,,2.8,1.6,2.3*3A
$GPRMC,171619.000,A,3353.7564,N,09832.0250,W,0.34,104.08,010412,,,D*7D
$GPGGA,171620.000,3353.7564,N,09832.0250,W,2,06,1.6,301.1,M,-23.7,M,0.8,0000*40
$GPGSA,A,3,14,21,31,18,22,09,,,,,,,2.8,1.6,2.3*3A
$GPRMC,171620.000,A,3353.7564,N,09832.0250,W,0.03,93.74,010412,,,D*47
$GPGGA,171621.000,3353.7564,N,09832.0250,W,2,06,1.6,301.2,M,-23.7,M,0.8,0000*42
$GPGSA,A,3,14,21,31,18,22,09,,,,,,,2.8,1.6,2.3*3A
$GPRMC,171621.000,A,3353.7564,N,09832.0250,W,0.28,109.64,010412,,,D*7C
$GPGGA,171622.000,3353.7563,N,09832.0249,W,2,06,1.6,301.2,M,-23.7,M,0.8,0000*4E
$GPGSA,A,3,14,21,31,18,22,09,,,,,,,2.8,1.6,2.3*3A
$GPRMC,171622.000,A,3353.7563,N,09832.0249,W,0.45,99.76,010412,,,D*40
$GPGGA,171623.000,3353.7563,N,09832.0248,W,2,06,1.6,301.3,M,-23.7,M,0.8,0000*4F
$GPGSA,A,3,14,21,31,18,22,09,,,,,,,2.8,1.6,2.3*3A
$GPGSV,3,1,12,22,68,010,38,14,68,288,23,18,42,087,28,21,23,157,36*7A
$GPGSV,3,2,12,09,22,042,31,31,21,189,30,19,17,282,,06,11,235,13*72
$GPGSV,3,3,12,11,09,316,,03,08,245,14,25,05,123,24,12,05,086,*76
$GPRMC,171623.000,A,3353.7563,N,09832.0248,W,0.23,92.39,010412,,,D*40
$GPGGA,171624.000,3353.7563,N,09832.0248,W,2,06,1.6,301.3,M,-23.7,M,1.8,0000*49
$GPGSA,A,3,14,21,31,18,22,09,,,,,,,2.8,1.6,2.3*3A
$GPRMC,171624.000,A,3353.7563,N,09832.0248,W,0.05,19.03,010412,,,D*49
$GPGGA,171625.000,3353.7563,N,09832.0248,W,2,06,1.6,301.3,M,-23.7,M,2.8,0000*4B
$GPGSA,A,3,14,21,31,18,22,09,,,,,,,2.8,1.6,2.3*3A
$GPRMC,171625.000,A,3353.7563,N,09832.0248,W,0.30,94.36,010412,,,D*4D
$GPGGA,171626.000,3353.7563,N,09832.0248,W,2,06,1.6,301.4,M,-23.7,M,3.8,0000*4E
$GPGSA,A,3,14,21,31,18,22,09,,,,,,,2.8,1.6,2.3*3A
$GPRMC,171626.000,A,3353.7563,N,09832.0248,W,0.07,44.32,010412,,,D*43
$GPGGA,171627.000,3353.7563,N,09832.0248,W,2,06,1.6,301.5,M,-23.7,M,0.8,0000*4D
$GPGSA,A,3,14,21,31,18,22,09,,,,,,,2.8,1.6,2.3*3A
$GPRMC,171627.000,A,3353.7563,N,09832.0248,W,0.05,31.53,010412,,,D*45
$GPGGA,171628.000,3353.7563,N,09832.0248,W,2,06,1.6,301.5,M,-23.7,M,0.8,0000*42
$GPGSA,A,3,14,21,31,18,22,09,,,,,,,2.8,1.6,2.3*3A
$GPGSV,3,1,12,22,68,010,38,14,68,288,24,18,42,087,28,21,23,157,36*7D
$GPGSV,3,2,12,09,22,042,31,31,21,189,30,19,17,282,,06,11,235,11*70
$GPGSV,3,3,12,11,09,316,,03,08,245,14,25,05,123,24,12,05,086,*76
$GPRMC,171628.000,A,3353.7563,N,09832.0248,W,0.34,97.31,010412,,,D*40
$GPGGA,171629.000,3353.7562,N,09832.0247,W,2,06,1.6,301.6,M,-23.7,M,0.8,0000*4E
$GPGSA,A,3,14,21,31,18,22,09,,,,,,,2.8,1.6,2.3*3A
$GPRMC,171629.000,A,3353.7562,N,09832.0247,W,0.29,105.00,010412,,,D*7B
$GPGGA,171630.000,3353.7562,N,09832.0246,W,2,06,1.6,301.7,M,-23.7,M,1.8,0000*47
$GPGSA,A,3,14,21,31,18,22,09,,,,,,,2.8,1.6,2.3*3A
$GPRMC,171630.000,A,3353.7562,N,09832.0246,W,0.17,100.35,010412,,,D*7C
$GPGGA,171631.000,3353.7561,N,09832.0246,W,2,06,1.6,301.9,M,-23.7,M,2.8,0000*48
$GPGSA,A,3,14,21,31,18,22,09,,,,,,,2.8,1.6,2.3*3A
$GPRMC,171631.000,A,3353.7561,N,09832.0246,W,0.14,103.09,010412,,,D*71
$GPGGA,171632.000,3353.7561,N,09832.0246,W,2,06,1.6,302.0,M,-23.7,M,3.8,0000*40
$GPGSA,A,3,14,21,31,18,22,09,,,,,,,2.8,1.6,2.3*3A
$GPGSV,3,1,12,22,68,010,38,14,68,288,25,18,42,087,29,21,23,157,36*7D
$GPGSV,3,2,12,09,22,042,31,31,21,189,30,19,17,282,,06,11,235,12*73
$GPGSV,3,3,12,11,09,316,,03,08,245,13,25,05,123,25,12,05,086,*70
$GPRMC,171632.000,A,3353.7561,N,09832.0246,W,0.11,101.40,010412,,,D*78
$GPGGA,171633.000,3353.7561,N,09832.0245,W,2,06,1.6,302.1,M,-23.7,M,0.8,0000*40
$GPGSA,A,3,14,21,31,18,22,09,,,,,,,2.8,1.6,2.3*3A
$GPGSV,3,1,12,22,68,010,38,14,68,288,25,18,42,087,29,21,23,157,36*7D
$GPGSV,3,2,12,09,22,042,31,31,21,189,30,19,17,282,,06,11,235,13*72
$GPGSV,3,3,12,11,09,316,,03,08,245,,25,05,123,25,12,05,086,*72
$GPRMC,171633.000,A,3353.7561,N,09832.0245,W,0.13,102.06,010412,,,D*79
