$GPGGA,145513.000,3353.7507,N,09832.0274,W,2,06,2.4,323.4,M,-23.7,M,2.8,0000*41
$GPGSA,A,3,15,27,09,29,21,18,,,,,,,4.8,2.4,4.2*37
$GPGSV,3,1,12,21,81,034,34,18,64,333,28,15,48,048,38,22,33,279,24*75
$GPGSV,3,2,12,27,28,086,27,06,28,299,,09,28,114,27,29,19,179,36*7A
$GPGSV,3,3,12,03,18,307,,14,17,211,,26,05,038,18,51,49,195,39*78
$GPRMC,145513.000,A,3353.7507,N,09832.0274,W,0.54,123.38,010412,,,D*70
$GPGGA,145514.000,3353.7501,N,09832.0264,W,2,06,2.4,325.1,M,-23.7,M,0.8,0000*40
$GPGSA,A,3,15,27,09,29,21,18,,,,,,,4.8,2.4,4.2*37
$GPRMC,145514.000,A,3353.7501,N,09832.0264,W,0.44,133.97,010412,,,D*75
$GPGGA,145515.000,3353.7493,N,09832.0252,W,2,06,2.4,327.4,M,-23.7,M,0.8,0000*49
$GPGSA,A,3,15,27,09,29,21,18,,,,,,,4.8,2.4,4.2*37
$GPRMC,145515.000,A,3353.7493,N,09832.0252,W,0.64,133.14,010412,,,D*72
$GPGGA,145516.000,3353.7487,N,09832.0243,W,2,06,2.4,329.4,M,-23.7,M,0.8,0000*41
$GPGSA,A,3,15,27,09,29,21,18,,,,,,,4.8,2.4,4.2*37
$GPRMC,145516.000,A,3353.7487,N,09832.0243,W,0.64,129.74,010412,,,D*79
$GPGGA,145517.000,3353.7481,N,09832.0234,W,2,06,2.4,331.2,M,-23.7,M,0.8,0000*49
$GPGSA,A,3,15,27,09,29,21,18,,,,,,,4.8,2.4,4.2*37
$GPRMC,145517.000,A,3353.7481,N,09832.0234,W,0.75,132.38,010412,,,D*7C
$GPGGA,145518.000,3353.7475,N,09832.0225,W,2,06,2.4,332.9,M,-23.7,M,1.8,0000*44
$GPGSA,A,3,15,27,09,29,21,18,,,,,,,4.8,2.4,4.2*37
$GPGSV,3,1,12,21,81,036,34,18,64,334,29,15,48,048,38,22,33,279,24*71
$GPGSV,3,2,12,27,28,086,25,09,28,114,27,06,28,298,,29,19,179,36*79
$GPGSV,3,3,12,03,18,307,,14,17,211,22,26,05,038,18,51,49,195,39*78
$GPRMC,145518.000,A,3353.7475,N,09832.0225,W,0.81,131.77,010412,,,D*7B
$GPGGA,145519.000,3353.7471,N,09832.0220,W,2,06,2.4,334.2,M,-23.7,M,2.8,0000*4A
$GPGSA,A,3,15,27,09,29,21,18,,,,,,,4.8,2.4,4.2*37
$GPRMC,145519.000,A,3353.7471,N,09832.0220,W,0.83,134.57,010412,,,D*7E
$GPGGA,145520.000,3353.7469,N,09832.0216,W,2,06,2.4,335.2,M,-23.7,M,3.8,0000*4C
$GPGSA,A,3,15,27,09,29,21,18,,,,,,,4.8,2.4,4.2*37
$GPRMC,145520.000,A,3353.7469,N,09832.0216,W,0.70,136.45,010412,,,D*75
$GPGGA,145521.000,3353.7467,N,09832.0214,W,2,06,2.4,335.6,M,-23.7,M,0.8,0000*46
$GPGSA,A,3,15,27,09,29,21,18,,,,,,,4.8,2.4,4.2*37
$GPRMC,145521.000,A,3353.7467,N,09832.0214,W,0.66,139.57,010412,,,D*73
$GPGGA,145522.000,3353.7466,N,09832.0212,W,2,06,2.4,335.8,M,-23.7,M,0.8,0000*4C
$GPGSA,A,3,15,27,09,29,21,18,,,,,,,4.8,2.4,4.2*37
$GPRMC,145522.000,A,3353.7466,N,09832.0212,W,0.69,139.81,010412,,,D*73
$GPGGA,145523.000,3353.7466,N,09832.0211,W,2,06,2.4,335.8,M,-23.7,M,0.8,0000*4E
$GPGSA,A,3,15,27,09,29,21,18,,,,,,,4.8,2.4,4.2*37
$GPGSV,3,1,12,21,81,036,34,18,64,334,28,15,48,048,38,22,33,279,24*70
$GPGSV,3,2,12,27,28,086,25,09,28,114,28,06,28,298,,29,19,179,36*76
$GPGSV,3,3,12,03,18,307,,14,17,211,23,26,05,038,,51,49,195,39*70
$GPRMC,145523.000,A,3353.7466,N,09832.0211,W,0.58,140.65,010412,,,D*77
$GPGGA,145524.000,3353.7467,N,09832.0212,W,2,06,2.4,335.6,M,-23.7,M,1.8,0000*44
$GPGSA,A,3,15,27,09,29,21,18,,,,,,,4.8,2.4,4.2*37
$GPRMC,145524.000,A,3353.7467,N,09832.0212,W,0.47,147.00,010412,,,D*78
$GPGGA,145525.000,3353.7467,N,09832.0214,W,2,06,2.4,335.4,M,-23.7,M,0.8,0000*40
$GPGSA,A,3,15,27,09,29,21,18,,,,,,,4.8,2.4,4.2*37
$GPRMC,145525.000,A,3353.7467,N,09832.0214,W,0.39,153.25,010412,,,D*74
$GPGGA,145526.000,3353.7468,N,09832.0217,W,2,06,2.4,335.4,M,-23.7,M,1.8,0000*4E
$GPGSA,A,3,15,27,09,29,21,18,,,,,,,4.8,2.4,4.1*34
$GPRMC,145526.000,A,3353.7468,N,09832.0217,W,0.29,160.87,010412,,,D*72
$GPGGA,145527.000,3353.7467,N,09832.0221,W,2,06,2.4,335.9,M,-23.7,M,0.8,0000*49
$GPGSA,A,3,15,27,09,29,21,18,,,,,,,4.8,2.4,4.1*34
$GPRMC,145527.000,A,3353.7467,N,09832.0221,W,0.32,202.94,010412,,,D*76
$GPGGA,145528.000,3353.7467,N,09832.0225,W,2,06,2.4,336.1,M,-23.7,M,0.8,0000*49
$GPGSA,A,3,15,27,09,29,21,18,,,,,,,4.8,2.4,4.1*34
$GPGSV,3,1,12,21,81,036,34,18,64,334,29,15,48,048,37,22,33,279,24*7E
$GPGSV,3,2,12,27,28,086,24,09,28,114,29,06,28,298,,29,19,179,36*76
$GPGSV,3,3,12,03,18,307,,14,17,211,24,26,05,038,,51,49,195,39*77
$GPRMC,145528.000,A,3353.7467,N,09832.0225,W,0.24,148.25,010412,,,D*7D
$GPGGA,145529.000,3353.7468,N,09832.0226,W,2,06,2.4,336.0,M,-23.7,M,0.8,0000*45
$GPGSA,A,3,15,27,09,29,21,18,,,,,,,4.8,2.4,4.1*34
$GPRMC,145529.000,A,3353.7468,N,09832.0226,W,0.30,129.14,010412,,,D*70
$GPGGA,145530.000,3353.7469,N,09832.0227,W,2,06,2.4,335.7,M,-23.7,M,0.8,0000*49
$GPGSA,A,3,15,27,09,29,21,18,,,,,,,4.8,2.4,4.1*34
$GPRMC,145530.000,A,3353.7469,N,09832.0227,W,0.38,115.78,010412,,,D*75
$GPGGA,145531.000,3353.7471,N,09832.0228,W,2,06,2.4,335.4,M,-23.7,M,1.8,0000*4C
$GPGSA,A,3,15,27,09,29,21,18,,,,,,,4.8,2.4,4.1*34
$GPRMC,145531.000,A,3353.7471,N,09832.0228,W,0.13,179.81,010412,,,D*77
$GPGGA,145532.000,3353.7471,N,09832.0229,W,2,06,2.4,335.2,M,-23.7,M,2.8,0000*4B
$GPGSA,A,3,15,27,09,29,21,18,,,,,,,4.8,2.4,4.1*34
$GPRMC,145532.000,A,3353.7471,N,09832.0229,W,0.24,111.96,010412,,,D*79
$GPGGA,145533.000,3353.7474,N,09832.0229,W,2,06,2.4,334.3,M,-23.7,M,0.8,0000*4D
$GPGSA,A,3,15,27,09,29,21,18,,,,,,,4.8,2.4,4.1*34
$GPGSV,3,1,12,21,81,036,34,18,64,334,29,15,48,048,37,22,33,279,23*79
$GPGSV,3,2,12,27,28,086,17,09,28,114,30,06,28,298,19,29,19,179,36*76
$GPGSV,3,3,12,03,18,307,,14,17,211,24,26,05,038,,51,49,195,39*77
$GPRMC,145533.000,A,3353.7474,N,09832.0229,W,0.15,112.18,010412,,,D*7A
$GPGGA,145534.000,3353.7477,N,09832.0229,W,2,06,2.4,333.1,M,-23.7,M,0.8,0000*4C
$GPGSA,A,3,15,27,09,29,21,18,,,,,,,4.8,2.4,4.1*34
$GPRMC,145534.000,A,3353.7477,N,09832.0229,W,0.04,64.60,010412,,,D*41
$GPGGA,145535.000,3353.7480,N,09832.0228,W,2,06,2.4,331.6,M,-23.7,M,0.8,0000*41
$GPGSA,A,3,15,27,09,29,21,18,,,,,,,4.8,2.4,4.1*34
$GPRMC,145535.000,A,3353.7480,N,09832.0228,W,0.16,60.88,010412,,,D*48
$GPGGA,145536.000,3353.7483,N,09832.0229,W,2,05,2.5,330.4,M,-23.7,M,1.8,0000*40
$GPGSA,A,3,15,09,29,21,18,,,,,,,,5.1,2.5,4.4*3D
$GPRMC,145536.000,A,3353.7483,N,09832.0229,W,0.17,347.11,010412,,,D*7E
$GPGGA,145537.000,3353.7486,N,09832.0229,W,2,05,2.5,329.2,M,-23.7,M,0.8,0000*4B
$GPGSA,A,3,15,09,29,21,18,,,,,,,,5.1,2.5,4.4*3D
$GPRMC,145537.000,A,3353.7486,N,09832.0229,W,0.24,338.39,010412,,,D*78
$GPGGA,145538.000,3353.7489,N,09832.0230,W,2,05,2.5,328.1,M,-23.7,M,1.8,0000*40
$GPGSA,A,3,15,09,29,21,18,,,,,,,,5.1,2.5,4.4*3D
$GPGSV,3,1,12,21,81,036,34,18,64,334,30,15,48,048,37,22,33,279,23*71
$GPGSV,3,2,12,27,28,086,,09,28,114,31,06,28,298,18,29,19,179,36*70
$GPGSV,3,3,12,03,18,307,,14,17,211,24,26,05,038,,51,49,195,39*77
$GPRMC,145538.000,A,3353.7489,N,09832.0230,W,0.28,329.75,010412,,,D*74
$GPGGA,145539.000,3353.7492,N,09832.0230,W,2,05,2.5,327.2,M,-23.7,M,0.8,0000*46
$GPGSA,A,3,15,09,29,21,18,,,,,,,,5.1,2.5,4.4*3D
$GPRMC,145539.000,A,3353.7492,N,09832.0230,W,0.27,338.07,010412,,,D*75
$GPGGA,145540.000,3353.7494,N,09832.0230,W,2,05,2.5,326.4,M,-23.7,M,0.8,0000*49
$GPGSA,A,3,15,09,29,21,18,,,,,,,,5.1,2.5,4.4*3D
$GPRMC,145540.000,A,3353.7494,N,09832.0230,W,0.32,338.96,010412,,,D*71
$GPGGA,145541.000,3353.7496,N,09832.0230,W,2,05,2.5,325.6,M,-23.7,M,0.8,0000*4B
$GPGSA,A,3,15,09,29,21,18,,,,,,,,5.1,2.5,4.4*3D
$GPRMC,145541.000,A,3353.7496,N,09832.0230,W,0.28,346.08,010412,,,D*77
$GPGGA,145542.000,3353.7498,N,09832.0230,W,2,06,2.4,325.1,M,-23.7,M,1.8,0000*42
$GPGSA,A,3,15,27,09,29,21,18,,,,,,,4.8,2.4,4.1*34
$GPRMC,145542.000,A,3353.7498,N,09832.0230,W,0.37,318.16,010412,,,D*70
$GPGGA,145543.000,3353.7499,N,09832.0231,W,2,06,2.4,324.6,M,-23.7,M,2.8,0000*46
$GPGSA,A,3,15,27,09,29,21,18,,,,,,,4.8,2.4,4.1*34
$GPGSV,3,1,12,21,81,036,34,18,64,334,31,15,48,048,37,22,33,279,23*70
$GPGSV,3,2,12,27,28,086,19,09,28,114,32,06,28,298,18,29,19,179,36*7B
$GPGSV,3,3,12,03,18,307,,14,17,211,24,26,05,038,,51,49,195,39*77
$GPRMC,145543.000,A,3353.7499,N,09832.0231,W,0.28,2.83,010412,,,D*7B
$GPGGA,145544.000,3353.7500,N,09832.0230,W,2,05,2.5,324.0,M,-23.7,M,3.8,0000*44
$GPGSA,A,3,15,09,29,21,18,,,,,,,,5.1,2.5,4.4*3D
$GPRMC,145544.000,A,3353.7500,N,09832.0230,W,0.32,327.01,010412,,,D*79
$GPGGA,145545.000,3353.7502,N,09832.0230,W,2,05,2.5,323.3,M,-23.7,M,0.8,0000*40
$GPGSA,A,3,15,09,29,21,18,,,,,,,,5.1,2.5,4.4*3D
$GPRMC,145545.000,A,3353.7502,N,09832.0230,W,0.32,5.99,010412,,,D*78
$GPGGA,145546.000,3353.7504,N,09832.0230,W,2,05,2.5,322.7,M,-23.7,M,0.8,0000*40
$GPGSA,A,3,15,09,29,21,18,,,,,,,,5.1,2.5,4.4*3D
$GPRMC,145546.000,A,3353.7504,N,09832.0230,W,0.43,315.45,010412,,,D*78
$GPGGA,145547.000,3353.7506,N,09832.0231,W,2,05,2.5,322.1,M,-23.7,M,0.8,0000*44
$GPGSA,A,3,15,09,29,21,18,,,,,,,,5.1,2.5,4.4*3D
$GPRMC,145547.000,A,3353.7506,N,09832.0231,W,0.52,307.92,010412,,,D*73
$GPGGA,145548.000,3353.7507,N,09832.0232,W,2,05,2.5,321.5,M,-23.7,M,1.8,0000*4F
$GPGSA,A,3,15,09,29,21,18,,,,,,,,5.1,2.5,4.4*3D
$GPGSV,3,1,12,21,82,037,33,18,64,334,32,15,47,048,37,22,33,279,22*78
$GPGSV,3,2,12,27,28,085,19,09,28,114,33,06,28,298,18,29,19,179,36*79
$GPGSV,3,3,12,03,18,306,,14,17,211,24,26,05,038,,51,49,195,39*76
$GPRMC,145548.000,A,3353.7507,N,09832.0232,W,0.45,319.36,010412,,,D*79
$GPGGA,145549.000,3353.7507,N,09832.0236,W,2,06,2.4,321.9,M,-23.7,M,2.8,0000*47
$GPGSA,A,3,15,27,09,29,21,18,,,,,,,4.7,2.4,4.1*3B
$GPRMC,145549.000,A,3353.7507,N,09832.0236,W,0.58,301.14,010412,,,D*79
$GPGGA,145550.000,3353.7508,N,09832.0237,W,2,06,2.4,321.4,M,-23.7,M,3.8,0000*4D
$GPGSA,A,3,15,27,09,29,21,18,,,,,,,4.7,2.4,4.1*3B
$GPRMC,145550.000,A,3353.7508,N,09832.0237,W,0.31,342.75,010412,,,D*70
$GPGGA,145551.000,3353.7509,N,09832.0237,W,2,06,2.4,321.2,M,-23.7,M,0.8,0000*48
$GPGSA,A,3,15,27,09,29,21,18,,,,,,,4.7,2.4,4.1*3B
$GPRMC,145551.000,A,3353.7509,N,09832.0237,W,0.35,318.37,010412,,,D*7D
$GPGGA,145552.000,3353.7510,N,09832.0236,W,2,06,2.4,320.7,M,-23.7,M,0.8,0000*46
$GPGSA,A,3,15,27,09,29,21,18,,,,,,,4.7,2.4,4.1*3B
$GPRMC,145552.000,A,3353.7510,N,09832.0236,W,0.30,3.38,010412,,,D*74
$GPGGA,145553.000,3353.7512,N,09832.0234,W,2,06,2.4,319.9,M,-23.7,M,0.8,0000*43
$GPGSA,A,3,15,27,09,29,21,18,,,,,,,4.7,2.4,4.1*3B
$GPGSV,3,1,12,21,82,037,33,18,64,334,32,15,47,048,37,22,33,279,21*7B
$GPGSV,3,2,12,27,28,085,20,09,28,114,33,06,28,298,17,29,19,179,36*7C
$GPGSV,3,3,12,03,18,306,,14,17,211,24,26,05,038,19,51,49,195,39*7E
$GPRMC,145553.000,A,3353.7512,N,09832.0234,W,0.27,14.60,010412,,,D*48
$GPGGA,145554.000,3353.7514,N,09832.0233,W,2,06,2.4,319.2,M,-23.7,M,0.8,0000*4E
$GPGSA,A,3,15,27,09,29,21,18,,,,,,,4.7,2.4,4.1*3B
$GPRMC,145554.000,A,3353.7514,N,09832.0233,W,0.32,329.13,010412,,,D*73
$GPGGA,145555.000,3353.7513,N,09832.0235,W,2,06,2.4,319.7,M,-23.7,M,0.8,0000*4B
$GPGSA,A,3,15,27,09,29,21,18,,,,,,,4.7,2.4,4.1*3B
$GPRMC,145555.000,A,3353.7513,N,09832.0235,W,0.33,317.58,010412,,,D*70
$GPGGA,145556.000,3353.7513,N,09832.0237,W,2,06,2.4,320.1,M,-23.7,M,0.8,0000*46
$GPGSA,A,3,15,27,09,29,21,18,,,,,,,4.7,2.4,4.1*3B
$GPRMC,145556.000,A,3353.7513,N,09832.0237,W,0.27,324.68,010412,,,D*77
$GPGGA,145557.000,3353.7513,N,09832.0238,W,2,06,2.4,320.1,M,-23.7,M,0.8,0000*48
$GPGSA,A,3,15,27,09,29,21,18,,,,,,,4.7,2.4,4.1*3B
$GPRMC,145557.000,A,3353.7513,N,09832.0238,W,0.42,297.57,010412,,,D*7F
$GPGGA,145558.000,3353.7514,N,09832.0238,W,2,06,2.4,319.7,M,-23.7,M,0.8,0000*4C
$GPGSA,A,3,15,27,09,29,21,18,,,,,,,4.7,2.4,4.1*3B
$GPGSV,3,1,12,21,82,037,33,18,64,334,32,15,47,048,37,22,33,279,20*7A
$GPGSV,3,2,12,27,28,085,21,09,28,114,33,06,28,298,17,29,19,179,37*7C
$GPGSV,3,3,12,03,18,306,,14,17,211,12,26,05,038,,51,49,195,38*72
$GPRMC,145558.000,A,3353.7514,N,09832.0238,W,0.21,358.23,010412,,,D*73
$GPGGA,145559.000,3353.7515,N,09832.0239,W,2,06,2.4,319.4,M,-23.7,M,0.8,0000*4E
$GPGSA,A,3,15,27,09,29,21,18,,,,,,,4.7,2.4,4.1*3B
$GPRMC,145559.000,A,3353.7515,N,09832.0239,W,0.29,330.08,010412,,,D*7D
$GPGGA,145600.000,3353.7515,N,09832.0239,W,2,06,2.4,319.3,M,-23.7,M,1.8,0000*47
$GPGSA,A,3,15,27,09,29,21,18,,,,,,,4.7,2.4,4.1*3B
$GPRMC,145600.000,A,3353.7515,N,09832.0239,W,0.22,328.35,010412,,,D*7E
$GPGGA,145601.000,3353.7516,N,09832.0241,W,2,06,2.4,319.2,M,-23.7,M,2.8,0000*48
$GPGSA,A,3,15,27,09,29,21,18,,,,,,,4.7,2.4,4.1*3B
$GPRMC,145601.000,A,3353.7516,N,09832.0241,W,0.21,353.53,010412,,,D*7C
$GPGGA,145602.000,3353.7516,N,09832.0241,W,2,06,2.4,319.1,M,-23.7,M,3.8,0000*49
$GPGSA,A,3,15,27,09,29,21,18,,,,,,,4.7,2.4,4.1*3B
$GPRMC,145602.000,A,3353.7516,N,09832.0241,W,0.20,334.48,010412,,,D*75
$GPGGA,145603.000,3353.7516,N,09832.0241,W,2,06,2.4,319.2,M,-23.7,M,0.8,0000*48
$GPGSA,A,3,15,27,09,29,21,18,,,,,,,4.7,2.4,4.1*3B
$GPGSV,3,1,12,21,82,037,33,18,64,334,33,15,47,048,37,22,33,279,20*7B
$GPGSV,3,2,12,27,28,085,22,09,28,114,32,06,28,298,17,29,19,179,37*7E
$GPGSV,3,3,12,03,18,306,,14,17,211,,26,05,038,,51,49,195,39*70
$GPRMC,145603.000,A,3353.7516,N,09832.0241,W,0.21,22.34,010412,,,D*4A
$GPGGA,145604.000,3353.7516,N,09832.0242,W,2,06,2.4,319.4,M,-23.7,M,0.8,0000*4A
$GPGSA,A,3,15,27,09,29,21,18,,,,,,,4.7,2.4,4.1*3B
$GPRMC,145604.000,A,3353.7516,N,09832.0242,W,0.16,4.05,010412,,,D*7C
$GPGGA,145605.000,3353.7517,N,09832.0241,W,2,06,2.4,319.1,M,-23.7,M,0.8,0000*4C
$GPGSA,A,3,15,27,09,29,21,18,,,,,,,4.7,2.4,4.1*3B
$GPRMC,145605.000,A,3353.7517,N,09832.0241,W,0.18,347.37,010412,,,D*74
$GPGGA,145606.000,3353.7517,N,09832.0240,W,2,06,2.4,318.8,M,-23.7,M,1.8,0000*47
$GPGSA,A,3,15,27,09,29,21,18,,,,,,,4.7,2.4,4.1*3B
$GPRMC,145606.000,A,3353.7517,N,09832.0240,W,0.17,10.20,010412,,,D*4E
$GPGGA,145607.000,3353.7518,N,09832.0239,W,2,06,2.4,318.6,M,-23.7,M,2.8,0000*4A
$GPGSA,A,3,15,27,09,29,21,18,,,,,,,4.7,2.4,4.1*3B
$GPRMC,145607.000,A,3353.7518,N,09832.0239,W,0.26,316.39,010412,,,D*71
$GPGGA,145608.000,3353.7519,N,09832.0238,W,2,06,2.4,318.1,M,-23.7,M,3.8,0000*43
$GPGSA,A,3,15,27,09,29,21,18,,,,,,,4.7,2.4,4.1*3B
$GPGSV,3,1,12,21,82,037,32,18,64,334,33,15,47,048,36,22,33,279,20*7B
$GPGSV,3,2,12,27,28,085,23,09,28,114,32,06,28,298,17,29,19,179,37*7F
$GPGSV,3,3,12,03,18,306,,14,17,211,,26,05,038,,51,49,195,38*71
$GPRMC,145608.000,A,3353.7519,N,09832.0238,W,0.18,331.83,010412,,,D*77
$GPGGA,145609.000,3353.7521,N,09832.0237,W,2,06,2.4,317.4,M,-23.7,M,0.8,0000*4F
$GPGSA,A,3,15,27,09,29,21,18,,,,,,,4.7,2.4,4.1*3B
$GPRMC,145609.000,A,3353.7521,N,09832.0237,W,0.24,339.29,010412,,,D*75
$GPGGA,145610.000,3353.7522,N,09832.0236,W,2,06,2.4,316.9,M,-23.7,M,0.8,0000*49
$GPGSA,A,3,15,27,09,29,21,18,,,,,,,4.7,2.4,4.1*3B
$GPRMC,145610.000,A,3353.7522,N,09832.0236,W,0.20,342.38,010412,,,D*77
$GPGGA,145611.000,3353.7524,N,09832.0235,W,2,06,2.4,316.1,M,-23.7,M,0.8,0000*45
$GPGSA,A,3,15,27,09,29,21,18,,,,,,,4.7,2.4,4.1*3B
$GPRMC,145611.000,A,3353.7524,N,09832.0235,W,0.21,340.41,010412,,,D*7E
$GPGGA,145612.000,3353.7524,N,09832.0236,W,2,06,2.4,316.0,M,-23.7,M,0.8,0000*44
$GPGSA,A,3,15,27,09,29,21,18,,,,,,,4.7,2.4,4.1*3B
$GPRMC,145612.000,A,3353.7524,N,09832.0236,W,0.29,314.38,010412,,,D*79
$GPGGA,145613.000,3353.7525,N,09832.0236,W,2,06,2.4,315.5,M,-23.7,M,0.8,0000*42
$GPGSA,A,3,15,27,09,29,21,18,,,,,,,4.7,2.4,4.1*3B
$GPGSV,3,1,12,21,82,037,32,18,64,334,33,15,47,048,36,22,33,279,20*7B
$GPGSV,3,2,12,27,28,085,23,09,28,114,32,06,28,298,17,29,19,179,37*7F
$GPGSV,3,3,12,03,18,306,,14,17,211,,26,05,038,,51,49,195,38*71
$GPRMC,145613.000,A,3353.7525,N,09832.0236,W,0.22,352.25,010412,,,D*7C
$GPGGA,145614.000,3353.7526,N,09832.0236,W,2,06,2.4,315.2,M,-23.7,M,1.8,0000*40
$GPGSA,A,3,15,27,09,29,21,18,,,,,,,4.7,2.4,4.1*3B
$GPRMC,145614.000,A,3353.7526,N,09832.0236,W,0.20,357.12,010412,,,D*7B
$GPGGA,145615.000,3353.7526,N,09832.0237,W,2,06,2.4,315.3,M,-23.7,M,0.8,0000*40
$GPGSA,A,3,15,27,09,29,21,18,,,,,,,4.7,2.4,4.0*3A
$GPRMC,145615.000,A,3353.7526,N,09832.0237,W,0.29,303.09,010412,,,D*79
$GPGGA,145616.000,3353.7526,N,09832.0238,W,2,06,2.4,315.4,M,-23.7,M,0.8,0000*4B
$GPGSA,A,3,15,27,09,29,21,18,,,,,,,4.7,2.4,4.0*3A
$GPRMC,145616.000,A,3353.7526,N,09832.0238,W,0.36,297.71,010412,,,D*78
$GPGGA,145617.000,3353.7525,N,09832.0240,W,2,06,2.4,316.0,M,-23.7,M,0.8,0000*41
$GPGSA,A,3,15,27,09,29,21,18,,,,,,,4.7,2.4,4.0*3A
$GPRMC,145617.000,A,3353.7525,N,09832.0240,W,0.21,316.66,010412,,,D*7D
$GPGGA,145618.000,3353.7524,N,09832.0240,W,2,06,2.4,316.4,M,-23.7,M,1.8,0000*4A
$GPGSA,A,3,15,27,09,29,21,18,,,,,,,4.7,2.4,4.0*3A
$GPGSV,3,1,12,21,82,039,32,18,64,335,33,15,47,048,36,22,33,280,20*72
$GPGSV,3,2,12,27,28,085,22,09,28,114,32,06,28,298,16,29,19,179,37*7F
$GPGSV,3,3,12,03,18,306,,14,17,212,,26,05,038,,51,49,195,39*73
$GPRMC,145618.000,A,3353.7524,N,09832.0240,W,0.12,346.93,010412,,,D*7C
$GPGGA,145619.000,3353.7524,N,09832.0240,W,2,06,2.4,316.5,M,-23.7,M,2.8,0000*49
$GPGSA,A,3,15,27,09,29,21,18,,,,,,,4.7,2.4,4.0*3A
$GPRMC,145619.000,A,3353.7524,N,09832.0240,W,0.11,18.33,010412,,,D*4C
$GPGGA,145620.000,3353.7525,N,09832.0239,W,2,06,2.4,316.2,M,-23.7,M,3.8,0000*4A
$GPGSA,A,3,15,27,09,29,21,18,,,,,,,4.7,2.4,4.0*3A
$GPRMC,145620.000,A,3353.7525,N,09832.0239,W,0.24,62.39,010412,,,D*48
$GPGGA,145621.000,3353.7527,N,09832.0236,W,2,06,2.4,315.4,M,-23.7,M,0.8,0000*40
$GPGSA,A,3,15,27,09,29,21,18,,,,,,,4.7,2.4,4.0*3A
$GPRMC,145621.000,A,3353.7527,N,09832.0236,W,0.32,60.20,010412,,,D*49
$GPGGA,145622.000,3353.7528,N,09832.0235,W,2,06,2.4,314.8,M,-23.7,M,0.8,0000*42
$GPGSA,A,3,15,27,09,29,21,18,,,,,,,4.7,2.4,4.0*3A
$GPRMC,145622.000,A,3353.7528,N,09832.0235,W,0.15,322.44,010412,,,D*74
$GPGGA,145623.000,3353.7529,N,09832.0235,W,2,06,2.4,314.2,M,-23.7,M,0.8,0000*48
$GPGSA,A,3,15,27,09,29,21,18,,,,,,,4.7,2.4,4.0*3A
$GPGSV,3,1,12,21,82,039,32,18,64,335,33,15,47,048,35,22,33,280,20*71
$GPGSV,3,2,12,27,28,085,22,09,28,114,33,06,28,298,14,29,19,179,37*7C
$GPGSV,3,3,12,03,18,306,,14,17,212,,26,05,038,,51,49,195,38*72
$GPRMC,145623.000,A,3353.7529,N,09832.0235,W,0.21,329.24,010412,,,D*7E
$GPGGA,145624.000,3353.7530,N,09832.0236,W,2,06,2.4,314.1,M,-23.7,M,1.8,0000*46
$GPGSA,A,3,15,27,09,29,21,18,,,,,,,4.7,2.4,4.0*3A
$GPRMC,145624.000,A,3353.7530,N,09832.0236,W,0.19,330.41,010412,,,D*72
$GPGGA,145625.000,3353.7531,N,09832.0236,W,2,06,2.4,313.5,M,-23.7,M,2.8,0000*46
$GPGSA,A,3,15,27,09,29,21,18,,,,,,,4.7,2.4,4.0*3A
$GPRMC,145625.000,A,3353.7531,N,09832.0236,W,0.20,338.68,010412,,,D*7B
$GPGGA,145626.000,3353.7532,N,09832.0238,W,2,06,2.4,313.4,M,-23.7,M,0.8,0000*4B
$GPGSA,A,3,15,27,09,29,21,18,,,,,,,4.7,2.4,4.0*3A
$GPRMC,145626.000,A,3353.7532,N,09832.0238,W,0.20,333.07,010412,,,D*77
$GPGGA,145627.000,3353.7533,N,09832.0237,W,2,06,2.4,312.9,M,-23.7,M,0.8,0000*48
$GPGSA,A,3,15,27,09,29,21,18,,,,,,,4.7,2.4,4.0*3A
$GPRMC,145627.000,A,3353.7533,N,09832.0237,W,0.23,25.84,010412,,,D*44
$GPGGA,145628.000,3353.7533,N,09832.0238,W,2,06,2.4,313.0,M,-23.7,M,0.8,0000*40
$GPGSA,A,3,15,27,09,29,21,18,,,,,,,4.7,2.4,4.0*3A
$GPGSV,3,1,12,21,82,039,33,18,64,335,33,15,47,048,35,22,33,280,20*70
$GPGSV,3,2,12,27,28,085,24,09,28,114,34,06,28,298,,29,19,179,37*78
$GPGSV,3,3,12,03,18,306,,14,17,212,,26,05,038,,51,49,195,39*73
$GPRMC,145628.000,A,3353.7533,N,09832.0238,W,0.22,4.63,010412,,,D*7F
$GPGGA,145629.000,3353.7532,N,09832.0239,W,2,06,2.4,313.5,M,-23.7,M,0.8,0000*44
$GPGSA,A,3,15,27,09,29,21,18,,,,,,,4.7,2.4,4.0*3A
$GPRMC,145629.000,A,3353.7532,N,09832.0239,W,0.25,302.74,010412,,,D*7A
$GPGGA,145630.000,3353.7532,N,09832.0241,W,2,06,2.4,314.0,M,-23.7,M,0.8,0000*41
$GPGSA,A,3,15,27,09,29,21,18,,,,,,,4.7,2.4,4.0*3A
$GPRMC,145630.000,A,3353.7532,N,09832.0241,W,0.16,342.08,010412,,,D*72
$GPGGA,145631.000,3353.7530,N,09832.0243,W,2,06,2.4,314.7,M,-23.7,M,1.8,0000*46
$GPGSA,A,3,15,27,09,29,21,18,,,,,,,4.7,2.4,4.0*3A
$GPRMC,145631.000,A,3353.7530,N,09832.0243,W,0.16,296.27,010412,,,D*76
$GPGGA,145632.000,3353.7529,N,09832.0244,W,2,06,2.4,315.3,M,-23.7,M,2.8,0000*4C
$GPGSA,A,3,15,27,09,29,21,18,,,,,,,4.7,2.4,4.0*3A
$GPRMC,145632.000,A,3353.7529,N,09832.0244,W,0.07,320.68,010412,,,D*7D
$GPGGA,145633.000,3353.7529,N,09832.0245,W,2,06,2.4,315.5,M,-23.7,M,0.8,0000*48
$GPGSA,A,3,15,27,09,29,21,18,,,,,,,4.7,2.4,4.0*3A
$GPGSV,3,1,12,21,82,039,32,18,64,335,34,15,47,048,34,22,33,280,20*77
$GPGSV,3,2,12,27,28,085,25,09,28,114,34,06,28,298,,29,19,179,37*79
$GPGSV,3,3,12,03,18,306,,14,17,212,,26,05,038,,51,49,195,39*73
$GPRMC,145633.000,A,3353.7529,N,09832.0245,W,0.10,333.10,010412,,,D*76
$GPGGA,145634.000,3353.7529,N,09832.0246,W,2,06,2.4,315.5,M,-23.7,M,0.8,0000*4C
$GPGSA,A,3,15,27,09,29,21,18,,,,,,,4.7,2.4,4.0*3A
$GPRMC,145634.000,A,3353.7529,N,09832.0246,W,0.05,297.77,010412,,,D*78
$GPGGA,145635.000,3353.7529,N,09832.0247,W,2,06,2.4,315.5,M,-23.7,M,0.8,0000*4C
$GPGSA,A,3,15,27,09,29,21,18,,,,,,,4.7,2.4,4.0*3A
$GPRMC,145635.000,A,3353.7529,N,09832.0247,W,0.04,291.69,010412,,,D*70
$GPGGA,145636.000,3353.7529,N,09832.0247,W,2,06,2.4,315.5,M,-23.7,M,1.8,0000*4E
$GPGSA,A,3,15,27,09,29,21,18,,,,,,,4.7,2.4,4.0*3A
$GPRMC,145636.000,A,3353.7529,N,09832.0247,W,0.07,318.53,010412,,,D*79
$GPGGA,145637.000,3353.7530,N,09832.0248,W,2,06,2.4,315.5,M,-23.7,M,2.8,0000*4B
$GPGSA,A,3,15,27,09,29,21,18,,,,,,,4.7,2.4,4.0*3A
$GPRMC,145637.000,A,3353.7530,N,09832.0248,W,0.07,308.47,010412,,,D*7B
$GPGGA,145638.000,3353.7530,N,09832.0249,W,2,06,2.4,315.4,M,-23.7,M,3.8,0000*45
$GPGSA,A,3,15,27,09,29,21,18,,,,,,,4.6,2.4,4.0*3B
$GPGSV,3,1,12,21,82,039,32,18,64,335,34,15,47,048,34,22,33,280,20*77
$GPGSV,3,2,12,27,28,085,25,09,28,114,34,06,28,298,,29,19,179,37*79
$GPGSV,3,3,12,03,18,306,,14,17,212,,26,05,038,,51,49,195,38*72
$GPRMC,145638.000,A,3353.7530,N,09832.0249,W,0.07,312.14,010412,,,D*78
$GPGGA,145639.000,3353.7530,N,09832.0249,W,2,06,2.4,315.5,M,-23.7,M,0.8,0000*46
$GPGSA,A,3,15,27,09,29,21,18,,,,,,,4.6,2.4,4.0*3B
$GPRMC,145639.000,A,3353.7530,N,09832.0249,W,0.04,297.36,010412,,,D*76
$GPGGA,145640.000,3353.7529,N,09832.0250,W,2,06,2.4,315.7,M,-23.7,M,0.8,0000*4A
$GPGSA,A,3,15,27,09,29,21,18,,,,,,,4.6,2.4,4.0*3B
$GPRMC,145640.000,A,3353.7529,N,09832.0250,W,0.06,307.78,010412,,,D*78
$GPGGA,145641.000,3353.7528,N,09832.0251,W,2,06,2.4,316.4,M,-23.7,M,0.8,0000*4B
$GPGSA,A,3,15,27,09,29,21,18,,,,,,,4.6,2.4,4.0*3B
$GPRMC,145641.000,A,3353.7528,N,09832.0251,W,0.06,296.61,010412,,,D*78
$GPGGA,145642.000,3353.7528,N,09832.0251,W,2,06,2.4,316.6,M,-23.7,M,1.8,0000*4B
$GPGSA,A,3,15,27,09,29,21,18,,,,,,,4.6,2.4,4.0*3B
$GPRMC,145642.000,A,3353.7528,N,09832.0251,W,0.15,76.85,010412,,,D*4F
$GPGGA,145643.000,3353.7527,N,09832.0252,W,2,06,2.4,316.9,M,-23.7,M,2.8,0000*4A
$GPGSA,A,3,15,27,09,29,21,18,,,,,,,4.6,2.4,4.0*3B
$GPGSV,3,1,12,21,82,039,32,18,64,335,33,15,47,048,34,22,33,280,21*71
$GPGSV,3,2,12,27,28,085,25,09,28,114,33,06,28,298,,29,19,179,37*7E
$GPGSV,3,3,12,03,18,306,,14,17,212,,26,05,038,,51,49,195,39*73
$GPRMC,145643.000,A,3353.7527,N,09832.0252,W,0.12,85.85,010412,,,D*49
$GPGGA,145644.000,3353.7527,N,09832.0251,W,2,06,2.4,317.0,M,-23.7,M,0.8,0000*44
$GPGSA,A,3,15,27,09,29,21,18,,,,,,,4.6,2.4,4.0*3B
$GPRMC,145644.000,A,3353.7527,N,09832.0251,W,0.02,171.65,010412,,,D*78
$GPGGA,145645.000,3353.7528,N,09832.0251,W,2,06,2.4,316.9,M,-23.7,M,0.8,0000*42
$GPGSA,A,3,15,27,09,29,21,18,,,,,,,4.6,2.4,4.0*3B
$GPRMC,145645.000,A,3353.7528,N,09832.0251,W,0.06,10.96,010412,,,D*48
$GPGGA,145646.000,3353.7530,N,09832.0250,W,2,06,2.4,316.2,M,-23.7,M,0.8,0000*42
$GPGSA,A,3,15,27,09,29,21,18,,,,,,,4.6,2.4,4.0*3B
$GPRMC,145646.000,A,3353.7530,N,09832.0250,W,0.04,325.60,010412,,,D*7D
$GPGGA,145647.000,3353.7532,N,09832.0249,W,2,06,2.4,315.3,M,-23.7,M,0.8,0000*4B
$GPGSA,A,3,15,27,09,29,21,18,,,,,,,4.6,2.4,4.0*3B
$GPRMC,145647.000,A,3353.7532,N,09832.0249,W,0.06,300.70,010412,,,D*72
$GPGGA,145648.000,3353.7534,N,09832.0248,W,2,06,2.4,314.4,M,-23.7,M,1.8,0000*44
$GPGSA,A,3,15,27,09,29,21,18,,,,,,,4.6,2.4,4.0*3B
$GPGSV,3,1,12,21,82,041,32,18,64,335,33,15,47,048,34,22,33,280,22*7D
$GPGSV,3,2,12,09,28,113,33,27,28,085,24,06,28,298,,29,19,179,37*78
$GPGSV,3,3,12,03,18,306,,14,17,212,,26,04,038,,51,49,195,39*72
$GPRMC,145648.000,A,3353.7534,N,09832.0248,W,0.13,1.26,010412,,,D*7F
$GPGGA,145649.000,3353.7536,N,09832.0248,W,2,06,2.4,313.6,M,-23.7,M,0.8,0000*43
$GPGSA,A,3,15,27,09,29,21,18,,,,,,,4.6,2.4,4.0*3B
$GPRMC,145649.000,A,3353.7536,N,09832.0248,W,0.14,345.47,010412,,,D*7F
$GPGGA,145650.000,3353.7538,N,09832.0247,W,2,06,2.4,312.9,M,-23.7,M,1.8,0000*45
$GPGSA,A,3,15,27,09,29,21,18,,,,,,,4.6,2.4,4.0*3B
$GPRMC,145650.000,A,3353.7538,N,09832.0247,W,0.17,338.26,010412,,,D*78
$GPGGA,145651.000,3353.7539,N,09832.0246,W,2,06,2.4,312.3,M,-23.7,M,0.8,0000*4F
$GPGSA,A,3,15,27,09,29,21,18,,,,,,,4.6,2.4,4.0*3B
$GPRMC,145651.000,A,3353.7539,N,09832.0246,W,0.15,337.67,010412,,,D*71
$GPGGA,145652.000,3353.7540,N,09832.0246,W,2,06,2.3,311.9,M,-23.7,M,0.8,0000*4C
$GPGSA,A,3,15,27,09,29,21,18,,,,,,,4.6,2.3,4.0*3C
$GPRMC,145652.000,A,3353.7540,N,09832.0246,W,0.21,341.02,010412,,,D*79
$GPGGA,145653.000,3353.7541,N,09832.0245,W,2,06,2.3,311.4,M,-23.7,M,0.8,0000*42
$GPGSA,A,3,15,27,09,29,21,18,,,,,,,4.6,2.3,4.0*3C
$GPGSV,3,1,12,21,82,041,32,18,64,335,33,15,47,048,34,22,33,280,22*7D
$GPGSV,3,2,12,09,28,113,33,27,28,085,24,06,28,298,,29,19,179,37*78
$GPGSV,3,3,12,03,18,306,,14,17,212,,26,04,038,,51,49,195,39*72
$GPRMC,145653.000,A,3353.7541,N,09832.0245,W,0.21,337.90,010412,,,D*70
$GPGGA,145654.000,3353.7542,N,09832.0245,W,2,06,2.3,311.1,M,-23.7,M,1.8,0000*42
$GPGSA,A,3,15,27,09,29,21,18,,,,,,,4.6,2.3,4.0*3C
$GPRMC,145654.000,A,3353.7542,N,09832.0245,W,0.21,336.82,010412,,,D*76
$GPGGA,145655.000,3353.7543,N,09832.0245,W,2,06,2.3,310.7,M,-23.7,M,2.8,0000*46
$GPGSA,A,3,15,27,09,29,21,18,,,,,,,4.6,2.3,4.0*3C
$GPRMC,145655.000,A,3353.7543,N,09832.0245,W,0.21,339.45,010412,,,D*72
$GPGGA,145656.000,3353.7544,N,09832.0245,W,2,06,2.3,310.4,M,-23.7,M,3.8,0000*40
$GPGSA,A,3,15,27,09,29,21,18,,,,,,,4.6,2.3,4.0*3C
$GPRMC,145656.000,A,3353.7544,N,09832.0245,W,0.22,327.17,010412,,,D*7D
$GPGGA,145657.000,3353.7546,N,09832.0246,W,2,06,2.3,309.9,M,-23.7,M,0.8,0000*46
$GPGSA,A,3,15,27,09,29,21,18,,,,,,,4.6,2.3,4.0*3C
$GPRMC,145657.000,A,3353.7546,N,09832.0246,W,0.28,337.10,010412,,,D*71
$GPGGA,145658.000,3353.7547,N,09832.0247,W,2,06,2.3,309.4,M,-23.7,M,0.8,0000*44
$GPGSA,A,3,15,27,09,29,21,18,,,,,,,4.6,2.3,4.0*3C
$GPGSV,3,1,12,21,82,041,32,18,64,335,32,15,47,048,35,22,33,280,22*7D
$GPGSV,3,2,12,09,28,113,34,27,28,085,25,06,28,298,,29,19,179,37*7E
$GPGSV,3,3,12,03,18,306,,14,17,212,,26,04,038,,51,49,195,39*72
$GPRMC,145658.000,A,3353.7547,N,09832.0247,W,0.27,326.00,010412,,,D*70
$GPGGA,145659.000,3353.7548,N,09832.0248,W,2,06,2.3,308.8,M,-23.7,M,0.8,0000*48
$GPGSA,A,3,15,27,09,29,21,18,,,,,,,4.6,2.3,4.0*3C
$GPRMC,145659.000,A,3353.7548,N,09832.0248,W,0.27,328.01,010412,,,D*7E
$GPGGA,145700.000,3353.7549,N,09832.0249,W,2,06,2.3,308.3,M,-23.7,M,0.8,0000*4E
$GPGSA,A,3,15,27,09,29,21,18,,,,,,,4.6,2.3,4.0*3C
$GPRMC,145700.000,A,3353.7549,N,09832.0249,W,0.29,326.58,010412,,,D*7F
$GPGGA,145701.000,3353.7551,N,09832.0250,W,2,06,2.3,307.8,M,-23.7,M,1.8,0000*4B
$GPGSA,A,3,15,27,09,29,21,18,,,,,,,4.6,2.3,4.0*3C
$GPRMC,145701.000,A,3353.7551,N,09832.0250,W,0.30,325.67,010412,,,D*78
$GPGGA,145702.000,3353.7552,N,09832.0251,W,2,06,2.3,307.3,M,-23.7,M,0.8,0000*40
$GPGSA,A,3,15,27,09,29,21,18,,,,,,,4.6,2.3,4.0*3C
$GPRMC,145702.000,A,3353.7552,N,09832.0251,W,0.33,320.37,010412,,,D*7A
$GPGGA,145703.000,3353.7552,N,09832.0251,W,2,06,2.3,307.1,M,-23.7,M,0.8,0000*43
$GPGSA,A,3,15,27,09,29,21,18,,,,,,,4.6,2.3,4.0*3C
$GPGSV,3,1,12,21,82,041,32,18,64,335,32,15,47,048,35,22,33,280,22*7D
$GPGSV,3,2,12,09,28,113,34,27,28,085,26,06,28,298,,29,19,179,36*7C
$GPGSV,3,3,12,03,18,306,,14,17,212,,26,04,038,,51,49,195,39*72
$GPRMC,145703.000,A,3353.7552,N,09832.0251,W,0.26,322.82,010412,,,D*73
$GPGGA,145704.000,3353.7553,N,09832.0252,W,2,06,2.3,306.9,M,-23.7,M,0.8,0000*4F
$GPGSA,A,3,15,27,09,29,21,18,,,,,,,4.6,2.3,4.0*3C
$GPRMC,145704.000,A,3353.7553,N,09832.0252,W,0.29,331.46,010412,,,D*73
$GPGGA,145705.000,3353.7553,N,09832.0252,W,2,06,2.3,306.7,M,-23.7,M,0.8,0000*40
$GPGSA,A,3,15,27,09,29,21,18,,,,,,,4.6,2.3,4.0*3C
$GPRMC,145705.000,A,3353.7553,N,09832.0252,W,0.29,323.28,010412,,,D*79
$GPGGA,145706.000,3353.7554,N,09832.0253,W,2,06,2.3,306.6,M,-23.7,M,1.8,0000*45
$GPGSA,A,3,15,27,09,29,21,18,,,,,,,4.6,2.3,4.0*3C
$GPRMC,145706.000,A,3353.7554,N,09832.0253,W,0.27,324.85,010412,,,D*72
$GPGGA,145707.000,3353.7554,N,09832.0254,W,2,06,2.3,306.6,M,-23.7,M,0.8,0000*42
$GPGSA,A,3,15,27,09,29,21,18,,,,,,,4.6,2.3,3.9*32
$GPRMC,145707.000,A,3353.7554,N,09832.0254,W,0.29,322.57,010412,,,D*73
$GPGGA,145708.000,3353.7555,N,09832.0253,W,2,06,2.3,306.2,M,-23.7,M,1.8,0000*4E
$GPGSA,A,3,15,27,09,29,21,18,,,,,,,4.6,2.3,3.9*32
$GPGSV,3,1,12,21,82,041,32,18,64,335,32,15,47,048,35,22,33,280,23*7C
$GPGSV,3,2,12,09,28,113,33,27,28,085,26,06,28,298,,29,19,179,36*7B
$GPGSV,3,3,12,03,18,306,,14,17,212,23,26,04,038,,51,49,195,39*73
$GPRMC,145708.000,A,3353.7555,N,09832.0253,W,0.24,338.11,010412,,,D*7E
$GPGGA,145709.000,3353.7556,N,09832.0253,W,2,06,2.3,305.6,M,-23.7,M,0.8,0000*4A
$GPGSA,A,3,15,27,09,29,21,18,,,,,,,4.6,2.3,3.9*32
$GPRMC,145709.000,A,3353.7556,N,09832.0253,W,0.28,338.67,010412,,,D*71
$GPGGA,145710.000,3353.7558,N,09832.0252,W,2,06,2.3,304.8,M,-23.7,M,0.8,0000*42
$GPGSA,A,3,15,27,09,29,21,18,,,,,,,4.6,2.3,3.9*32
$GPRMC,145710.000,A,3353.7558,N,09832.0252,W,0.27,332.53,010412,,,D*74
$GPGGA,145711.000,3353.7558,N,09832.0253,W,2,06,2.3,304.7,M,-23.7,M,0.8,0000*4D
$GPGSA,A,3,15,27,09,29,21,18,,,,,,,4.6,2.3,3.9*32
$GPRMC,145711.000,A,3353.7558,N,09832.0253,W,0.29,313.66,010412,,,D*7F
$GPGGA,145712.000,3353.7559,N,09832.0253,W,2,06,2.3,304.2,M,-23.7,M,1.8,0000*4B
$GPGSA,A,3,15,27,09,29,21,18,,,,,,,4.6,2.3,3.9*32
$GPRMC,145712.000,A,3353.7559,N,09832.0253,W,0.24,11.10,010412,,,D*40
$GPGGA,145713.000,3353.7560,N,09832.0253,W,2,06,2.3,303.8,M,-23.7,M,0.8,0000*4C
$GPGSA,A,3,15,27,09,29,21,18,,,,,,,4.6,2.3,3.9*32
$GPGSV,3,1,12,21,82,041,32,18,64,335,32,15,47,048,36,22,33,280,24*78
$GPGSV,3,2,12,09,28,113,33,27,28,085,26,06,28,298,,29,19,179,36*7B
$GPGSV,3,3,12,03,18,306,,14,17,212,24,26,04,038,,51,49,195,39*74
$GPRMC,145713.000,A,3353.7560,N,09832.0253,W,0.27,324.18,010412,,,D*75
$GPGGA,145714.000,3353.7561,N,09832.0254,W,2,06,2.3,303.5,M,-23.7,M,0.8,0000*40
$GPGSA,A,3,15,27,09,29,21,18,,,,,,,4.6,2.3,3.9*32
$GPRMC,145714.000,A,3353.7561,N,09832.0254,W,0.27,333.56,010412,,,D*78
$GPGGA,145715.000,3353.7561,N,09832.0254,W,2,06,2.3,303.3,M,-23.7,M,0.8,0000*47
$GPGSA,A,3,15,27,09,29,21,18,,,,,,,4.6,2.3,3.9*32
$GPRMC,145715.000,A,3353.7561,N,09832.0254,W,0.20,318.97,010412,,,D*7A
$GPGGA,145716.000,3353.7561,N,09832.0254,W,2,06,2.3,303.2,M,-23.7,M,0.8,0000*45
$GPGSA,A,3,15,27,09,29,21,18,,,,,,,4.6,2.3,3.9*32
$GPRMC,145716.000,A,3353.7561,N,09832.0254,W,0.24,335.65,010412,,,D*7F
$GPGGA,145717.000,3353.7561,N,09832.0255,W,2,06,2.3,303.1,M,-23.7,M,0.8,0000*46
$GPGSA,A,3,15,27,09,29,21,18,,,,,,,4.6,2.3,3.9*32
$GPRMC,145717.000,A,3353.7561,N,09832.0255,W,0.24,327.72,010412,,,D*7A
$GPGGA,145718.000,3353.7561,N,09832.0256,W,2,06,2.3,303.1,M,-23.7,M,1.8,0000*4B
$GPGSA,A,3,15,27,09,29,21,18,,,,,,,4.6,2.3,3.9*32
$GPGSV,3,1,12,21,82,042,31,18,64,336,32,15,47,047,36,22,33,280,24*74
$GPGSV,3,2,12,09,28,113,33,27,28,085,26,06,28,298,,03,19,306,*7C
$GPGSV,3,3,12,29,18,178,36,14,18,212,25,26,04,038,,51,49,195,39*7C
$GPRMC,145718.000,A,3353.7561,N,09832.0256,W,0.24,327.96,010412,,,D*7C
$GPGGA,145719.000,3353.7561,N,09832.0256,W,2,06,2.3,303.1,M,-23.7,M,2.8,0000*49
$GPGSA,A,3,15,27,09,29,21,18,,,,,,,4.6,2.3,3.9*32
$GPRMC,145719.000,A,3353.7561,N,09832.0256,W,0.21,326.09,010412,,,D*7F
$GPGGA,145720.000,3353.7561,N,09832.0257,W,2,06,2.3,303.0,M,-23.7,M,3.8,0000*42
$GPGSA,A,3,15,27,09,29,21,18,,,,,,,4.6,2.3,3.9*32
$GPRMC,145720.000,A,3353.7561,N,09832.0257,W,0.22,324.40,010412,,,D*78
$GPGGA,145721.000,3353.7561,N,09832.0257,W,2,06,2.3,303.1,M,-23.7,M,0.8,0000*41
$GPGSA,A,3,15,27,09,29,21,18,,,,,,,4.6,2.3,3.9*32
$GPRMC,145721.000,A,3353.7561,N,09832.0257,W,0.24,326.54,010412,,,D*78
$GPGGA,145722.000,3353.7561,N,09832.0258,W,2,06,2.3,303.2,M,-23.7,M,0.8,0000*4E
$GPGSA,A,3,15,27,09,29,21,18,,,,,,,4.6,2.3,3.9*32
$GPRMC,145722.000,A,3353.7561,N,09832.0258,W,0.22,317.22,010412,,,D*71
$GPGGA,145723.000,3353.7560,N,09832.0258,W,2,06,2.3,303.3,M,-23.7,M,0.8,0000*4F
$GPGSA,A,3,15,27,09,29,21,18,,,,,,,4.6,2.3,3.9*32
$GPGSV,3,1,12,21,82,042,31,18,64,336,32,15,47,047,36,22,33,280,24*74
$GPGSV,3,2,12,09,28,113,33,27,28,085,27,06,28,298,,03,19,306,*7D
$GPGSV,3,3,12,29,18,178,36,14,18,212,24,26,04,038,,51,49,195,39*7D
$GPRMC,145723.000,A,3353.7560,N,09832.0258,W,0.16,323.18,010412,,,D*78
$GPGGA,145724.000,3353.7560,N,09832.0258,W,2,06,2.3,303.5,M,-23.7,M,1.8,0000*4F
$GPGSA,A,3,15,27,09,29,21,18,,,,,,,4.6,2.3,3.9*32
$GPRMC,145724.000,A,3353.7560,N,09832.0258,W,0.10,316.57,010412,,,D*74
$GPGGA,145725.000,3353.7559,N,09832.0258,W,2,06,2.3,303.7,M,-23.7,M,2.8,0000*45
$GPGSA,A,3,15,27,09,29,21,18,,,,,,,4.6,2.3,3.9*32
$GPRMC,145725.000,A,3353.7559,N,09832.0258,W,0.10,306.22,010412,,,D*7C
$GPGGA,145726.000,3353.7559,N,09832.0259,W,2,06,2.3,303.9,M,-23.7,M,3.8,0000*48
$GPGSA,A,3,15,27,09,29,21,18,,,,,,,4.6,2.3,3.9*32
$GPRMC,145726.000,A,3353.7559,N,09832.0259,W,0.07,333.24,010412,,,D*78
$GPGGA,145727.000,3353.7558,N,09832.0258,W,2,06,2.3,304.0,M,-23.7,M,0.8,0000*44
$GPGSA,A,3,15,27,09,29,21,18,,,,,,,4.6,2.3,3.9*32
$GPRMC,145727.000,A,3353.7558,N,09832.0258,W,0.04,74.10,010412,,,D*4D
$GPGGA,145728.000,3353.7557,N,09832.0258,W,2,06,2.3,304.3,M,-23.7,M,0.8,0000*47
$GPGSA,A,3,15,27,09,29,21,18,,,,,,,4.5,2.3,3.9*31
$GPGSV,3,1,12,21,82,042,31,18,64,336,32,15,47,047,35,22,33,280,24*77
$GPGSV,3,2,12,09,28,113,33,27,28,085,27,06,28,298,,03,19,306,*7D
$GPGSV,3,3,12,29,18,178,36,14,18,212,24,26,04,038,21,51,49,195,39*7E
$GPRMC,145728.000,A,3353.7557,N,09832.0258,W,0.05,50.00,010412,,,D*4B
$GPGGA,145729.000,3353.7557,N,09832.0258,W,2,06,2.3,304.4,M,-23.7,M,0.8,0000*41
$GPGSA,A,3,15,27,09,29,21,18,,,,,,,4.5,2.3,3.9*31
$GPRMC,145729.000,A,3353.7557,N,09832.0258,W,0.06,12.63,010412,,,D*4A
$GPGGA,145730.000,3353.7557,N,09832.0258,W,2,06,2.3,304.6,M,-23.7,M,1.8,0000*4A
$GPGSA,A,3,15,27,09,29,21,18,,,,,,,4.5,2.3,3.9*31
$GPRMC,145730.000,A,3353.7557,N,09832.0258,W,0.04,2.70,010412,,,D*73
$GPGGA,145731.000,3353.7556,N,09832.0258,W,2,06,2.3,304.8,M,-23.7,M,2.8,0000*47
$GPGSA,A,3,15,27,09,29,21,18,,,,,,,4.5,2.3,3.9*31
$GPRMC,145731.000,A,3353.7556,N,09832.0258,W,0.02,45.44,010412,,,D*41
$GPGGA,145732.000,3353.7556,N,09832.0258,W,2,06,2.3,304.9,M,-23.7,M,3.8,0000*44
$GPGSA,A,3,15,27,09,29,21,18,,,,,,,4.5,2.3,3.9*31
$GPRMC,145732.000,A,3353.7556,N,09832.0258,W,0.01,113.61,010412,,,D*74
$GPGGA,145733.000,3353.7555,N,09832.0259,W,2,06,2.3,305.1,M,-23.7,M,0.8,0000*4D
$GPGSA,A,3,15,27,09,29,21,18,,,,,,,4.5,2.3,3.9*31
$GPGSV,3,1,12,21,82,042,31,18,64,336,32,15,47,047,35,22,33,280,14*74
$GPGSV,3,2,12,09,28,113,33,27,28,085,27,06,28,298,,03,19,306,*7D
$GPGSV,3,3,12,29,18,178,35,14,18,212,23,26,04,038,20,51,49,195,39*7B
$GPRMC,145733.000,A,3353.7555,N,09832.0259,W,0.06,326.69,010412,,,D*7C
$GPGGA,145734.000,3353.7555,N,09832.0259,W,2,06,2.3,305.3,M,-23.7,M,0.8,0000*48
$GPGSA,A,3,15,27,09,29,21,18,,,,,,,4.5,2.3,3.9*31
$GPRMC,145734.000,A,3353.7555,N,09832.0259,W,0.04,228.60,010412,,,D*7F
$GPGGA,145735.000,3353.7554,N,09832.0259,W,2,06,2.3,305.5,M,-23.7,M,0.8,0000*4E
$GPGSA,A,3,15,27,09,29,21,18,,,,,,,4.5,2.3,3.9*31
$GPRMC,145735.000,A,3353.7554,N,09832.0259,W,0.05,166.78,010412,,,D*7E
$GPGGA,145736.000,3353.7554,N,09832.0259,W,2,06,2.3,305.7,M,-23.7,M,1.8,0000*4E
$GPGSA,A,3,15,27,09,29,21,18,,,,,,,4.5,2.3,3.9*31
$GPRMC,145736.000,A,3353.7554,N,09832.0259,W,0.05,175.02,010412,,,D*72
$GPGGA,145737.000,3353.7553,N,09832.0259,W,2,06,2.3,305.9,M,-23.7,M,2.8,0000*45
$GPGSA,A,3,15,27,09,29,21,18,,,,,,,4.5,2.3,3.9*31
$GPRMC,145737.000,A,3353.7553,N,09832.0259,W,0.06,160.18,010412,,,D*78
$GPGGA,145738.000,3353.7552,N,09832.0259,W,2,06,2.3,306.1,M,-23.7,M,0.8,0000*42
$GPGSA,A,3,15,27,09,29,21,18,,,,,,,4.5,2.3,3.9*31
$GPGSV,3,1,12,21,82,042,30,18,64,336,31,15,47,047,35,22,33,280,14*76
$GPGSV,3,2,12,09,28,113,33,27,28,085,28,06,28,298,,03,19,306,*72
$GPGSV,3,3,12,29,18,178,35,14,18,212,23,26,04,038,20,51,49,195,39*7B
$GPRMC,145738.000,A,3353.7552,N,09832.0259,W,0.11,147.69,010412,,,D*73
$GPGGA,145739.000,3353.7552,N,09832.0259,W,2,06,2.3,306.2,M,-23.7,M,0.8,0000*40
$GPGSA,A,3,15,27,09,29,21,18,,,,,,,4.5,2.3,3.9*31
$GPRMC,145739.000,A,3353.7552,N,09832.0259,W,0.13,133.85,010412,,,D*71
$GPGGA,145740.000,3353.7551,N,09832.0259,W,2,06,2.3,306.3,M,-23.7,M,0.8,0000*4C
$GPGSA,A,3,15,27,09,29,21,18,,,,,,,4.5,2.3,3.9*31
$GPRMC,145740.000,A,3353.7551,N,09832.0259,W,0.13,142.60,010412,,,D*71
$GPGGA,145741.000,3353.7551,N,09832.0259,W,2,06,2.3,306.4,M,-23.7,M,0.8,0000*4A
$GPGSA,A,3,15,27,09,29,21,18,,,,,,,4.5,2.3,3.9*31
$GPRMC,145741.000,A,3353.7551,N,09832.0259,W,0.07,157.50,010412,,,D*72
$GPGGA,145742.000,3353.7551,N,09832.0259,W,2,06,2.3,306.4,M,-23.7,M,1.8,0000*48
$GPGSA,A,3,15,27,09,29,21,18,,,,,,,4.5,2.3,3.9*31
$GPRMC,145742.000,A,3353.7551,N,09832.0259,W,0.08,119.10,010412,,,D*70
$GPGGA,145743.000,3353.7551,N,09832.0259,W,2,06,2.3,306.5,M,-23.7,M,2.8,0000*4B
$GPGSA,A,3,15,27,09,29,21,18,,,,,,,4.5,2.3,3.9*31
$GPGSV,3,1,12,21,82,042,30,18,64,336,31,15,47,047,35,22,33,280,17*75
$GPGSV,3,2,12,09,28,113,33,27,28,085,28,06,28,298,19,03,19,306,*7A
$GPGSV,3,3,12,29,18,178,35,14,18,212,18,26,04,038,20,51,49,195,39*73
$GPRMC,145743.000,A,3353.7551,N,09832.0259,W,0.05,166.11,010412,,,D*75
$GPGGA,145744.000,3353.7551,N,09832.0259,W,2,06,2.3,306.4,M,-23.7,M,3.8,0000*4C
$GPGSA,A,3,15,27,09,29,21,18,,,,,,,4.5,2.3,3.9*31
$GPRMC,145744.000,A,3353.7551,N,09832.0259,W,0.05,154.51,010412,,,D*77
$GPGGA,145745.000,3353.7550,N,09832.0260,W,2,06,2.3,306.5,M,-23.7,M,0.8,0000*44
$GPGSA,A,3,15,27,09,29,21,18,,,,,,,4.5,2.3,3.9*31
$GPRMC,145745.000,A,3353.7550,N,09832.0260,W,0.03,257.25,010412,,,D*78
$GPGGA,145746.000,3353.7551,N,09832.0260,W,2,06,2.3,306.5,M,-23.7,M,0.8,0000*46
$GPGSA,A,3,15,27,09,29,21,18,,,,,,,4.5,2.3,3.9*31
$GPRMC,145746.000,A,3353.7551,N,09832.0260,W,0.02,339.71,010412,,,D*73
$GPGGA,145747.000,3353.7550,N,09832.0260,W,2,06,2.3,306.5,M,-23.7,M,0.8,0000*46
$GPGSA,A,3,15,27,09,29,21,18,,,,,,,4.5,2.3,3.9*31
$GPRMC,145747.000,A,3353.7550,N,09832.0260,W,0.03,104.76,010412,,,D*79
$GPGGA,145748.000,3353.7550,N,09832.0260,W,2,06,2.3,306.5,M,-23.7,M,0.8,0000*49
$GPGSA,A,3,15,27,09,29,21,18,,,,,,,4.5,2.3,3.9*31
$GPGSV,3,1,12,21,82,044,30,18,64,336,30,15,46,047,35,22,34,280,19*7A
$GPGSV,3,2,12,09,28,113,33,27,28,084,29,06,28,297,19,03,19,306,*75
$GPGSV,3,3,12,29,18,178,35,14,18,212,17,26,04,038,20,51,49,195,39*7C
$GPRMC,145748.000,A,3353.7550,N,09832.0260,W,0.05,88.62,010412,,,D*40
$GPGGA,145749.000,3353.7550,N,09832.0260,W,2,06,2.3,306.5,M,-23.7,M,0.8,0000*48
$GPGSA,A,3,15,27,09,29,21,18,,,,,,,4.5,2.3,3.9*31
$GPRMC,145749.000,A,3353.7550,N,09832.0260,W,0.03,138.28,010412,,,D*73
$GPGGA,145750.000,3353.7550,N,09832.0260,W,2,06,2.3,306.6,M,-23.7,M,1.8,0000*42
$GPGSA,A,3,15,27,09,29,21,18,,,,,,,4.5,2.3,3.9*31
$GPRMC,145750.000,A,3353.7550,N,09832.0260,W,0.05,103.91,010412,,,D*77
$GPGGA,145751.000,3353.7550,N,09832.0259,W,2,06,2.3,306.6,M,-23.7,M,0.8,0000*48
$GPGSA,A,3,15,27,09,29,21,18,,,,,,,4.5,2.3,3.9*31
$GPRMC,145751.000,A,3353.7550,N,09832.0259,W,0.11,95.72,010412,,,D*4A
$GPGGA,145752.000,3353.7550,N,09832.0259,W,2,06,2.3,306.6,M,-23.7,M,0.8,0000*4B
$GPGSA,A,3,15,27,09,29,21,18,,,,,,,4.5,2.3,3.9*31
$GPRMC,145752.000,A,3353.7550,N,09832.0259,W,0.08,120.38,010412,,,D*70
$GPGGA,145753.000,3353.7550,N,09832.0259,W,2,06,2.3,306.6,M,-23.7,M,0.8,0000*4A
$GPGSA,A,3,15,27,09,29,21,18,,,,,,,4.5,2.3,3.9*31
$GPGSV,3,1,12,21,82,044,29,18,64,336,30,15,46,047,35,22,34,280,20*78
$GPGSV,3,2,12,09,28,113,33,27,28,084,29,06,28,297,18,03,19,306,*74
$GPGSV,3,3,12,29,18,178,35,14,18,212,16,26,04,038,20,51,49,195,39*7D
$GPRMC,145753.000,A,3353.7550,N,09832.0259,W,0.04,97.45,010412,,,D*4A
$GPGGA,145754.000,3353.7550,N,09832.0259,W,2,06,2.3,306.5,M,-23.7,M,1.8,0000*4F
$GPGSA,A,3,15,27,09,29,21,18,,,,,,,4.5,2.3,3.9*31
$GPRMC,145754.000,A,3353.7550,N,09832.0259,W,0.03,133.94,010412,,,D*79
$GPGGA,145755.000,3353.7549,N,09832.0259,W,2,06,2.3,306.5,M,-23.7,M,2.8,0000*45
$GPGSA,A,3,15,27,09,29,21,18,,,,,,,4.5,2.3,3.9*31
$GPRMC,145755.000,A,3353.7549,N,09832.0259,W,0.02,104.65,010412,,,D*7B
$GPGGA,145756.000,3353.7549,N,09832.0260,W,2,06,2.3,306.5,M,-23.7,M,0.8,0000*4E
$GPGSA,A,3,15,27,09,29,21,18,,,,,,,4.5,2.3,3.9*31
$GPRMC,145756.000,A,3353.7549,N,09832.0260,W,0.02,150.16,010412,,,D*77
$GPGGA,145757.000,3353.7549,N,09832.0260,W,2,06,2.3,306.6,M,-23.7,M,0.8,0000*4C
$GPGSA,A,3,15,27,09,29,21,18,,,,,,,4.5,2.3,3.9*31
$GPRMC,145757.000,A,3353.7549,N,09832.0260,W,0.04,286.61,010412,,,D*78
$GPGGA,145758.000,3353.7549,N,09832.0260,W,2,06,2.3,306.6,M,-23.7,M,0.8,0000*43
$GPGSA,A,3,15,27,09,29,21,18,,,,,,,4.5,2.3,3.9*31
$GPGSV,3,1,12,21,82,044,29,18,64,336,30,15,46,047,35,22,34,280,21*79
$GPGSV,3,2,12,09,28,113,33,27,28,084,30,06,28,297,16,03,19,306,*72
$GPGSV,3,3,12,29,18,178,35,14,18,212,15,26,04,038,20,51,49,195,39*7E
$GPRMC,145758.000,A,3353.7549,N,09832.0260,W,0.05,307.66,010412,,,D*79
$GPGGA,145759.000,3353.7549,N,09832.0260,W,2,06,2.3,306.7,M,-23.7,M,0.8,0000*43
$GPGSA,A,3,15,27,09,29,21,18,,,,,,,4.5,2.3,3.9*31
$GPRMC,145759.000,A,3353.7549,N,09832.0260,W,0.03,57.99,010412,,,D*48
$GPGGA,145800.000,3353.7549,N,09832.0260,W,2,06,2.3,306.7,M,-23.7,M,1.8,0000*41
$GPGSA,A,3,15,27,09,29,21,18,,,,,,,4.5,2.3,3.9*31
$GPRMC,145800.000,A,3353.7549,N,09832.0260,W,0.02,87.06,010412,,,D*41
$GPGGA,145801.000,3353.7549,N,09832.0260,W,2,06,2.3,306.8,M,-23.7,M,0.8,0000*4E
$GPGSA,A,3,15,27,09,29,21,18,,,,,,,4.5,2.3,3.8*30
$GPRMC,145801.000,A,3353.7549,N,09832.0260,W,0.04,124.48,010412,,,D*74
$GPGGA,145802.000,3353.7549,N,09832.0260,W,2,06,2.3,306.8,M,-23.7,M,1.8,0000*4C
$GPGSA,A,3,15,27,09,29,21,18,,,,,,,4.5,2.3,3.8*30
$GPRMC,145802.000,A,3353.7549,N,09832.0260,W,0.06,58.99,010412,,,D*43
$GPGGA,145803.000,3353.7549,N,09832.0260,W,2,06,2.3,306.8,M,-23.7,M,0.8,0000*4C
$GPGSA,A,3,15,27,09,29,21,18,,,,,,,4.5,2.3,3.8*30
$GPGSV,3,1,12,21,82,044,28,18,64,336,30,15,46,047,35,22,34,280,22*7B
$GPGSV,3,2,12,09,28,113,33,27,28,084,30,06,28,297,15,03,19,306,*71
$GPGSV,3,3,12,29,18,178,35,14,18,212,16,26,04,038,20,51,49,195,39*7D
$GPRMC,145803.000,A,3353.7549,N,09832.0260,W,0.11,113.65,010412,,,D*79
$GPGGA,145804.000,3353.7548,N,09832.0260,W,2,06,2.3,306.8,M,-23.7,M,0.8,0000*4A
$GPGSA,A,3,15,27,09,29,21,18,,,,,,,4.5,2.3,3.8*30
$GPRMC,145804.000,A,3353.7548,N,09832.0260,W,0.07,147.99,010412,,,D*7A
$GPGGA,145805.000,3353.7548,N,09832.0260,W,2,06,2.3,306.7,M,-23.7,M,0.8,0000*44
$GPGSA,A,3,15,27,09,29,21,18,,,,,,,4.5,2.3,3.8*30
$GPRMC,145805.000,A,3353.7548,N,09832.0260,W,0.02,137.90,010412,,,D*70
$GPGGA,145806.000,3353.7548,N,09832.0261,W,2,06,2.3,306.6,M,-23.7,M,1.8,0000*46
$GPGSA,A,3,15,27,09,29,21,18,,,,,,,4.5,2.3,3.8*30
$GPRMC,145806.000,A,3353.7548,N,09832.0261,W,0.05,183.04,010412,,,D*77
$GPGGA,145807.000,3353.7549,N,09832.0261,W,2,06,2.3,306.5,M,-23.7,M,2.8,0000*46
$GPGSA,A,3,15,27,09,29,21,18,,,,,,,4.5,2.3,3.8*30
$GPRMC,145807.000,A,3353.7549,N,09832.0261,W,0.05,216.43,010412,,,D*7B
$GPGGA,145808.000,3353.7549,N,09832.0262,W,2,06,2.3,306.4,M,-23.7,M,3.8,0000*4A
$GPGSA,A,3,15,27,09,29,21,18,,,,,,,4.5,2.3,3.8*30
$GPGSV,3,1,12,21,82,044,28,18,64,336,30,15,46,047,35,22,34,280,22*7B
$GPGSV,3,2,12,09,28,113,34,27,28,084,30,06,28,297,15,03,19,306,*76
$GPGSV,3,3,12,29,18,178,35,14,18,212,16,26,04,038,20,51,49,195,39*7D
$GPRMC,145808.000,A,3353.7549,N,09832.0262,W,0.01,7.43,010412,,,D*71
$GPGGA,145809.000,3353.7549,N,09832.0262,W,2,06,2.3,306.4,M,-23.7,M,0.8,0000*48
$GPGSA,A,3,15,27,09,29,21,18,,,,,,,4.5,2.3,3.8*30
$GPRMC,145809.000,A,3353.7549,N,09832.0262,W,0.09,295.46,010412,,,D*74
$GPGGA,145810.000,3353.7549,N,09832.0263,W,2,06,2.3,306.3,M,-23.7,M,0.8,0000*46
$GPGSA,A,3,15,27,09,29,21,18,,,,,,,4.5,2.3,3.8*30
$GPRMC,145810.000,A,3353.7549,N,09832.0263,W,0.09,346.41,010412,,,D*75
$GPGGA,145811.000,3353.7550,N,09832.0263,W,2,06,2.3,306.3,M,-23.7,M,0.8,0000*4F
$GPGSA,A,3,15,27,09,29,21,18,,,,,,,4.5,2.3,3.8*30
$GPRMC,145811.000,A,3353.7550,N,09832.0263,W,0.10,15.05,010412,,,D*41
$GPGGA,145812.000,3353.7550,N,09832.0263,W,2,06,2.3,306.2,M,-23.7,M,1.8,0000*4C
$GPGSA,A,3,15,27,09,29,21,18,,,,,,,4.5,2.3,3.8*30
$GPRMC,145812.000,A,3353.7550,N,09832.0263,W,0.08,25.94,010412,,,D*40
$GPGGA,145813.000,3353.7550,N,09832.0264,W,2,06,2.3,306.2,M,-23.7,M,2.8,0000*49
$GPGSA,A,3,15,27,09,29,21,18,,,,,,,4.5,2.3,3.8*30
$GPGSV,3,1,12,21,82,044,28,18,64,336,30,15,46,047,35,22,34,280,16*7C
$GPGSV,3,2,12,09,28,113,34,27,28,084,30,06,28,297,15,03,19,306,*76
$GPGSV,3,3,12,29,18,178,35,14,18,212,18,26,04,038,21,51,49,195,39*72
$GPRMC,145813.000,A,3353.7550,N,09832.0264,W,0.10,14.24,010412,,,D*46
$GPGGA,145814.000,3353.7551,N,09832.0264,W,2,06,2.3,306.1,M,-23.7,M,3.8,0000*4D
$GPGSA,A,3,15,27,09,29,21,18,,,,,,,4.5,2.3,3.8*30
$GPRMC,145814.000,A,3353.7551,N,09832.0264,W,0.07,20.21,010412,,,D*44
$GPGGA,145815.000,3353.7551,N,09832.0264,W,2,06,2.3,306.1,M,-23.7,M,0.8,0000*4F
$GPGSA,A,3,15,27,09,29,21,18,,,,,,,4.5,2.3,3.8*30
$GPRMC,145815.000,A,3353.7551,N,09832.0264,W,0.07,89.78,010412,,,D*4A
$GPGGA,145816.000,3353.7551,N,09832.0264,W,2,06,2.3,306.0,M,-23.7,M,0.8,0000*4D
$GPGSA,A,3,15,27,09,29,21,18,,,,,,,4.5,2.3,3.8*30
$GPRMC,145816.000,A,3353.7551,N,09832.0264,W,0.05,106.33,010412,,,D*72
$GPGGA,145817.000,3353.7551,N,09832.0265,W,2,06,2.3,306.0,M,-23.7,M,0.8,0000*4D
$GPGSA,A,3,15,27,09,29,21,18,,,,,,,4.5,2.3,3.8*30
$GPRMC,145817.000,A,3353.7551,N,09832.0265,W,0.02,244.52,010412,,,D*77
$GPGGA,145818.000,3353.7551,N,09832.0265,W,2,06,2.3,305.9,M,-23.7,M,0.8,0000*48
$GPGSA,A,3,15,27,09,29,21,18,,,,,,,4.5,2.3,3.8*30
$GPGSV,3,1,12,21,82,046,28,18,65,337,30,15,46,047,34,22,34,280,18*71
$GPGSV,3,2,12,09,29,113,33,27,28,084,30,06,28,297,16,03,19,305,*70
$GPGSV,3,3,12,14,18,212,19,29,18,178,35,26,04,038,21,51,49,195,38*72
$GPRMC,145818.000,A,3353.7551,N,09832.0265,W,0.02,314.39,010412,,,D*71
$GPGGA,145819.000,3353.7551,N,09832.0266,W,2,06,2.3,305.8,M,-23.7,M,1.8,0000*4A
$GPGSA,A,3,15,27,09,29,21,18,,,,,,,4.5,2.3,3.8*30
$GPRMC,145819.000,A,3353.7551,N,09832.0266,W,0.01,313.46,010412,,,D*7F
$GPGGA,145820.000,3353.7551,N,09832.0266,W,2,06,2.3,305.6,M,-23.7,M,2.8,0000*4D
$GPGSA,A,3,15,27,09,29,21,18,,,,,,,4.4,2.3,3.8*31
$GPRMC,145820.000,A,3353.7551,N,09832.0266,W,0.01,322.54,010412,,,D*74
$GPGGA,145821.000,3353.7551,N,09832.0267,W,2,06,2.3,305.6,M,-23.7,M,0.8,0000*4F
$GPGSA,A,3,15,27,09,29,21,18,,,,,,,4.4,2.3,3.8*31
$GPRMC,145821.000,A,3353.7551,N,09832.0267,W,0.12,316.13,010412,,,D*72
$GPGGA,145822.000,3353.7551,N,09832.0267,W,2,06,2.3,305.4,M,-23.7,M,0.8,0000*4E
$GPGSA,A,3,15,27,09,29,21,18,,,,,,,4.4,2.3,3.8*31
$GPRMC,145822.000,A,3353.7551,N,09832.0267,W,0.07,313.97,010412,,,D*7C
$GPGGA,145823.000,3353.7551,N,09832.0268,W,2,06,2.3,305.3,M,-23.7,M,0.8,0000*47
$GPGSA,A,3,15,27,09,29,21,18,,,,,,,4.4,2.3,3.8*31
$GPGSV,3,1,12,21,82,046,27,18,65,337,30,15,46,047,34,22,34,280,19*7F
$GPGSV,3,2,12,09,29,113,33,27,28,084,29,06,28,297,16,03,19,305,*78
$GPGSV,3,3,12,14,18,212,21,29,18,178,35,26,04,038,21,51,49,195,39*78
$GPRMC,145823.000,A,3353.7551,N,09832.0268,W,0.03,343.90,010412,,,D*74
$GPGGA,145824.000,3353.7552,N,09832.0268,W,2,06,2.3,305.3,M,-23.7,M,1.8,0000*42
$GPGSA,A,3,15,27,09,29,21,18,,,,,,,4.4,2.3,3.8*31
$GPRMC,145824.000,A,3353.7552,N,09832.0268,W,0.07,339.68,010412,,,D*7E
$GPGGA,145825.000,3353.7552,N,09832.0268,W,2,06,2.3,305.2,M,-23.7,M,2.8,0000*41
$GPGSA,A,3,15,27,09,29,21,18,,,,,,,4.4,2.3,3.8*31
$GPRMC,145825.000,A,3353.7552,N,09832.0268,W,0.05,357.60,010412,,,D*7D
$GPGGA,145826.000,3353.7552,N,09832.0269,W,2,06,2.3,305.1,M,-23.7,M,0.8,0000*42
$GPGSA,A,3,15,27,09,29,21,18,,,,,,,4.4,2.3,3.8*31
$GPRMC,145826.000,A,3353.7552,N,09832.0269,W,0.04,6.01,010412,,,D*7E
$GPGGA,145827.000,3353.7551,N,09832.0269,W,2,06,2.3,305.0,M,-23.7,M,0.8,0000*41
$GPGSA,A,3,15,27,09,29,21,18,,,,,,,4.4,2.3,3.8*31
$GPRMC,145827.000,A,3353.7551,N,09832.0269,W,0.02,112.01,010412,,,D*7E
$GPGGA,145828.000,3353.7551,N,09832.0269,W,2,06,2.3,304.9,M,-23.7,M,0.8,0000*46
$GPGSA,A,3,15,27,09,29,21,18,,,,,,,4.4,2.3,3.8*31
$GPGSV,3,1,12,21,82,046,27,18,65,337,30,15,46,047,34,22,34,280,19*7F
$GPGSV,3,2,12,09,29,113,32,27,28,084,29,06,28,297,,03,19,305,*7E
$GPGSV,3,3,12,14,18,212,22,29,18,178,35,26,04,038,22,51,49,195,39*78
$GPRMC,145828.000,A,3353.7551,N,09832.0269,W,0.04,64.54,010412,,,D*47
$GPGGA,145829.000,3353.7551,N,09832.0269,W,2,06,2.3,304.8,M,-23.7,M,0.8,0000*46
$GPGSA,A,3,15,27,09,29,21,18,,,,,,,4.4,2.3,3.8*31
$GPRMC,145829.000,A,3353.7551,N,09832.0269,W,0.05,356.66,010412,,,D*74
$GPGGA,145830.000,3353.7552,N,09832.0269,W,2,06,2.3,304.7,M,-23.7,M,1.8,0000*43
$GPGSA,A,3,15,27,09,29,21,18,,,,,,,4.4,2.3,3.8*31
$GPRMC,145830.000,A,3353.7552,N,09832.0269,W,0.03,357.37,010412,,,D*7C
$GPGGA,145831.000,3353.7552,N,09832.0270,W,2,06,2.3,304.5,M,-23.7,M,2.8,0000*4B
$GPGSA,A,3,15,27,09,29,21,18,,,,,,,4.4,2.3,3.8*31
$GPRMC,145831.000,A,3353.7552,N,09832.0270,W,0.05,350.12,010412,,,D*73
$GPGGA,145832.000,3353.7552,N,09832.0270,W,2,06,2.3,304.4,M,-23.7,M,0.8,0000*4B
$GPGSA,A,3,15,27,09,29,21,18,,,,,,,4.4,2.3,3.8*31
$GPRMC,145832.000,A,3353.7552,N,09832.0270,W,0.06,355.98,010412,,,D*74
$GPGGA,145833.000,3353.7552,N,09832.0270,W,2,06,2.3,304.2,M,-23.7,M,0.8,0000*4C
$GPGSA,A,3,15,27,09,29,21,18,,,,,,,4.4,2.3,3.8*31
$GPGSV,3,1,12,21,82,046,27,18,65,337,30,15,46,047,34,22,34,280,21*74
$GPGSV,3,2,12,09,29,113,32,27,28,084,29,06,28,297,,03,19,305,*7E
$GPGSV,3,3,12,14,18,212,23,29,18,178,35,26,04,038,22,51,49,195,39*79
$GPRMC,145833.000,A,3353.7552,N,09832.0270,W,0.13,324.48,010412,,,D*7A
$GPGGA,145834.000,3353.7553,N,09832.0271,W,2,06,2.3,304.1,M,-23.7,M,0.8,0000*48
$GPGSA,A,3,15,27,09,29,21,18,,,,,,,4.4,2.3,3.8*31
$GPRMC,145834.000,A,3353.7553,N,09832.0271,W,0.12,309.32,010412,,,D*7E
$GPGGA,145835.000,3353.7553,N,09832.0272,W,2,06,2.3,303.9,M,-23.7,M,0.8,0000*45
$GPGSA,A,3,15,27,09,29,21,18,,,,,,,4.4,2.3,3.8*31
$GPRMC,145835.000,A,3353.7553,N,09832.0272,W,0.08,314.76,010412,,,D*7B
$GPGGA,145836.000,3353.7553,N,09832.0272,W,2,06,2.3,303.7,M,-23.7,M,1.8,0000*49
$GPGSA,A,3,15,27,09,29,21,18,,,,,,,4.4,2.3,3.8*31
$GPRMC,145836.000,A,3353.7553,N,09832.0272,W,0.10,305.07,010412,,,D*77
$GPGGA,145837.000,3353.7553,N,09832.0273,W,2,06,2.3,303.6,M,-23.7,M,0.8,0000*49
$GPGSA,A,3,15,27,09,29,21,18,,,,,,,4.4,2.3,3.8*31
$GPRMC,145837.000,A,3353.7553,N,09832.0273,W,0.07,311.94,010412,,,D*7E
$GPGGA,145838.000,3353.7553,N,09832.0273,W,2,06,2.3,303.4,M,-23.7,M,1.8,0000*45
$GPGSA,A,3,15,27,09,29,21,18,,,,,,,4.4,2.3,3.8*31
$GPGSV,3,1,12,21,82,046,28,18,65,337,29,15,46,047,33,22,34,280,21*74
$GPGSV,3,2,12,09,29,113,32,27,28,084,28,06,28,297,,03,19,305,*7F
$GPGSV,3,3,12,14,18,212,24,29,18,178,35,26,04,038,22,51,49,195,39*7E
$GPRMC,145838.000,A,3353.7553,N,09832.0273,W,0.08,315.96,010412,,,D*78
$GPGGA,145839.000,3353.7554,N,09832.0273,W,2,06,2.3,303.2,M,-23.7,M,0.8,0000*44
$GPGSA,A,3,15,27,09,29,21,18,,,,,,,4.4,2.3,3.8*31
$GPRMC,145839.000,A,3353.7554,N,09832.0273,W,0.02,310.51,010412,,,D*7A
$GPGGA,145840.000,3353.7554,N,09832.0273,W,2,06,2.3,303.0,M,-23.7,M,0.8,0000*48
$GPGSA,A,3,15,27,09,29,21,18,,,,,,,4.4,2.3,3.8*31
$GPRMC,145840.000,A,3353.7554,N,09832.0273,W,0.07,35.28,010412,,,D*4B
$GPGGA,145841.000,3353.7554,N,09832.0273,W,2,06,2.3,302.7,M,-23.7,M,0.8,0000*4F
$GPGSA,A,3,15,27,09,29,21,18,,,,,,,4.4,2.3,3.8*31
$GPRMC,145841.000,A,3353.7554,N,09832.0273,W,0.09,10.21,010412,,,D*4A
$GPGGA,145842.000,3353.7555,N,09832.0274,W,2,06,2.3,302.5,M,-23.7,M,0.8,0000*48
$GPGSA,A,3,15,27,09,29,21,18,,,,,,,4.4,2.3,3.8*31
$GPRMC,145842.000,A,3353.7555,N,09832.0274,W,0.09,346.46,010412,,,D*7E
$GPGGA,145843.000,3353.7555,N,09832.0274,W,2,06,2.3,302.2,M,-23.7,M,1.8,0000*4F
$GPGSA,A,3,15,27,09,29,21,18,,,,,,,4.4,2.3,3.8*31
$GPGSV,3,1,12,21,82,046,28,18,65,337,30,15,46,047,32,22,34,280,22*7E
$GPGSV,3,2,12,09,29,113,29,27,28,084,28,06,28,297,,03,19,305,*75
$GPGSV,3,3,12,14,18,212,24,29,18,178,35,26,04,038,22,51,49,195,39*7E
$GPRMC,145843.000,A,3353.7555,N,09832.0274,W,0.10,19.82,010412,,,D*46
$GPGGA,145844.000,3353.7556,N,09832.0274,W,2,06,2.3,302.0,M,-23.7,M,2.8,0000*4A
$GPGSA,A,3,15,27,09,29,21,18,,,,,,,4.4,2.3,3.8*31
$GPRMC,145844.000,A,3353.7556,N,09832.0274,W,0.10,355.67,010412,,,D*72
$GPGGA,145845.000,3353.7556,N,09832.0274,W,2,06,2.3,301.8,M,-23.7,M,0.8,0000*42
$GPGSA,A,3,15,27,09,29,21,18,,,,,,,4.4,2.3,3.8*31
$GPRMC,145845.000,A,3353.7556,N,09832.0274,W,0.17,344.76,010412,,,D*74
$GPGGA,145846.000,3353.7557,N,09832.0274,W,2,06,2.3,301.6,M,-23.7,M,0.8,0000*4E
$GPGSA,A,3,15,27,09,29,21,18,,,,,,,4.4,2.3,3.8*31
$GPRMC,145846.000,A,3353.7557,N,09832.0274,W,0.15,312.80,010412,,,D*7E
$GPGGA,145847.000,3353.7557,N,09832.0275,W,2,06,2.3,301.4,M,-23.7,M,0.8,0000*4C
$GPGSA,A,3,15,27,09,29,21,18,,,,,,,4.4,2.3,3.8*31
$GPRMC,145847.000,A,3353.7557,N,09832.0275,W,0.15,314.21,010412,,,D*73
$GPGGA,145848.000,3353.7557,N,09832.0275,W,2,06,2.3,301.3,M,-23.7,M,1.8,0000*45
$GPGSA,A,3,15,27,09,29,21,18,,,,,,,4.4,2.3,3.8*31
$GPGSV,3,1,12,21,82,048,28,18,65,337,31,15,46,047,32,22,34,281,16*77
$GPGSV,3,2,12,09,29,113,28,27,28,084,29,06,28,297,,03,19,305,*75
$GPGSV,3,3,12,14,18,212,25,29,18,178,35,26,04,038,22,51,49,195,39*7F
$GPRMC,145848.000,A,3353.7557,N,09832.0275,W,0.13,310.38,010412,,,D*76
$GPGGA,145849.000,3353.7557,N,09832.0275,W,2,06,2.3,301.2,M,-23.7,M,0.8,0000*44
$GPGSA,A,3,15,27,09,29,21,18,,,,,,,4.4,2.3,3.8*31
$GPRMC,145849.000,A,3353.7557,N,09832.0275,W,0.13,321.44,010412,,,D*7E
$GPGGA,145850.000,3353.7557,N,09832.0275,W,2,06,2.3,301.1,M,-23.7,M,1.8,0000*4E
$GPGSA,A,3,15,27,09,29,21,18,,,,,,,4.4,2.3,3.8*31
$GPRMC,145850.000,A,3353.7557,N,09832.0275,W,0.13,310.43,010412,,,D*73
$GPGGA,145851.000,3353.7557,N,09832.0275,W,2,06,2.3,300.9,M,-23.7,M,0.8,0000*47
$GPGSA,A,3,15,27,09,29,21,18,,,,,,,4.4,2.3,3.8*31
$GPRMC,145851.000,A,3353.7557,N,09832.0275,W,0.05,301.67,010412,,,D*73
$GPGGA,145852.000,3353.7557,N,09832.0275,W,2,06,2.3,300.8,M,-23.7,M,0.8,0000*45
$GPGSA,A,3,15,27,09,29,21,18,,,,,,,4.4,2.3,3.8*31
$GPRMC,145852.000,A,3353.7557,N,09832.0275,W,0.07,20.88,010412,,,D*43
$GPGGA,145853.000,3353.7558,N,09832.0275,W,2,06,2.3,300.5,M,-23.7,M,0.8,0000*46
$GPGSA,A,3,15,27,09,29,21,18,,,,,,,4.4,2.3,3.8*31
$GPGSV,3,1,12,21,82,048,28,18,65,337,31,15,46,047,32,22,34,281,17*76
$GPGSV,3,2,12,09,29,113,28,27,28,084,29,06,28,297,,03,19,305,*75
$GPGSV,3,3,12,14,18,212,25,29,18,178,36,26,04,038,22,51,49,195,39*7C
$GPRMC,145853.000,A,3353.7558,N,09832.0275,W,0.11,3.09,010412,,,D*72
$GPGGA,145854.000,3353.7558,N,09832.0275,W,2,06,2.3,300.3,M,-23.7,M,1.8,0000*46
$GPGSA,A,3,15,27,09,29,21,18,,,,,,,4.4,2.3,3.8*31
$GPRMC,145854.000,A,3353.7558,N,09832.0275,W,0.10,352.97,010412,,,D*74
$GPGGA,145855.000,3353.7558,N,09832.0274,W,2,06,2.3,300.2,M,-23.7,M,2.8,0000*44
$GPGSA,A,3,15,27,09,29,21,18,,,,,,,4.4,2.3,3.8*31
$GPRMC,145855.000,A,3353.7558,N,09832.0274,W,0.11,357.56,010412,,,D*7D
$GPGGA,145856.000,3353.7559,N,09832.0274,W,2,06,2.3,300.0,M,-23.7,M,3.8,0000*45
$GPGSA,A,3,15,27,09,29,21,18,,,,,,,4.4,2.3,3.8*31
$GPRMC,145856.000,A,3353.7559,N,09832.0274,W,0.11,359.98,010412,,,D*73
$GPGGA,145857.000,3353.7559,N,09832.0274,W,2,06,2.3,299.9,M,-23.7,M,0.8,0000*4F
$GPGSA,A,3,15,27,09,29,21,18,,,,,,,4.4,2.3,3.7*3E
$GPRMC,145857.000,A,3353.7559,N,09832.0274,W,0.17,344.16,010412,,,D*7E
$GPGGA,145858.000,3353.7559,N,09832.0274,W,2,06,2.3,300.0,M,-23.7,M,0.8,0000*48
$GPGSA,A,3,15,27,09,29,21,18,,,,,,,4.4,2.3,3.7*3E
$GPGSV,3,1,12,21,82,048,28,18,65,337,31,15,46,047,32,22,34,281,18*79
$GPGSV,3,2,12,09,29,113,28,27,28,084,30,06,28,297,,03,19,305,*7D
$GPGSV,3,3,12,14,18,212,25,29,18,178,36,26,04,038,22,51,49,195,39*7C
$GPRMC,145858.000,A,3353.7559,N,09832.0274,W,0.17,325.60,010412,,,D*77
$GPGGA,145859.000,3353.7558,N,09832.0273,W,2,06,2.3,300.0,M,-23.7,M,0.8,0000*4F
$GPGSA,A,3,15,27,09,29,21,18,,,,,,,4.4,2.3,3.7*3E
$GPRMC,145859.000,A,3353.7558,N,09832.0273,W,0.12,332.59,010412,,,D*79
$GPGGA,145900.000,3353.7558,N,09832.0273,W,2,06,2.3,300.1,M,-23.7,M,1.8,0000*42
$GPGSA,A,3,15,27,09,29,21,18,,,,,,,4.4,2.3,3.7*3E
$GPRMC,145900.000,A,3353.7558,N,09832.0273,W,0.10,318.20,010412,,,D*70
$GPGGA,145901.000,3353.7558,N,09832.0272,W,2,06,2.3,300.2,M,-23.7,M,2.8,0000*42
$GPGSA,A,3,15,27,09,29,21,18,,,,,,,4.4,2.3,3.7*3E
$GPRMC,145901.000,A,3353.7558,N,09832.0272,W,0.09,355.09,010412,,,D*7A
$GPGGA,145902.000,3353.7560,N,09832.0273,W,2,06,2.3,299.2,M,-23.7,M,3.8,0000*4B
$GPGSA,A,3,15,27,09,29,21,18,,,,,,,4.4,2.3,3.7*3E
$GPRMC,145902.000,A,3353.7560,N,09832.0273,W,0.14,333.29,010412,,,D*7D
$GPGGA,145903.000,3353.7560,N,09832.0273,W,2,06,2.3,298.9,M,-23.7,M,0.8,0000*43
$GPGSA,A,3,15,27,09,29,21,18,,,,,,,4.4,2.3,3.7*3E
$GPGSV,3,1,12,21,82,048,27,18,65,337,31,15,46,047,32,22,34,281,19*77
$GPGSV,3,2,12,09,29,113,27,27,28,084,30,06,28,297,,03,19,305,*72
$GPGSV,3,3,12,14,18,212,24,29,18,178,36,26,04,038,22,51,49,195,39*7D
$GPRMC,145903.000,A,3353.7560,N,09832.0273,W,0.07,344.60,010412,,,D*73
$GPGGA,145904.000,3353.7559,N,09832.0272,W,2,06,2.3,299.1,M,-23.7,M,0.8,0000*46
$GPGSA,A,3,15,27,09,29,21,18,,,,,,,4.4,2.3,3.7*3E
$GPRMC,145904.000,A,3353.7559,N,09832.0272,W,0.06,50.39,010412,,,D*44
$GPGGA,145905.000,3353.7559,N,09832.0271,W,2,06,2.3,299.1,M,-23.7,M,0.8,0000*44
$GPGSA,A,3,15,27,09,29,21,18,,,,,,,4.4,2.3,3.7*3E
$GPRMC,145905.000,A,3353.7559,N,09832.0271,W,0.07,37.18,010412,,,D*45
$GPGGA,145906.000,3353.7559,N,09832.0271,W,2,06,2.3,299.0,M,-23.7,M,1.8,0000*47
$GPGSA,A,3,15,27,09,29,21,18,,,,,,,4.4,2.3,3.7*3E
$GPRMC,145906.000,A,3353.7559,N,09832.0271,W,0.06,0.70,010412,,,D*7D
$GPGGA,145907.000,3353.7559,N,09832.0271,W,2,06,2.3,299.0,M,-23.7,M,0.8,0000*47
$GPGSA,A,3,15,27,09,29,21,18,,,,,,,4.4,2.3,3.7*3E
$GPRMC,145907.000,A,3353.7559,N,09832.0271,W,0.05,349.43,010412,,,D*71
$GPGGA,145908.000,3353.7559,N,09832.0270,W,2,06,2.3,298.8,M,-23.7,M,0.8,0000*40
$GPGSA,A,3,15,27,09,29,21,18,,,,,,,4.4,2.3,3.7*3E
$GPGSV,3,1,12,21,82,048,27,18,65,337,31,15,46,047,32,22,34,281,19*77
$GPGSV,3,2,12,09,29,113,28,27,28,084,29,06,28,297,,03,19,305,*75
$GPGSV,3,3,12,14,18,212,23,29,18,178,37,26,04,038,22,51,49,195,39*7B
$GPRMC,145908.000,A,3353.7559,N,09832.0270,W,0.06,343.42,010412,,,D*77
$GPGGA,145909.000,3353.7559,N,09832.0270,W,2,06,2.3,298.9,M,-23.7,M,0.8,0000*40
$GPGSA,A,3,15,27,09,29,21,18,,,,,,,4.4,2.3,3.7*3E
$GPRMC,145909.000,A,3353.7559,N,09832.0270,W,0.12,336.10,010412,,,D*76
$GPGGA,145910.000,3353.7559,N,09832.0270,W,2,06,2.3,298.9,M,-23.7,M,0.8,0000*48
$GPGSA,A,3,15,27,09,29,21,18,,,,,,,4.4,2.3,3.7*3E
$GPRMC,145910.000,A,3353.7559,N,09832.0270,W,0.13,350.72,010412,,,D*7B
$GPGGA,145911.000,3353.7559,N,09832.0270,W,2,06,2.3,298.9,M,-23.7,M,0.8,0000*49
$GPGSA,A,3,15,27,09,29,21,18,,,,,,,4.4,2.3,3.7*3E
$GPRMC,145911.000,A,3353.7559,N,09832.0270,W,0.11,342.99,010412,,,D*7E
$GPGGA,145912.000,3353.7559,N,09832.0269,W,2,06,2.3,298.9,M,-23.7,M,1.8,0000*43
$GPGSA,A,3,15,27,09,29,21,18,,,,,,,4.4,2.3,3.7*3E
$GPRMC,145912.000,A,3353.7559,N,09832.0269,W,0.11,357.40,010412,,,D*75
$GPGGA,145913.000,3353.7559,N,09832.0269,W,2,06,2.3,298.7,M,-23.7,M,2.8,0000*4F
$GPGSA,A,3,15,27,09,29,21,18,,,,,,,4.4,2.3,3.7*3E
$GPGSV,3,1,12,21,82,048,27,18,65,337,30,15,46,047,32,22,34,281,19*76
$GPGSV,3,2,12,09,29,113,29,27,28,084,28,06,28,297,,03,19,305,*75
$GPGSV,3,3,12,14,18,212,23,29,18,178,37,26,04,038,22,51,49,195,39*7B
$GPRMC,145913.000,A,3353.7559,N,09832.0269,W,0.09,355.29,010412,,,D*70
$GPGGA,145914.000,3353.7560,N,09832.0269,W,2,06,2.3,298.6,M,-23.7,M,3.8,0000*42
$GPGSA,A,3,15,27,09,29,21,18,,,,,,,4.4,2.3,3.7*3E
$GPRMC,145914.000,A,3353.7560,N,09832.0269,W,0.12,356.93,010412,,,D*75
$GPGGA,145915.000,3353.7560,N,09832.0269,W,2,06,2.3,298.4,M,-23.7,M,0.8,0000*42
$GPGSA,A,3,15,27,09,29,21,18,,,,,,,4.3,2.3,3.7*39
$GPRMC,145915.000,A,3353.7560,N,09832.0269,W,0.05,12.06,010412,,,D*4D
$GPGGA,145916.000,3353.7560,N,09832.0269,W,2,06,2.3,298.1,M,-23.7,M,0.8,0000*44
$GPGSA,A,3,15,27,09,29,21,18,,,,,,,4.3,2.3,3.7*39
$GPRMC,145916.000,A,3353.7560,N,09832.0269,W,0.04,76.67,010412,,,D*4A
$GPGGA,145917.000,3353.7562,N,09832.0269,W,2,06,2.3,297.4,M,-23.7,M,0.8,0000*4D
$GPGSA,A,3,15,27,09,29,21,18,,,,,,,4.3,2.3,3.7*39
$GPRMC,145917.000,A,3353.7562,N,09832.0269,W,0.03,47.71,010412,,,D*4B
