$GPGGA,171646.000,3353.7538,N,09832.0256,W,2,06,1.6,319.1,M,-23.7,M,0.8,0000*46
$GPGSA,A,3,22,09,31,18,21,14,,,,,,,2.8,1.6,2.2*3B
$GPGSV,3,1,12,22,69,014,34,14,69,293,29,18,41,089,29,31,22,189,28*72
$GPGSV,3,2,12,21,22,157,29,09,20,042,30,19,17,280,,11,10,315,*7C
$GPGSV,3,3,12,06,10,234,,03,08,244,,25,05,122,,12,05,084,*78
$GPRMC,171646.000,A,3353.7538,N,09832.0256,W,0.07,345.20,020412,,,D*76
$GPGGA,171647.000,3353.7539,N,09832.0258,W,2,06,1.6,319.0,M,-23.7,M,0.8,0000*49
$GPGSA,A,3,22,09,31,18,21,14,,,,,,,2.8,1.6,2.2*3B
$GPRMC,171647.000,A,3353.7539,N,09832.0258,W,0.09,336.61,020412,,,D*77
$GPGGA,171648.000,3353.7540,N,09832.0260,W,2,06,1.6,318.8,M,-23.7,M,1.8,0000*4B
$GPGSA,A,3,22,09,31,18,21,14,,,,,,,2.8,1.6,2.2*3B
$GPRMC,171648.000,A,3353.7540,N,09832.0260,W,0.11,355.06,020412,,,D*70
$GPGGA,171649.000,3353.7541,N,09832.0262,W,2,06,1.6,318.6,M,-23.7,M,0.8,0000*46
$GPGSA,A,3,22,09,31,18,21,14,,,,,,,2.8,1.6,2.2*3B
$GPRMC,171649.000,A,3353.7541,N,09832.0262,W,0.09,354.33,020412,,,D*7C
$GPGGA,171650.000,3353.7542,N,09832.0265,W,2,06,1.6,318.4,M,-23.7,M,0.8,0000*48
$GPGSA,A,3,22,09,31,18,21,14,,,,,,,2.8,1.6,2.2*3B
$GPRMC,171650.000,A,3353.7542,N,09832.0265,W,0.11,346.74,020412,,,D*79
$GPGGA,171651.000,3353.7542,N,09832.0265,W,2,06,1.6,318.1,M,-23.7,M,0.8,0000*4C
$GPGSA,A,3,22,09,31,18,21,14,,,,,,,2.8,1.6,2.2*3B
$GPGSV,3,1,12,22,69,014,35,14,69,293,28,18,41,089,29,31,22,189,28*72
$GPGSV,3,2,12,21,22,157,30,09,20,042,29,19,17,280,,11,10,315,*7C
$GPGSV,3,3,12,06,10,234,,03,08,244,,25,05,122,,12,05,084,*78
$GPRMC,171651.000,A,3353.7542,N,09832.0265,W,0.11,42.58,020412,,,D*41
$GPGGA,171652.000,3353.7543,N,09832.0264,W,2,06,1.6,317.8,M,-23.7,M,0.8,0000*49
$GPGSA,A,3,22,09,31,18,21,14,,,,,,,2.8,1.6,2.2*3B
$GPRMC,171652.000,A,3353.7543,N,09832.0264,W,0.13,33.85,020412,,,D*46
$GPGGA,171653.000,3353.7543,N,09832.0264,W,2,06,1.6,317.6,M,-23.7,M,0.8,0000*46
$GPGSA,A,3,22,09,31,18,21,14,,,,,,,2.8,1.6,2.2*3B
$GPRMC,171653.000,A,3353.7543,N,09832.0264,W,0.07,52.66,020412,,,D*48
$GPGGA,171654.000,3353.7543,N,09832.0265,W,2,06,1.6,317.5,M,-23.7,M,0.8,0000*43
$GPGSA,A,3,22,09,31,18,21,14,,,,,,,2.8,1.6,2.2*3B
$GPRMC,171654.000,A,3353.7543,N,09832.0265,W,0.07,15.89,020412,,,D*4C
$GPGGA,171655.000,3353.7544,N,09832.0267,W,2,06,1.6,317.4,M,-23.7,M,1.8,0000*47
$GPGSA,A,3,22,09,31,18,21,14,,,,,,,2.8,1.6,2.2*3B
$GPRMC,171655.000,A,3353.7544,N,09832.0267,W,0.07,21.54,020412,,,D*4F
$GPGGA,171656.000,3353.7544,N,09832.0267,W,2,06,1.6,317.2,M,-23.7,M,2.8,0000*41
$GPGSA,A,3,22,09,31,18,21,14,,,,,,,2.8,1.6,2.2*3B
$GPGSV,3,1,12,22,69,014,36,14,69,293,28,18,41,089,28,31,22,189,28*70
$GPGSV,3,2,12,21,22,157,30,09,20,042,29,19,17,280,,11,10,315,*7C
$GPGSV,3,3,12,06,10,234,,03,08,244,,25,05,122,,12,05,084,*78
$GPRMC,171656.000,A,3353.7544,N,09832.0267,W,0.07,34.28,020412,,,D*43
$GPGGA,171657.000,3353.7545,N,09832.0269,W,2,06,1.6,317.1,M,-23.7,M,0.8,0000*4E
$GPGSA,A,3,22,09,31,18,21,14,,,,,,,2.8,1.6,2.2*3B
$GPRMC,171657.000,A,3353.7545,N,09832.0269,W,0.09,301.44,020412,,,D*7C
$GPGGA,171658.000,3353.7545,N,09832.0270,W,2,06,1.6,317.0,M,-23.7,M,0.8,0000*48
$GPGSA,A,3,22,09,31,18,21,14,,,,,,,2.8,1.6,2.2*3B
$GPRMC,171658.000,A,3353.7545,N,09832.0270,W,0.09,348.13,020412,,,D*74
$GPGGA,171659.000,3353.7546,N,09832.0270,W,2,06,1.6,316.8,M,-23.7,M,0.8,0000*43
$GPGSA,A,3,22,09,31,18,21,14,,,,,,,2.8,1.6,2.2*3B
$GPRMC,171659.000,A,3353.7546,N,09832.0270,W,0.13,7.11,020412,,,D*77
$GPGGA,171700.000,3353.7546,N,09832.0271,W,2,06,1.6,316.7,M,-23.7,M,1.8,0000*41
$GPGSA,A,3,22,09,31,18,21,14,,,,,,,2.8,1.6,2.2*3B
$GPRMC,171700.000,A,3353.7546,N,09832.0271,W,0.10,356.00,020412,,,D*7F
$GPGGA,171701.000,3353.7547,N,09832.0271,W,2,06,1.6,316.4,M,-23.7,M,0.8,0000*43
$GPGSA,A,3,22,09,31,18,21,14,,,,,,,2.8,1.6,2.2*3B
$GPGSV,3,1,12,22,69,014,36,14,69,293,28,18,41,089,28,31,22,189,28*70
$GPGSV,3,2,12,21,22,157,29,09,20,042,29,19,17,280,,11,10,315,*74
$GPGSV,3,3,12,06,10,234,,03,08,244,,25,05,122,,12,05,084,*78
$GPRMC,171701.000,A,3353.7547,N,09832.0271,W,0.11,5.84,020412,,,D*77
$GPGGA,171702.000,3353.7547,N,09832.0272,W,2,06,1.6,316.3,M,-23.7,M,1.8,0000*45
$GPGSA,A,3,22,09,31,18,21,14,,,,,,,2.8,1.6,2.2*3B
$GPRMC,171702.000,A,3353.7547,N,09832.0272,W,0.11,354.14,020412,,,D*79
$GPGGA,171703.000,3353.7547,N,09832.0271,W,2,06,1.6,316.1,M,-23.7,M,0.8,0000*44
$GPGSA,A,3,22,09,31,18,21,14,,,,,,,2.8,1.6,2.2*3B
$GPRMC,171703.000,A,3353.7547,N,09832.0271,W,0.15,47.78,020412,,,D*44
$GPGGA,171704.000,3353.7547,N,09832.0271,W,2,06,1.6,315.9,M,-23.7,M,0.8,0000*48
$GPGSA,A,3,22,09,31,18,21,14,,,,,,,2.8,1.6,2.2*3B
$GPRMC,171704.000,A,3353.7547,N,09832.0271,W,0.15,57.28,020412,,,D*47
$GPGGA,171705.000,3353.7547,N,09832.0270,W,2,06,1.6,315.7,M,-23.7,M,0.8,0000*46
$GPGSA,A,3,22,09,31,18,21,14,,,,,,,2.8,1.6,2.2*3B
$GPRMC,171705.000,A,3353.7547,N,09832.0270,W,0.06,80.48,020412,,,D*49
$GPGGA,171706.000,3353.7547,N,09832.0269,W,2,06,1.6,315.6,M,-23.7,M,1.8,0000*4D
$GPGSA,A,3,22,09,31,18,21,14,,,,,,,2.8,1.6,2.2*3B
$GPGSV,3,1,12,22,69,014,36,14,69,293,28,18,41,089,28,31,22,189,28*70
$GPGSV,3,2,12,21,22,157,29,09,20,042,29,19,17,280,,11,10,315,*74
$GPGSV,3,3,12,06,10,234,,03,08,244,,25,05,122,,12,05,084,*78
$GPRMC,171706.000,A,3353.7547,N,09832.0269,W,0.11,63.11,020412,,,D*45
$GPGGA,171707.000,3353.7547,N,09832.0269,W,2,06,1.6,315.4,M,-23.7,M,0.8,0000*4F
$GPGSA,A,3,22,09,31,18,21,14,,,,,,,2.8,1.6,2.2*3B
$GPRMC,171707.000,A,3353.7547,N,09832.0269,W,0.06,72.10,020412,,,D*43
$GPGGA,171708.000,3353.7547,N,09832.0269,W,2,06,1.6,315.3,M,-23.7,M,1.8,0000*46
$GPGSA,A,3,22,09,31,18,21,14,,,,,,,2.8,1.6,2.2*3B
$GPRMC,171708.000,A,3353.7547,N,09832.0269,W,0.07,57.54,020412,,,D*4A
$GPGGA,171709.000,3353.7547,N,09832.0269,W,2,06,1.6,315.2,M,-23.7,M,0.8,0000*47
$GPGSA,A,3,22,09,31,18,21,14,,,,,,,2.8,1.6,2.2*3B
$GPRMC,171709.000,A,3353.7547,N,09832.0269,W,0.09,6.76,020412,,,D*71
$GPGGA,171710.000,3353.7547,N,09832.0268,W,2,06,1.6,315.2,M,-23.7,M,0.8,0000*4E
$GPGSA,A,3,22,09,31,18,21,14,,,,,,,2.8,1.6,2.2*3B
$GPRMC,171710.000,A,3353.7547,N,09832.0268,W,0.04,7.64,020412,,,D*77
$GPGGA,171711.000,3353.7546,N,09832.0273,W,2,06,1.6,314.2,M,-23.7,M,0.8,0000*45
$GPGSA,A,3,22,09,31,18,21,14,,,,,,,2.8,1.6,2.2*3B
$GPGSV,3,1,12,22,69,014,36,14,69,293,27,18,41,089,28,31,22,189,27*70
$GPGSV,3,2,12,21,22,157,29,09,20,042,30,19,17,280,,11,10,315,*7C
$GPGSV,3,3,12,06,10,234,,03,08,244,,25,05,122,,12,05,084,*78
$GPRMC,171711.000,A,3353.7546,N,09832.0273,W,0.16,297.09,020412,,,D*7E
$GPGGA,171712.000,3353.7545,N,09832.0277,W,2,07,1.2,313.4,M,-23.7,M,1.8,0000*44
$GPGSA,A,3,06,22,09,31,18,21,14,,,,,,1.9,1.2,1.6*3C
$GPRMC,171712.000,A,3353.7545,N,09832.0277,W,0.31,281.86,020412,,,D*7F
$GPGGA,171713.000,3353.7544,N,09832.0281,W,2,07,1.2,312.6,M,-23.7,M,0.8,0000*4F
$GPGSA,A,3,06,22,09,31,18,21,14,,,,,,1.9,1.2,1.6*3C
$GPRMC,171713.000,A,3353.7544,N,09832.0281,W,0.37,284.04,020412,,,D*7F
$GPGGA,171714.000,3353.7544,N,09832.0284,W,2,07,1.2,311.9,M,-23.7,M,1.8,0000*40
$GPGSA,A,3,06,22,09,31,18,21,14,,,,,,1.9,1.2,1.6*3C
$GPRMC,171714.000,A,3353.7544,N,09832.0284,W,0.39,291.29,020412,,,D*78
$GPGGA,171715.000,3353.7544,N,09832.0287,W,2,07,1.2,311.2,M,-23.7,M,0.8,0000*48
$GPGSA,A,3,06,22,09,31,18,21,14,,,,,,1.9,1.2,1.6*3C
$GPRMC,171715.000,A,3353.7544,N,09832.0287,W,0.32,292.62,020412,,,D*7D
$GPGGA,171716.000,3353.7543,N,09832.0291,W,2,07,1.2,310.4,M,-23.7,M,0.8,0000*4C
$GPGSA,A,3,06,22,09,31,18,21,14,,,,,,1.9,1.2,1.6*3C
$GPGSV,3,1,12,22,69,014,36,14,69,293,27,18,41,089,29,31,22,189,27*71
$GPGSV,3,2,12,21,22,157,29,09,20,042,31,19,17,280,,11,10,315,*7D
$GPGSV,3,3,12,06,10,234,13,03,08,244,,25,05,122,,12,05,084,*7A
$GPRMC,171716.000,A,3353.7543,N,09832.0291,W,0.55,285.27,020412,,,D*78
$GPGGA,171717.000,3353.7543,N,09832.0293,W,2,06,1.6,310.1,M,-23.7,M,0.8,0000*4F
$GPGSA,A,3,22,09,31,18,21,14,,,,,,,2.8,1.6,2.2*3B
$GPRMC,171717.000,A,3353.7543,N,09832.0293,W,0.25,306.34,020412,,,D*74
$GPGGA,171718.000,3353.7542,N,09832.0293,W,2,06,1.6,309.8,M,-23.7,M,1.8,0000*41
$GPGSA,A,3,22,09,31,18,21,14,,,,,,,2.8,1.6,2.2*3B
$GPRMC,171718.000,A,3353.7542,N,09832.0293,W,0.11,2.95,020412,,,D*71
$GPGGA,171719.000,3353.7542,N,09832.0294,W,2,06,1.6,309.5,M,-23.7,M,2.8,0000*49
$GPGSA,A,3,22,09,31,18,21,14,,,,,,,2.8,1.6,2.2*3B
$GPRMC,171719.000,A,3353.7542,N,09832.0294,W,0.19,317.04,020412,,,D*70
$GPGGA,171720.000,3353.7542,N,09832.0294,W,2,06,1.6,309.3,M,-23.7,M,0.8,0000*47
$GPGSA,A,3,22,09,31,18,21,14,,,,,,,2.8,1.6,2.2*3B
$GPRMC,171720.000,A,3353.7542,N,09832.0294,W,0.10,27.60,020412,,,D*41
$GPGGA,171721.000,3353.7541,N,09832.0295,W,2,06,1.6,309.1,M,-23.7,M,0.8,0000*46
$GPGSA,A,3,22,09,31,18,21,14,,,,,,,2.8,1.6,2.2*3B
$GPGSV,3,1,12,22,69,014,36,14,69,293,26,18,41,089,30,31,22,189,27*78
$GPGSV,3,2,12,21,22,157,29,09,20,042,31,19,17,280,,11,10,315,*7D
$GPGSV,3,3,12,06,10,234,,03,08,244,,25,05,122,,12,05,084,*78
$GPRMC,171721.000,A,3353.7541,N,09832.0295,W,0.18,307.97,020412,,,D*73
$GPGGA,171722.000,3353.7541,N,09832.0296,W,2,06,1.6,308.9,M,-23.7,M,0.8,0000*4F
$GPGSA,A,3,22,09,31,18,21,14,,,,,,,2.8,1.6,2.2*3B
$GPRMC,171722.000,A,3353.7541,N,09832.0296,W,0.21,302.43,020412,,,D*75
$GPGGA,171723.000,3353.7541,N,09832.0296,W,2,06,1.6,308.7,M,-23.7,M,0.8,0000*40
$GPGSA,A,3,22,09,31,18,21,14,,,,,,,2.8,1.6,2.2*3B
$GPRMC,171723.000,A,3353.7541,N,09832.0296,W,0.19,316.66,020412,,,D*7D
$GPGGA,171724.000,3353.7541,N,09832.0297,W,2,06,1.6,308.5,M,-23.7,M,0.8,0000*44
$GPGSA,A,3,22,09,31,18,21,14,,,,,,,2.8,1.6,2.2*3B
$GPRMC,171724.000,A,3353.7541,N,09832.0297,W,0.17,313.98,020412,,,D*71
$GPGGA,171725.000,3353.7542,N,09832.0298,W,2,06,1.6,308.4,M,-23.7,M,1.8,0000*49
$GPGSA,A,3,22,09,31,18,21,14,,,,,,,2.8,1.6,2.2*3B
$GPRMC,171725.000,A,3353.7542,N,09832.0298,W,0.20,315.47,020412,,,D*7C
$GPGGA,171726.000,3353.7542,N,09832.0299,W,2,06,1.6,308.2,M,-23.7,M,2.8,0000*4E
$GPGSA,A,3,22,09,31,18,21,14,,,,,,,2.8,1.6,2.2*3B
$GPGSV,3,1,12,22,69,014,36,14,69,293,26,18,41,089,29,31,22,189,27*70
$GPGSV,3,2,12,21,22,157,29,09,20,042,31,19,17,280,,11,10,315,*7D
$GPGSV,3,3,12,06,10,234,,03,08,244,,25,05,122,,12,05,084,*78
$GPRMC,171726.000,A,3353.7542,N,09832.0299,W,0.18,316.05,020412,,,D*70
$GPGGA,171727.000,3353.7542,N,09832.0299,W,2,06,1.6,308.1,M,-23.7,M,0.8,0000*4E
$GPGSA,A,3,22,09,31,18,21,14,,,,,,,2.8,1.6,2.2*3B
$GPRMC,171727.000,A,3353.7542,N,09832.0299,W,0.14,342.77,020412,,,D*79
$GPGGA,171728.000,3353.7542,N,09832.0299,W,2,06,1.6,308.0,M,-23.7,M,0.8,0000*40
$GPGSA,A,3,22,09,31,18,21,14,,,,,,,2.8,1.6,2.2*3B
$GPRMC,171728.000,A,3353.7542,N,09832.0299,W,0.12,8.02,020412,,,D*7F
$GPGGA,171729.000,3353.7542,N,09832.0298,W,2,06,1.6,308.0,M,-23.7,M,0.8,0000*40
$GPGSA,A,3,22,09,31,18,21,14,,,,,,,2.8,1.6,2.2*3B
$GPRMC,171729.000,A,3353.7542,N,09832.0298,W,0.09,1.63,020412,,,D*7B
$GPGGA,171730.000,3353.7542,N,09832.0298,W,2,06,1.6,308.1,M,-23.7,M,1.8,0000*48
$GPGSA,A,3,22,09,31,18,21,14,,,,,,,2.8,1.6,2.2*3B
$GPRMC,171730.000,A,3353.7542,N,09832.0298,W,0.10,46.85,020412,,,D*40
$GPGGA,171731.000,3353.7541,N,09832.0297,W,2,06,1.6,308.2,M,-23.7,M,2.8,0000*45
$GPGSA,A,3,22,09,31,18,21,14,,,,,,,2.8,1.6,2.2*3B
$GPGSV,3,1,12,22,69,014,36,14,69,293,26,18,41,089,29,31,22,189,28*7F
$GPGSV,3,2,12,21,22,157,30,09,20,042,31,19,17,280,,11,10,315,*75
$GPGSV,3,3,12,06,10,234,,03,08,244,,25,05,122,,12,05,084,*78
$GPRMC,171731.000,A,3353.7541,N,09832.0297,W,0.17,313.49,020412,,,D*79
$GPGGA,171732.000,3353.7541,N,09832.0296,W,2,06,1.6,308.3,M,-23.7,M,3.8,0000*47
$GPGSA,A,3,22,09,31,18,21,14,,,,,,,2.8,1.6,2.2*3B
$GPRMC,171732.000,A,3353.7541,N,09832.0296,W,0.12,66.36,020412,,,D*47
$GPGGA,171733.000,3353.7541,N,09832.0296,W,2,06,1.6,308.3,M,-23.7,M,0.8,0000*45
$GPGSA,A,3,22,09,31,18,21,14,,,,,,,2.8,1.6,2.2*3B
$GPRMC,171733.000,A,3353.7541,N,09832.0296,W,0.22,296.89,020412,,,D*7C
$GPGGA,171734.000,3353.7541,N,09832.0296,W,2,06,1.6,308.4,M,-23.7,M,0.8,0000*45
$GPGSA,A,3,22,09,31,18,21,14,,,,,,,2.8,1.6,2.2*3B
$GPRMC,171734.000,A,3353.7541,N,09832.0296,W,0.03,61.97,020412,,,D*4D
$GPGGA,171735.000,3353.7541,N,09832.0296,W,2,06,1.6,308.4,M,-23.7,M,0.8,0000*44
$GPGSA,A,3,22,09,31,18,21,14,,,,,,,2.8,1.6,2.2*3B
$GPRMC,171735.000,A,3353.7541,N,09832.0296,W,0.14,69.99,020412,,,D*4C
$GPGGA,171736.000,3353.7541,N,09832.0295,W,2,06,1.6,308.4,M,-23.7,M,1.8,0000*45
$GPGSA,A,3,22,09,31,18,21,14,,,,,,,2.8,1.6,2.2*3B
$GPGSV,3,1,12,22,69,014,36,14,69,293,25,18,41,089,29,31,22,189,28*7C
$GPGSV,3,2,12,21,22,157,30,09,20,042,31,19,17,280,,11,10,315,*75
$GPGSV,3,3,12,06,10,234,,03,08,244,,25,05,122,,12,05,084,*78
$GPRMC,171736.000,A,3353.7541,N,09832.0295,W,0.12,74.64,020412,,,D*44
$GPGGA,171737.000,3353.7541,N,09832.0295,W,2,06,1.6,308.4,M,-23.7,M,2.8,0000*47
$GPGSA,A,3,22,09,31,18,21,14,,,,,,,2.8,1.6,2.2*3B
$GPRMC,171737.000,A,3353.7541,N,09832.0295,W,0.07,9.58,020412,,,D*74
$GPGGA,171738.000,3353.7541,N,09832.0295,W,2,06,1.6,308.4,M,-23.7,M,3.8,0000*49
$GPGSA,A,3,22,09,31,18,21,14,,,,,,,2.8,1.6,2.2*3B
$GPRMC,171738.000,A,3353.7541,N,09832.0295,W,0.07,9.76,020412,,,D*77
$GPGGA,171739.000,3353.7541,N,09832.0294,W,2,06,1.6,308.4,M,-23.7,M,0.8,0000*4A
$GPGSA,A,3,22,09,31,18,21,14,,,,,,,2.8,1.6,2.2*3B
$GPRMC,171739.000,A,3353.7541,N,09832.0294,W,0.14,80.24,020412,,,D*43
$GPGGA,171740.000,3353.7541,N,09832.0292,W,2,06,1.6,308.5,M,-23.7,M,0.8,0000*43
$GPGSA,A,3,22,09,31,18,21,14,,,,,,,2.8,1.6,2.2*3B
$GPRMC,171740.000,A,3353.7541,N,09832.0292,W,0.21,80.32,020412,,,D*4A
$GPGGA,171741.000,3353.7541,N,09832.0290,W,2,06,1.6,308.6,M,-23.7,M,0.8,0000*43
$GPGSA,A,3,22,09,31,18,21,14,,,,,,,2.8,1.6,2.2*3B
$GPGSV,3,1,12,22,69,014,36,14,69,293,25,18,41,089,29,31,22,189,29*7D
$GPGSV,3,2,12,21,22,157,30,09,20,042,31,19,17,280,,11,10,315,*75
$GPGSV,3,3,12,06,10,234,,03,08,244,,25,05,122,,12,05,084,*78
$GPRMC,171741.000,A,3353.7541,N,09832.0290,W,0.38,98.64,020412,,,D*4B
$GPGGA,171742.000,3353.7540,N,09832.0289,W,2,06,1.6,308.8,M,-23.7,M,1.8,0000*46
$GPGSA,A,3,22,09,31,18,21,14,,,,,,,2.8,1.6,2.2*3B
$GPRMC,171742.000,A,3353.7540,N,09832.0289,W,0.07,62.62,020412,,,D*4E
$GPGGA,171743.000,3353.7540,N,09832.0288,W,2,06,1.6,308.9,M,-23.7,M,2.8,0000*44
$GPGSA,A,3,22,09,31,18,21,14,,,,,,,2.8,1.6,2.2*3B
$GPRMC,171743.000,A,3353.7540,N,09832.0288,W,0.06,43.29,020412,,,D*43
$GPGGA,171744.000,3353.7540,N,09832.0287,W,2,06,1.6,309.0,M,-23.7,M,3.8,0000*45
$GPGSA,A,3,22,09,31,18,21,14,,,,,,,2.8,1.6,2.2*3B
$GPRMC,171744.000,A,3353.7540,N,09832.0287,W,0.12,95.22,020412,,,D*4E
$GPGGA,171745.000,3353.7539,N,09832.0285,W,2,06,1.6,309.1,M,-23.7,M,0.8,0000*4A
$GPGSA,A,3,22,09,31,18,21,14,,,,,,,2.8,1.6,2.2*3B
$GPRMC,171745.000,A,3353.7539,N,09832.0285,W,0.33,101.97,020412,,,D*72
$GPGGA,171746.000,3353.7539,N,09832.0284,W,2,06,1.6,309.2,M,-23.7,M,0.8,0000*4B
$GPGSA,A,3,22,09,31,18,21,14,,,,,,,2.8,1.6,2.2*3B
$GPGSV,3,1,12,22,69,014,36,14,69,293,24,18,41,089,30,31,22,189,29*74
$GPGSV,3,2,12,21,22,157,29,09,20,042,31,19,17,280,,11,10,315,*7D
$GPGSV,3,3,12,06,10,234,,03,08,244,,25,05,122,,12,05,084,*78
$GPRMC,171746.000,A,3353.7539,N,09832.0284,W,0.47,98.69,020412,,,D*43
$GPGGA,171747.000,3353.7539,N,09832.0282,W,2,06,1.6,309.2,M,-23.7,M,0.8,0000*4C
$GPGSA,A,3,22,09,31,18,21,14,,,,,,,2.8,1.6,2.2*3B
$GPRMC,171747.000,A,3353.7539,N,09832.0282,W,0.46,97.19,020412,,,D*4D
$GPGGA,171748.000,3353.7539,N,09832.0280,W,2,06,1.6,309.2,M,-23.7,M,0.8,0000*41
$GPGSA,A,3,22,09,31,18,21,14,,,,,,,2.8,1.6,2.2*3B
$GPRMC,171748.000,A,3353.7539,N,09832.0280,W,0.50,97.77,020412,,,D*4F
$GPGGA,171749.000,3353.7538,N,09832.0278,W,2,06,1.6,309.1,M,-23.7,M,0.8,0000*45
$GPGSA,A,3,22,09,31,18,21,14,,,,,,,2.8,1.6,2.2*3B
$GPRMC,171749.000,A,3353.7538,N,09832.0278,W,0.50,98.21,020412,,,D*44
$GPGGA,171750.000,3353.7538,N,09832.0278,W,2,06,1.6,309.1,M,-23.7,M,1.8,0000*4C
$GPGSA,A,3,22,09,31,18,21,14,,,,,,,2.8,1.6,2.2*3B
$GPRMC,171750.000,A,3353.7538,N,09832.0278,W,0.06,16.32,020412,,,D*4B
$GPGGA,171751.000,3353.7538,N,09832.0277,W,2,06,1.6,309.1,M,-23.7,M,0.8,0000*43
$GPGSA,A,3,22,09,31,18,21,14,,,,,,,2.8,1.6,2.2*3B
$GPGSV,3,1,12,22,69,014,36,14,69,293,20,18,41,089,30,31,22,189,30*78
$GPGSV,3,2,12,21,22,157,29,09,20,042,31,19,17,280,,11,10,315,*7D
$GPGSV,3,3,12,06,10,234,,03,08,244,,25,05,122,,12,05,084,*78
$GPRMC,171751.000,A,3353.7538,N,09832.0277,W,0.13,321.84,020412,,,D*7B
$GPGGA,171752.000,3353.7538,N,09832.0277,W,2,06,1.6,309.2,M,-23.7,M,0.8,0000*43
$GPGSA,A,3,22,09,31,18,21,14,,,,,,,2.8,1.6,2.2*3B
$GPRMC,171752.000,A,3353.7538,N,09832.0277,W,0.20,309.54,020412,,,D*7F
$GPGGA,171753.000,3353.7538,N,09832.0277,W,2,06,1.6,309.3,M,-23.7,M,0.8,0000*43
$GPGSA,A,3,22,09,31,18,21,14,,,,,,,2.8,1.6,2.2*3B
$GPRMC,171753.000,A,3353.7538,N,09832.0277,W,0.09,311.22,020412,,,D*7D
$GPGGA,171754.000,3353.7538,N,09832.0277,W,2,06,1.6,309.4,M,-23.7,M,1.8,0000*42
$GPGSA,A,3,22,09,31,18,21,14,,,,,,,2.8,1.6,2.2*3B
$GPRMC,171754.000,A,3353.7538,N,09832.0277,W,0.06,59.92,020412,,,D*41
$GPGGA,171755.000,3353.7537,N,09832.0275,W,2,06,1.6,309.4,M,-23.7,M,0.8,0000*4F
$GPGSA,A,3,22,09,31,18,21,14,,,,,,,2.8,1.6,2.2*3B
$GPRMC,171755.000,A,3353.7537,N,09832.0275,W,0.42,103.34,020412,,,D*7F
$GPGGA,171756.000,3353.7536,N,09832.0274,W,2,06,1.6,309.5,M,-23.7,M,1.8,0000*4C
$GPGSA,A,3,22,09,31,18,21,14,,,,,,,2.8,1.6,2.2*3B
$GPGSV,3,1,12,22,69,014,36,14,69,293,19,18,41,089,30,31,22,189,29*7A
$GPGSV,3,2,12,21,22,157,29,09,20,042,32,19,17,280,,11,10,315,*7E
$GPGSV,3,3,12,06,10,234,,03,08,244,,25,05,122,,12,05,084,*78
$GPRMC,171756.000,A,3353.7536,N,09832.0274,W,0.40,101.27,020412,,,D*7E
$GPGGA,171757.000,3353.7537,N,09832.0273,W,2,06,1.6,309.5,M,-23.7,M,0.8,0000*4A
$GPGSA,A,3,22,09,31,18,21,14,,,,,,,2.8,1.6,2.2*3B
$GPRMC,171757.000,A,3353.7537,N,09832.0273,W,0.23,97.79,020412,,,D*49
$GPGGA,171758.000,3353.7537,N,09832.0273,W,2,06,1.6,309.5,M,-23.7,M,0.8,0000*45
$GPGSA,A,3,22,09,31,18,21,14,,,,,,,2.8,1.6,2.2*3B
$GPRMC,171758.000,A,3353.7537,N,09832.0273,W,0.26,95.70,020412,,,D*48
$GPGGA,171759.000,3353.7537,N,09832.0272,W,2,06,1.6,309.4,M,-23.7,M,0.8,0000*44
$GPGSA,A,3,22,09,31,18,21,14,,,,,,,2.8,1.6,2.2*3B
$GPRMC,171759.000,A,3353.7537,N,09832.0272,W,0.45,98.81,020412,,,D*4E
$GPGGA,171800.000,3353.7536,N,09832.0271,W,2,06,1.6,309.3,M,-23.7,M,1.8,0000*43
$GPGSA,A,3,22,09,31,18,21,14,,,,,,,2.8,1.6,2.2*3B
$GPRMC,171800.000,A,3353.7536,N,09832.0271,W,0.40,94.76,020412,,,D*4E
$GPGGA,171801.000,3353.7536,N,09832.0271,W,2,06,1.6,309.2,M,-23.7,M,2.8,0000*40
$GPGSA,A,3,22,09,31,18,21,14,,,,,,,2.8,1.6,2.2*3B
$GPGSV,3,1,12,22,69,014,36,14,69,293,19,18,41,089,30,31,22,189,29*7A
$GPGSV,3,2,12,21,22,157,29,09,20,042,32,19,17,280,,11,10,315,*7E
$GPGSV,3,3,12,06,10,234,,03,08,244,,25,05,122,,12,05,084,*78
$GPRMC,171801.000,A,3353.7536,N,09832.0271,W,0.08,37.44,020412,,,D*4B
$GPGGA,171802.000,3353.7537,N,09832.0272,W,2,06,1.6,309.1,M,-23.7,M,0.8,0000*40
$GPGSA,A,3,22,09,31,18,21,14,,,,,,,2.8,1.6,2.2*3B
$GPRMC,171802.000,A,3353.7537,N,09832.0272,W,0.17,307.87,020412,,,D*7B
$GPGGA,171803.000,3353.7536,N,09832.0271,W,2,06,1.6,309.0,M,-23.7,M,0.8,0000*42
$GPGSA,A,3,22,09,31,18,21,14,,,,,,,2.8,1.6,2.2*3B
$GPRMC,171803.000,A,3353.7536,N,09832.0271,W,0.31,93.88,020412,,,D*4D
$GPGGA,171804.000,3353.7536,N,09832.0270,W,2,06,1.6,309.0,M,-23.7,M,0.8,0000*44
$GPGSA,A,3,22,09,31,18,21,14,,,,,,,2.8,1.6,2.2*3B
$GPRMC,171804.000,A,3353.7536,N,09832.0270,W,0.34,92.14,020412,,,D*4A
$GPGGA,171805.000,3353.7536,N,09832.0269,W,2,06,1.6,309.0,M,-23.7,M,0.8,0000*4D
$GPGSA,A,3,22,09,31,18,21,14,,,,,,,2.8,1.6,2.2*3B
$GPRMC,171805.000,A,3353.7536,N,09832.0269,W,0.33,97.19,020412,,,D*4C
$GPGGA,171806.000,3353.7535,N,09832.0268,W,2,06,1.6,309.1,M,-23.7,M,1.8,0000*4C
$GPGSA,A,3,22,09,31,18,21,14,,,,,,,2.8,1.6,2.2*3B
$GPGSV,3,1,12,22,69,014,36,14,69,293,18,18,41,089,29,31,22,189,29*73
$GPGSV,3,2,12,21,22,157,29,09,20,042,32,19,17,280,,11,10,315,*7E
$GPGSV,3,3,12,06,10,234,,03,08,244,,25,05,122,,12,05,084,*78
$GPRMC,171806.000,A,3353.7535,N,09832.0268,W,0.33,98.85,020412,,,D*47
$GPGGA,171807.000,3353.7535,N,09832.0268,W,2,07,1.2,309.1,M,-23.7,M,2.8,0000*4B
$GPGSA,A,3,06,22,09,31,18,21,14,,,,,,1.9,1.2,1.6*3C
$GPRMC,171807.000,A,3353.7535,N,09832.0268,W,0.22,104.23,020412,,,D*7E
$GPGGA,171808.000,3353.7535,N,09832.0268,W,2,07,1.2,309.0,M,-23.7,M,3.8,0000*44
$GPGSA,A,3,06,22,09,31,18,21,14,,,,,,1.9,1.2,1.6*3C
$GPRMC,171808.000,A,3353.7535,N,09832.0268,W,0.06,275.14,020412,,,D*76
$GPGGA,171809.000,3353.7535,N,09832.0267,W,2,07,1.2,309.1,M,-23.7,M,0.8,0000*48
$GPGSA,A,3,06,22,09,31,18,21,14,,,,,,1.9,1.2,1.6*3C
$GPRMC,171809.000,A,3353.7535,N,09832.0267,W,0.51,97.04,020412,,,D*45
$GPGGA,171810.000,3353.7534,N,09832.0265,W,2,07,1.2,309.2,M,-23.7,M,0.8,0000*40
$GPGSA,A,3,06,22,09,31,18,21,14,,,,,,1.9,1.2,1.6*3C
$GPRMC,171810.000,A,3353.7534,N,09832.0265,W,0.79,99.46,020412,,,D*4C
$GPGGA,171811.000,3353.7534,N,09832.0264,W,2,07,1.2,309.2,M,-23.7,M,0.8,0000*40
$GPGSA,A,3,06,22,09,31,18,21,14,,,,,,1.9,1.2,1.6*3C
$GPGSV,3,1,12,22,69,014,35,14,69,293,16,18,41,089,30,31,22,189,29*76
$GPGSV,3,2,12,21,22,157,29,09,20,042,32,19,17,280,,11,10,315,*7E
$GPGSV,3,3,12,06,10,234,18,03,08,244,,25,05,122,,12,05,084,*71
$GPRMC,171811.000,A,3353.7534,N,09832.0264,W,0.36,99.71,020412,,,D*43
$GPGGA,171812.000,3353.7534,N,09832.0265,W,2,07,1.2,309.1,M,-23.7,M,1.8,0000*40
$GPGSA,A,3,06,22,09,31,18,21,14,,,,,,1.9,1.2,1.6*3C
$GPRMC,171812.000,A,3353.7534,N,09832.0265,W,0.23,286.94,020412,,,D*72
$GPGGA,171813.000,3353.7534,N,09832.0267,W,2,07,1.2,309.0,M,-23.7,M,2.8,0000*41
$GPGSA,A,3,06,22,09,31,18,21,14,,,,,,1.9,1.2,1.6*3C
$GPRMC,171813.000,A,3353.7534,N,09832.0267,W,0.49,284.10,020412,,,D*73
$GPGGA,171814.000,3353.7534,N,09832.0268,W,2,07,1.2,309.0,M,-23.7,M,3.8,0000*48
$GPGSA,A,3,06,22,09,31,18,21,14,,,,,,1.9,1.2,1.6*3C
$GPRMC,171814.000,A,3353.7534,N,09832.0268,W,0.10,308.33,020412,,,D*73
$GPGGA,171815.000,3353.7534,N,09832.0268,W,2,07,1.2,309.0,M,-23.7,M,0.8,0000*4A
$GPGSA,A,3,06,22,09,31,18,21,14,,,,,,1.9,1.2,1.6*3C
$GPRMC,171815.000,A,3353.7534,N,09832.0268,W,0.04,343.90,020412,,,D*71
$GPGGA,171816.000,3353.7534,N,09832.0267,W,2,07,1.2,309.2,M,-23.7,M,0.8,0000*44
$GPGSA,A,3,06,22,09,31,18,21,14,,,,,,1.9,1.2,1.6*3C
$GPGSV,3,1,12,22,69,014,35,14,69,293,14,18,41,089,31,31,22,189,29*75
$GPGSV,3,2,12,21,22,157,28,09,20,042,32,19,17,280,,11,10,315,*7F
$GPGSV,3,3,12,06,10,234,18,03,08,244,,25,05,122,,12,05,084,*71
$GPRMC,171816.000,A,3353.7534,N,09832.0267,W,0.44,91.57,020412,,,D*4E
$GPGGA,171817.000,3353.7534,N,09832.0266,W,2,07,1.2,309.4,M,-23.7,M,0.8,0000*42
$GPGSA,A,3,06,22,09,31,18,21,14,,,,,,1.9,1.2,1.6*3C
$GPRMC,171817.000,A,3353.7534,N,09832.0266,W,0.61,88.50,020412,,,D*46
$GPGGA,171818.000,3353.7534,N,09832.0266,W,2,07,1.2,309.3,M,-23.7,M,0.8,0000*4A
$GPGSA,A,3,06,22,09,31,18,21,14,,,,,,1.9,1.2,1.6*3C
$GPRMC,171818.000,A,3353.7534,N,09832.0266,W,0.02,32.47,020412,,,D*4B
$GPGGA,171819.000,3353.7534,N,09832.0265,W,2,07,1.2,309.4,M,-23.7,M,0.8,0000*4F
$GPGSA,A,3,06,22,09,31,18,21,14,,,,,,1.9,1.2,1.6*3C
$GPRMC,171819.000,A,3353.7534,N,09832.0265,W,0.43,88.18,020412,,,D*47
$GPGGA,171820.000,3353.7534,N,09832.0264,W,2,07,1.2,309.6,M,-23.7,M,0.8,0000*46
$GPGSA,A,3,06,22,09,31,18,21,14,,,,,,1.9,1.2,1.6*3C
$GPRMC,171820.000,A,3353.7534,N,09832.0264,W,0.64,91.48,020412,,,D*44
$GPGGA,171821.000,3353.7534,N,09832.0264,W,2,07,1.2,309.5,M,-23.7,M,0.8,0000*44
$GPGSA,A,3,06,22,09,31,18,21,14,,,,,,1.9,1.2,1.6*3C
$GPGSV,3,1,12,22,69,014,35,14,69,293,13,18,41,089,31,31,22,189,29*72
$GPGSV,3,2,12,21,22,157,28,09,20,042,32,19,17,280,,11,10,315,*7F
$GPGSV,3,3,12,06,10,234,18,03,08,244,,25,05,122,,12,05,084,*71
$GPRMC,171821.000,A,3353.7534,N,09832.0264,W,0.08,65.92,020412,,,D*43
$GPGGA,171822.000,3353.7535,N,09832.0265,W,2,06,1.2,309.3,M,-23.7,M,0.8,0000*40
$GPGSA,A,3,06,22,09,31,18,21,,,,,,,2.3,1.2,1.9*3F
$GPRMC,171822.000,A,3353.7535,N,09832.0265,W,0.25,290.94,020412,,,D*71
$GPGGA,171823.000,3353.7535,N,09832.0266,W,2,06,1.2,309.2,M,-23.7,M,0.8,0000*43
$GPGSA,A,3,06,22,09,31,18,21,,,,,,,2.3,1.2,1.9*3F
$GPRMC,171823.000,A,3353.7535,N,09832.0266,W,0.23,285.20,020412,,,D*7E
$GPGGA,171824.000,3353.7535,N,09832.0267,W,2,06,1.2,309.2,M,-23.7,M,1.8,0000*44
$GPGSA,A,3,06,22,09,31,18,21,,,,,,,2.3,1.2,1.9*3F
$GPRMC,171824.000,A,3353.7535,N,09832.0267,W,0.23,93.33,020412,,,D*4F
$GPGGA,171825.000,3353.7535,N,09832.0267,W,2,06,1.2,309.1,M,-23.7,M,2.8,0000*45
$GPGSA,A,3,06,22,09,31,18,21,,,,,,,2.3,1.2,1.9*3F
$GPRMC,171825.000,A,3353.7535,N,09832.0267,W,0.05,323.34,020412,,,D*75
$GPGGA,171826.000,3353.7535,N,09832.0268,W,2,06,1.2,309.0,M,-23.7,M,3.8,0000*49
$GPGSA,A,3,06,22,09,31,18,21,,,,,,,2.3,1.2,1.9*3F
$GPGSV,3,1,12,22,69,014,35,14,69,293,,18,41,089,31,31,22,189,29*70
$GPGSV,3,2,12,21,22,157,28,09,20,042,32,19,17,280,,11,10,315,*7F
$GPGSV,3,3,12,06,10,234,17,03,08,244,,25,05,122,,12,05,084,*7E
$GPRMC,171826.000,A,3353.7535,N,09832.0268,W,0.13,280.15,020412,,,D*75
$GPGGA,171827.000,3353.7535,N,09832.0269,W,2,06,1.2,308.9,M,-23.7,M,0.8,0000*42
$GPGSA,A,3,06,22,09,31,18,21,,,,,,,2.3,1.2,1.9*3F
$GPRMC,171827.000,A,3353.7535,N,09832.0269,W,0.32,284.75,020412,,,D*74
$GPGGA,171828.000,3353.7535,N,09832.0270,W,2,06,1.2,308.9,M,-23.7,M,0.8,0000*45
$GPGSA,A,3,06,22,09,31,18,21,,,,,,,2.3,1.2,1.9*3F
$GPRMC,171828.000,A,3353.7535,N,09832.0270,W,0.07,343.39,020412,,,D*77
$GPGGA,171829.000,3353.7535,N,09832.0269,W,2,06,1.2,308.9,M,-23.7,M,0.8,0000*4C
$GPGSA,A,3,06,22,09,31,18,21,,,,,,,2.3,1.2,1.9*3F
$GPRMC,171829.000,A,3353.7535,N,09832.0269,W,0.29,78.00,020412,,,D*43
$GPGGA,171830.000,3353.7535,N,09832.0268,W,2,06,1.2,309.0,M,-23.7,M,0.8,0000*4D
$GPGSA,A,3,06,22,09,31,18,21,,,,,,,2.3,1.2,1.9*3F
$GPRMC,171830.000,A,3353.7535,N,09832.0268,W,0.30,83.99,020412,,,D*46
$GPGGA,171831.000,3353.7535,N,09832.0268,W,2,06,1.2,308.9,M,-23.7,M,1.8,0000*45
$GPGSA,A,3,06,22,09,31,18,21,,,,,,,2.3,1.2,1.9*3F
$GPGSV,3,1,12,22,69,018,35,14,69,297,,18,40,090,30,31,24,189,29*76
$GPGSV,3,2,12,21,20,158,28,09,19,041,32,19,16,279,,11,11,314,*7C
$GPGSV,3,3,12,06,09,233,16,03,07,243,,25,06,121,,12,06,083,*7C
$GPRMC,171831.000,A,3353.7535,N,09832.0268,W,0.26,87.56,020412,,,D*47
$GPGGA,171832.000,3353.7535,N,09832.0267,W,2,06,1.2,309.0,M,-23.7,M,2.8,0000*42
$GPGSA,A,3,06,22,09,31,18,21,,,,,,,2.3,1.2,1.9*3F
$GPRMC,171832.000,A,3353.7535,N,09832.0267,W,0.53,91.18,020412,,,D*44
$GPGGA,171833.000,3353.7535,N,09832.0265,W,2,06,1.2,309.0,M,-23.7,M,0.8,0000*43
$GPGSA,A,3,06,22,09,31,18,21,,,,,,,2.3,1.2,1.9*3F
$GPRMC,171833.000,A,3353.7535,N,09832.0265,W,0.64,94.09,020412,,,D*46
$GPGGA,171834.000,3353.7535,N,09832.0265,W,2,06,1.2,308.9,M,-23.7,M,0.8,0000*4C
$GPGSA,A,3,06,22,09,31,18,21,,,,,,,2.3,1.2,1.9*3F
$GPRMC,171834.000,A,3353.7535,N,09832.0265,W,0.18,92.24,020412,,,D*43
$GPGGA,171835.000,3353.7535,N,09832.0265,W,2,06,1.2,308.9,M,-23.7,M,0.8,0000*4D
$GPGSA,A,3,06,22,09,31,18,21,,,,,,,2.3,1.2,1.9*3F
$GPRMC,171835.000,A,3353.7535,N,09832.0265,W,0.19,101.16,020412,,,D*79
$GPGGA,171836.000,3353.7535,N,09832.0265,W,2,06,1.2,308.8,M,-23.7,M,0.8,0000*4F
$GPGSA,A,3,06,22,09,31,18,21,,,,,,,2.3,1.2,1.9*3F
$GPGSV,3,1,12,22,69,018,34,14,69,297,,18,40,090,30,31,24,189,29*77
$GPGSV,3,2,12,21,20,158,28,09,19,041,31,19,16,279,,11,11,314,*7F
$GPGSV,3,3,12,06,09,233,17,03,07,243,,25,06,121,,12,06,083,*7D
$GPRMC,171836.000,A,3353.7535,N,09832.0265,W,0.05,84.15,020412,,,D*48
$GPGGA,171837.000,3353.7535,N,09832.0265,W,2,05,1.9,308.7,M,-23.7,M,0.8,0000*49
$GPGSA,A,3,22,09,31,18,21,,,,,,,,3.0,1.9,2.3*39
$GPRMC,171837.000,A,3353.7535,N,09832.0265,W,0.07,84.09,020412,,,D*46
$GPGGA,171838.000,3353.7535,N,09832.0266,W,2,05,1.9,308.6,M,-23.7,M,1.8,0000*45
$GPGSA,A,3,22,09,31,18,21,,,,,,,,3.0,1.9,2.3*39
$GPRMC,171838.000,A,3353.7535,N,09832.0266,W,0.06,77.70,020412,,,D*49
$GPGGA,171839.000,3353.7534,N,09832.0266,W,2,05,1.9,308.6,M,-23.7,M,0.8,0000*44
$GPGSA,A,3,22,09,31,18,21,,,,,,,,3.0,1.9,2.3*39
$GPRMC,171839.000,A,3353.7534,N,09832.0266,W,0.09,88.55,020412,,,D*41
$GPGGA,171840.000,3353.7534,N,09832.0266,W,2,05,1.9,308.5,M,-23.7,M,0.8,0000*49
$GPGSA,A,3,22,09,31,18,21,,,,,,,,3.0,1.9,2.3*39
$GPRMC,171840.000,A,3353.7534,N,09832.0266,W,0.14,87.13,020412,,,D*4E
$GPGGA,171841.000,3353.7535,N,09832.0266,W,2,06,1.0,308.4,M,-23.7,M,0.8,0000*42
$GPGSA,A,3,22,09,31,18,19,21,,,,,,,2.2,1.0,1.9*32
$GPGSV,3,1,12,22,69,018,34,14,69,297,,18,40,090,31,31,24,189,29*76
$GPGSV,3,2,12,21,20,158,28,09,19,041,31,19,16,279,14,11,11,314,*7A
$GPGSV,3,3,12,06,09,233,17,03,07,243,18,25,06,121,,12,06,083,*74
$GPRMC,171841.000,A,3353.7535,N,09832.0266,W,0.10,24.59,020412,,,D*4D
$GPGGA,171842.000,3353.7535,N,09832.0267,W,2,06,1.0,308.3,M,-23.7,M,1.8,0000*46
$GPGSA,A,3,22,09,31,18,19,21,,,,,,,2.2,1.0,1.9*32
$GPRMC,171842.000,A,3353.7535,N,09832.0267,W,0.17,318.73,020412,,,D*7C
$GPGGA,171843.000,3353.7535,N,09832.0268,W,2,06,1.0,308.2,M,-23.7,M,0.8,0000*48
$GPGSA,A,3,22,09,31,18,19,21,,,,,,,2.2,1.0,1.9*32
$GPRMC,171843.000,A,3353.7535,N,09832.0268,W,0.19,315.99,020412,,,D*75
$GPGGA,171844.000,3353.7536,N,09832.0268,W,2,06,1.0,308.1,M,-23.7,M,1.8,0000*4E
$GPGSA,A,3,22,09,31,18,19,21,,,,,,,2.2,1.0,1.9*32
$GPRMC,171844.000,A,3353.7536,N,09832.0268,W,0.16,339.01,020412,,,D*71
$GPGGA,171845.000,3353.7537,N,09832.0270,W,2,07,1.0,308.0,M,-23.7,M,0.8,0000*46
$GPGSA,A,3,22,09,31,18,19,21,14,,,,,,1.8,1.0,1.5*32
$GPRMC,171845.000,A,3353.7537,N,09832.0270,W,0.27,311.86,020412,,,D*7F
$GPGGA,171846.000,3353.7538,N,09832.0271,W,2,07,1.0,307.9,M,-23.7,M,0.8,0000*4D
$GPGSA,A,3,22,09,31,18,19,21,14,,,,,,1.8,1.0,1.5*32
$GPGSV,3,1,12,22,69,018,34,14,69,297,17,18,40,090,31,31,24,189,28*71
$GPGSV,3,2,12,21,20,158,29,09,19,041,31,19,16,279,14,11,11,314,*7B
$GPGSV,3,3,12,06,09,233,16,03,07,243,18,25,06,121,,12,06,083,*75
$GPRMC,171846.000,A,3353.7538,N,09832.0271,W,0.45,298.29,020412,,,D*73
$GPGGA,171847.000,3353.7538,N,09832.0273,W,2,07,1.0,307.8,M,-23.7,M,0.8,0000*4F
$GPGSA,A,3,22,09,31,18,19,21,14,,,,,,1.8,1.0,1.5*32
$GPRMC,171847.000,A,3353.7538,N,09832.0273,W,0.60,294.46,020412,,,D*72
$GPGGA,171848.000,3353.7539,N,09832.0276,W,2,07,1.0,307.7,M,-23.7,M,1.8,0000*4A
$GPGSA,A,3,22,09,31,18,19,21,14,,,,,,1.8,1.0,1.5*32
$GPRMC,171848.000,A,3353.7539,N,09832.0276,W,0.56,292.40,020412,,,D*7C
$GPGGA,171849.000,3353.7540,N,09832.0277,W,2,07,1.0,307.7,M,-23.7,M,0.8,0000*45
$GPGSA,A,3,22,09,31,18,19,21,14,,,,,,1.8,1.0,1.5*32
$GPRMC,171849.000,A,3353.7540,N,09832.0277,W,0.34,294.99,020412,,,D*74
$GPGGA,171850.000,3353.7540,N,09832.0279,W,2,07,1.0,307.5,M,-23.7,M,1.8,0000*40
$GPGSA,A,3,22,09,31,18,19,21,14,,,,,,1.8,1.0,1.5*32
$GPRMC,171850.000,A,3353.7540,N,09832.0279,W,0.57,292.51,020412,,,D*75
$GPGGA,171851.000,3353.7541,N,09832.0281,W,2,07,1.0,307.5,M,-23.7,M,0.8,0000*46
$GPGSA,A,3,22,09,31,18,19,21,14,,,,,,1.8,1.0,1.5*32
$GPGSV,3,1,12,22,69,018,33,14,69,297,17,18,40,090,31,31,24,189,29*77
$GPGSV,3,2,12,21,20,158,29,09,19,041,31,19,16,279,14,11,11,314,*7B
$GPGSV,3,3,12,06,09,233,16,03,07,243,17,25,06,121,,12,06,083,*7A
$GPRMC,171851.000,A,3353.7541,N,09832.0281,W,0.42,296.30,020412,,,D*75
$GPGGA,171852.000,3353.7541,N,09832.0282,W,2,07,1.0,307.5,M,-23.7,M,0.8,0000*46
$GPGSA,A,3,22,09,31,18,19,21,14,,,,,,1.8,1.0,1.5*32
$GPRMC,171852.000,A,3353.7541,N,09832.0282,W,0.49,295.93,020412,,,D*74
$GPGGA,171853.000,3353.7542,N,09832.0283,W,2,07,1.0,307.3,M,-23.7,M,0.8,0000*43
$GPGSA,A,3,22,09,31,18,19,21,14,,,,,,1.8,1.0,1.5*32
$GPRMC,171853.000,A,3353.7542,N,09832.0283,W,0.35,303.89,020412,,,D*79
$GPGGA,171854.000,3353.7543,N,09832.0284,W,2,07,1.0,307.0,M,-23.7,M,1.8,0000*40
$GPGSA,A,3,22,09,31,18,19,21,14,,,,,,1.8,1.0,1.5*32
$GPRMC,171854.000,A,3353.7543,N,09832.0284,W,0.31,307.38,020412,,,D*72
$GPGGA,171855.000,3353.7543,N,09832.0284,W,2,07,1.0,306.8,M,-23.7,M,2.8,0000*4B
$GPGSA,A,3,22,09,31,18,19,21,14,,,,,,1.8,1.0,1.5*32
$GPRMC,171855.000,A,3353.7543,N,09832.0284,W,0.23,311.64,020412,,,D*7E
$GPGGA,171856.000,3353.7544,N,09832.0285,W,2,07,1.0,306.6,M,-23.7,M,0.8,0000*42
$GPGSA,A,3,22,09,31,18,19,21,14,,,,,,1.8,1.0,1.5*32
$GPGSV,3,1,12,22,69,018,33,14,69,297,18,18,40,090,31,31,24,189,29*78
$GPGSV,3,2,12,21,20,158,29,09,19,041,31,19,16,279,13,11,11,314,*7C
$GPGSV,3,3,12,06,09,233,16,03,07,243,17,25,06,121,,12,06,083,*7A
$GPRMC,171856.000,A,3353.7544,N,09832.0285,W,0.16,334.87,020412,,,D*77
$GPGGA,171857.000,3353.7544,N,09832.0284,W,2,07,1.0,306.4,M,-23.7,M,0.8,0000*40
$GPGSA,A,3,22,09,31,18,19,21,14,,,,,,1.8,1.0,1.5*32
$GPRMC,171857.000,A,3353.7544,N,09832.0284,W,0.23,75.37,020412,,,D*4C
$GPGGA,171858.000,3353.7544,N,09832.0283,W,2,07,1.0,306.3,M,-23.7,M,0.8,0000*4F
$GPGSA,A,3,22,09,31,18,19,21,14,,,,,,1.8,1.0,1.5*32
$GPRMC,171858.000,A,3353.7544,N,09832.0283,W,0.36,91.67,020412,,,D*4F
$GPGGA,171859.000,3353.7544,N,09832.0282,W,2,07,1.0,306.2,M,-23.7,M,0.8,0000*4E
$GPGSA,A,3,22,09,31,18,19,21,14,,,,,,1.8,1.0,1.5*32
$GPRMC,171859.000,A,3353.7544,N,09832.0282,W,0.50,103.79,020412,,,D*7A
$GPGGA,171900.000,3353.7543,N,09832.0281,W,2,06,1.6,306.1,M,-23.7,M,1.8,0000*42
$GPGSA,A,3,22,09,31,18,21,14,,,,,,,2.7,1.6,2.2*34
$GPRMC,171900.000,A,3353.7543,N,09832.0281,W,0.33,97.06,020412,,,D*42
$GPGGA,171901.000,3353.7543,N,09832.0280,W,2,06,1.6,306.0,M,-23.7,M,2.8,0000*40
$GPGSA,A,3,22,09,31,18,21,14,,,,,,,2.7,1.6,2.2*34
$GPGSV,3,1,12,22,69,018,33,14,69,297,20,18,40,090,31,31,24,189,29*73
$GPGSV,3,2,12,21,20,158,29,09,19,041,31,19,16,279,,11,11,314,*7E
$GPGSV,3,3,12,06,09,233,16,03,07,243,17,25,06,121,,12,06,083,*7A
$GPRMC,171901.000,A,3353.7543,N,09832.0280,W,0.32,99.99,020412,,,D*4B
$GPGGA,171902.000,3353.7543,N,09832.0280,W,2,06,1.6,305.9,M,-23.7,M,3.8,0000*48
$GPGSA,A,3,22,09,31,18,21,14,,,,,,,2.7,1.6,2.2*34
$GPRMC,171902.000,A,3353.7543,N,09832.0280,W,0.05,348.71,020412,,,D*75
$GPGGA,171903.000,3353.7543,N,09832.0280,W,2,06,1.6,305.9,M,-23.7,M,0.8,0000*4A
$GPGSA,A,3,22,09,31,18,21,14,,,,,,,2.7,1.6,2.2*34
$GPRMC,171903.000,A,3353.7543,N,09832.0280,W,0.14,321.87,020412,,,D*72
$GPGGA,171904.000,3353.7543,N,09832.0280,W,2,06,1.6,306.0,M,-23.7,M,0.8,0000*47
$GPGSA,A,3,22,09,31,18,21,14,,,,,,,2.7,1.6,2.2*34
$GPRMC,171904.000,A,3353.7543,N,09832.0280,W,0.21,85.98,020412,,,D*40
$GPGGA,171905.000,3353.7543,N,09832.0280,W,2,06,1.6,306.0,M,-23.7,M,0.8,0000*46
$GPGSA,A,3,22,09,31,18,21,14,,,,,,,2.7,1.6,2.2*34
$GPRMC,171905.000,A,3353.7543,N,09832.0280,W,0.11,24.45,020412,,,D*49
$GPGGA,171906.000,3353.7544,N,09832.0280,W,2,06,1.6,305.9,M,-23.7,M,1.8,0000*49
$GPGSA,A,3,22,09,31,18,21,14,,,,,,,2.7,1.6,2.2*34
$GPGSV,3,1,12,22,69,018,33,14,69,297,21,18,40,090,30,31,24,189,29*73
$GPGSV,3,2,12,21,20,158,29,09,19,041,31,19,16,279,,11,11,314,*7E
$GPGSV,3,3,12,06,09,233,15,03,07,243,16,25,06,121,,12,06,083,*78
$GPRMC,171906.000,A,3353.7544,N,09832.0280,W,0.17,336.88,020412,,,D*7A
$GPGGA,171907.000,3353.7544,N,09832.0280,W,2,06,1.6,305.9,M,-23.7,M,2.8,0000*4B
$GPGSA,A,3,22,09,31,18,21,14,,,,,,,2.7,1.6,2.2*34
$GPRMC,171907.000,A,3353.7544,N,09832.0280,W,0.16,66.88,020412,,,D*4C
$GPGGA,171908.000,3353.7544,N,09832.0280,W,2,06,1.6,305.9,M,-23.7,M,3.8,0000*45
$GPGSA,A,3,22,09,31,18,21,14,,,,,,,2.7,1.6,2.2*34
$GPRMC,171908.000,A,3353.7544,N,09832.0280,W,0.17,325.74,020412,,,D*75
$GPGGA,171909.000,3353.7544,N,09832.0280,W,2,06,1.6,305.9,M,-23.7,M,0.8,0000*47
$GPGSA,A,3,22,09,31,18,21,14,,,,,,,2.7,1.6,2.2*34
$GPRMC,171909.000,A,3353.7544,N,09832.0280,W,0.18,311.93,020412,,,D*75
$GPGGA,171910.000,3353.7544,N,09832.0281,W,2,06,1.6,305.8,M,-23.7,M,0.8,0000*4F
$GPGSA,A,3,22,09,31,18,21,14,,,,,,,2.7,1.6,2.2*34
$GPRMC,171910.000,A,3353.7544,N,09832.0281,W,0.12,312.84,020412,,,D*73
$GPGGA,171911.000,3353.7544,N,09832.0280,W,2,06,1.6,305.7,M,-23.7,M,0.8,0000*40
$GPGSA,A,3,22,09,31,18,21,14,,,,,,,2.7,1.6,2.2*34
$GPGSV,3,1,12,22,69,018,32,14,69,297,22,18,40,090,29,31,24,189,29*79
$GPGSV,3,2,12,21,20,158,29,09,19,041,31,19,16,279,,11,11,314,*7E
$GPGSV,3,3,12,06,09,233,13,03,07,243,14,25,06,121,,12,06,083,*7C
$GPRMC,171911.000,A,3353.7544,N,09832.0280,W,0.20,95.93,020412,,,D*48
$GPGGA,171912.000,3353.7544,N,09832.0280,W,2,06,1.6,305.6,M,-23.7,M,1.8,0000*43
$GPGSA,A,3,22,09,31,18,21,14,,,,,,,2.7,1.6,2.2*34
$GPRMC,171912.000,A,3353.7544,N,09832.0280,W,0.07,305.76,020412,,,D*7F
$GPGGA,171913.000,3353.7543,N,09832.0280,W,2,06,1.6,305.6,M,-23.7,M,2.8,0000*46
$GPGSA,A,3,22,09,31,18,21,14,,,,,,,2.7,1.6,2.2*34
$GPRMC,171913.000,A,3353.7543,N,09832.0280,W,0.11,303.44,020412,,,D*79
$GPGGA,171914.000,3353.7543,N,09832.0281,W,2,06,1.6,305.6,M,-23.7,M,3.8,0000*41
$GPGSA,A,3,22,09,31,18,21,14,,,,,,,2.7,1.6,2.2*34
$GPRMC,171914.000,A,3353.7543,N,09832.0281,W,0.21,293.46,020412,,,D*76
$GPGGA,171915.000,3353.7543,N,09832.0281,W,2,06,1.6,305.7,M,-23.7,M,0.8,0000*42
$GPGSA,A,3,22,09,31,18,21,14,,,,,,,2.7,1.6,2.2*34
$GPRMC,171915.000,A,3353.7543,N,09832.0281,W,0.33,301.59,020412,,,D*70
$GPGGA,171916.000,3353.7543,N,09832.0281,W,2,06,1.6,305.7,M,-23.7,M,0.8,0000*41
$GPGSA,A,3,22,09,31,18,21,14,,,,,,,2.7,1.6,2.2*34
$GPGSV,3,1,12,22,69,018,32,14,69,297,23,18,40,090,29,31,24,189,29*78
$GPGSV,3,2,12,21,20,158,29,09,19,041,32,19,16,279,,11,11,314,*7D
$GPGSV,3,3,12,06,09,233,,03,07,243,,25,06,121,,12,06,083,*7B
$GPRMC,171916.000,A,3353.7543,N,09832.0281,W,0.08,10.86,020412,,,D*4A
$GPGGA,171917.000,3353.7543,N,09832.0280,W,2,06,1.6,305.7,M,-23.7,M,0.8,0000*41
$GPGSA,A,3,22,09,31,18,21,14,,,,,,,2.7,1.6,2.2*34
$GPRMC,171917.000,A,3353.7543,N,09832.0280,W,0.25,89.58,020412,,,D*46
$GPGGA,171918.000,3353.7542,N,09832.0279,W,2,06,1.6,305.7,M,-23.7,M,1.8,0000*48
$GPGSA,A,3,22,09,31,18,21,14,,,,,,,2.7,1.6,2.2*34
$GPRMC,171918.000,A,3353.7542,N,09832.0279,W,0.23,83.03,020412,,,D*4C
$GPGGA,171919.000,3353.7542,N,09832.0278,W,2,06,1.6,305.7,M,-23.7,M,2.8,0000*4B
$GPGSA,A,3,22,09,31,18,21,14,,,,,,,2.7,1.6,2.2*34
$GPRMC,171919.000,A,3353.7542,N,09832.0278,W,0.19,73.54,020412,,,D*48
$GPGGA,171920.000,3353.7542,N,09832.0278,W,2,06,1.6,305.8,M,-23.7,M,0.8,0000*4C
$GPGSA,A,3,22,09,31,18,21,14,,,,,,,2.7,1.6,2.2*34
$GPRMC,171920.000,A,3353.7542,N,09832.0278,W,0.12,61.90,020412,,,D*42
$GPGGA,171921.000,3353.7542,N,09832.0277,W,2,06,1.6,305.7,M,-23.7,M,0.8,0000*4D
$GPGSA,A,3,22,09,31,18,21,14,,,,,,,2.7,1.6,2.2*34
$GPGSV,3,1,12,22,69,018,32,14,69,297,25,18,40,090,29,31,24,189,30*76
$GPGSV,3,2,12,21,20,158,28,09,19,041,32,19,16,279,,11,11,314,*7C
$GPGSV,3,3,12,06,09,233,15,03,07,243,,25,06,121,,12,06,083,*7F
$GPRMC,171921.000,A,3353.7542,N,09832.0277,W,0.11,73.04,020412,,,D*41
$GPGGA,171922.000,3353.7541,N,09832.0277,W,2,06,1.6,305.6,M,-23.7,M,0.8,0000*4C
$GPGSA,A,3,22,09,31,18,21,14,,,,,,,2.7,1.6,2.2*34
$GPRMC,171922.000,A,3353.7541,N,09832.0277,W,0.07,64.19,020412,,,D*4C
$GPGGA,171923.000,3353.7541,N,09832.0277,W,2,06,1.6,305.5,M,-23.7,M,0.8,0000*4E
$GPGSA,A,3,22,09,31,18,21,14,,,,,,,2.7,1.6,2.2*34
$GPRMC,171923.000,A,3353.7541,N,09832.0277,W,0.06,59.04,020412,,,D*4E
$GPGGA,171924.000,3353.7541,N,09832.0277,W,2,06,1.6,305.5,M,-23.7,M,0.8,0000*49
$GPGSA,A,3,22,09,31,18,21,14,,,,,,,2.7,1.6,2.2*34
$GPRMC,171924.000,A,3353.7541,N,09832.0277,W,0.06,72.05,020412,,,D*41
$GPGGA,171925.000,3353.7541,N,09832.0276,W,2,06,1.6,305.5,M,-23.7,M,0.8,0000*49
$GPGSA,A,3,22,09,31,18,21,14,,,,,,,2.7,1.6,2.2*34
$GPRMC,171925.000,A,3353.7541,N,09832.0276,W,0.07,74.05,020412,,,D*46
$GPGGA,171926.000,3353.7540,N,09832.0276,W,2,06,1.6,305.4,M,-23.7,M,1.8,0000*4B
$GPGSA,A,3,22,09,31,18,21,14,,,,,,,2.7,1.6,2.2*34
$GPGSV,3,1,12,22,69,018,32,14,69,297,26,18,40,090,29,31,24,189,30*75
$GPGSV,3,2,12,21,20,158,28,09,19,041,32,19,16,279,,11,11,314,*7C
$GPGSV,3,3,12,06,09,233,16,03,07,243,,25,06,121,,12,06,083,*7C
$GPRMC,171926.000,A,3353.7540,N,09832.0276,W,0.03,14.81,020412,,,D*4A
$GPGGA,171927.000,3353.7540,N,09832.0276,W,2,06,1.6,305.4,M,-23.7,M,0.8,0000*4B
$GPGSA,A,3,22,09,31,18,21,14,,,,,,,2.7,1.6,2.2*34
$GPRMC,171927.000,A,3353.7540,N,09832.0276,W,0.09,62.92,020412,,,D*42
$GPGGA,171928.000,3353.7540,N,09832.0275,W,2,06,1.6,305.4,M,-23.7,M,0.8,0000*47
$GPGSA,A,3,22,09,31,18,21,14,,,,,,,2.7,1.6,2.2*34
$GPRMC,171928.000,A,3353.7540,N,09832.0275,W,0.09,67.68,020412,,,D*4E
$GPGGA,171929.000,3353.7540,N,09832.0275,W,2,06,1.6,305.4,M,-23.7,M,0.8,0000*46
$GPGSA,A,3,22,09,31,18,21,14,,,,,,,2.7,1.6,2.2*34
$GPRMC,171929.000,A,3353.7540,N,09832.0275,W,0.13,65.81,020412,,,D*41
$GPGGA,171930.000,3353.7539,N,09832.0274,W,2,06,1.6,305.4,M,-23.7,M,1.8,0000*40
$GPGSA,A,3,22,09,31,18,21,14,,,,,,,2.7,1.6,2.2*34
$GPRMC,171930.000,A,3353.7539,N,09832.0274,W,0.12,63.30,020412,,,D*4B
$GPGGA,171931.000,3353.7539,N,09832.0274,W,2,06,1.6,305.3,M,-23.7,M,0.8,0000*47
$GPGSA,A,3,22,09,31,18,21,14,,,,,,,2.7,1.6,2.2*34
$GPGSV,3,1,12,22,69,018,31,14,69,297,27,18,40,090,29,31,24,189,30*77
$GPGSV,3,2,12,21,20,158,27,09,19,041,32,19,16,279,,11,11,314,*73
$GPGSV,3,3,12,06,09,233,17,03,07,243,,25,06,121,,12,06,083,*7D
$GPRMC,171931.000,A,3353.7539,N,09832.0274,W,0.13,70.13,020412,,,D*48
$GPGGA,171932.000,3353.7539,N,09832.0273,W,2,06,1.6,305.2,M,-23.7,M,1.8,0000*43
$GPGSA,A,3,22,09,31,18,21,14,,,,,,,2.7,1.6,2.2*34
$GPRMC,171932.000,A,3353.7539,N,09832.0273,W,0.12,51.37,020412,,,D*48
$GPGGA,171933.000,3353.7539,N,09832.0273,W,2,06,1.6,305.1,M,-23.7,M,0.8,0000*40
$GPGSA,A,3,22,09,31,18,21,14,,,,,,,2.7,1.6,2.2*34
$GPRMC,171933.000,A,3353.7539,N,09832.0273,W,0.05,41.11,020412,,,D*4A
$GPGGA,171934.000,3353.7539,N,09832.0273,W,2,06,1.6,305.0,M,-23.7,M,0.8,0000*46
$GPGSA,A,3,22,09,31,18,21,14,,,,,,,2.7,1.6,2.2*34
$GPRMC,171934.000,A,3353.7539,N,09832.0273,W,0.09,34.44,020412,,,D*43
$GPGGA,171935.000,3353.7539,N,09832.0273,W,2,06,1.6,304.9,M,-23.7,M,0.8,0000*4F
$GPGSA,A,3,22,09,31,18,21,14,,,,,,,2.7,1.6,2.2*34
$GPRMC,171935.000,A,3353.7539,N,09832.0273,W,0.07,19.92,020412,,,D*48
$GPGGA,171936.000,3353.7539,N,09832.0273,W,2,06,1.6,304.9,M,-23.7,M,1.8,0000*4D
$GPGSA,A,3,22,09,31,18,21,14,,,,,,,2.7,1.6,2.2*34
$GPGSV,3,1,12,22,69,018,31,14,69,297,27,18,40,090,29,31,24,189,31*76
$GPGSV,3,2,12,21,20,158,27,09,19,041,32,19,16,279,,11,11,314,*73
$GPGSV,3,3,12,06,09,233,18,03,07,243,,25,06,121,,12,06,083,*72
$GPRMC,171936.000,A,3353.7539,N,09832.0273,W,0.06,43.19,020412,,,D*46
$GPGGA,171937.000,3353.7539,N,09832.0273,W,2,06,1.6,304.9,M,-23.7,M,0.8,0000*4D
$GPGSA,A,3,22,09,31,18,21,14,,,,,,,2.7,1.6,2.2*34
$GPRMC,171937.000,A,3353.7539,N,09832.0273,W,0.06,357.72,020412,,,D*7C
$GPGGA,171938.000,3353.7539,N,09832.0273,W,2,06,1.6,304.8,M,-23.7,M,1.8,0000*42
$GPGSA,A,3,22,09,31,18,21,14,,,,,,,2.7,1.6,2.2*34
$GPRMC,171938.000,A,3353.7539,N,09832.0273,W,0.07,29.29,020412,,,D*46
$GPGGA,171939.000,3353.7539,N,09832.0272,W,2,06,1.6,304.9,M,-23.7,M,0.8,0000*42
$GPGSA,A,3,22,09,31,18,21,14,,,,,,,2.7,1.6,2.2*34
$GPRMC,171939.000,A,3353.7539,N,09832.0272,W,0.11,66.74,020412,,,D*42
$GPGGA,171940.000,3353.7538,N,09832.0272,W,2,06,1.6,304.9,M,-23.7,M,0.8,0000*4D
$GPGSA,A,3,22,09,31,18,21,14,,,,,,,2.7,1.6,2.2*34
$GPRMC,171940.000,A,3353.7538,N,09832.0272,W,0.07,26.98,020412,,,D*4C
$GPGGA,171941.000,3353.7538,N,09832.0271,W,2,06,1.6,304.9,M,-23.7,M,0.8,0000*4F
$GPGSA,A,3,22,09,31,18,21,14,,,,,,,2.7,1.6,2.2*34
$GPGSV,3,1,12,22,69,018,31,14,69,297,27,18,40,090,28,31,24,189,31*77
$GPGSV,3,2,12,21,20,158,27,09,19,041,32,19,16,279,,11,11,314,*73
$GPGSV,3,3,12,06,09,233,19,03,07,243,,25,06,121,,12,06,083,*73
$GPRMC,171941.000,A,3353.7538,N,09832.0271,W,0.11,49.55,020412,,,D*41
$GPGGA,171942.000,3353.7538,N,09832.0271,W,2,06,1.6,305.0,M,-23.7,M,0.8,0000*44
$GPGSA,A,3,22,09,31,18,21,14,,,,,,,2.7,1.6,2.2*34
$GPRMC,171942.000,A,3353.7538,N,09832.0271,W,0.10,50.84,020412,,,D*47
$GPGGA,171943.000,3353.7538,N,09832.0271,W,2,06,1.6,305.0,M,-23.7,M,1.8,0000*44
$GPGSA,A,3,22,09,31,18,21,14,,,,,,,2.7,1.6,2.2*34
$GPRMC,171943.000,A,3353.7538,N,09832.0271,W,0.09,40.98,020412,,,D*42
$GPGGA,171944.000,3353.7538,N,09832.0270,W,2,06,1.6,305.1,M,-23.7,M,2.8,0000*40
$GPGSA,A,3,22,09,31,18,21,14,,,,,,,2.7,1.6,2.2*34
$GPRMC,171944.000,A,3353.7538,N,09832.0270,W,0.12,64.58,020412,,,D*44
$GPGGA,171945.000,3353.7538,N,09832.0269,W,2,06,1.6,305.1,M,-23.7,M,0.8,0000*4B
$GPGSA,A,3,22,09,31,18,21,14,,,,,,,2.7,1.6,2.2*34
$GPRMC,171945.000,A,3353.7538,N,09832.0269,W,0.14,84.63,020412,,,D*4D
$GPGGA,171946.000,3353.7538,N,09832.0269,W,2,06,1.6,305.1,M,-23.7,M,0.8,0000*48
$GPGSA,A,3,22,09,31,18,21,14,,,,,,,2.7,1.6,2.2*34
$GPGSV,3,1,12,22,69,018,30,14,69,297,27,18,40,090,28,31,24,189,32*75
$GPGSV,3,2,12,21,20,158,27,09,19,041,32,19,16,279,,11,11,314,*73
$GPGSV,3,3,12,06,09,233,20,03,07,243,,25,06,121,,12,06,083,*79
$GPRMC,171946.000,A,3353.7538,N,09832.0269,W,0.11,85.84,020412,,,D*43
$GPGGA,171947.000,3353.7538,N,09832.0268,W,2,06,1.6,305.2,M,-23.7,M,0.8,0000*4B
$GPGSA,A,3,22,09,31,18,21,14,,,,,,,2.7,1.6,2.2*34
$GPRMC,171947.000,A,3353.7538,N,09832.0268,W,0.11,85.29,020412,,,D*44
$GPGGA,171948.000,3353.7538,N,09832.0267,W,2,06,1.6,305.2,M,-23.7,M,1.8,0000*4A
$GPGSA,A,3,22,09,31,18,21,14,,,,,,,2.7,1.6,2.2*34
$GPRMC,171948.000,A,3353.7538,N,09832.0267,W,0.13,89.52,020412,,,D*46
$GPGGA,171949.000,3353.7537,N,09832.0266,W,2,06,1.6,305.3,M,-23.7,M,2.8,0000*47
$GPGSA,A,3,22,09,31,18,21,14,,,,,,,2.7,1.6,2.2*34
$GPRMC,171949.000,A,3353.7537,N,09832.0266,W,0.12,92.89,020412,,,D*44
$GPGGA,171950.000,3353.7537,N,09832.0266,W,2,06,1.6,305.3,M,-23.7,M,3.8,0000*4E
$GPGSA,A,3,22,09,31,18,21,14,,,,,,,2.7,1.6,2.2*34
$GPRMC,171950.000,A,3353.7537,N,09832.0266,W,0.11,88.62,020412,,,D*41
$GPGGA,171951.000,3353.7537,N,09832.0265,W,2,06,1.6,305.4,M,-23.7,M,0.8,0000*48
$GPGSA,A,3,22,09,31,18,21,14,,,,,,,2.7,1.6,2.2*34
$GPGSV,3,1,12,22,69,018,30,14,69,297,27,18,40,090,28,31,24,189,32*75
$GPGSV,3,2,12,21,20,158,27,09,19,041,32,19,16,279,,11,11,314,*73
$GPGSV,3,3,12,06,09,233,19,03,07,243,,25,06,121,,12,06,083,*73
$GPRMC,171951.000,A,3353.7537,N,09832.0265,W,0.08,60.82,020412,,,D*43
$GPGGA,171952.000,3353.7537,N,09832.0265,W,2,06,1.6,305.4,M,-23.7,M,0.8,0000*4B
$GPGSA,A,3,22,09,31,18,21,14,,,,,,,2.7,1.6,2.2*34
$GPRMC,171952.000,A,3353.7537,N,09832.0265,W,0.11,43.40,020412,,,D*47
$GPGGA,171953.000,3353.7537,N,09832.0264,W,2,06,1.6,305.5,M,-23.7,M,0.8,0000*4A
$GPGSA,A,3,22,09,31,18,21,14,,,,,,,2.7,1.6,2.2*34
$GPRMC,171953.000,A,3353.7537,N,09832.0264,W,0.11,44.11,020412,,,D*44
$GPGGA,171954.000,3353.7537,N,09832.0264,W,2,06,1.6,305.6,M,-23.7,M,0.8,0000*4E
$GPGSA,A,3,22,09,31,18,21,14,,,,,,,2.7,1.6,2.2*34
$GPRMC,171954.000,A,3353.7537,N,09832.0264,W,0.12,61.39,020412,,,D*4D
$GPGGA,171955.000,3353.7538,N,09832.0263,W,2,06,1.6,305.7,M,-23.7,M,0.8,0000*46
$GPGSA,A,3,22,09,31,18,21,14,,,,,,,2.7,1.6,2.2*34
$GPRMC,171955.000,A,3353.7538,N,09832.0263,W,0.13,46.57,020412,,,D*48
$GPGGA,171956.000,3353.7538,N,09832.0263,W,2,06,1.6,305.7,M,-23.7,M,1.8,0000*44
$GPGSA,A,3,22,09,31,18,21,14,,,,,,,2.7,1.6,2.2*34
$GPGSV,3,1,12,22,69,018,29,14,69,297,27,18,40,090,29,31,24,189,32*7C
$GPGSV,3,2,12,21,20,158,27,09,19,041,32,19,16,279,,11,11,314,*73
$GPGSV,3,3,12,06,09,233,19,03,07,243,,25,06,121,,12,06,083,*73
$GPRMC,171956.000,A,3353.7538,N,09832.0263,W,0.11,52.42,020412,,,D*48
$GPGGA,171957.000,3353.7538,N,09832.0262,W,2,06,1.6,305.8,M,-23.7,M,0.8,0000*4A
$GPGSA,A,3,22,09,31,18,21,14,,,,,,,2.7,1.6,2.2*34
$GPRMC,171957.000,A,3353.7538,N,09832.0262,W,0.12,66.61,020412,,,D*4D
$GPGGA,171958.000,3353.7538,N,09832.0261,W,2,06,1.6,305.8,M,-23.7,M,0.8,0000*46
$GPGSA,A,3,22,09,31,18,21,14,,,,,,,2.7,1.6,2.2*34
$GPRMC,171958.000,A,3353.7538,N,09832.0261,W,0.13,84.61,020412,,,D*4C
$GPGGA,171959.000,3353.7537,N,09832.0261,W,2,06,1.6,305.8,M,-23.7,M,0.8,0000*48
$GPGSA,A,3,22,09,31,18,21,14,,,,,,,2.7,1.6,2.2*34
$GPRMC,171959.000,A,3353.7537,N,09832.0261,W,0.09,83.22,020412,,,D*49
$GPGGA,172000.000,3353.7537,N,09832.0260,W,2,06,1.6,305.9,M,-23.7,M,1.8,0000*4F
$GPGSA,A,3,22,09,31,18,21,14,,,,,,,2.7,1.6,2.2*34
$GPRMC,172000.000,A,3353.7537,N,09832.0260,W,0.12,94.94,020412,,,D*4F
$GPGGA,172001.000,3353.7537,N,09832.0259,W,2,06,1.6,305.9,M,-23.7,M,2.8,0000*47
$GPGSA,A,3,22,09,31,18,21,14,,,,,,,2.7,1.6,2.2*34
$GPGSV,3,1,12,22,69,018,29,14,69,297,27,18,40,090,29,31,24,189,32*7C
$GPGSV,3,2,12,21,20,158,27,09,19,041,32,19,16,279,,11,11,314,*73
$GPGSV,3,3,12,06,09,233,18,03,07,243,,25,06,121,,12,06,083,*72
$GPRMC,172001.000,A,3353.7537,N,09832.0259,W,0.23,98.65,020412,,,D*44
$GPGGA,172002.000,3353.7536,N,09832.0258,W,2,06,1.6,306.0,M,-23.7,M,3.8,0000*4F
$GPGSA,A,3,22,09,31,18,21,14,,,,,,,2.7,1.6,2.2*34
$GPRMC,172002.000,A,3353.7536,N,09832.0258,W,0.19,100.67,020412,,,D*7C
$GPGGA,172003.000,3353.7536,N,09832.0257,W,2,06,1.6,306.1,M,-23.7,M,0.8,0000*43
$GPGSA,A,3,22,09,31,18,21,14,,,,,,,2.7,1.6,2.2*34
$GPRMC,172003.000,A,3353.7536,N,09832.0257,W,0.13,80.04,020412,,,D*44
$GPGGA,172004.000,3353.7536,N,09832.0257,W,2,06,1.6,306.2,M,-23.7,M,0.8,0000*47
$GPGSA,A,3,22,09,31,18,21,14,,,,,,,2.7,1.6,2.2*34
$GPRMC,172004.000,A,3353.7536,N,09832.0257,W,0.11,83.61,020412,,,D*41
$GPGGA,172005.000,3353.7536,N,09832.0256,W,2,06,1.6,306.3,M,-23.7,M,0.8,0000*46
$GPGSA,A,3,22,09,31,18,21,14,,,,,,,2.7,1.6,2.2*34
$GPRMC,172005.000,A,3353.7536,N,09832.0256,W,0.12,66.74,020412,,,D*4D
$GPGGA,172006.000,3353.7536,N,09832.0255,W,2,06,1.6,306.3,M,-23.7,M,1.8,0000*47
$GPGSA,A,3,22,09,31,18,21,14,,,,,,,2.7,1.6,2.2*34
$GPGSV,3,1,12,22,69,018,29,14,69,297,27,18,40,090,28,31,24,189,32*7D
$GPGSV,3,2,12,21,20,158,27,09,19,041,32,19,16,279,,11,11,314,*73
$GPGSV,3,3,12,06,09,233,18,03,07,243,,25,06,121,,12,06,083,*72
$GPRMC,172006.000,A,3353.7536,N,09832.0255,W,0.12,64.07,020412,,,D*4B
$GPGGA,172007.000,3353.7536,N,09832.0255,W,2,06,1.6,306.4,M,-23.7,M,2.8,0000*42
$GPGSA,A,3,22,09,31,18,21,14,,,,,,,2.7,1.6,2.2*34
$GPRMC,172007.000,A,3353.7536,N,09832.0255,W,0.12,71.19,020412,,,D*41
$GPGGA,172008.000,3353.7536,N,09832.0254,W,2,06,1.6,306.4,M,-23.7,M,3.8,0000*4D
$GPGSA,A,3,22,09,31,18,21,14,,,,,,,2.7,1.6,2.2*34
$GPRMC,172008.000,A,3353.7536,N,09832.0254,W,0.17,77.46,020412,,,D*46
$GPGGA,172009.000,3353.7536,N,09832.0253,W,2,07,1.0,306.5,M,-23.7,M,0.8,0000*4E
$GPGSA,A,3,22,09,31,18,19,21,14,,,,,,1.8,1.0,1.5*32
$GPRMC,172009.000,A,3353.7536,N,09832.0253,W,0.29,99.17,020412,,,D*49
$GPGGA,172010.000,3353.7535,N,09832.0252,W,2,07,1.0,306.6,M,-23.7,M,0.8,0000*47
$GPGSA,A,3,22,09,31,18,19,21,14,,,,,,1.8,1.0,1.5*32
$GPRMC,172010.000,A,3353.7535,N,09832.0252,W,0.49,98.35,020412,,,D*44
$GPGGA,172011.000,3353.7535,N,09832.0250,W,2,07,1.0,306.7,M,-23.7,M,0.8,0000*45
$GPGSA,A,3,22,09,31,18,19,21,14,,,,,,1.8,1.0,1.5*32
$GPGSV,3,1,12,22,69,018,29,14,69,297,28,18,40,090,28,31,24,189,32*72
$GPGSV,3,2,12,21,20,158,27,09,19,041,32,19,16,279,15,11,11,314,*77
$GPGSV,3,3,12,06,09,233,18,03,07,243,,25,06,121,,12,06,083,*72
$GPRMC,172011.000,A,3353.7535,N,09832.0250,W,0.50,103.28,020412,,,D*70
$GPGGA,172012.000,3353.7534,N,09832.0249,W,2,07,1.0,306.8,M,-23.7,M,0.8,0000*40
$GPGSA,A,3,22,09,31,18,19,21,14,,,,,,1.8,1.0,1.5*32
$GPRMC,172012.000,A,3353.7534,N,09832.0249,W,0.38,100.17,020412,,,D*7B
$GPGGA,172013.000,3353.7534,N,09832.0248,W,2,07,1.0,306.9,M,-23.7,M,0.8,0000*41
$GPGSA,A,3,22,09,31,18,19,21,14,,,,,,1.8,1.0,1.5*32
$GPRMC,172013.000,A,3353.7534,N,09832.0248,W,0.34,99.20,020412,,,D*42
$GPGGA,172014.000,3353.7534,N,09832.0249,W,2,07,1.0,307.1,M,-23.7,M,1.8,0000*4F
$GPGSA,A,3,22,09,31,18,19,21,14,,,,,,1.8,1.0,1.5*32
$GPRMC,172014.000,A,3353.7534,N,09832.0249,W,0.30,96.80,020412,,,D*45
$GPGGA,172015.000,3353.7534,N,09832.0249,W,2,07,1.0,307.3,M,-23.7,M,0.8,0000*4D
$GPGSA,A,3,22,09,31,18,19,21,14,,,,,,1.8,1.0,1.5*32
$GPRMC,172015.000,A,3353.7534,N,09832.0249,W,0.35,94.22,020412,,,D*4B
$GPGGA,172016.000,3353.7534,N,09832.0248,W,2,07,1.0,307.5,M,-23.7,M,0.8,0000*49
$GPGSA,A,3,22,09,31,18,19,21,14,,,,,,1.8,1.0,1.5*32
$GPGSV,3,1,12,22,69,020,29,14,69,299,28,18,40,091,28,31,24,189,32*76
$GPGSV,3,2,12,21,20,158,27,09,19,041,32,19,16,278,14,11,12,314,*74
$GPGSV,3,3,12,06,09,232,16,03,07,242,,25,07,120,,12,06,082,*7D
$GPRMC,172016.000,A,3353.7534,N,09832.0248,W,0.30,98.18,020412,,,D*49
$GPGGA,172017.000,3353.7534,N,09832.0247,W,2,07,1.0,307.6,M,-23.7,M,0.8,0000*44
$GPGSA,A,3,22,09,31,18,19,21,14,,,,,,1.8,1.0,1.5*32
$GPRMC,172017.000,A,3353.7534,N,09832.0247,W,0.36,103.60,020412,,,D*7D
$GPGGA,172018.000,3353.7534,N,09832.0247,W,2,07,1.0,307.7,M,-23.7,M,1.8,0000*4B
$GPGSA,A,3,22,09,31,18,19,21,14,,,,,,1.8,1.0,1.5*32
$GPRMC,172018.000,A,3353.7534,N,09832.0247,W,0.31,97.08,020412,,,D*47
$GPGGA,172019.000,3353.7533,N,09832.0246,W,2,07,1.0,307.7,M,-23.7,M,0.8,0000*4D
$GPGSA,A,3,22,09,31,18,19,21,14,,,,,,1.8,1.0,1.5*32
$GPRMC,172019.000,A,3353.7533,N,09832.0246,W,0.35,101.33,020412,,,D*72
$GPGGA,172020.000,3353.7533,N,09832.0246,W,2,07,1.0,307.9,M,-23.7,M,1.8,0000*48
$GPGSA,A,3,22,09,31,18,19,21,14,,,,,,1.8,1.0,1.5*32
$GPRMC,172020.000,A,3353.7533,N,09832.0246,W,0.29,99.80,020412,,,D*4D
$GPGGA,172021.000,3353.7534,N,09832.0247,W,2,07,1.0,308.0,M,-23.7,M,0.8,0000*48
$GPGSA,A,3,22,09,31,18,19,21,14,,,,,,1.8,1.0,1.5*32
$GPGSV,3,1,12,22,69,020,29,14,69,299,29,18,40,091,30,31,24,189,32*7E
$GPGSV,3,2,12,21,20,158,27,09,19,041,33,19,16,278,13,11,12,314,*72
$GPGSV,3,3,12,06,09,232,16,03,07,242,,25,07,120,,12,06,082,*7D
$GPRMC,172021.000,A,3353.7534,N,09832.0247,W,0.31,102.99,020412,,,D*78
$GPGGA,172022.000,3353.7534,N,09832.0247,W,2,07,1.0,308.2,M,-23.7,M,0.8,0000*49
$GPGSA,A,3,22,09,31,18,19,21,14,,,,,,1.8,1.0,1.5*32
$GPRMC,172022.000,A,3353.7534,N,09832.0247,W,0.30,96.75,020412,,,D*44
$GPGGA,172023.000,3353.7534,N,09832.0246,W,2,07,1.0,308.2,M,-23.7,M,0.8,0000*49
$GPGSA,A,3,22,09,31,18,19,21,14,,,,,,1.8,1.0,1.5*32
$GPRMC,172023.000,A,3353.7534,N,09832.0246,W,0.36,98.37,020412,,,D*4A
$GPGGA,172024.000,3353.7533,N,09832.0246,W,2,07,1.0,308.2,M,-23.7,M,1.8,0000*48
$GPGSA,A,3,22,09,31,18,19,21,14,,,,,,1.8,1.0,1.5*32
$GPRMC,172024.000,A,3353.7533,N,09832.0246,W,0.39,102.11,020412,,,D*73
$GPGGA,172025.000,3353.7533,N,09832.0245,W,2,07,1.0,308.2,M,-23.7,M,2.8,0000*49
$GPGSA,A,3,22,09,31,18,19,21,14,,,,,,1.8,1.0,1.5*32
$GPRMC,172025.000,A,3353.7533,N,09832.0245,W,0.45,97.12,020412,,,D*44
$GPGGA,172026.000,3353.7533,N,09832.0245,W,2,07,1.0,308.1,M,-23.7,M,0.8,0000*4B
$GPGSA,A,3,22,09,31,18,19,21,14,,,,,,1.8,1.0,1.5*32
$GPGSV,3,1,12,22,69,020,29,14,69,299,29,18,40,091,31,31,24,189,32*7F
$GPGSV,3,2,12,21,20,158,26,09,19,041,33,19,16,278,13,11,12,314,*73
$GPGSV,3,3,12,06,09,232,,03,07,242,,25,07,120,,12,06,082,*7A
$GPRMC,172026.000,A,3353.7533,N,09832.0245,W,0.15,73.13,020412,,,D*49
$GPGGA,172027.000,3353.7534,N,09832.0246,W,2,07,1.0,308.0,M,-23.7,M,0.8,0000*4F
$GPGSA,A,3,22,09,31,18,19,21,14,,,,,,1.8,1.0,1.5*32
$GPRMC,172027.000,A,3353.7534,N,09832.0246,W,0.07,106.88,020412,,,D*7E
$GPGGA,172028.000,3353.7534,N,09832.0248,W,2,07,1.0,307.9,M,-23.7,M,0.8,0000*48
$GPGSA,A,3,22,09,31,18,19,21,14,,,,,,1.8,1.0,1.5*32
$GPRMC,172028.000,A,3353.7534,N,09832.0248,W,0.05,295.53,020412,,,D*72
$GPGGA,172029.000,3353.7535,N,09832.0250,W,2,07,1.0,307.8,M,-23.7,M,0.8,0000*40
$GPGSA,A,3,22,09,31,18,19,21,14,,,,,,1.8,1.0,1.5*32
$GPRMC,172029.000,A,3353.7535,N,09832.0250,W,0.27,303.26,020412,,,D*77
$GPGGA,172030.000,3353.7535,N,09832.0252,W,2,07,1.0,307.6,M,-23.7,M,1.8,0000*45
$GPGSA,A,3,22,09,31,18,19,21,14,,,,,,1.8,1.0,1.5*32
$GPRMC,172030.000,A,3353.7535,N,09832.0252,W,0.30,291.29,020412,,,D*7E
$GPGGA,172031.000,3353.7536,N,09832.0253,W,2,07,1.0,307.4,M,-23.7,M,2.8,0000*47
$GPGSA,A,3,22,09,31,18,19,21,14,,,,,,1.8,1.0,1.5*32
$GPGSV,3,1,12,22,69,020,29,14,69,299,29,18,40,091,32,31,24,189,32*7C
$GPGSV,3,2,12,21,20,158,24,09,19,041,33,19,16,278,13,11,12,314,*71
$GPGSV,3,3,12,06,09,232,,03,07,242,,25,07,120,,12,06,082,*7A
$GPRMC,172031.000,A,3353.7536,N,09832.0253,W,0.33,302.45,020412,,,D*7F
$GPGGA,172032.000,3353.7537,N,09832.0255,W,2,07,1.0,307.1,M,-23.7,M,0.8,0000*44
$GPGSA,A,3,22,09,31,18,19,21,14,,,,,,1.8,1.0,1.5*32
$GPRMC,172032.000,A,3353.7537,N,09832.0255,W,0.38,302.71,020412,,,D*77
$GPGGA,172033.000,3353.7538,N,09832.0257,W,2,07,1.0,306.9,M,-23.7,M,0.8,0000*41
$GPGSA,A,3,22,09,31,18,19,21,14,,,,,,1.8,1.0,1.5*32
$GPRMC,172033.000,A,3353.7538,N,09832.0257,W,0.44,295.01,020412,,,D*78
$GPGGA,172034.000,3353.7538,N,09832.0259,W,2,06,1.6,306.8,M,-23.7,M,0.8,0000*4E
$GPGSA,A,3,22,09,31,18,21,14,,,,,,,2.7,1.6,2.2*34
$GPRMC,172034.000,A,3353.7538,N,09832.0259,W,0.33,324.43,020412,,,D*7C
$GPGGA,172035.000,3353.7539,N,09832.0259,W,2,06,1.6,306.7,M,-23.7,M,0.8,0000*41
$GPGSA,A,3,22,09,31,18,21,14,,,,,,,2.7,1.6,2.2*34
$GPRMC,172035.000,A,3353.7539,N,09832.0259,W,0.05,352.75,020412,,,D*7D
$GPGGA,172036.000,3353.7539,N,09832.0260,W,2,06,1.6,306.7,M,-23.7,M,1.8,0000*49
$GPGSA,A,3,22,09,31,18,21,14,,,,,,,2.7,1.6,2.2*34
$GPGSV,3,1,12,22,69,020,29,14,69,299,30,18,40,091,32,31,24,189,32*74
$GPGSV,3,2,12,21,20,158,24,09,19,041,33,19,16,278,,11,12,314,*73
$GPGSV,3,3,12,06,09,232,,03,07,242,,25,07,120,,12,06,082,*7A
$GPRMC,172036.000,A,3353.7539,N,09832.0260,W,0.22,331.66,020412,,,D*76
$GPGGA,172037.000,3353.7539,N,09832.0260,W,2,05,1.8,306.7,M,-23.7,M,2.8,0000*46
$GPGSA,A,3,22,09,31,18,14,,,,,,,,2.8,1.8,2.2*36
$GPRMC,172037.000,A,3353.7539,N,09832.0260,W,0.17,337.37,020412,,,D*73
$GPGGA,172038.000,3353.7540,N,09832.0261,W,2,06,1.6,306.7,M,-23.7,M,3.8,0000*4A
$GPGSA,A,3,22,09,31,18,21,14,,,,,,,2.7,1.6,2.2*34
$GPRMC,172038.000,A,3353.7540,N,09832.0261,W,0.27,330.88,020412,,,D*73
$GPGGA,172039.000,3353.7540,N,09832.0261,W,2,06,1.6,306.8,M,-23.7,M,0.8,0000*47
$GPGSA,A,3,22,09,31,18,21,14,,,,,,,2.7,1.6,2.2*34
$GPRMC,172039.000,A,3353.7540,N,09832.0261,W,0.29,336.80,020412,,,D*72
$GPGGA,172040.000,3353.7540,N,09832.0261,W,2,06,1.6,306.9,M,-23.7,M,0.8,0000*48
$GPGSA,A,3,22,09,31,18,21,14,,,,,,,2.7,1.6,2.2*34
$GPRMC,172040.000,A,3353.7540,N,09832.0261,W,0.24,331.08,020412,,,D*76
$GPGGA,172041.000,3353.7541,N,09832.0262,W,2,06,1.6,307.0,M,-23.7,M,0.8,0000*43
$GPGSA,A,3,22,09,31,18,21,14,,,,,,,2.7,1.6,2.2*34
$GPGSV,3,1,12,22,69,020,29,14,69,299,30,18,40,091,32,31,24,189,32*74
$GPGSV,3,2,12,21,20,158,19,09,19,041,34,19,16,278,,11,12,314,*7A
$GPGSV,3,3,12,06,09,232,,03,07,242,,25,07,120,,12,06,082,*7A
$GPRMC,172041.000,A,3353.7541,N,09832.0262,W,0.35,337.36,020412,,,D*7E
$GPGGA,172042.000,3353.7542,N,09832.0262,W,2,06,1.6,307.0,M,-23.7,M,0.8,0000*43
$GPGSA,A,3,22,09,31,18,21,14,,,,,,,2.7,1.6,2.2*34
$GPRMC,172042.000,A,3353.7542,N,09832.0262,W,0.34,334.06,020412,,,D*7F
$GPGGA,172043.000,3353.7542,N,09832.0262,W,2,06,1.6,307.1,M,-23.7,M,1.8,0000*42
$GPGSA,A,3,22,09,31,18,21,14,,,,,,,2.7,1.6,2.2*34
$GPRMC,172043.000,A,3353.7542,N,09832.0262,W,0.19,345.36,020412,,,D*74
$GPGGA,172044.000,3353.7542,N,09832.0262,W,2,06,1.6,307.1,M,-23.7,M,2.8,0000*46
$GPGSA,A,3,22,09,31,18,21,14,,,,,,,2.7,1.6,2.2*34
$GPRMC,172044.000,A,3353.7542,N,09832.0262,W,0.10,76.69,020412,,,D*43
$GPGGA,172045.000,3353.7542,N,09832.0262,W,2,06,1.6,307.1,M,-23.7,M,0.8,0000*45
$GPGSA,A,3,22,09,31,18,21,14,,,,,,,2.7,1.6,2.2*34
$GPRMC,172045.000,A,3353.7542,N,09832.0262,W,0.17,352.13,020412,,,D*7D
$GPGGA,172046.000,3353.7542,N,09832.0263,W,2,06,1.6,307.1,M,-23.7,M,0.8,0000*47
$GPGSA,A,3,22,09,31,18,21,14,,,,,,,2.7,1.6,2.2*34
$GPGSV,3,1,12,22,69,020,28,14,69,299,30,18,40,091,31,31,24,189,32*76
$GPGSV,3,2,12,21,20,158,20,09,19,041,34,19,16,278,,11,12,314,*70
$GPGSV,3,3,12,06,09,232,,03,07,242,15,25,07,120,,12,06,082,*7E
$GPRMC,172046.000,A,3353.7542,N,09832.0263,W,0.35,344.30,020412,,,D*79
$GPGGA,172047.000,3353.7543,N,09832.0263,W,2,06,1.6,307.2,M,-23.7,M,0.8,0000*44
$GPGSA,A,3,22,09,31,18,21,14,,,,,,,2.7,1.6,2.2*34
$GPRMC,172047.000,A,3353.7543,N,09832.0263,W,0.25,339.48,020412,,,D*7D
$GPGGA,172048.000,3353.7543,N,09832.0262,W,2,06,1.6,307.3,M,-23.7,M,1.8,0000*4A
$GPGSA,A,3,22,09,31,18,21,14,,,,,,,2.7,1.6,2.2*34
$GPRMC,172048.000,A,3353.7543,N,09832.0262,W,0.17,113.56,020412,,,D*77
$GPGGA,172049.000,3353.7542,N,09832.0262,W,2,06,1.6,307.3,M,-23.7,M,2.8,0000*49
$GPGSA,A,3,22,09,31,18,21,14,,,,,,,2.7,1.6,2.2*34
$GPRMC,172049.000,A,3353.7542,N,09832.0262,W,0.20,118.30,020412,,,D*78
$GPGGA,172050.000,3353.7541,N,09832.0261,W,2,06,1.6,307.4,M,-23.7,M,3.8,0000*47
$GPGSA,A,3,22,09,31,18,21,14,,,,,,,2.7,1.6,2.2*34
$GPRMC,172050.000,A,3353.7541,N,09832.0261,W,0.13,99.79,020412,,,D*45
$GPGGA,172051.000,3353.7541,N,09832.0261,W,2,06,1.6,307.5,M,-23.7,M,0.8,0000*44
$GPGSA,A,3,22,09,31,18,21,14,,,,,,,2.7,1.6,2.2*34
$GPGSV,3,1,12,22,69,020,28,14,69,299,30,18,40,091,31,31,24,189,32*76
$GPGSV,3,2,12,21,20,158,19,09,19,041,33,19,16,278,,11,12,314,*7D
