$GPGGA,150821.000,3353.0544,N,09831.6975,W,1,10,0.9,301.3,M,-23.7,M,18.8,0000*71
$GPGSA,A,3,21,14,15,22,18,09,27,03,06,29,,,1.9,0.9,1.7*3C
$GPGSV,3,1,12,21,82,047,30,18,64,337,34,15,46,047,33,22,34,281,36*76
$GPGSV,3,2,12,09,29,113,30,27,28,084,30,06,28,297,34,03,19,305,33*73
$GPGSV,3,3,12,14,18,212,30,29,18,178,28,26,04,038,,51,49,195,26*79
$GPRMC,150821.000,A,3353.0544,N,09831.6975,W,15.82,9.95,300312,,,A*46
$GPGGA,150822.000,3353.0579,N,09831.6966,W,1,10,0.9,301.3,M,-23.7,M,18.8,0000*7E
$GPGSA,A,3,21,14,15,22,18,09,27,03,06,29,,,1.9,0.9,1.7*3C
$GPRMC,150822.000,A,3353.0579,N,09831.6966,W,12.45,11.70,300312,,,A*77
$GPGGA,150823.000,3353.0607,N,09831.6960,W,1,10,0.9,301.3,M,-23.7,M,18.8,0000*73
$GPGSA,A,3,21,14,15,22,18,09,27,03,06,29,,,1.9,0.9,1.7*3C
$GPRMC,150823.000,A,3353.0607,N,09831.6960,W,9.64,11.84,300312,,,A*48
$GPGGA,150824.000,3353.0630,N,09831.6954,W,1,10,0.9,301.4,M,-23.7,M,18.8,0000*70
$GPGSA,A,3,21,14,15,22,18,09,27,03,06,29,,,1.9,0.9,1.7*3C
$GPRMC,150824.000,A,3353.0630,N,09831.6954,W,8.26,11.46,300312,,,A*45
$GPGGA,150825.000,3353.0652,N,09831.6949,W,1,10,0.9,301.5,M,-23.7,M,18.8,0000*78
$GPGSA,A,3,21,14,15,22,18,09,27,03,06,29,,,1.9,0.9,1.7*3C
$GPRMC,150825.000,A,3353.0652,N,09831.6949,W,7.41,11.95,300312,,,A*4C
$GPGGA,150826.000,3353.0670,N,09831.6945,W,1,10,0.9,301.6,M,-23.7,M,18.8,0000*74
$GPGSA,A,3,21,14,15,22,18,09,27,03,06,29,,,1.9,0.9,1.7*3C
$GPGSV,3,1,12,21,82,047,30,18,64,337,33,15,46,047,33,22,34,281,38*7F
$GPGSV,3,2,12,09,29,113,30,27,28,084,18,06,28,297,37,03,19,305,32*7B
$GPGSV,3,3,12,14,18,212,28,29,18,178,33,26,04,038,18,51,49,195,22*77
$GPRMC,150826.000,A,3353.0670,N,09831.6945,W,6.13,11.13,300312,,,A*4B
$GPGGA,150827.000,3353.0685,N,09831.6942,W,1,10,0.9,301.6,M,-23.7,M,18.8,0000*78
$GPGSA,A,3,21,14,15,22,18,09,27,03,06,29,,,1.9,0.9,1.7*3C
$GPRMC,150827.000,A,3353.0685,N,09831.6942,W,5.06,9.48,300312,,,A*77
$GPGGA,150828.000,3353.0698,N,09831.6940,W,1,10,0.9,301.7,M,-23.7,M,18.8,0000*78
$GPGSA,A,3,21,14,15,22,18,09,27,03,06,29,,,1.9,0.9,1.7*3C
$GPRMC,150828.000,A,3353.0698,N,09831.6940,W,4.31,7.83,300312,,,A*7A
$GPGGA,150829.000,3353.0705,N,09831.6939,W,1,10,0.9,301.8,M,-23.7,M,18.8,0000*7D
$GPGSA,A,3,21,14,15,22,18,09,27,03,06,29,,,1.9,0.9,1.7*3C
$GPRMC,150829.000,A,3353.0705,N,09831.6939,W,2.22,4.66,300312,,,A*7C
$GPGGA,150830.000,3353.0708,N,09831.6939,W,1,10,0.9,301.8,M,-23.7,M,18.8,0000*78
$GPGSA,A,3,21,14,15,22,18,09,27,03,06,29,,,1.9,0.9,1.7*3C
$GPRMC,150830.000,A,3353.0708,N,09831.6939,W,0.69,358.78,300312,,,A*71
$GPGGA,150831.000,3353.0710,N,09831.6939,W,1,10,0.9,301.7,M,-23.7,M,18.8,0000*7F
$GPGSA,A,3,21,14,15,22,18,09,27,03,06,29,,,1.9,0.9,1.7*3C
$GPGSV,3,1,12,21,82,047,35,18,64,337,33,15,46,047,34,22,34,281,38*7D
$GPGSV,3,2,12,09,29,113,24,27,28,084,16,06,28,297,37,03,19,305,27*74
$GPGSV,3,3,12,14,18,212,28,29,18,178,33,26,04,038,18,48,36,230,36*7E
$GPRMC,150831.000,A,3353.0710,N,09831.6939,W,0.17,33.32,300312,,,A*40
$GPGGA,150832.000,3353.0711,N,09831.6939,W,1,10,0.9,301.6,M,-23.7,M,18.8,0000*7C
$GPGSA,A,3,21,14,15,22,18,09,27,03,06,29,,,1.9,0.9,1.7*3C
$GPRMC,150832.000,A,3353.0711,N,09831.6939,W,0.06,277.56,300312,,,A*72
$GPGGA,150833.000,3353.0725,N,09831.6938,W,2,10,0.9,300.6,M,-23.7,M,0.8,0000*40
$GPGSA,A,3,21,14,15,22,18,09,27,03,06,29,,,1.9,0.9,1.7*3C
$GPRMC,150833.000,A,3353.0725,N,09831.6938,W,0.14,51.34,300312,,,D*41
$GPGGA,150834.000,3353.0726,N,09831.6938,W,2,10,0.9,300.3,M,-23.7,M,0.8,0000*41
$GPGSA,A,3,21,14,15,22,18,09,27,03,06,29,,,1.9,0.9,1.7*3C
$GPRMC,150834.000,A,3353.0726,N,09831.6938,W,0.15,15.18,300312,,,D*4A
$GPGGA,150835.000,3353.0726,N,09831.6939,W,2,10,0.9,299.9,M,-23.7,M,0.8,0000*4A
$GPGSA,A,3,21,14,15,22,18,09,27,03,06,29,,,1.9,0.9,1.7*3C
$GPRMC,150835.000,A,3353.0726,N,09831.6939,W,0.20,1.41,300312,,,D*75
$GPGGA,150836.000,3353.0727,N,09831.6939,W,2,10,0.9,299.7,M,-23.7,M,0.8,0000*46
$GPGSA,A,3,21,14,15,22,18,09,27,03,06,29,,,1.9,0.9,1.7*3C
$GPGSV,3,1,12,21,82,053,35,18,65,339,34,15,45,047,34,22,34,281,38*73
$GPGSV,3,2,12,09,29,112,24,27,29,083,15,06,29,296,37,03,19,304,25*73
$GPGSV,3,3,12,14,19,212,28,29,17,178,33,26,03,038,19,48,36,230,36*76
$GPRMC,150836.000,A,3353.0727,N,09831.6939,W,0.46,29.09,300312,,,D*41
$GPGGA,150837.000,3353.0729,N,09831.6939,W,2,10,0.9,299.5,M,-23.7,M,1.8,0000*4A
$GPGSA,A,3,21,14,15,22,18,09,27,03,06,29,,,1.9,0.9,1.7*3C
$GPRMC,150837.000,A,3353.0729,N,09831.6939,W,1.39,9.36,300312,,,D*79
$GPGGA,150838.000,3353.0735,N,09831.6938,W,2,10,0.9,299.4,M,-23.7,M,2.8,0000*4B
$GPGSA,A,3,21,14,15,22,18,09,27,03,06,29,,,1.9,0.9,1.7*3C
$GPRMC,150838.000,A,3353.0735,N,09831.6938,W,2.88,10.95,300312,,,D*42
$GPGGA,150839.000,3353.0746,N,09831.6936,W,2,10,0.9,299.3,M,-23.7,M,0.8,0000*45
$GPGSA,A,3,21,14,15,22,18,09,27,03,06,29,,,1.9,0.9,1.7*3C
$GPRMC,150839.000,A,3353.0746,N,09831.6936,W,4.92,8.97,300312,,,D*7F
$GPGGA,150840.000,3353.0764,N,09831.6934,W,2,10,0.9,299.3,M,-23.7,M,0.8,0000*49
$GPGSA,A,3,21,14,15,22,18,09,27,03,06,29,,,1.9,0.9,1.7*3C
$GPRMC,150840.000,A,3353.0764,N,09831.6934,W,7.47,7.49,300312,,,D*74
$GPGGA,150841.000,3353.0789,N,09831.6930,W,2,10,0.9,299.3,M,-23.7,M,0.8,0000*4F
$GPGSA,A,3,21,14,15,22,18,09,27,03,06,29,,,1.9,0.9,1.7*3C
$GPGSV,3,1,12,21,82,053,35,18,65,339,34,15,45,047,35,22,34,281,38*72
$GPGSV,3,2,12,09,29,112,20,27,29,083,15,06,29,296,36,03,19,304,25*76
$GPGSV,3,3,12,14,19,212,21,29,17,178,32,26,03,038,19,48,36,230,37*7F
$GPRMC,150841.000,A,3353.0789,N,09831.6930,W,10.36,7.99,300312,,,D*4F
$GPGGA,150842.000,3353.0823,N,09831.6924,W,2,10,0.9,299.3,M,-23.7,M,0.8,0000*46
$GPGSA,A,3,21,14,15,22,18,09,27,03,06,29,,,1.9,0.9,1.7*3C
$GPRMC,150842.000,A,3353.0823,N,09831.6924,W,13.08,8.65,300312,,,D*44
$GPGGA,150843.000,3353.0863,N,09831.6917,W,2,10,0.9,299.3,M,-23.7,M,1.8,0000*42
$GPGSA,A,3,21,14,15,22,18,09,27,03,06,29,,,1.9,0.9,1.7*3C
$GPRMC,150843.000,A,3353.0863,N,09831.6917,W,15.52,8.82,300312,,,D*41
$GPGGA,150844.000,3353.0910,N,09831.6908,W,2,10,0.9,299.3,M,-23.7,M,0.8,0000*4F
$GPGSA,A,3,21,14,15,22,18,09,27,03,06,29,,,1.9,0.9,1.7*3C
$GPRMC,150844.000,A,3353.0910,N,09831.6908,W,17.41,9.16,300312,,,D*41
$GPGGA,150845.000,3353.0961,N,09831.6899,W,2,10,0.9,299.5,M,-23.7,M,0.8,0000*47
$GPGSA,A,3,21,14,15,22,18,09,27,03,06,29,,,1.9,0.9,1.7*3C
$GPRMC,150845.000,A,3353.0961,N,09831.6899,W,19.12,8.80,300312,,,D*49
$GPGGA,150846.000,3353.1017,N,09831.6889,W,2,10,0.9,299.6,M,-23.7,M,0.8,0000*4F
$GPGSA,A,3,21,14,15,22,18,09,27,03,06,29,,,1.9,0.9,1.7*3C
$GPGSV,3,1,12,21,82,053,35,18,65,339,34,15,45,047,35,22,34,281,39*73
$GPGSV,3,2,12,09,29,112,30,27,29,083,29,06,29,296,36,03,19,304,29*74
$GPGSV,3,3,12,14,19,212,22,29,17,178,32,26,03,038,,48,36,230,35*76
$GPRMC,150846.000,A,3353.1017,N,09831.6889,W,20.56,8.24,300312,,,D*46
$GPGGA,150847.000,3353.1077,N,09831.6879,W,2,10,0.9,299.6,M,-23.7,M,0.8,0000*47
$GPGSA,A,3,21,14,15,22,18,09,27,03,06,29,,,1.9,0.9,1.7*3C
$GPRMC,150847.000,A,3353.1077,N,09831.6879,W,22.33,7.83,300312,,,D*4D
$GPGGA,150848.000,3353.1144,N,09831.6868,W,2,10,0.9,299.9,M,-23.7,M,1.8,0000*47
$GPGSA,A,3,21,14,15,22,18,09,27,03,06,29,,,1.9,0.9,1.7*3C
$GPRMC,150848.000,A,3353.1144,N,09831.6868,W,23.93,8.03,300312,,,D*4F
$GPGGA,150849.000,3353.1210,N,09831.6857,W,2,10,0.9,301.6,M,-23.7,M,2.8,0000*44
$GPGSA,A,3,21,14,15,22,18,09,27,03,06,29,,,1.9,0.9,1.7*3C
$GPRMC,150849.000,A,3353.1210,N,09831.6857,W,25.45,7.77,300312,,,D*41
$GPGGA,150850.000,3353.1280,N,09831.6847,W,2,09,1.0,301.3,M,-23.7,M,3.8,0000*40
$GPGSA,A,3,14,15,22,18,09,27,03,06,29,,,,2.5,1.0,2.3*3F
$GPRMC,150850.000,A,3353.1280,N,09831.6847,W,25.77,7.06,300312,,,D*46
$GPGGA,150851.000,3353.1355,N,09831.6834,W,2,09,1.0,300.9,M,-23.7,M,4.8,0000*40
$GPGSA,A,3,14,15,22,18,09,27,03,06,29,,,,2.5,1.0,2.3*3F
$GPGSV,3,1,12,21,82,053,,18,65,339,31,15,45,047,36,22,34,281,34*7E
$GPGSV,3,2,12,09,29,112,23,27,29,083,28,06,29,296,34,03,19,304,20*7C
$GPGSV,3,3,12,14,19,212,20,29,17,178,22,26,03,038,,48,36,230,33*73
$GPRMC,150851.000,A,3353.1355,N,09831.6834,W,27.03,8.12,300312,,,D*41
$GPGGA,150852.000,3353.1430,N,09831.6821,W,2,10,0.9,300.9,M,-23.7,M,5.8,0000*42
$GPGSA,A,3,21,14,15,22,18,09,27,03,06,29,,,1.9,0.9,1.7*3C
$GPRMC,150852.000,A,3353.1430,N,09831.6821,W,26.28,9.25,300312,,,D*4F
$GPGGA,150853.000,3353.1502,N,09831.6806,W,0,00,,301.0,M,-23.7,M,,0000*49
$GPGSA,A,1,,,,,,,,,,,,,,,*1E
$GPRMC,150853.000,V,3353.1502,N,09831.6806,W,,,300312,,,N*66
$GPGGA,150854.000,3353.1580,N,09831.6793,W,2,03,6.4,300.9,M,-23.7,M,7.8,0000*43
$GPGSA,A,2,15,22,06,,,,,,,,,,6.4,6.4,1.0*30
$GPRMC,150854.000,A,3353.1580,N,09831.6793,W,27.94,8.17,300312,,,D*43
$GPGGA,150855.000,3353.1672,N,09831.6780,W,2,10,0.9,301.3,M,-23.7,M,8.8,0000*43
$GPGSA,A,3,21,14,15,22,18,09,27,03,06,29,,,1.9,0.9,1.7*3C
$GPRMC,150855.000,A,3353.1672,N,09831.6780,W,31.12,6.57,300312,,,D*4D
$GPGGA,150856.000,3353.1768,N,09831.6769,W,2,10,0.9,301.1,M,-23.7,M,9.8,0000*4E
$GPGSA,A,3,21,14,15,22,18,09,27,03,06,29,,,1.9,0.9,1.7*3C
$GPGSV,3,1,12,21,82,053,35,18,65,339,29,15,45,047,36,22,34,281,40*72
$GPGSV,3,2,12,09,29,112,28,27,29,083,30,06,29,296,36,03,19,304,21*7D
$GPGSV,3,3,12,14,19,212,24,29,17,178,30,26,03,038,,48,36,230,28*7E
$GPRMC,150856.000,A,3353.1768,N,09831.6769,W,31.12,6.01,300312,,,D*40
$GPGGA,150857.000,3353.1860,N,09831.6757,W,2,10,0.9,300.8,M,-23.7,M,10.8,0000*75
$GPGSA,A,3,21,14,15,22,18,09,27,03,06,29,,,1.9,0.9,1.7*3C
$GPRMC,150857.000,A,3353.1860,N,09831.6757,W,30.72,5.42,300312,,,D*48
$GPGGA,150858.000,3353.1948,N,09831.6747,W,2,10,0.9,301.0,M,-23.7,M,11.8,0000*78
$GPGSA,A,3,21,14,15,22,18,09,27,03,06,29,,,1.9,0.9,1.7*3C
$GPRMC,150858.000,A,3353.1948,N,09831.6747,W,30.43,5.86,300312,,,D*47
$GPGGA,150859.000,3353.2034,N,09831.6737,W,2,10,0.9,301.9,M,-23.7,M,12.8,0000*75
$GPGSA,A,3,21,14,15,22,18,09,27,03,06,29,,,1.9,0.9,1.7*3C
$GPRMC,150859.000,A,3353.2034,N,09831.6737,W,30.28,6.13,300312,,,D*42
$GPGGA,150900.000,3353.2118,N,09831.6726,W,2,10,0.9,301.9,M,-23.7,M,13.8,0000*76
$GPGSA,A,3,21,14,15,22,18,09,27,03,06,29,,,1.9,0.9,1.7*3C
$GPRMC,150900.000,A,3353.2118,N,09831.6726,W,29.98,6.48,300312,,,D*4D
$GPGGA,150901.000,3353.2200,N,09831.6715,W,2,10,0.9,301.6,M,-23.7,M,14.8,0000*75
$GPGSA,A,3,21,14,15,22,18,09,27,03,06,29,,,1.9,0.9,1.7*3C
$GPGSV,3,1,12,21,82,053,34,18,65,339,33,15,45,047,36,22,34,281,40*78
$GPGSV,3,2,12,09,29,112,28,27,29,083,31,06,29,296,37,03,19,304,24*78
$GPGSV,3,3,12,14,19,212,27,29,17,178,30,26,03,038,15,48,36,230,27*76
$GPRMC,150901.000,A,3353.2200,N,09831.6715,W,29.83,6.92,300312,,,D*4B
$GPGGA,150902.000,3353.2282,N,09831.6704,W,2,10,0.9,301.4,M,-23.7,M,15.8,0000*7F
$GPGSA,A,3,21,14,15,22,18,09,27,03,06,29,,,1.9,0.9,1.7*3C
$GPRMC,150902.000,A,3353.2282,N,09831.6704,W,29.75,7.51,300312,,,D*45
$GPGGA,150903.000,3353.2366,N,09831.6691,W,2,10,0.9,301.2,M,-23.7,M,0.8,0000*4A
$GPGSA,A,3,21,14,15,22,18,09,27,03,06,29,,,1.9,0.9,1.7*3C
$GPRMC,150903.000,A,3353.2366,N,09831.6691,W,29.95,7.58,300312,,,D*45
$GPGGA,150904.000,3353.2449,N,09831.6678,W,2,10,0.9,301.1,M,-23.7,M,0.8,0000*43
$GPGSA,A,3,21,14,15,22,18,09,27,03,06,29,,,1.9,0.9,1.7*3C
$GPRMC,150904.000,A,3353.2449,N,09831.6678,W,29.77,7.66,300312,,,D*4E
$GPGGA,150905.000,3353.2530,N,09831.6666,W,2,10,0.9,300.9,M,-23.7,M,0.8,0000*4B
$GPGSA,A,3,21,14,15,22,18,09,27,03,06,29,,,1.9,0.9,1.7*3C
$GPRMC,150905.000,A,3353.2530,N,09831.6666,W,28.73,7.47,300312,,,D*49
$GPGGA,150906.000,3353.2608,N,09831.6654,W,2,10,0.9,300.8,M,-23.7,M,0.8,0000*40
$GPGSA,A,3,21,14,15,22,18,09,27,03,06,29,,,1.9,0.9,1.7*3C
$GPGSV,3,1,12,21,82,053,30,18,65,339,35,15,45,047,36,22,34,281,35*78
$GPGSV,3,2,12,09,29,112,33,27,29,083,26,06,29,296,32,03,19,304,25*70
$GPGSV,3,3,12,14,19,212,21,29,17,178,30,26,03,038,15,48,36,230,28*7F
$GPRMC,150906.000,A,3353.2608,N,09831.6654,W,27.55,7.66,300312,,,D*4B
$GPGGA,150907.000,3353.2683,N,09831.6643,W,2,10,0.9,300.5,M,-23.7,M,1.8,0000*48
$GPGSA,A,3,21,14,15,22,18,09,27,03,06,29,,,1.9,0.9,1.7*3C
$GPRMC,150907.000,A,3353.2683,N,09831.6643,W,26.47,6.84,300312,,,D*40
$GPGGA,150908.000,3353.2755,N,09831.6633,W,2,10,0.9,300.1,M,-23.7,M,2.8,0000*4D
$GPGSA,A,3,21,14,15,22,18,09,27,03,06,29,,,1.9,0.9,1.7*3C
$GPRMC,150908.000,A,3353.2755,N,09831.6633,W,26.25,6.47,300312,,,D*49
$GPGGA,150909.000,3353.2829,N,09831.6623,W,2,10,0.9,300.4,M,-23.7,M,0.8,0000*4E
$GPGSA,A,3,21,14,15,22,18,09,27,03,06,29,,,1.9,0.9,1.7*3C
$GPRMC,150909.000,A,3353.2829,N,09831.6623,W,27.27,7.08,300312,,,D*44
$GPGGA,150910.000,3353.2904,N,09831.6611,W,2,10,0.9,300.8,M,-23.7,M,0.8,0000*45
$GPGSA,A,3,21,14,15,22,18,09,27,03,06,29,,,1.9,0.9,1.7*3C
$GPRMC,150910.000,A,3353.2904,N,09831.6611,W,27.83,7.64,300312,,,D*47
$GPGGA,150911.000,3353.2981,N,09831.6599,W,2,10,0.9,301.0,M,-23.7,M,0.8,0000*43
$GPGSA,A,3,21,14,15,22,18,09,27,03,06,29,,,1.9,0.9,1.7*3C
$GPGSV,3,1,12,21,82,053,31,18,65,339,35,15,45,047,36,22,34,281,38*74
$GPGSV,3,2,12,09,29,112,30,27,29,083,27,06,29,296,36,03,19,304,32*70
$GPGSV,3,3,12,14,19,212,22,29,17,178,30,26,03,038,27,48,36,230,33*77
$GPRMC,150911.000,A,3353.2981,N,09831.6599,W,28.69,7.92,300312,,,D*4A
$GPGGA,150912.000,3353.3060,N,09831.6586,W,2,10,0.9,301.0,M,-23.7,M,1.8,0000*48
$GPGSA,A,3,21,14,15,22,18,09,27,03,06,29,,,1.9,0.9,1.7*3C
$GPRMC,150912.000,A,3353.3060,N,09831.6586,W,29.04,7.89,300312,,,D*40
$GPGGA,150913.000,3353.3141,N,09831.6574,W,2,10,0.9,301.0,M,-23.7,M,2.8,0000*45
$GPGSA,A,3,21,14,15,22,18,09,27,03,06,29,,,1.9,0.9,1.7*3C
$GPRMC,150913.000,A,3353.3141,N,09831.6574,W,29.56,7.51,300312,,,D*4C
$GPGGA,150914.000,3353.3224,N,09831.6561,W,2,10,0.9,301.0,M,-23.7,M,0.8,0000*44
$GPGSA,A,3,21,14,15,22,18,09,27,03,06,29,,,1.9,0.9,1.7*3C
$GPRMC,150914.000,A,3353.3224,N,09831.6561,W,30.08,7.59,300312,,,D*44
$GPGGA,150915.000,3353.3308,N,09831.6548,W,2,10,0.9,301.1,M,-23.7,M,0.8,0000*40
$GPGSA,A,3,21,14,15,22,18,09,27,03,06,29,,,1.9,0.9,1.7*3C
$GPRMC,150915.000,A,3353.3308,N,09831.6548,W,30.69,8.05,300312,,,D*40
$GPGGA,150916.000,3353.3393,N,09831.6535,W,2,10,0.9,301.2,M,-23.7,M,0.8,0000*48
$GPGSA,A,3,21,14,15,22,18,09,27,03,06,29,,,1.9,0.9,1.7*3C
$GPGSV,3,1,12,21,82,053,32,18,65,339,35,15,45,047,36,22,34,281,38*77
$GPGSV,3,2,12,09,29,112,31,27,29,083,27,06,29,296,35,03,19,304,30*70
$GPGSV,3,3,12,14,19,212,21,29,17,178,31,26,03,038,19,48,36,230,32*79
$GPRMC,150916.000,A,3353.3393,N,09831.6535,W,30.78,7.88,300312,,,D*41
$GPGGA,150917.000,3353.3478,N,09831.6522,W,2,10,0.9,301.3,M,-23.7,M,0.8,0000*4C
$GPGSA,A,3,21,14,15,22,18,09,27,03,06,29,,,1.9,0.9,1.7*3C
$GPRMC,150917.000,A,3353.3478,N,09831.6522,W,30.58,7.85,300312,,,D*4B
$GPGGA,150918.000,3353.3562,N,09831.6509,W,2,10,0.9,301.4,M,-23.7,M,1.8,0000*46
$GPGSA,A,3,21,14,15,22,18,09,27,03,06,29,,,1.9,0.9,1.7*3C
$GPRMC,150918.000,A,3353.3562,N,09831.6509,W,30.28,7.56,300312,,,D*4E
$GPGGA,150919.000,3353.3645,N,09831.6496,W,2,10,0.9,301.5,M,-23.7,M,2.8,0000*44
$GPGSA,A,3,21,14,15,22,18,09,27,03,06,29,,,1.9,0.9,1.7*3C
$GPRMC,150919.000,A,3353.3645,N,09831.6496,W,29.98,7.83,300312,,,D*45
$GPGGA,150920.000,3353.3728,N,09831.6483,W,2,10,0.9,301.5,M,-23.7,M,3.8,0000*41
$GPGSA,A,3,21,14,15,22,18,09,27,03,06,29,,,1.9,0.9,1.7*3C
$GPRMC,150920.000,A,3353.3728,N,09831.6483,W,29.75,8.19,300312,,,D*4E
$GPGGA,150921.000,3353.3810,N,09831.6468,W,2,10,0.9,301.5,M,-23.7,M,4.8,0000*46
$GPGSA,A,3,21,14,15,22,18,09,27,03,06,29,,,1.9,0.9,1.7*3C
$GPGSV,3,1,12,21,82,053,32,18,65,339,36,15,45,047,35,22,34,281,39*76
$GPGSV,3,2,12,09,29,112,32,27,29,083,32,06,29,296,35,03,19,304,30*77
$GPGSV,3,3,12,14,19,212,21,29,17,178,31,26,03,038,18,48,36,230,38*72
$GPRMC,150921.000,A,3353.3810,N,09831.6468,W,29.46,9.51,300312,,,D*43
$GPGGA,150922.000,3353.3891,N,09831.6450,W,2,10,0.9,301.5,M,-23.7,M,0.8,0000*43
$GPGSA,A,3,21,14,15,22,18,09,27,03,06,29,,,1.9,0.9,1.7*3C
$GPRMC,150922.000,A,3353.3891,N,09831.6450,W,29.82,11.87,300312,,,D*78
$GPGGA,150923.000,3353.3973,N,09831.6427,W,2,10,0.9,301.5,M,-23.7,M,0.8,0000*4F
$GPGSA,A,3,21,14,15,22,18,09,27,03,06,29,,,1.9,0.9,1.7*3C
$GPRMC,150923.000,A,3353.3973,N,09831.6427,W,29.57,13.91,300312,,,D*79
$GPGGA,150924.000,3353.4054,N,09831.6402,W,2,10,0.9,301.6,M,-23.7,M,1.8,0000*46
$GPGSA,A,3,21,14,15,22,18,09,27,03,06,29,,,1.9,0.9,1.7*3C
$GPRMC,150924.000,A,3353.4054,N,09831.6402,W,29.61,15.27,300312,,,D*7C
$GPGGA,150925.000,3353.4135,N,09831.6375,W,2,10,0.9,301.7,M,-23.7,M,2.8,0000*44
$GPGSA,A,3,21,14,15,22,18,09,27,03,06,29,,,1.9,0.9,1.7*3C
$GPRMC,150925.000,A,3353.4135,N,09831.6375,W,30.13,16.36,300312,,,D*72
$GPGGA,150926.000,3353.4218,N,09831.6345,W,2,10,0.9,301.8,M,-23.7,M,3.8,0000*46
$GPGSA,A,3,21,14,15,22,18,09,27,03,06,29,,,1.9,0.9,1.7*3C
$GPGSV,3,1,12,21,82,056,32,18,65,340,22,15,45,047,27,22,34,282,39*78
$GPGSV,3,2,12,09,29,111,38,27,29,083,33,06,29,296,37,14,19,212,26*7A
$GPGSV,3,3,12,03,19,304,30,29,17,178,32,26,03,038,23,48,36,230,27*77
$GPRMC,150926.000,A,3353.4218,N,09831.6345,W,30.54,17.00,300312,,,D*79
$GPGGA,150927.000,3353.4300,N,09831.6314,W,2,10,0.9,301.8,M,-23.7,M,4.8,0000*4C
$GPGSA,A,3,21,14,15,22,18,09,27,03,06,29,,,1.9,0.9,1.7*3C
$GPRMC,150927.000,A,3353.4300,N,09831.6314,W,31.11,18.40,300312,,,D*7F
$GPGGA,150928.000,3353.4383,N,09831.6279,W,2,10,0.9,302.1,M,-23.7,M,5.8,0000*49
$GPGSA,A,3,21,14,15,22,18,09,27,03,06,29,,,1.9,0.9,1.7*3C
$GPRMC,150928.000,A,3353.4383,N,09831.6279,W,31.57,20.52,300312,,,D*7B
$GPGGA,150929.000,3353.4464,N,09831.6240,W,2,10,0.9,302.3,M,-23.7,M,6.8,0000*4D
$GPGSA,A,3,21,14,15,22,18,09,27,03,06,29,,,1.9,0.9,1.7*3C
$GPRMC,150929.000,A,3353.4464,N,09831.6240,W,31.43,22.31,300312,,,D*7C
$GPGGA,150930.000,3353.4545,N,09831.6199,W,2,10,0.9,302.2,M,-23.7,M,7.8,0000*40
$GPGSA,A,3,21,14,15,22,18,09,27,03,06,29,,,1.9,0.9,1.7*3C
$GPRMC,150930.000,A,3353.4545,N,09831.6199,W,31.20,24.28,300312,,,D*7A
$GPGGA,150931.000,3353.4623,N,09831.6155,W,2,10,0.9,302.5,M,-23.7,M,8.8,0000*4A
$GPGSA,A,3,21,14,15,22,18,09,27,03,06,29,,,1.9,0.9,1.7*3C
$GPGSV,3,1,12,21,82,056,26,18,65,340,29,15,45,047,36,22,34,282,35*7A
$GPGSV,3,2,12,09,29,111,38,27,29,083,27,06,29,296,37,14,19,212,23*7A
$GPGSV,3,3,12,03,19,304,31,29,17,178,36,26,03,038,28,48,36,230,30*7F
$GPRMC,150931.000,A,3353.4623,N,09831.6155,W,30.98,25.84,300312,,,D*7D
$GPGGA,150932.000,3353.4700,N,09831.6109,W,2,10,0.9,302.5,M,-23.7,M,9.8,0000*41
$GPGSA,A,3,21,14,15,22,18,09,27,03,06,29,,,1.9,0.9,1.7*3C
$GPRMC,150932.000,A,3353.4700,N,09831.6109,W,30.51,26.80,300312,,,D*75
$GPGGA,150933.000,3353.4775,N,09831.6062,W,2,10,0.9,302.4,M,-23.7,M,10.8,0000*77
$GPGSA,A,3,21,14,15,22,18,09,27,03,06,29,,,1.9,0.9,1.7*3C
$GPRMC,150933.000,A,3353.4775,N,09831.6062,W,30.24,27.58,300312,,,D*7C
$GPGGA,150934.000,3353.4849,N,09831.6015,W,2,10,0.9,302.4,M,-23.7,M,11.8,0000*71
$GPGSA,A,3,21,14,15,22,18,09,27,03,06,29,,,1.9,0.9,1.7*3C
$GPRMC,150934.000,A,3353.4849,N,09831.6015,W,30.01,27.60,300312,,,D*77
$GPGGA,150935.000,3353.4923,N,09831.5969,W,2,10,0.9,302.4,M,-23.7,M,12.8,0000*7F
$GPGSA,A,3,21,14,15,22,18,09,27,03,06,29,,,1.9,0.9,1.7*3C
$GPRMC,150935.000,A,3353.4923,N,09831.5969,W,29.67,27.46,300312,,,D*76
$GPGGA,150936.000,3353.4995,N,09831.5923,W,2,10,0.9,302.5,M,-23.7,M,13.8,0000*7F
$GPGSA,A,3,21,14,15,22,18,09,27,03,06,29,,,1.9,0.9,1.7*3C
$GPGSV,3,1,11,21,82,056,25,18,65,340,34,15,45,047,37,22,34,282,36*74
$GPGSV,3,2,11,09,29,111,38,27,29,083,32,06,29,296,37,14,19,212,30*7F
$GPGSV,3,3,11,03,19,304,34,29,17,178,38,26,03,038,19*4E
$GPRMC,150936.000,A,3353.4995,N,09831.5923,W,29.25,27.54,300312,,,D*73
$GPGGA,150937.000,3353.5066,N,09831.5878,W,2,10,0.9,302.7,M,-23.7,M,14.8,0000*70
$GPGSA,A,3,21,14,15,22,18,09,27,03,06,29,,,1.9,0.9,1.7*3C
$GPRMC,150937.000,A,3353.5066,N,09831.5878,W,28.77,27.60,300312,,,D*78
$GPGGA,150938.000,3353.5135,N,09831.5835,W,2,10,0.9,302.8,M,-23.7,M,15.8,0000*7F
$GPGSA,A,3,21,14,15,22,18,09,27,03,06,29,,,1.9,0.9,1.7*3C
$GPRMC,150938.000,A,3353.5135,N,09831.5835,W,27.61,27.57,300312,,,D*75
$GPGGA,150939.000,3353.5197,N,09831.5796,W,2,09,1.1,303.0,M,-23.7,M,16.8,0000*7B
$GPGSA,A,3,21,14,15,22,18,09,03,06,29,,,,2.1,1.1,1.8*34
$GPRMC,150939.000,A,3353.5197,N,09831.5796,W,23.51,27.44,300312,,,D*7F
$GPGGA,150940.000,3353.5248,N,09831.5764,W,2,10,0.9,303.3,M,-23.7,M,17.8,0000*7A
$GPGSA,A,3,21,14,15,27,22,18,09,03,06,29,,,1.9,0.9,1.7*3C
$GPRMC,150940.000,A,3353.5248,N,09831.5764,W,18.92,27.58,300312,,,D*77
$GPGGA,150941.000,3353.5291,N,09831.5737,W,1,10,0.9,303.2,M,-23.7,M,18.8,0000*74
$GPGSA,A,3,21,14,15,27,22,18,09,03,06,29,,,1.9,0.9,1.7*3C
$GPGSV,3,1,11,21,82,056,25,18,65,340,28,15,45,047,38,22,34,282,35*75
$GPGSV,3,2,11,09,29,111,37,27,29,083,29,06,29,296,35,14,19,212,30*78
$GPGSV,3,3,11,03,19,304,33,29,17,178,38,26,03,038,27*44
$GPRMC,150941.000,A,3353.5291,N,09831.5737,W,16.73,26.02,300312,,,A*7E
$GPGGA,150942.000,3353.5333,N,09831.5716,W,1,10,0.9,303.1,M,-23.7,M,18.8,0000*7E
$GPGSA,A,3,21,14,15,27,22,18,09,03,06,29,,,1.9,0.9,1.7*3C
$GPRMC,150942.000,A,3353.5333,N,09831.5716,W,16.25,23.08,300312,,,A*7B
$GPGGA,150943.000,3353.5375,N,09831.5696,W,1,10,0.9,303.1,M,-23.7,M,18.8,0000*74
$GPGSA,A,3,21,14,15,27,22,18,09,03,06,29,,,1.9,0.9,1.7*3C
$GPRMC,150943.000,A,3353.5375,N,09831.5696,W,16.31,21.22,300312,,,A*7E
$GPGGA,150944.000,3353.5417,N,09831.5676,W,1,10,0.9,303.2,M,-23.7,M,18.8,0000*7D
$GPGSA,A,3,21,14,15,27,22,18,09,03,06,29,,,1.9,0.9,1.7*3C
$GPRMC,150944.000,A,3353.5417,N,09831.5676,W,16.33,21.43,300312,,,A*71
$GPGGA,150945.000,3353.5456,N,09831.5655,W,1,10,0.9,303.3,M,-23.7,M,18.8,0000*79
$GPGSA,A,3,21,14,15,27,22,18,09,03,06,29,,,1.9,0.9,1.7*3C
$GPRMC,150945.000,A,3353.5456,N,09831.5655,W,15.51,23.56,300312,,,A*75
$GPGGA,150946.000,3353.5490,N,09831.5636,W,1,10,0.9,303.6,M,-23.7,M,18.8,0000*70
$GPGSA,A,3,21,14,15,27,22,18,09,03,06,29,,,1.9,0.9,1.7*3C
$GPGSV,3,1,11,21,82,058,21,18,65,340,24,15,45,047,34,22,35,282,33*78
$GPGSV,3,2,11,09,30,111,37,06,29,296,36,27,29,082,26,14,19,212,27*7B
$GPGSV,3,3,11,03,19,304,35,29,17,178,36,26,03,038,24*4F
$GPRMC,150946.000,A,3353.5490,N,09831.5636,W,13.29,25.88,300312,,,A*75
$GPGGA,150947.000,3353.5515,N,09831.5620,W,1,10,0.9,303.8,M,-23.7,M,18.8,0000*74
$GPGSA,A,3,21,14,15,27,22,18,09,03,06,29,,,1.9,0.9,1.7*3C
$GPRMC,150947.000,A,3353.5515,N,09831.5620,W,10.33,26.89,300312,,,A*75
$GPGGA,150948.000,3353.5533,N,09831.5609,W,1,10,0.9,303.9,M,-23.7,M,18.8,0000*75
$GPGSA,A,3,21,14,15,27,22,18,09,03,06,29,,,1.9,0.9,1.7*3C
$GPRMC,150948.000,A,3353.5533,N,09831.5609,W,6.85,27.21,300312,,,A*4C
$GPGGA,150949.000,3353.5543,N,09831.5602,W,1,10,0.9,304.1,M,-23.7,M,18.8,0000*77
$GPGSA,A,3,21,14,15,27,22,18,09,03,06,29,,,1.9,0.9,1.7*3C
$GPRMC,150949.000,A,3353.5543,N,09831.5602,W,4.10,27.60,300312,,,A*4A
$GPGGA,150950.000,3353.5551,N,09831.5597,W,1,10,0.9,304.2,M,-23.7,M,18.8,0000*70
$GPGSA,A,3,21,14,15,27,22,18,09,03,06,29,,,1.9,0.9,1.7*3C
$GPRMC,150950.000,A,3353.5551,N,09831.5597,W,3.05,28.37,300312,,,A*40
$GPGGA,150951.000,3353.5559,N,09831.5591,W,1,10,0.9,304.4,M,-23.7,M,18.8,0000*79
$GPGSA,A,3,21,14,15,27,22,18,09,03,06,29,,,1.9,0.9,1.7*3C
$GPGSV,3,1,11,21,82,058,28,18,65,340,28,15,45,047,37,22,35,282,33*7E
$GPGSV,3,2,11,09,30,111,38,06,29,296,36,27,29,082,26,14,19,212,32*70
$GPGSV,3,3,11,03,19,304,35,29,17,178,39,26,03,038,35*40
$GPRMC,150951.000,A,3353.5559,N,09831.5591,W,3.47,28.13,300312,,,A*4F
$GPGGA,150952.000,3353.5573,N,09831.5583,W,1,10,0.9,304.5,M,-23.7,M,18.8,0000*70
$GPGSA,A,3,21,14,15,27,22,18,09,03,06,29,,,1.9,0.9,1.7*3C
$GPRMC,150952.000,A,3353.5573,N,09831.5583,W,5.61,27.05,300312,,,A*4D
$GPGGA,150953.000,3353.5594,N,09831.5572,W,1,10,0.9,304.6,M,-23.7,M,18.8,0000*75
$GPGSA,A,3,21,14,15,27,22,18,09,03,06,29,,,1.9,0.9,1.7*3C
$GPRMC,150953.000,A,3353.5594,N,09831.5572,W,8.36,21.89,300312,,,A*46
$GPGGA,150954.000,3353.5622,N,09831.5568,W,1,09,1.0,305.0,M,-23.7,M,18.8,0000*70
$GPGSA,A,3,21,14,15,27,18,09,03,06,29,,,,1.9,1.0,1.7*34
$GPRMC,150954.000,A,3353.5622,N,09831.5568,W,10.44,6.44,300312,,,A*4C
$GPGGA,150955.000,3353.5654,N,09831.5576,W,1,10,0.9,305.5,M,-23.7,M,18.8,0000*7A
$GPGSA,A,3,21,14,15,27,22,18,09,03,06,29,,,1.9,0.9,1.7*3C
$GPRMC,150955.000,A,3353.5654,N,09831.5576,W,12.29,348.07,300312,,,A*44
$GPGGA,150956.000,3353.5685,N,09831.5599,W,1,10,0.9,306.0,M,-23.7,M,18.8,0000*72
$GPGSA,A,3,21,14,15,27,22,18,09,03,06,29,,,1.9,0.9,1.7*3C
$GPGSV,3,1,11,21,82,058,34,18,65,340,34,15,45,047,34,22,35,282,35*7B
$GPGSV,3,2,11,09,30,111,32,06,29,296,34,27,29,082,31,14,19,212,32*7E
$GPGSV,3,3,11,03,19,304,34,29,17,178,28,26,03,038,24*41
$GPRMC,150956.000,A,3353.5685,N,09831.5599,W,13.45,328.25,300312,,,A*47
$GPGGA,150957.000,3353.5712,N,09831.5633,W,1,10,0.9,306.6,M,-23.7,M,18.8,0000*79
$GPGSA,A,3,21,14,15,27,22,18,09,03,06,29,,,1.9,0.9,1.7*3C
$GPRMC,150957.000,A,3353.5712,N,09831.5633,W,14.64,314.25,300312,,,A*41
$GPGGA,150958.000,3353.5739,N,09831.5678,W,1,10,0.9,307.1,M,-23.7,M,18.8,0000*76
$GPGSA,A,3,21,14,15,27,22,18,09,03,06,29,,,1.9,0.9,1.7*3C
$GPRMC,150958.000,A,3353.5739,N,09831.5678,W,16.59,305.56,300312,,,A*40
$GPGGA,150959.000,3353.5764,N,09831.5730,W,1,10,0.9,307.6,M,-23.7,M,18.8,0000*75
$GPGSA,A,3,21,14,15,27,22,18,09,03,06,29,,,1.9,0.9,1.7*3C
$GPRMC,150959.000,A,3353.5764,N,09831.5730,W,18.54,299.99,300312,,,A*40
$GPGGA,151000.000,3353.5790,N,09831.5789,W,1,10,0.9,307.9,M,-23.7,M,18.8,0000*77
$GPGSA,A,3,21,14,15,27,22,18,09,03,06,29,,,1.9,0.9,1.7*3C
$GPRMC,151000.000,A,3353.5790,N,09831.5789,W,20.32,298.10,300312,,,A*46
$GPGGA,151001.000,3353.5817,N,09831.5853,W,1,10,0.9,308.2,M,-23.7,M,18.8,0000*7A
$GPGSA,A,3,21,14,15,27,22,18,09,03,06,29,,,1.9,0.9,1.7*3C
$GPGSV,3,1,11,21,82,058,34,18,65,340,39,15,45,047,30,22,35,282,35*72
$GPGSV,3,2,11,09,30,111,32,06,29,296,34,27,29,082,30,14,19,212,31*7C
$GPGSV,3,3,11,03,19,304,34,29,17,178,30,26,03,038,12*4D
$GPRMC,151001.000,A,3353.5817,N,09831.5853,W,21.94,297.03,300312,,,A*4F
$GPGGA,151002.000,3353.5846,N,09831.5922,W,1,10,0.9,308.5,M,-23.7,M,18.8,0000*7D
$GPGSA,A,3,21,14,15,27,22,18,09,03,06,29,,,1.9,0.9,1.7*3C
$GPRMC,151002.000,A,3353.5846,N,09831.5922,W,23.51,296.83,300312,,,A*4D
$GPGGA,151003.000,3353.5876,N,09831.5994,W,1,10,0.9,308.8,M,-23.7,M,18.8,0000*7F
$GPGSA,A,3,21,14,15,27,22,18,09,03,06,29,,,1.9,0.9,1.7*3C
$GPRMC,151003.000,A,3353.5876,N,09831.5994,W,24.30,296.72,300312,,,A*4C
$GPGGA,151004.000,3353.5906,N,09831.6063,W,1,10,0.9,309.0,M,-23.7,M,18.8,0000*75
$GPGSA,A,3,21,14,15,27,22,18,09,03,06,29,,,1.9,0.9,1.7*3C
$GPRMC,151004.000,A,3353.5906,N,09831.6063,W,23.51,297.09,300312,,,A*42
$GPGGA,151005.000,3353.5932,N,09831.6125,W,1,10,0.9,309.1,M,-23.7,M,18.8,0000*71
$GPGSA,A,3,21,14,15,27,22,18,09,03,06,29,,,1.9,0.9,1.7*3C
$GPRMC,151005.000,A,3353.5932,N,09831.6125,W,20.77,297.30,300312,,,A*4A
$GPGGA,151006.000,3353.5955,N,09831.6178,W,1,10,0.9,309.2,M,-23.7,M,18.8,0000*78
$GPGSA,A,3,21,14,15,27,22,18,09,03,06,29,,,1.9,0.9,1.7*3C
$GPGSV,3,1,11,21,82,058,27,18,65,340,39,15,45,047,33,22,35,282,35*73
$GPGSV,3,2,11,09,30,111,34,06,29,296,35,27,29,082,32,14,19,212,36*7E
$GPGSV,3,3,11,03,19,304,34,29,17,178,26,26,03,038,*49
$GPRMC,151006.000,A,3353.5955,N,09831.6178,W,17.70,297.39,300312,,,A*4A
$GPGGA,151007.000,3353.5977,N,09831.6227,W,1,10,0.9,309.2,M,-23.7,M,18.8,0000*70
$GPGSA,A,3,21,14,15,27,22,18,09,03,06,29,,,1.9,0.9,1.7*3C
$GPRMC,151007.000,A,3353.5977,N,09831.6227,W,16.71,298.24,300312,,,A*41
$GPGGA,151008.000,3353.5998,N,09831.6275,W,1,10,0.9,309.2,M,-23.7,M,18.8,0000*79
$GPGSA,A,3,21,14,15,27,22,18,09,03,06,29,,,1.9,0.9,1.7*3C
$GPRMC,151008.000,A,3353.5998,N,09831.6275,W,16.39,298.04,300312,,,A*46
$GPGGA,151009.000,3353.6021,N,09831.6326,W,1,10,0.9,309.2,M,-23.7,M,18.8,0000*77
$GPGSA,A,3,21,14,15,27,22,18,09,03,06,29,,,1.9,0.9,1.7*3C
$GPRMC,151009.000,A,3353.6021,N,09831.6326,W,17.09,297.69,300312,,,A*4E
$GPGGA,151010.000,3353.6044,N,09831.6381,W,1,10,0.9,309.1,M,-23.7,M,18.8,0000*72
$GPGSA,A,3,21,14,15,27,22,18,09,03,06,29,,,1.9,0.9,1.7*3C
$GPRMC,151010.000,A,3353.6044,N,09831.6381,W,18.51,297.48,300312,,,A*49
$GPGGA,151011.000,3353.6070,N,09831.6440,W,1,10,0.9,309.0,M,-23.7,M,18.8,0000*7F
$GPGSA,A,3,21,14,15,27,22,18,09,03,06,29,,,1.9,0.9,1.7*3C
$GPGSV,3,1,11,21,82,058,35,18,65,340,39,15,45,047,35,22,35,282,35*76
$GPGSV,3,2,11,09,30,111,34,06,29,296,35,27,29,082,31,14,19,212,36*7D
$GPGSV,3,3,11,03,19,304,33,29,17,178,26,26,03,038,17*48
$GPRMC,151011.000,A,3353.6070,N,09831.6440,W,20.01,297.60,300312,,,A*41
$GPGGA,151012.000,3353.6098,N,09831.6503,W,1,10,0.9,308.9,M,-23.7,M,18.8,0000*74
$GPGSA,A,3,21,14,15,27,22,18,09,03,06,29,,,1.9,0.9,1.7*3C
$GPRMC,151012.000,A,3353.6098,N,09831.6503,W,21.29,297.93,300312,,,A*45
$GPGGA,151013.000,3353.6127,N,09831.6568,W,1,10,0.9,308.8,M,-23.7,M,18.8,0000*7C
$GPGSA,A,3,21,14,15,27,22,18,09,03,06,29,,,1.9,0.9,1.7*3C
$GPRMC,151013.000,A,3353.6127,N,09831.6568,W,22.17,298.10,300312,,,A*46
$GPGGA,151014.000,3353.6156,N,09831.6634,W,1,10,0.9,308.7,M,-23.7,M,18.8,0000*78
$GPGSA,A,3,21,14,15,27,22,18,09,03,06,29,,,1.9,0.9,1.7*3C
$GPRMC,151014.000,A,3353.6156,N,09831.6634,W,22.56,298.00,300312,,,A*49
$GPGGA,151015.000,3353.6185,N,09831.6700,W,1,10,0.9,308.5,M,-23.7,M,18.8,0000*73
$GPGSA,A,3,21,14,15,27,22,18,09,03,06,29,,,1.9,0.9,1.7*3C
$GPRMC,151015.000,A,3353.6185,N,09831.6700,W,22.28,297.96,300312,,,A*49
$GPGGA,151016.000,3353.6212,N,09831.6762,W,1,10,0.9,308.3,M,-23.7,M,18.8,0000*7F
$GPGSA,A,3,21,14,15,27,22,18,09,03,06,29,,,1.9,0.9,1.7*3C
$GPGSV,3,1,11,21,82,058,34,18,65,340,39,15,45,047,34,22,35,282,36*75
$GPGSV,3,2,11,09,30,111,35,06,29,296,36,27,29,082,27,14,19,212,36*78
$GPGSV,3,3,11,03,19,304,33,29,17,178,26,26,03,038,18*47
$GPRMC,151016.000,A,3353.6212,N,09831.6762,W,21.12,297.84,300312,,,A*4A
$GPGGA,151017.000,3353.6236,N,09831.6817,W,1,10,0.9,308.2,M,-23.7,M,18.8,0000*74
$GPGSA,A,3,21,14,15,27,22,18,09,03,06,29,,,1.9,0.9,1.7*3C
$GPRMC,151017.000,A,3353.6236,N,09831.6817,W,18.58,297.78,300312,,,A*47
$GPGGA,151018.000,3353.6256,N,09831.6863,W,1,10,0.9,308.0,M,-23.7,M,18.8,0000*7C
$GPGSA,A,3,21,14,15,27,22,18,09,03,06,29,,,1.9,0.9,1.7*3C
$GPRMC,151018.000,A,3353.6256,N,09831.6863,W,15.26,298.14,300312,,,A*4C
$GPGGA,151019.000,3353.6272,N,09831.6899,W,1,10,0.9,307.8,M,-23.7,M,18.8,0000*79
$GPGSA,A,3,21,14,15,27,22,18,09,03,06,29,,,1.9,0.9,1.7*3C
$GPRMC,151019.000,A,3353.6272,N,09831.6899,W,12.08,298.15,300312,,,A*44
$GPGGA,151020.000,3353.6287,N,09831.6934,W,1,10,0.9,307.6,M,-23.7,M,18.8,0000*71
$GPGSA,A,3,21,14,15,27,22,18,09,03,06,29,,,1.9,0.9,1.7*3C
$GPRMC,151020.000,A,3353.6287,N,09831.6934,W,11.48,297.84,300312,,,A*42
$GPGGA,151021.000,3353.6303,N,09831.6971,W,1,10,0.9,307.4,M,-23.7,M,18.8,0000*7E
$GPGSA,A,3,21,14,15,27,22,18,09,03,06,29,,,1.9,0.9,1.7*3C
$GPGSV,3,1,11,21,82,058,31,18,65,340,38,15,45,047,35,22,35,282,35*73
$GPGSV,3,2,11,09,30,111,35,06,29,296,36,27,29,082,33,14,19,212,36*7D
$GPGSV,3,3,11,03,19,304,33,29,17,178,26,26,03,038,17*48
$GPRMC,151021.000,A,3353.6303,N,09831.6971,W,12.24,297.42,300312,,,A*4C
$GPGGA,151022.000,3353.6321,N,09831.7012,W,1,10,0.9,307.2,M,-23.7,M,18.8,0000*76
$GPGSA,A,3,21,14,15,27,22,18,09,03,06,29,,,1.9,0.9,1.7*3C
$GPRMC,151022.000,A,3353.6321,N,09831.7012,W,13.85,297.39,300312,,,A*44
$GPGGA,151023.000,3353.6341,N,09831.7059,W,1,10,0.9,307.0,M,-23.7,M,18.8,0000*7C
$GPGSA,A,3,21,14,15,27,22,18,09,03,06,29,,,1.9,0.9,1.7*3C
$GPRMC,151023.000,A,3353.6341,N,09831.7059,W,15.61,297.13,300312,,,A*48
$GPGGA,151024.000,3353.6363,N,09831.7110,W,1,10,0.9,306.8,M,-23.7,M,18.8,0000*7E
$GPGSA,A,3,21,14,15,27,22,18,09,03,06,29,,,1.9,0.9,1.7*3C
$GPRMC,151024.000,A,3353.6363,N,09831.7110,W,17.33,297.40,300312,,,A*40
$GPGGA,151025.000,3353.6387,N,09831.7166,W,1,10,0.9,306.7,M,-23.7,M,18.8,0000*7B
$GPGSA,A,3,21,14,15,27,22,18,09,03,06,29,,,1.9,0.9,1.7*3C
$GPRMC,151025.000,A,3353.6387,N,09831.7166,W,18.66,297.63,300312,,,A*44
$GPGGA,151026.000,3353.6412,N,09831.7224,W,1,10,0.9,306.5,M,-23.7,M,18.8,0000*74
$GPGSA,A,3,21,14,15,27,22,18,09,03,06,29,,,1.9,0.9,1.7*3C
$GPGSV,3,1,11,21,82,058,34,18,65,340,38,15,45,047,31,22,35,282,35*72
$GPGSV,3,2,11,09,30,111,35,06,29,296,36,27,29,082,32,14,19,212,36*7C
$GPGSV,3,3,11,03,19,304,33,29,17,178,27,26,03,038,17*49
$GPRMC,151026.000,A,3353.6412,N,09831.7224,W,19.62,297.47,300312,,,A*4A
$GPGGA,151027.000,3353.6438,N,09831.7284,W,1,10,0.9,306.3,M,-23.7,M,18.8,0000*71
$GPGSA,A,3,21,14,15,27,22,18,09,03,06,29,,,1.9,0.9,1.7*3C
$GPRMC,151027.000,A,3353.6438,N,09831.7284,W,20.33,297.98,300312,,,A*45
$GPGGA,151028.000,3353.6465,N,09831.7344,W,1,10,0.9,306.2,M,-23.7,M,18.8,0000*7A
$GPGSA,A,3,21,14,15,27,22,18,09,03,06,29,,,1.9,0.9,1.7*3C
$GPRMC,151028.000,A,3353.6465,N,09831.7344,W,20.52,298.41,300312,,,A*43
$GPGGA,151029.000,3353.6491,N,09831.7403,W,1,10,0.9,306.0,M,-23.7,M,18.8,0000*76
$GPGSA,A,3,21,14,15,27,22,18,09,03,06,29,,,1.9,0.9,1.7*3C
$GPRMC,151029.000,A,3353.6491,N,09831.7403,W,20.00,298.43,300312,,,A*48
$GPGGA,151030.000,3353.6516,N,09831.7458,W,1,10,0.9,305.8,M,-23.7,M,18.8,0000*75
$GPGSA,A,3,21,14,15,27,22,18,09,03,06,29,,,1.9,0.9,1.7*3C
$GPRMC,151030.000,A,3353.6516,N,09831.7458,W,18.79,298.91,300312,,,A*4A
$GPGGA,151031.000,3353.6539,N,09831.7510,W,1,10,0.9,305.6,M,-23.7,M,18.8,0000*7A
$GPGSA,A,3,21,14,15,27,22,18,09,03,06,29,,,1.9,0.9,1.7*3C
$GPGSV,3,1,11,21,82,058,28,18,65,340,38,15,45,047,32,22,35,282,36*7F
$GPGSV,3,2,11,09,30,111,35,06,29,296,36,27,29,082,27,14,19,212,36*78
$GPGSV,3,3,11,03,19,304,33,29,17,178,26,26,03,038,*4E
$GPRMC,151031.000,A,3353.6539,N,09831.7510,W,17.46,298.08,300312,,,A*48
$GPGGA,151032.000,3353.6562,N,09831.7561,W,1,10,0.9,305.4,M,-23.7,M,18.8,0000*73
$GPGSA,A,3,21,14,15,27,22,18,09,03,06,29,,,1.9,0.9,1.7*3C
$GPRMC,151032.000,A,3353.6562,N,09831.7561,W,17.17,297.76,300312,,,A*41
$GPGGA,151033.000,3353.6584,N,09831.7612,W,1,10,0.9,305.3,M,-23.7,M,18.8,0000*7A
$GPGSA,A,3,21,14,15,27,22,18,09,03,06,29,,,1.9,0.9,1.7*3C
$GPRMC,151033.000,A,3353.6584,N,09831.7612,W,17.30,297.89,300312,,,A*4A
$GPGGA,151034.000,3353.6607,N,09831.7665,W,1,10,0.9,305.1,M,-23.7,M,18.8,0000*77
$GPGSA,A,3,21,14,15,27,22,18,09,03,06,29,,,1.9,0.9,1.7*3C
$GPRMC,151034.000,A,3353.6607,N,09831.7665,W,17.78,297.84,300312,,,A*44
$GPGGA,151035.000,3353.6631,N,09831.7721,W,1,10,0.9,304.9,M,-23.7,M,18.8,0000*7B
$GPGSA,A,3,21,14,15,27,22,18,09,03,06,29,,,1.9,0.9,1.7*3C
$GPRMC,151035.000,A,3353.6631,N,09831.7721,W,18.79,297.56,300312,,,A*40
$GPGGA,151036.000,3353.6656,N,09831.7780,W,1,10,0.9,304.8,M,-23.7,M,18.8,0000*73
$GPGSA,A,3,21,14,15,27,22,18,09,03,06,29,,,1.9,0.9,1.7*3C
$GPGSV,3,1,12,21,82,058,32,18,65,340,37,15,45,047,33,22,35,282,35*7A
$GPGSV,3,2,12,09,30,111,35,06,29,296,36,27,29,082,28,14,19,212,28*7B
$GPGSV,3,3,12,03,19,304,33,29,17,178,23,26,03,038,,51,49,195,37*78
$GPRMC,151036.000,A,3353.6656,N,09831.7780,W,19.97,297.12,300312,,,A*48
$GPGGA,151037.000,3353.6683,N,09831.7843,W,1,10,0.9,304.6,M,-23.7,M,18.8,0000*74
$GPGSA,A,3,21,14,15,27,22,18,09,03,06,29,,,1.9,0.9,1.7*3C
$GPRMC,151037.000,A,3353.6683,N,09831.7843,W,21.21,297.33,300312,,,A*44
$GPGGA,151038.000,3353.6712,N,09831.7909,W,1,10,0.9,304.5,M,-23.7,M,18.8,0000*7E
$GPGSA,A,3,21,14,15,27,22,18,09,03,06,29,,,1.9,0.9,1.7*3C
$GPRMC,151038.000,A,3353.6712,N,09831.7909,W,22.12,297.52,300312,,,A*49
$GPGGA,151039.000,3353.6738,N,09831.7978,W,2,10,0.9,303.6,M,-23.7,M,0.8,0000*4F
$GPGSA,A,3,21,14,15,27,22,18,09,03,06,29,,,1.9,0.9,1.7*3C
$GPRMC,151039.000,A,3353.6738,N,09831.7978,W,23.11,297.52,300312,,,D*41
$GPGGA,151040.000,3353.6768,N,09831.8050,W,2,10,0.9,303.9,M,-23.7,M,0.8,0000*47
$GPGSA,A,3,21,14,15,27,22,18,09,03,06,29,,,1.9,0.9,1.7*3C
$GPRMC,151040.000,A,3353.6768,N,09831.8050,W,23.88,297.94,300312,,,D*4C
$GPGGA,151041.000,3353.6799,N,09831.8122,W,2,10,0.9,304.1,M,-23.7,M,0.8,0000*43
$GPGSA,A,3,21,14,15,27,22,18,09,03,06,29,,,1.9,0.9,1.7*3C
$GPGSV,3,1,12,21,82,058,33,18,65,340,37,15,45,047,33,22,35,282,35*7B
$GPGSV,3,2,12,09,30,111,34,06,29,296,35,27,29,082,26,14,19,212,31*7F
$GPGSV,3,3,12,03,19,304,32,29,17,178,23,26,03,038,,51,49,195,36*78
$GPRMC,151041.000,A,3353.6799,N,09831.8122,W,24.05,298.07,300312,,,D*40
$GPGGA,151042.000,3353.6831,N,09831.8195,W,2,10,0.9,304.4,M,-23.7,M,1.8,0000*45
$GPGSA,A,3,21,14,15,27,22,18,09,03,06,29,,,1.9,0.9,1.7*3C
$GPRMC,151042.000,A,3353.6831,N,09831.8195,W,24.38,297.79,300312,,,D*4A
$GPGGA,151043.000,3353.6862,N,09831.8269,W,2,10,0.9,304.7,M,-23.7,M,2.8,0000*42
$GPGSA,A,3,21,14,15,27,22,18,09,03,06,29,,,1.9,0.9,1.7*3C
$GPRMC,151043.000,A,3353.6862,N,09831.8269,W,24.54,298.13,300312,,,D*44
$GPGGA,151044.000,3353.6895,N,09831.8343,W,2,10,0.9,304.8,M,-23.7,M,3.8,0000*4A
$GPGSA,A,3,21,14,15,27,22,18,09,03,06,29,,,1.9,0.9,1.7*3C
$GPRMC,151044.000,A,3353.6895,N,09831.8343,W,24.72,296.93,300312,,,D*40
$GPGGA,151045.000,3353.6927,N,09831.8418,W,2,10,0.9,305.0,M,-23.7,M,0.8,0000*40
$GPGSA,A,3,21,14,15,27,22,18,09,03,06,29,,,1.9,0.9,1.7*3C
$GPRMC,151045.000,A,3353.6927,N,09831.8418,W,25.18,297.15,300312,,,D*42
$GPGGA,151046.000,3353.6959,N,09831.8495,W,2,10,0.9,305.0,M,-23.7,M,0.8,0000*4F
$GPGSA,A,3,21,14,15,27,22,18,09,03,06,29,,,1.9,0.9,1.7*3C
$GPGSV,3,1,12,21,82,058,33,18,65,340,37,15,45,047,30,22,35,282,35*78
$GPGSV,3,2,12,09,30,111,34,06,29,296,35,27,29,082,26,14,19,212,34*7A
$GPGSV,3,3,12,03,19,304,25,29,17,178,29,26,03,038,,51,49,195,35*77
$GPRMC,151046.000,A,3353.6959,N,09831.8495,W,25.50,296.78,300312,,,D*4B
$GPGGA,151047.000,3353.6992,N,09831.8572,W,2,10,0.9,305.1,M,-23.7,M,0.8,0000*40
$GPGSA,A,3,21,14,15,27,22,18,09,03,06,29,,,1.9,0.9,1.7*3C
$GPRMC,151047.000,A,3353.6992,N,09831.8572,W,25.96,297.15,300312,,,D*45
$GPGGA,151048.000,3353.7026,N,09831.8652,W,2,10,0.9,305.6,M,-23.7,M,0.8,0000*4E
$GPGSA,A,3,21,14,15,27,22,18,09,03,06,29,,,1.9,0.9,1.7*3C
$GPRMC,151048.000,A,3353.7026,N,09831.8652,W,26.20,298.27,300312,,,D*4C
$GPGGA,151049.000,3353.7061,N,09831.8729,W,2,10,0.9,305.6,M,-23.7,M,0.8,0000*41
$GPGSA,A,3,21,14,15,27,22,18,09,03,06,29,,,1.9,0.9,1.7*3C
$GPRMC,151049.000,A,3353.7061,N,09831.8729,W,26.19,298.73,300312,,,D*48
$GPGGA,151050.000,3353.7096,N,09831.8806,W,2,10,0.9,305.6,M,-23.7,M,1.8,0000*42
$GPGSA,A,3,21,14,15,27,22,18,09,03,06,29,,,1.9,0.9,1.7*3C
$GPRMC,151050.000,A,3353.7096,N,09831.8806,W,25.83,298.42,300312,,,D*48
$GPGGA,151051.000,3353.7129,N,09831.8883,W,2,10,0.9,305.6,M,-23.7,M,0.8,0000*4A
$GPGSA,A,3,21,14,15,27,22,18,09,03,06,29,,,1.9,0.9,1.7*3C
$GPGSV,3,1,12,21,82,058,33,18,65,340,37,15,45,047,31,22,35,282,35*79
$GPGSV,3,2,12,09,30,111,33,06,29,296,35,27,29,082,24,14,19,212,31*7A
$GPGSV,3,3,12,03,19,304,29,29,17,178,23,26,03,038,,51,49,195,38*7C
$GPRMC,151051.000,A,3353.7129,N,09831.8883,W,25.50,297.51,300312,,,D*42
$GPGGA,151052.000,3353.7162,N,09831.8959,W,2,10,0.9,305.8,M,-23.7,M,0.8,0000*4E
$GPGSA,A,3,21,14,15,27,22,18,09,03,06,29,,,1.9,0.9,1.7*3C
$GPRMC,151052.000,A,3353.7162,N,09831.8959,W,25.34,297.90,300312,,,D*47
$GPGGA,151053.000,3353.7194,N,09831.9033,W,2,10,0.9,305.9,M,-23.7,M,0.8,0000*43
$GPGSA,A,3,21,14,15,27,22,18,09,03,06,29,,,1.9,0.9,1.7*3C
$GPRMC,151053.000,A,3353.7194,N,09831.9033,W,24.67,297.21,300312,,,D*46
$GPGGA,151054.000,3353.7225,N,09831.9107,W,2,10,0.9,306.0,M,-23.7,M,1.8,0000*40
$GPGSA,A,3,21,14,15,27,22,18,09,03,06,29,,,1.9,0.9,1.7*3C
$GPRMC,151054.000,A,3353.7225,N,09831.9107,W,24.55,297.55,300312,,,D*4C
$GPGGA,151055.000,3353.7255,N,09831.9181,W,2,10,0.9,306.2,M,-23.7,M,2.8,0000*49
$GPGSA,A,3,21,14,15,27,22,18,09,03,06,29,,,1.9,0.9,1.7*3C
$GPRMC,151055.000,A,3353.7255,N,09831.9181,W,24.27,295.22,300312,,,D*43
$GPGGA,151056.000,3353.7281,N,09831.9255,W,2,10,0.9,306.6,M,-23.7,M,0.8,0000*4F
$GPGSA,A,3,21,14,15,27,22,18,09,03,06,29,,,1.9,0.9,1.7*3C
$GPGSV,3,1,12,21,82,058,33,18,65,340,35,15,45,047,28,22,35,282,35*73
$GPGSV,3,2,12,09,30,111,28,06,29,296,33,27,29,082,24,14,19,212,30*77
$GPGSV,3,3,12,03,19,304,30,29,17,178,31,26,03,038,,51,49,195,35*7A
$GPRMC,151056.000,A,3353.7281,N,09831.9255,W,23.74,292.31,300312,,,D*47
$GPGGA,151057.000,3353.7303,N,09831.9331,W,2,10,0.9,306.9,M,-23.7,M,0.8,0000*49
$GPGSA,A,3,21,14,15,27,22,18,09,03,06,29,,,1.9,0.9,1.7*3C
$GPRMC,151057.000,A,3353.7303,N,09831.9331,W,23.77,288.80,300312,,,D*4C
$GPGGA,151058.000,3353.7319,N,09831.9409,W,2,09,1.0,307.7,M,-23.7,M,0.8,0000*4E
$GPGSA,A,3,21,14,15,27,22,18,09,03,29,,,,2.0,1.0,1.7*38
$GPRMC,151058.000,A,3353.7319,N,09831.9409,W,23.60,285.57,300312,,,D*45
$GPGGA,151059.000,3353.7332,N,09831.9487,W,2,09,1.0,308.6,M,-23.7,M,0.8,0000*4E
$GPGSA,A,3,21,14,15,27,22,18,09,03,29,,,,2.0,1.0,1.7*38
$GPRMC,151059.000,A,3353.7332,N,09831.9487,W,23.48,281.00,300312,,,D*47
$GPGGA,151100.000,3353.7339,N,09831.9565,W,2,10,0.9,309.1,M,-23.7,M,1.8,0000*42
$GPGSA,A,3,21,14,15,27,22,18,09,06,03,29,,,1.9,0.9,1.7*3C
$GPRMC,151100.000,A,3353.7339,N,09831.9565,W,23.12,276.41,300312,,,D*4E
$GPGGA,151101.000,3353.7343,N,09831.9643,W,2,10,0.9,309.7,M,-23.7,M,2.8,0000*4C
$GPGSA,A,3,21,14,15,27,22,18,09,06,03,29,,,1.9,0.9,1.7*3C
$GPGSV,3,1,12,21,82,058,30,18,65,340,20,15,45,047,33,22,35,282,28*72
$GPGSV,3,2,12,09,30,111,29,06,29,296,28,27,29,082,30,14,19,212,28*70
$GPGSV,3,3,12,03,19,304,30,29,17,178,33,26,03,038,,51,49,195,41*7B
$GPRMC,151101.000,A,3353.7343,N,09831.9643,W,23.13,272.75,300312,,,D*47
$GPGGA,151102.000,3353.7344,N,09831.9719,W,2,10,0.9,309.4,M,-23.7,M,3.8,0000*44
$GPGSA,A,3,21,14,15,27,22,18,09,06,03,29,,,1.9,0.9,1.7*3C
$GPRMC,151102.000,A,3353.7344,N,09831.9719,W,22.63,270.80,300312,,,D*43
$GPGGA,151103.000,3353.7342,N,09831.9794,W,2,10,0.9,309.1,M,-23.7,M,0.8,0000*40
$GPGSA,A,3,21,14,15,27,22,18,09,06,03,29,,,1.9,0.9,1.7*3C
$GPRMC,151103.000,A,3353.7342,N,09831.9794,W,22.39,267.94,300312,,,D*4D
$GPGGA,151104.000,3353.7334,N,09831.9871,W,2,10,0.9,309.3,M,-23.7,M,0.8,0000*40
$GPGSA,A,3,21,14,15,27,22,18,09,06,03,29,,,1.9,0.9,1.7*3C
$GPRMC,151104.000,A,3353.7334,N,09831.9871,W,22.61,263.98,300312,,,D*4A
$GPGGA,151105.000,3353.7322,N,09831.9947,W,2,10,0.9,309.7,M,-23.7,M,0.8,0000*46
$GPGSA,A,3,21,14,15,27,22,18,09,06,03,29,,,1.9,0.9,1.7*3C
$GPRMC,151105.000,A,3353.7322,N,09831.9947,W,22.63,259.69,300312,,,D*4D
$GPGGA,151106.000,3353.7306,N,09832.0021,W,2,10,0.9,310.0,M,-23.7,M,1.8,0000*4E
$GPGSA,A,3,21,14,15,27,22,18,09,06,03,29,,,1.9,0.9,1.7*3C
$GPGSV,3,1,12,21,82,058,30,18,65,340,29,15,45,047,34,22,35,282,29*7D
$GPGSV,3,2,12,09,30,111,38,06,29,296,28,27,29,082,28,14,19,212,35*75
$GPGSV,3,3,12,03,19,304,23,29,17,178,27,26,03,038,18,51,49,195,36*75
$GPRMC,151106.000,A,3353.7306,N,09832.0021,W,22.27,255.93,300312,,,D*42
$GPGGA,151107.000,3353.7289,N,09832.0091,W,2,10,0.9,310.3,M,-23.7,M,2.8,0000*42
$GPGSA,A,3,21,14,15,27,22,18,09,06,03,29,,,1.9,0.9,1.7*3C
$GPRMC,151107.000,A,3353.7289,N,09832.0091,W,20.49,253.82,300312,,,D*42
$GPGGA,151108.000,3353.7271,N,09832.0152,W,2,09,1.0,310.4,M,-23.7,M,3.8,0000*42
$GPGSA,A,3,21,14,15,27,22,18,09,03,29,,,,2.0,1.0,1.7*38
$GPRMC,151108.000,A,3353.7271,N,09832.0152,W,17.37,251.13,300312,,,D*43
$GPGGA,151109.000,3353.7255,N,09832.0203,W,2,09,1.0,310.8,M,-23.7,M,0.8,0000*4D
$GPGSA,A,3,21,14,15,27,22,18,09,03,29,,,,2.0,1.0,1.7*38
$GPRMC,151109.000,A,3353.7255,N,09832.0203,W,14.98,250.89,300312,,,D*47
$GPGGA,151110.000,3353.7243,N,09832.0242,W,2,10,0.9,310.6,M,-23.7,M,0.8,0000*49
$GPGSA,A,3,21,14,15,27,22,18,09,06,03,29,,,1.9,0.9,1.7*3C
$GPRMC,151110.000,A,3353.7243,N,09832.0242,W,11.02,250.54,300312,,,D*4B
$GPGGA,151111.000,3353.7236,N,09832.0265,W,2,10,0.9,310.2,M,-23.7,M,0.8,0000*4B
$GPGSA,A,3,21,14,15,27,22,18,09,06,03,29,,,1.9,0.9,1.7*3C
$GPGSV,3,1,12,21,82,058,31,18,65,340,36,15,45,047,36,22,35,282,30*78
$GPGSV,3,2,12,09,30,111,33,06,29,296,26,27,29,082,31,14,19,212,32*7F
$GPGSV,3,3,12,03,19,304,17,29,17,178,32,26,03,038,18,51,49,195,39*79
$GPRMC,151111.000,A,3353.7236,N,09832.0265,W,6.17,258.48,300312,,,D*7A
$GPGGA,151112.000,3353.7234,N,09832.0274,W,2,10,0.9,310.4,M,-23.7,M,1.8,0000*4D
$GPGSA,A,3,21,14,15,27,22,18,09,06,03,29,,,1.9,0.9,1.7*3C
$GPRMC,151112.000,A,3353.7234,N,09832.0274,W,3.31,280.21,300312,,,D*70
$GPGGA,151113.000,3353.7237,N,09832.0280,W,2,10,0.9,310.3,M,-23.7,M,2.8,0000*40
$GPGSA,A,3,21,14,15,27,22,18,09,06,03,29,,,1.9,0.9,1.7*3C
$GPRMC,151113.000,A,3353.7237,N,09832.0280,W,2.20,303.95,300312,,,D*7D
$GPGGA,151114.000,3353.7240,N,09832.0284,W,2,09,1.0,309.9,M,-23.7,M,3.8,0000*40
$GPGSA,A,3,21,14,15,27,22,18,09,06,03,,,,2.0,1.0,1.7*35
$GPRMC,151114.000,A,3353.7240,N,09832.0284,W,1.77,321.34,300312,,,D*74
$GPGGA,151115.000,3353.7244,N,09832.0285,W,2,10,0.9,309.6,M,-23.7,M,4.8,0000*4C
$GPGSA,A,3,21,14,15,27,22,18,09,06,03,29,,,1.9,0.9,1.7*3C
$GPRMC,151115.000,A,3353.7244,N,09832.0285,W,1.60,335.09,300312,,,D*7D
$GPGGA,151116.000,3353.7246,N,09832.0286,W,2,10,0.9,310.0,M,-23.7,M,0.8,0000*44
$GPGSA,A,3,21,14,15,27,22,18,09,06,03,29,,,1.9,0.9,1.7*3C
$GPGSV,3,1,12,21,82,058,29,18,65,340,29,15,45,047,31,22,35,282,34*7C
$GPGSV,3,2,12,09,30,111,29,06,29,296,28,27,29,082,24,14,19,212,35*79
$GPGSV,3,3,12,03,19,304,18,29,17,178,29,26,03,038,,51,49,195,33*7F
$GPRMC,151116.000,A,3353.7246,N,09832.0286,W,1.44,333.23,300312,,,D*77
$GPGGA,151117.000,3353.7247,N,09832.0286,W,2,09,1.0,310.6,M,-23.7,M,1.8,0000*43
$GPGSA,A,3,14,15,27,22,18,09,06,03,29,,,,2.6,1.0,2.4*3B
$GPRMC,151117.000,A,3353.7247,N,09832.0286,W,1.20,340.03,300312,,,D*73
$GPGGA,151118.000,3353.7253,N,09832.0284,W,2,08,1.0,310.2,M,-23.7,M,2.8,0000*4D
$GPGSA,A,3,21,14,27,22,18,09,03,29,,,,,2.0,1.0,1.7*3C
$GPRMC,151118.000,A,3353.7253,N,09832.0284,W,1.54,356.17,300312,,,D*7A
$GPGGA,151119.000,3353.7257,N,09832.0281,W,2,09,1.0,309.6,M,-23.7,M,3.8,0000*41
$GPGSA,A,3,21,14,15,27,22,18,09,06,03,,,,2.0,1.0,1.7*35
$GPRMC,151119.000,A,3353.7257,N,09832.0281,W,1.04,356.41,300312,,,D*7C
$GPGGA,151120.000,3353.7262,N,09832.0279,W,2,10,0.9,308.9,M,-23.7,M,4.8,0000*43
$GPGSA,A,3,21,14,15,27,22,18,09,06,03,29,,,1.9,0.9,1.7*3C
$GPRMC,151120.000,A,3353.7262,N,09832.0279,W,1.44,11.50,300312,,,D*43
$GPGGA,151121.000,3353.7267,N,09832.0276,W,2,10,0.9,308.5,M,-23.7,M,0.8,0000*40
$GPGSA,A,3,21,14,15,27,22,18,09,06,03,29,,,1.9,0.9,1.7*3C
$GPGSV,3,1,12,21,82,058,35,18,65,340,35,15,45,047,37,22,35,282,21*7E
$GPGSV,3,2,12,09,30,111,31,06,29,296,19,27,29,082,35,14,19,212,31*76
$GPGSV,3,3,12,03,19,304,18,29,17,178,26,26,03,038,,51,49,195,26*74
$GPRMC,151121.000,A,3353.7267,N,09832.0276,W,2.61,17.85,300312,,,D*42
$GPGGA,151122.000,3353.7272,N,09832.0273,W,2,10,0.9,309.2,M,-23.7,M,1.8,0000*45
$GPGSA,A,3,21,14,15,27,22,18,09,06,03,29,,,1.9,0.9,1.7*3C
$GPRMC,151122.000,A,3353.7272,N,09832.0273,W,2.84,24.49,300312,,,D*4B
$GPGGA,151123.000,3353.7280,N,09832.0265,W,2,10,0.9,309.1,M,-23.7,M,2.8,0000*4E
$GPGSA,A,3,21,14,15,27,22,18,09,06,03,29,,,1.9,0.9,1.7*3C
$GPRMC,151123.000,A,3353.7280,N,09832.0265,W,5.48,27.12,300312,,,D*4A
$GPGGA,151124.000,3353.7297,N,09832.0256,W,2,10,0.9,309.1,M,-23.7,M,3.8,0000*4E
$GPGSA,A,3,21,14,15,27,22,18,09,06,03,29,,,1.9,0.9,1.7*3C
$GPRMC,151124.000,A,3353.7297,N,09832.0256,W,6.95,17.37,300312,,,D*4C
$GPGGA,151125.000,3353.7316,N,09832.0252,W,2,10,0.9,309.6,M,-23.7,M,4.8,0000*43
$GPGSA,A,3,21,14,15,27,22,18,09,06,03,29,,,1.9,0.9,1.7*3C
$GPRMC,151125.000,A,3353.7316,N,09832.0252,W,7.03,4.80,300312,,,D*71
$GPGGA,151126.000,3353.7333,N,09832.0247,W,2,10,0.9,310.3,M,-23.7,M,5.8,0000*4F
$GPGSA,A,3,21,14,15,27,22,18,09,06,03,29,,,1.9,0.9,1.7*3C
$GPGSV,3,1,12,21,82,058,34,18,65,340,31,15,45,047,33,22,35,282,28*76
$GPGSV,3,2,12,09,30,111,37,06,29,296,25,27,29,082,29,14,19,212,19*78
$GPGSV,3,3,12,03,19,304,18,29,17,178,31,26,03,038,,51,49,195,29*7D
$GPRMC,151126.000,A,3353.7333,N,09832.0247,W,6.81,1.89,300312,,,D*76
$GPGGA,151127.000,3353.7351,N,09832.0247,W,2,10,0.9,311.9,M,-23.7,M,0.8,0000*44
$GPGSA,A,3,21,14,15,27,22,18,09,06,03,29,,,1.9,0.9,1.7*3C
$GPRMC,151127.000,A,3353.7351,N,09832.0247,W,8.09,1.24,300312,,,D*7A
$GPGGA,151128.000,3353.7373,N,09832.0248,W,2,10,0.9,313.0,M,-23.7,M,0.8,0000*4F
$GPGSA,A,3,21,14,15,27,22,18,09,06,03,29,,,1.9,0.9,1.7*3C
$GPRMC,151128.000,A,3353.7373,N,09832.0248,W,8.51,2.36,300312,,,D*77
$GPGGA,151129.000,3353.7396,N,09832.0248,W,2,10,0.9,313.8,M,-23.7,M,0.8,0000*4D
$GPGSA,A,3,21,14,15,27,22,18,09,06,03,29,,,1.9,0.9,1.7*3C
$GPRMC,151129.000,A,3353.7396,N,09832.0248,W,8.30,2.56,300312,,,D*7C
$GPGGA,151130.000,3353.7419,N,09832.0247,W,2,10,0.9,314.4,M,-23.7,M,0.8,0000*41
$GPGSA,A,3,21,14,15,27,22,18,09,06,03,29,,,1.9,0.9,1.7*3C
$GPRMC,151130.000,A,3353.7419,N,09832.0247,W,7.63,1.13,300312,,,D*70
$GPGGA,151131.000,3353.7437,N,09832.0247,W,2,10,0.9,314.7,M,-23.7,M,1.8,0000*4E
$GPGSA,A,3,21,14,15,27,22,18,09,06,03,29,,,1.9,0.9,1.7*3C
$GPGSV,3,1,12,21,82,058,34,18,65,340,24,15,45,047,26,22,35,282,31*7E
$GPGSV,3,2,12,09,30,111,30,06,29,296,24,27,29,082,34,14,19,212,20*78
$GPGSV,3,3,12,03,19,304,18,29,17,178,24,26,03,038,,51,49,195,32*73
$GPRMC,151131.000,A,3353.7437,N,09832.0247,W,6.28,1.15,300312,,,D*75
$GPGGA,151132.000,3353.7452,N,09832.0248,W,2,10,0.9,315.4,M,-23.7,M,2.8,0000*40
$GPGSA,A,3,21,14,15,27,22,18,09,06,03,29,,,1.9,0.9,1.7*3C
$GPRMC,151132.000,A,3353.7452,N,09832.0248,W,5.16,356.85,300312,,,D*7C
$GPGGA,151133.000,3353.7464,N,09832.0252,W,2,10,0.9,316.0,M,-23.7,M,3.8,0000*49
$GPGSA,A,3,21,14,15,27,22,18,09,06,03,29,,,1.9,0.9,1.7*3C
$GPRMC,151133.000,A,3353.7464,N,09832.0252,W,4.29,337.03,300312,,,D*77
$GPGGA,151134.000,3353.7476,N,09832.0258,W,2,10,0.9,316.3,M,-23.7,M,4.8,0000*43
$GPGSA,A,3,21,14,15,27,22,18,09,06,03,29,,,1.9,0.9,1.7*3C
$GPRMC,151134.000,A,3353.7476,N,09832.0258,W,3.10,326.07,300312,,,D*70
$GPGGA,151135.000,3353.7483,N,09832.0261,W,2,10,0.9,316.7,M,-23.7,M,5.8,0000*47
$GPGSA,A,3,21,14,15,27,22,18,09,06,03,29,,,1.9,0.9,1.7*3C
$GPRMC,151135.000,A,3353.7483,N,09832.0261,W,0.98,328.03,300312,,,D*78
$GPGGA,151136.000,3353.7485,N,09832.0260,W,2,10,0.9,317.0,M,-23.7,M,6.8,0000*46
$GPGSA,A,3,21,14,15,27,22,18,09,06,03,29,,,1.9,0.9,1.7*3C
$GPGSV,3,1,12,21,82,058,31,18,65,340,28,15,45,047,30,22,35,282,22*72
$GPGSV,3,2,12,09,30,111,25,06,29,296,22,27,29,082,32,14,19,212,20*7C
$GPGSV,3,3,12,03,19,304,17,29,17,178,31,26,03,038,17,51,49,195,23*7E
$GPRMC,151136.000,A,3353.7485,N,09832.0260,W,0.61,20.87,300312,,,D*4D
$GPGGA,151137.000,3353.7486,N,09832.0262,W,2,10,0.9,318.2,M,-23.7,M,7.8,0000*4A
$GPGSA,A,3,21,14,15,27,22,18,09,06,03,29,,,1.9,0.9,1.7*3C
$GPRMC,151137.000,A,3353.7486,N,09832.0262,W,0.47,357.89,300312,,,D*74
$GPGGA,151138.000,3353.7488,N,09832.0264,W,2,10,0.9,318.9,M,-23.7,M,8.8,0000*49
$GPGSA,A,3,21,14,15,27,22,18,09,06,03,29,,,1.9,0.9,1.7*3C
$GPRMC,151138.000,A,3353.7488,N,09832.0264,W,0.31,294.53,300312,,,D*7B
$GPGGA,151139.000,3353.7489,N,09832.0265,W,2,10,0.9,319.5,M,-23.7,M,9.8,0000*44
$GPGSA,A,3,21,14,15,27,22,18,09,06,03,29,,,1.9,0.9,1.7*3C
$GPRMC,151139.000,A,3353.7489,N,09832.0265,W,0.28,120.44,300312,,,D*78
$GPGGA,151140.000,3353.7488,N,09832.0265,W,2,10,0.9,320.0,M,-23.7,M,10.8,0000*7C
$GPGSA,A,3,21,14,15,27,22,18,09,06,03,29,,,1.9,0.9,1.7*3C
$GPRMC,151140.000,A,3353.7488,N,09832.0265,W,0.49,153.53,300312,,,D*72
$GPGGA,151141.000,3353.7488,N,09832.0264,W,2,10,0.9,320.6,M,-23.7,M,11.8,0000*7B
$GPGSA,A,3,21,14,15,27,22,18,09,06,03,29,,,1.9,0.9,1.7*3C
$GPGSV,3,1,11,21,82,058,31,18,65,340,32,15,45,047,35,22,35,282,22*7F
$GPGSV,3,2,11,09,30,111,28,06,29,296,19,27,29,082,32,14,19,212,24*7E
$GPGSV,3,3,11,03,19,304,15,29,17,178,33,26,03,038,18*47
$GPRMC,151141.000,A,3353.7488,N,09832.0264,W,0.62,119.50,300312,,,D*76
$GPGGA,151142.000,3353.7486,N,09832.0264,W,2,10,0.9,321.7,M,-23.7,M,12.8,0000*75
$GPGSA,A,3,21,14,15,27,22,18,09,06,03,29,,,1.9,0.9,1.7*3C
$GPRMC,151142.000,A,3353.7486,N,09832.0264,W,0.51,163.07,300312,,,D*74
$GPGGA,151143.000,3353.7484,N,09832.0264,W,2,10,0.9,322.8,M,-23.7,M,13.8,0000*7B
$GPGSA,A,3,21,14,15,27,22,18,09,06,03,29,,,1.9,0.9,1.7*3C
$GPRMC,151143.000,A,3353.7484,N,09832.0264,W,0.49,144.70,300312,,,D*7B
$GPGGA,151144.000,3353.7483,N,09832.0264,W,2,10,0.9,323.3,M,-23.7,M,14.8,0000*76
$GPGSA,A,3,21,14,15,27,22,18,09,06,03,29,,,1.9,0.9,1.7*3C
$GPRMC,151144.000,A,3353.7483,N,09832.0264,W,0.49,161.31,300312,,,D*79
$GPGGA,151145.000,3353.7483,N,09832.0264,W,2,10,0.9,323.6,M,-23.7,M,15.8,0000*73
$GPGSA,A,3,21,14,15,27,22,18,09,06,03,29,,,1.9,0.9,1.7*3C
$GPRMC,151145.000,A,3353.7483,N,09832.0264,W,0.56,159.06,300312,,,D*79
$GPGGA,151146.000,3353.7483,N,09832.0264,W,2,10,0.9,323.4,M,-23.7,M,16.8,0000*71
$GPGSA,A,3,21,14,15,27,22,18,09,06,03,29,,,1.9,0.9,1.7*3C
$GPGSV,3,1,11,21,82,058,27,18,65,340,33,15,45,047,33,22,35,282,23*7E
$GPGSV,3,2,11,09,30,111,32,06,29,296,23,27,29,082,33,14,19,212,18*72
$GPGSV,3,3,11,03,19,304,14,29,17,178,38,26,03,038,19*4C
$GPRMC,151146.000,A,3353.7483,N,09832.0264,W,0.47,153.28,300312,,,D*7C
$GPGGA,151147.000,3353.7483,N,09832.0263,W,2,10,0.9,323.2,M,-23.7,M,17.8,0000*70
$GPGSA,A,3,21,14,15,27,22,18,09,06,03,29,,,1.9,0.9,1.7*3C
$GPRMC,151147.000,A,3353.7483,N,09832.0263,W,0.36,150.99,300312,,,D*75
$GPGGA,151148.000,3353.7484,N,09832.0263,W,1,10,0.9,323.1,M,-23.7,M,18.8,0000*77
$GPGSA,A,3,21,14,15,27,22,18,09,06,03,29,,,1.9,0.9,1.7*3C
$GPRMC,151148.000,A,3353.7484,N,09832.0263,W,0.38,134.68,300312,,,A*7A
$GPGGA,151149.000,3353.7483,N,09832.0262,W,1,10,0.9,323.4,M,-23.7,M,18.8,0000*75
$GPGSA,A,3,21,14,15,27,22,18,09,06,03,29,,,1.9,0.9,1.7*3C
$GPRMC,151149.000,A,3353.7483,N,09832.0262,W,0.38,142.66,300312,,,A*72
$GPGGA,151150.000,3353.7483,N,09832.0261,W,1,10,0.9,323.6,M,-23.7,M,18.8,0000*7C
$GPGSA,A,3,21,14,15,27,22,18,09,06,03,29,,,1.9,0.9,1.7*3C
$GPRMC,151150.000,A,3353.7483,N,09832.0261,W,0.34,150.83,300312,,,A*7D
$GPGGA,151151.000,3353.7482,N,09832.0261,W,1,10,0.9,323.8,M,-23.7,M,18.8,0000*72
$GPGSA,A,3,21,14,15,27,22,18,09,06,03,29,,,1.9,0.9,1.7*3C
$GPGSV,3,1,11,21,82,058,27,18,65,340,33,15,45,047,33,22,35,282,23*7E
$GPGSV,3,2,11,09,30,111,31,06,29,296,23,27,29,082,33,14,19,212,20*7A
$GPGSV,3,3,11,03,19,304,15,29,17,178,37,26,03,038,21*49
$GPRMC,151151.000,A,3353.7482,N,09832.0261,W,0.40,155.59,300312,,,A*7C
$GPGGA,151152.000,3353.7482,N,09832.0260,W,1,10,0.9,323.9,M,-23.7,M,18.8,0000*71
$GPGSA,A,3,21,14,15,27,22,18,09,06,03,29,,,1.9,0.9,1.7*3C
$GPRMC,151152.000,A,3353.7482,N,09832.0260,W,0.39,123.84,300312,,,A*71
$GPGGA,151153.000,3353.7482,N,09832.0259,W,1,10,0.9,324.0,M,-23.7,M,18.8,0000*74
$GPGSA,A,3,21,14,15,27,22,18,09,06,03,29,,,1.9,0.9,1.7*3C
$GPRMC,151153.000,A,3353.7482,N,09832.0259,W,0.31,130.29,300312,,,A*77
$GPGGA,151154.000,3353.7482,N,09832.0260,W,1,10,0.9,324.0,M,-23.7,M,18.8,0000*79
$GPGSA,A,3,21,14,15,27,22,18,09,06,03,29,,,1.9,0.9,1.7*3C
$GPRMC,151154.000,A,3353.7482,N,09832.0260,W,0.19,235.95,300312,,,A*71
$GPGGA,151155.000,3353.7482,N,09832.0260,W,1,10,0.9,323.9,M,-23.7,M,18.8,0000*76
$GPGSA,A,3,21,14,15,27,22,18,09,06,03,29,,,1.9,0.9,1.7*3C
$GPRMC,151155.000,A,3353.7482,N,09832.0260,W,0.07,157.93,300312,,,A*7E
$GPGGA,151156.000,3353.7483,N,09832.0260,W,1,10,0.9,323.8,M,-23.7,M,18.8,0000*75
$GPGSA,A,3,21,14,15,27,22,18,09,06,03,29,,,1.9,0.9,1.7*3C
$GPGSV,3,1,11,21,82,058,27,18,65,340,33,15,45,047,33,22,35,282,22*7F
$GPGSV,3,2,11,09,30,111,27,06,29,296,23,27,29,082,33,14,19,212,20*7D
$GPGSV,3,3,11,03,19,304,15,29,17,178,37,26,03,038,22*4A
$GPRMC,151156.000,A,3353.7483,N,09832.0260,W,0.04,48.47,300312,,,A*49
$GPGGA,151157.000,3353.7483,N,09832.0259,W,1,10,0.9,323.7,M,-23.7,M,18.8,0000*71
$GPGSA,A,3,21,14,15,27,22,18,09,06,03,29,,,1.9,0.9,1.7*3C
$GPRMC,151157.000,A,3353.7483,N,09832.0259,W,0.21,142.30,300312,,,A*7E
$GPGGA,151158.000,3353.7484,N,09832.0259,W,1,10,0.9,323.5,M,-23.7,M,18.8,0000*7B
$GPGSA,A,3,21,14,15,27,22,18,09,06,03,29,,,1.9,0.9,1.7*3C
$GPRMC,151158.000,A,3353.7484,N,09832.0259,W,0.23,102.09,300312,,,A*7A
$GPGGA,151159.000,3353.7485,N,09832.0259,W,1,10,0.9,323.3,M,-23.7,M,18.8,0000*7D
$GPGSA,A,3,21,14,15,27,22,18,09,06,03,29,,,1.9,0.9,1.7*3C
$GPRMC,151159.000,A,3353.7485,N,09832.0259,W,0.04,29.80,300312,,,A*46
$GPGGA,151200.000,3353.7486,N,09832.0259,W,1,10,0.9,323.1,M,-23.7,M,18.8,0000*73
$GPGSA,A,3,21,14,15,27,22,18,09,06,03,29,,,1.9,0.9,1.7*3C
$GPRMC,151200.000,A,3353.7486,N,09832.0259,W,0.20,73.89,300312,,,A*4A
$GPGGA,151201.000,3353.7487,N,09832.0258,W,1,10,0.9,322.9,M,-23.7,M,18.8,0000*7B
$GPGSA,A,3,21,14,15,27,22,18,09,06,03,29,,,1.9,0.9,1.7*3C
$GPGSV,3,1,11,21,82,058,27,18,65,340,33,15,45,047,32,22,35,282,22*7E
$GPGSV,3,2,11,09,30,111,27,06,29,296,23,27,29,082,32,14,19,212,20*7C
$GPGSV,3,3,11,03,19,304,15,29,17,178,37,26,03,038,23*4B
$GPRMC,151201.000,A,3353.7487,N,09832.0258,W,0.25,76.45,300312,,,A*4B
$GPGGA,151202.000,3353.7488,N,09832.0258,W,1,10,0.9,322.7,M,-23.7,M,18.8,0000*79
$GPGSA,A,3,21,14,15,27,22,18,09,06,03,29,,,1.9,0.9,1.7*3C
$GPRMC,151202.000,A,3353.7488,N,09832.0258,W,0.21,75.64,300312,,,A*43
$GPGGA,151203.000,3353.7489,N,09832.0258,W,1,10,0.9,322.5,M,-23.7,M,18.8,0000*7B
$GPGSA,A,3,21,14,15,27,22,18,09,06,03,29,,,1.9,0.9,1.7*3C
$GPRMC,151203.000,A,3353.7489,N,09832.0258,W,0.09,47.20,300312,,,A*48
$GPGGA,151204.000,3353.7489,N,09832.0258,W,1,10,0.9,322.3,M,-23.7,M,18.8,0000*7A
$GPGSA,A,3,21,14,15,27,22,18,09,06,03,29,,,1.9,0.9,1.7*3C
$GPRMC,151204.000,A,3353.7489,N,09832.0258,W,0.10,129.29,300312,,,A*77
$GPGGA,151205.000,3353.7490,N,09832.0258,W,1,10,0.9,322.0,M,-23.7,M,18.8,0000*70
$GPGSA,A,3,21,14,15,27,22,18,09,06,03,29,,,1.9,0.9,1.7*3C
$GPRMC,151205.000,A,3353.7490,N,09832.0258,W,0.07,222.93,300312,,,A*71
$GPGGA,151206.000,3353.7491,N,09832.0259,W,1,10,0.9,321.8,M,-23.7,M,18.8,0000*78
$GPGSA,A,3,21,14,15,27,22,18,09,06,03,29,,,1.9,0.9,1.7*3C
$GPGSV,3,1,11,21,82,058,28,18,65,340,33,15,45,047,32,22,35,282,22*71
$GPGSV,3,2,11,09,30,111,28,06,29,296,23,27,29,082,32,14,19,212,21*72
$GPGSV,3,3,11,03,19,304,15,29,17,178,36,26,03,038,23*4A
$GPRMC,151206.000,A,3353.7491,N,09832.0259,W,0.16,344.88,300312,,,A*79
$GPGGA,151207.000,3353.7492,N,09832.0260,W,1,10,0.9,321.5,M,-23.7,M,18.8,0000*7D
$GPGSA,A,3,21,14,15,27,22,18,09,06,03,29,,,1.9,0.9,1.7*3C
$GPRMC,151207.000,A,3353.7492,N,09832.0260,W,0.27,314.87,300312,,,A*79
$GPGGA,151208.000,3353.7494,N,09832.0260,W,1,10,0.9,321.2,M,-23.7,M,18.8,0000*73
$GPGSA,A,3,21,14,15,27,22,18,09,06,03,29,,,1.9,0.9,1.7*3C
$GPRMC,151208.000,A,3353.7494,N,09832.0260,W,0.24,351.36,300312,,,A*78
$GPGGA,151209.000,3353.7495,N,09832.0261,W,1,10,0.9,321.0,M,-23.7,M,18.8,0000*70
$GPGSA,A,3,21,14,15,27,22,18,09,06,03,29,,,1.9,0.9,1.7*3C
$GPRMC,151209.000,A,3353.7495,N,09832.0261,W,0.14,37.07,300312,,,A*4B
$GPGGA,151210.000,3353.7495,N,09832.0260,W,1,10,0.9,320.7,M,-23.7,M,18.8,0000*7F
$GPGSA,A,3,21,14,15,27,22,18,09,06,03,29,,,1.9,0.9,1.7*3C
$GPRMC,151210.000,A,3353.7495,N,09832.0260,W,0.22,72.63,300312,,,A*44
$GPGGA,151211.000,3353.7496,N,09832.0260,W,1,10,0.9,320.5,M,-23.7,M,18.8,0000*7F
$GPGSA,A,3,21,14,15,27,22,18,09,06,03,29,,,1.9,0.9,1.7*3C
$GPGSV,3,1,11,21,82,058,28,18,65,340,33,15,45,047,31,22,35,282,23*73
$GPGSV,3,2,11,09,30,111,28,06,29,296,22,27,29,082,32,14,19,212,21*73
$GPGSV,3,3,11,03,19,304,14,29,17,178,36,26,03,038,24*4C
$GPRMC,151211.000,A,3353.7496,N,09832.0260,W,0.28,116.83,300312,,,A*71
$GPGGA,151212.000,3353.7496,N,09832.0260,W,1,10,0.9,320.4,M,-23.7,M,18.8,0000*7D
$GPGSA,A,3,21,14,15,27,22,18,09,06,03,29,,,1.9,0.9,1.7*3C
$GPRMC,151212.000,A,3353.7496,N,09832.0260,W,0.21,90.41,300312,,,A*4A
$GPGGA,151213.000,3353.7497,N,09832.0260,W,1,10,0.9,320.3,M,-23.7,M,18.8,0000*7A
$GPGSA,A,3,21,14,15,27,22,18,09,06,03,29,,,1.9,0.9,1.7*3C
$GPRMC,151213.000,A,3353.7497,N,09832.0260,W,0.24,95.16,300312,,,A*48
$GPGGA,151214.000,3353.7497,N,09832.0260,W,1,10,0.9,320.2,M,-23.7,M,18.8,0000*7C
$GPGSA,A,3,21,14,15,27,22,18,09,06,03,29,,,1.9,0.9,1.7*3C
$GPRMC,151214.000,A,3353.7497,N,09832.0260,W,0.19,146.57,300312,,,A*7B
$GPGGA,151215.000,3353.7497,N,09832.0259,W,1,10,0.9,320.2,M,-23.7,M,18.8,0000*77
$GPGSA,A,3,21,14,15,27,22,18,09,06,03,29,,,1.9,0.9,1.7*3C
$GPRMC,151215.000,A,3353.7497,N,09832.0259,W,0.47,113.77,300312,,,A*79
$GPGGA,151216.000,3353.7497,N,09832.0258,W,1,10,0.9,320.2,M,-23.7,M,18.8,0000*75
$GPGSA,A,3,21,14,15,27,22,18,09,06,03,29,,,1.9,0.9,1.7*3C
$GPGSV,3,1,11,21,82,058,28,18,65,340,34,15,45,047,31,22,35,282,23*74
$GPGSV,3,2,11,09,30,111,28,06,29,296,21,27,29,082,31,14,19,212,20*72
$GPGSV,3,3,11,03,19,304,13,29,17,178,36,26,03,038,23*4C
$GPRMC,151216.000,A,3353.7497,N,09832.0258,W,0.35,104.58,300312,,,A*75
$GPGGA,151217.000,3353.7498,N,09832.0259,W,1,10,0.9,320.2,M,-23.7,M,18.8,0000*7A
$GPGSA,A,3,21,14,15,27,22,18,09,06,03,29,,,1.9,0.9,1.7*3C
