$GPGGA,214912.000,3352.6216,N,09833.5879,W,2,07,1.2,311.7,M,-23.7,M,1.8,0000*4A
$GPGSA,A,3,31,30,20,32,23,06,16,,,,,,2.1,1.2,1.7*36
$GPRMC,214912.000,A,3352.6216,N,09833.5879,W,0.35,137.29,020412,,,D*7F
$GPGGA,214913.000,3352.6216,N,09833.5877,W,2,07,1.2,310.7,M,-23.7,M,0.8,0000*45
$GPGSA,A,3,31,30,20,32,23,06,16,,,,,,2.1,1.2,1.7*36
$GPRMC,214913.000,A,3352.6216,N,09833.5877,W,0.30,221.12,020412,,,D*79
$GPGGA,214914.000,3352.6217,N,09833.5876,W,2,07,1.2,309.8,M,-23.7,M,1.8,0000*44
$GPGSA,A,3,31,30,20,32,23,06,16,,,,,,2.1,1.2,1.7*36
$GPRMC,214914.000,A,3352.6217,N,09833.5876,W,0.17,208.74,020412,,,D*70
$GPGGA,214915.000,3352.6217,N,09833.5875,W,2,07,1.2,309.4,M,-23.7,M,0.8,0000*4B
$GPGSA,A,3,31,30,20,32,23,06,16,,,,,,2.1,1.2,1.7*36
$GPRMC,214915.000,A,3352.6217,N,09833.5875,W,0.05,151.66,020412,,,D*7D
$GPGGA,214916.000,3352.6218,N,09833.5874,W,2,07,1.2,308.6,M,-23.7,M,0.8,0000*45
$GPGSA,A,3,31,30,20,32,23,06,16,,,,,,2.1,1.2,1.7*36
$GPGSV,3,1,12,30,67,079,31,32,63,205,29,16,62,154,21,20,56,265,35*78
$GPGSV,3,2,12,23,38,314,38,31,30,049,22,06,10,143,23,13,10,302,*72
$GPGSV,3,3,12,03,08,157,24,14,06,108,17,01,04,226,27,29,01,047,*77
$GPRMC,214916.000,A,3352.6218,N,09833.5874,W,0.35,61.26,020412,,,D*45
$GPGGA,214917.000,3352.6219,N,09833.5873,W,2,07,1.2,308.1,M,-23.7,M,0.8,0000*45
$GPGSA,A,3,31,30,20,32,23,06,16,,,,,,2.1,1.2,1.7*36
$GPRMC,214917.000,A,3352.6219,N,09833.5873,W,0.11,174.10,020412,,,D*74
$GPGGA,214918.000,3352.6220,N,09833.5872,W,2,07,1.2,307.7,M,-23.7,M,1.8,0000*49
$GPGSA,A,3,31,30,20,32,23,06,16,,,,,,2.1,1.2,1.7*36
$GPRMC,214918.000,A,3352.6220,N,09833.5872,W,0.19,206.70,020412,,,D*78
$GPGGA,214919.000,3352.6220,N,09833.5871,W,2,07,1.2,307.4,M,-23.7,M,2.8,0000*4B
$GPGSA,A,3,31,30,20,32,23,06,16,,,,,,2.1,1.2,1.7*36
$GPRMC,214919.000,A,3352.6220,N,09833.5871,W,0.11,201.77,020412,,,D*72
$GPGGA,214920.000,3352.6222,N,09833.5870,W,2,07,1.2,307.4,M,-23.7,M,3.8,0000*43
$GPGSA,A,3,31,30,20,32,23,06,16,,,,,,2.1,1.2,1.7*36
$GPRMC,214920.000,A,3352.6222,N,09833.5870,W,0.35,51.75,020412,,,D*48
$GPGGA,214921.000,3352.6223,N,09833.5869,W,2,07,1.2,307.5,M,-23.7,M,0.8,0000*49
$GPGSA,A,3,31,30,20,32,23,06,16,,,,,,2.1,1.2,1.7*36
$GPGSV,3,1,12,30,67,079,31,32,63,205,28,16,62,154,21,20,56,265,35*79
$GPGSV,3,2,12,23,38,314,38,31,30,049,22,06,10,143,24,13,10,302,17*73
$GPGSV,3,3,12,03,08,157,23,14,06,108,17,01,04,226,26,29,01,047,*71
$GPRMC,214921.000,A,3352.6223,N,09833.5869,W,0.15,157.88,020412,,,D*77
$GPGGA,214922.000,3352.6224,N,09833.5869,W,2,07,1.2,307.3,M,-23.7,M,0.8,0000*4B
$GPGSA,A,3,31,30,20,32,23,06,16,,,,,,2.1,1.2,1.7*36
$GPRMC,214922.000,A,3352.6224,N,09833.5869,W,0.25,67.95,020412,,,D*4E
$GPGGA,214923.000,3352.6224,N,09833.5868,W,2,07,1.2,307.2,M,-23.7,M,0.8,0000*4A
$GPGSA,A,3,31,30,20,32,23,06,16,,,,,,2.1,1.2,1.7*36
$GPRMC,214923.000,A,3352.6224,N,09833.5868,W,0.11,250.16,020412,,,D*74
$GPGGA,214924.000,3352.6225,N,09833.5868,W,2,07,1.2,307.4,M,-23.7,M,1.8,0000*4B
$GPGSA,A,3,31,30,20,32,23,06,16,,,,,,2.1,1.2,1.7*36
$GPRMC,214924.000,A,3352.6225,N,09833.5868,W,0.31,227.03,020412,,,D*74
$GPGGA,214925.000,3352.6227,N,09833.5869,W,2,07,1.2,307.8,M,-23.7,M,0.8,0000*44
$GPGSA,A,3,31,30,20,32,23,06,16,,,,,,2.1,1.2,1.7*36
$GPRMC,214925.000,A,3352.6227,N,09833.5869,W,0.22,18.20,020412,,,D*4B
$GPGGA,214926.000,3352.6228,N,09833.5869,W,2,07,1.2,308.3,M,-23.7,M,1.8,0000*4D
$GPGSA,A,3,31,30,20,32,23,06,16,,,,,,2.1,1.2,1.7*36
$GPGSV,3,1,12,30,67,075,31,16,63,152,21,32,61,204,29,20,56,262,35*77
$GPGSV,3,2,12,23,39,315,38,31,29,050,23,06,11,142,25,13,11,303,17*73
$GPGSV,3,3,12,03,09,156,24,14,05,109,17,01,03,225,18,29,01,046,*7C
$GPRMC,214926.000,A,3352.6228,N,09833.5869,W,0.26,205.64,020412,,,D*7D
$GPGGA,214927.000,3352.6228,N,09833.5869,W,2,07,1.2,308.7,M,-23.7,M,0.8,0000*49
$GPGSA,A,3,31,30,20,32,23,06,16,,,,,,2.1,1.2,1.7*36
$GPRMC,214927.000,A,3352.6228,N,09833.5869,W,0.31,204.31,020412,,,D*7B
$GPGGA,214928.000,3352.6229,N,09833.5869,W,2,07,1.2,308.9,M,-23.7,M,0.8,0000*49
$GPGSA,A,3,31,30,20,32,23,06,16,,,,,,2.1,1.2,1.7*36
$GPRMC,214928.000,A,3352.6229,N,09833.5869,W,0.05,163.60,020412,,,D*74
$GPGGA,214929.000,3352.6230,N,09833.5868,W,2,07,1.2,309.3,M,-23.7,M,0.8,0000*4A
$GPGSA,A,3,31,30,20,32,23,06,16,,,,,,2.1,1.2,1.7*36
$GPRMC,214929.000,A,3352.6230,N,09833.5868,W,0.13,102.76,020412,,,D*7B
$GPGGA,214930.000,3352.6231,N,09833.5868,W,2,07,1.2,309.6,M,-23.7,M,1.8,0000*47
$GPGSA,A,3,31,30,20,32,23,06,16,,,,,,2.1,1.2,1.7*36
$GPRMC,214930.000,A,3352.6231,N,09833.5868,W,0.12,108.49,020412,,,D*75
$GPGGA,214931.000,3352.6231,N,09833.5868,W,2,07,1.2,309.9,M,-23.7,M,2.8,0000*4A
$GPGSA,A,3,31,30,20,32,23,06,16,,,,,,2.1,1.2,1.7*36
$GPGSV,3,1,12,30,67,075,31,16,63,152,22,32,61,204,28,20,56,262,34*74
$GPGSV,3,2,12,23,39,315,38,31,29,050,24,06,11,142,26,13,11,303,17*77
$GPGSV,3,3,12,03,09,156,24,14,05,109,17,01,03,225,17,29,01,046,*73
$GPRMC,214931.000,A,3352.6231,N,09833.5868,W,0.23,223.79,020412,,,D*7F
$GPGGA,214932.000,3352.6232,N,09833.5868,W,2,07,1.2,310.1,M,-23.7,M,0.8,0000*48
$GPGSA,A,3,31,30,20,32,23,06,16,,,,,,2.1,1.2,1.7*36
$GPRMC,214932.000,A,3352.6232,N,09833.5868,W,0.05,33.60,020412,,,D*40
$GPGGA,214933.000,3352.6232,N,09833.5868,W,2,07,1.2,310.2,M,-23.7,M,0.8,0000*4A
$GPGSA,A,3,31,30,20,32,23,06,16,,,,,,2.1,1.2,1.7*36
$GPRMC,214933.000,A,3352.6232,N,09833.5868,W,0.01,246.71,020412,,,D*75
$GPGGA,214934.000,3352.6233,N,09833.5869,W,2,07,1.2,310.4,M,-23.7,M,1.8,0000*4A
$GPGSA,A,3,31,30,20,32,23,06,16,,,,,,2.1,1.2,1.7*36
$GPRMC,214934.000,A,3352.6233,N,09833.5869,W,0.03,302.97,020412,,,D*79
$GPGGA,214935.000,3352.6233,N,09833.5869,W,2,07,1.2,310.5,M,-23.7,M,0.8,0000*4B
$GPGSA,A,3,31,30,20,32,23,06,16,,,,,,2.1,1.2,1.7*36
$GPRMC,214935.000,A,3352.6233,N,09833.5869,W,0.09,189.13,020412,,,D*7F
$GPGGA,214936.000,3352.6233,N,09833.5869,W,2,07,1.2,310.6,M,-23.7,M,1.8,0000*4A
$GPGSA,A,3,31,30,20,32,23,06,16,,,,,,2.1,1.2,1.7*36
$GPGSV,3,1,12,30,67,075,31,16,63,152,23,32,61,204,28,20,56,262,34*75
$GPGSV,3,2,12,23,39,315,38,31,29,050,25,06,11,142,27,13,11,303,15*75
$GPGSV,3,3,12,03,09,156,24,14,05,109,16,01,03,225,19,29,01,046,*7C
$GPRMC,214936.000,A,3352.6233,N,09833.5869,W,0.02,206.49,020412,,,D*7C
$GPGGA,214937.000,3352.6233,N,09833.5869,W,2,07,1.2,310.5,M,-23.7,M,2.8,0000*4B
$GPGSA,A,3,31,30,20,32,23,06,16,,,,,,2.1,1.2,1.7*36
$GPRMC,214937.000,A,3352.6233,N,09833.5869,W,0.14,322.67,020412,,,D*71
$GPGGA,214938.000,3352.6233,N,09833.5869,W,2,07,1.2,310.5,M,-23.7,M,3.8,0000*45
$GPGSA,A,3,31,30,20,32,23,06,16,,,,,,2.1,1.2,1.7*36
$GPRMC,214938.000,A,3352.6233,N,09833.5869,W,0.07,343.30,020412,,,D*79
$GPGGA,214939.000,3352.6233,N,09833.5869,W,2,07,1.2,310.6,M,-23.7,M,0.8,0000*44
$GPGSA,A,3,31,30,20,32,23,06,16,,,,,,2.1,1.2,1.7*36
$GPRMC,214939.000,A,3352.6233,N,09833.5869,W,0.16,156.48,020412,,,D*71
$GPGGA,214940.000,3352.6233,N,09833.5870,W,2,07,1.2,310.9,M,-23.7,M,0.8,0000*4D
$GPGSA,A,3,31,30,20,32,23,06,16,,,,,,2.1,1.2,1.7*36
$GPRMC,214940.000,A,3352.6233,N,09833.5870,W,0.25,206.52,020412,,,D*7A
$GPGGA,214941.000,3352.6233,N,09833.5870,W,2,07,1.2,311.2,M,-23.7,M,0.8,0000*46
$GPGSA,A,3,31,30,20,32,23,06,16,,,,,,2.1,1.2,1.7*36
$GPGSV,3,1,12,30,67,075,31,16,63,152,23,32,61,204,28,20,56,262,34*75
$GPGSV,3,2,12,23,39,315,38,31,29,050,26,06,11,142,27,13,11,303,*72
$GPGSV,3,3,12,03,09,156,24,14,05,109,15,01,03,225,21,29,01,046,*74
$GPRMC,214941.000,A,3352.6233,N,09833.5870,W,0.04,69.44,020412,,,D*44
$GPGGA,214942.000,3352.6233,N,09833.5870,W,2,07,1.2,311.6,M,-23.7,M,1.8,0000*40
$GPGSA,A,3,31,30,20,32,23,06,16,,,,,,2.1,1.2,1.7*36
$GPRMC,214942.000,A,3352.6233,N,09833.5870,W,0.10,54.28,020412,,,D*46
$GPGGA,214943.000,3352.6234,N,09833.5869,W,2,07,1.2,312.1,M,-23.7,M,2.8,0000*49
$GPGSA,A,3,31,30,20,32,23,06,16,,,,,,2.1,1.2,1.7*36
$GPRMC,214943.000,A,3352.6234,N,09833.5869,W,0.08,56.51,020412,,,D*4D
$GPGGA,214944.000,3352.6234,N,09833.5870,W,2,07,1.2,312.5,M,-23.7,M,3.8,0000*43
$GPGSA,A,3,31,30,20,32,23,06,16,,,,,,2.1,1.2,1.7*36
$GPRMC,214944.000,A,3352.6234,N,09833.5870,W,0.14,125.54,020412,,,D*7F
$GPGGA,214945.000,3352.6234,N,09833.5870,W,2,07,1.2,312.9,M,-23.7,M,0.8,0000*4D
$GPGSA,A,3,31,30,20,32,23,06,16,,,,,,2.1,1.2,1.7*36
$GPRMC,214945.000,A,3352.6234,N,09833.5870,W,0.05,141.73,020412,,,D*79
$GPGGA,214946.000,3352.6234,N,09833.5871,W,2,07,1.2,313.2,M,-23.7,M,0.8,0000*45
$GPGSA,A,3,31,30,20,32,23,06,16,,,,,,2.1,1.2,1.7*36
$GPGSV,3,1,12,30,67,075,31,16,63,152,23,32,61,204,27,20,56,262,33*7D
$GPGSV,3,2,12,23,39,315,38,31,29,050,26,06,11,142,28,13,11,303,*7D
$GPGSV,3,3,12,03,09,156,23,14,05,109,15,01,03,225,23,29,01,046,*71
$GPRMC,214946.000,A,3352.6234,N,09833.5871,W,0.04,50.15,020412,,,D*4B
$GPGGA,214947.000,3352.6233,N,09833.5871,W,2,07,1.2,313.4,M,-23.7,M,0.8,0000*45
$GPGSA,A,3,31,30,20,32,23,06,16,,,,,,2.1,1.2,1.7*36
$GPRMC,214947.000,A,3352.6233,N,09833.5871,W,0.07,136.42,020412,,,D*7D
$GPGGA,214948.000,3352.6233,N,09833.5872,W,2,07,1.2,313.7,M,-23.7,M,0.8,0000*4A
$GPGSA,A,3,31,30,20,32,23,06,16,,,,,,2.1,1.2,1.7*36
$GPRMC,214948.000,A,3352.6233,N,09833.5872,W,0.05,140.07,020412,,,D*73
$GPGGA,214949.000,3352.6233,N,09833.5873,W,2,07,1.2,314.0,M,-23.7,M,0.8,0000*4A
$GPGSA,A,3,31,30,20,32,23,06,16,,,,,,2.1,1.2,1.7*36
$GPRMC,214949.000,A,3352.6233,N,09833.5873,W,0.15,167.58,020412,,,D*7D
$GPGGA,214950.000,3352.6232,N,09833.5874,W,2,07,1.2,314.2,M,-23.7,M,1.8,0000*47
$GPGSA,A,3,31,30,20,32,23,06,16,,,,,,2.1,1.2,1.7*36
$GPRMC,214950.000,A,3352.6232,N,09833.5874,W,0.03,130.75,020412,,,D*79
$GPGGA,214951.000,3352.6232,N,09833.5874,W,2,07,1.2,314.4,M,-23.7,M,0.8,0000*41
$GPGSA,A,3,31,30,20,32,23,06,16,,,,,,2.1,1.2,1.7*36
$GPGSV,3,1,12,30,67,075,31,16,63,152,23,32,61,204,27,20,56,262,33*7D
$GPGSV,3,2,12,23,39,315,38,31,29,050,26,06,11,142,29,13,11,303,*7C
$GPGSV,3,3,12,03,09,156,22,14,05,109,15,01,03,225,24,29,01,046,*77
$GPRMC,214951.000,A,3352.6232,N,09833.5874,W,0.14,136.36,020412,,,D*7F
$GPGGA,214952.000,3352.6232,N,09833.5874,W,2,07,1.2,314.6,M,-23.7,M,0.8,0000*40
$GPGSA,A,3,31,30,20,32,23,06,16,,,,,,2.1,1.2,1.7*36
$GPRMC,214952.000,A,3352.6232,N,09833.5874,W,0.12,76.56,020412,,,D*49
$GPGGA,214953.000,3352.6232,N,09833.5875,W,2,07,1.2,314.7,M,-23.7,M,0.8,0000*41
$GPGSA,A,3,31,30,20,32,23,06,16,,,,,,2.1,1.2,1.7*36
$GPRMC,214953.000,A,3352.6232,N,09833.5875,W,0.10,46.67,020412,,,D*4A
$GPGGA,214954.000,3352.6232,N,09833.5875,W,2,07,1.2,314.9,M,-23.7,M,0.8,0000*48
$GPGSA,A,3,31,30,20,32,23,06,16,,,,,,2.1,1.2,1.7*36
$GPRMC,214954.000,A,3352.6232,N,09833.5875,W,0.11,124.40,020412,,,D*7C
$GPGGA,214955.000,3352.6232,N,09833.5875,W,2,07,1.2,315.1,M,-23.7,M,1.8,0000*41
$GPGSA,A,3,31,30,20,32,23,06,16,,,,,,2.1,1.2,1.7*36
$GPRMC,214955.000,A,3352.6232,N,09833.5875,W,0.12,112.54,020412,,,D*7E
$GPGGA,214956.000,3352.6232,N,09833.5874,W,2,07,1.2,315.4,M,-23.7,M,0.8,0000*47
$GPGSA,A,3,31,30,20,32,23,06,16,,,,,,2.1,1.2,1.7*36
$GPGSV,3,1,12,30,67,075,31,16,63,152,22,32,61,204,27,20,56,262,33*7C
$GPGSV,3,2,12,23,39,315,38,31,29,050,26,06,11,142,29,13,11,303,*7C
$GPGSV,3,3,12,03,09,156,22,14,05,109,15,01,03,225,26,29,01,046,*75
$GPRMC,214956.000,A,3352.6232,N,09833.5874,W,0.13,119.10,020412,,,D*76
$GPGGA,214957.000,3352.6232,N,09833.5875,W,2,07,1.2,315.5,M,-23.7,M,0.8,0000*46
$GPGSA,A,3,31,30,20,32,23,06,16,,,,,,2.1,1.2,1.7*36
$GPRMC,214957.000,A,3352.6232,N,09833.5875,W,0.04,108.67,020412,,,D*70
$GPGGA,214958.000,3352.6232,N,09833.5875,W,2,07,1.2,315.8,M,-23.7,M,0.8,0000*44
$GPGSA,A,3,31,30,20,32,23,06,16,,,,,,2.1,1.2,1.7*36
$GPRMC,214958.000,A,3352.6232,N,09833.5875,W,0.11,165.23,020412,,,D*70
$GPGGA,214959.000,3352.6232,N,09833.5875,W,2,07,1.2,316.0,M,-23.7,M,0.8,0000*4E
$GPGSA,A,3,31,30,20,32,23,06,16,,,,,,2.1,1.2,1.7*36
$GPRMC,214959.000,A,3352.6232,N,09833.5875,W,0.16,165.91,020412,,,D*7F
$GPGGA,215000.000,3352.6232,N,09833.5875,W,2,07,1.2,316.3,M,-23.7,M,1.8,0000*48
$GPGSA,A,3,31,30,20,32,23,06,16,,,,,,2.1,1.2,1.7*36
$GPRMC,215000.000,A,3352.6232,N,09833.5875,W,0.15,163.16,020412,,,D*71
$GPGGA,215001.000,3352.6231,N,09833.5875,W,2,07,1.2,316.3,M,-23.7,M,0.8,0000*4B
$GPGSA,A,3,31,30,20,32,23,06,16,,,,,,2.1,1.2,1.7*36
$GPGSV,3,1,12,30,67,075,31,16,63,152,22,32,61,204,28,20,56,262,33*73
$GPGSV,3,2,12,23,39,315,38,31,29,050,26,06,11,142,29,13,11,303,*7C
$GPGSV,3,3,12,03,09,156,22,14,05,109,16,01,03,225,27,29,01,046,*77
$GPRMC,215001.000,A,3352.6231,N,09833.5875,W,0.01,178.59,020412,,,D*77
$GPGGA,215002.000,3352.6231,N,09833.5876,W,2,07,1.2,316.4,M,-23.7,M,1.8,0000*4D
$GPGSA,A,3,31,30,20,32,23,06,16,,,,,,2.1,1.2,1.7*36
$GPRMC,215002.000,A,3352.6231,N,09833.5876,W,0.15,221.62,020412,,,D*75
$GPGGA,215003.000,3352.6231,N,09833.5876,W,2,07,1.2,316.6,M,-23.7,M,0.8,0000*4F
$GPGSA,A,3,31,30,20,32,23,06,16,,,,,,2.1,1.2,1.7*36
$GPRMC,215003.000,A,3352.6231,N,09833.5876,W,0.18,148.37,020412,,,D*75
$GPGGA,215004.000,3352.6231,N,09833.5876,W,2,07,1.2,316.7,M,-23.7,M,0.8,0000*49
$GPGSA,A,3,31,30,20,32,23,06,16,,,,,,2.1,1.2,1.7*36
$GPRMC,215004.000,A,3352.6231,N,09833.5876,W,0.11,134.88,020412,,,D*74
$GPGGA,215005.000,3352.6231,N,09833.5876,W,2,07,1.2,316.7,M,-23.7,M,0.8,0000*48
$GPGSA,A,3,31,30,20,32,23,06,16,,,,,,2.1,1.2,1.7*36
$GPRMC,215005.000,A,3352.6231,N,09833.5876,W,0.05,83.35,020412,,,D*4B
$GPGGA,215006.000,3352.6231,N,09833.5876,W,2,07,1.2,316.8,M,-23.7,M,1.8,0000*45
$GPGSA,A,3,31,30,20,32,23,06,16,,,,,,2.1,1.2,1.7*36
$GPGSV,3,1,12,30,66,075,32,16,64,152,22,32,61,203,28,20,56,261,33*72
$GPGSV,3,2,12,23,39,315,38,31,28,050,26,06,11,141,29,13,11,303,*7E
$GPGSV,3,3,12,03,09,156,22,14,05,110,17,01,03,225,28,29,01,045,*72
$GPRMC,215006.000,A,3352.6231,N,09833.5876,W,0.09,45.69,020412,,,D*47
$GPGGA,215007.000,3352.6231,N,09833.5876,W,2,07,1.2,316.8,M,-23.7,M,2.8,0000*47
$GPGSA,A,3,31,30,20,32,23,06,16,,,,,,2.1,1.2,1.7*36
$GPRMC,215007.000,A,3352.6231,N,09833.5876,W,0.14,139.37,020412,,,D*7B
$GPGGA,215008.000,3352.6231,N,09833.5876,W,2,06,1.3,316.8,M,-23.7,M,3.8,0000*49
$GPGSA,A,3,31,30,20,23,06,16,,,,,,,2.2,1.3,1.8*3A
$GPRMC,215008.000,A,3352.6231,N,09833.5876,W,0.11,55.19,020412,,,D*46
$GPGGA,215009.000,3352.6231,N,09833.5876,W,2,07,1.2,316.7,M,-23.7,M,0.8,0000*44
$GPGSA,A,3,31,30,20,32,23,06,16,,,,,,2.1,1.2,1.7*36
$GPRMC,215009.000,A,3352.6231,N,09833.5876,W,0.08,4.75,020412,,,D*71
$GPGGA,215010.000,3352.6232,N,09833.5876,W,2,07,1.2,316.6,M,-23.7,M,0.8,0000*4E
$GPGSA,A,3,31,30,20,32,23,06,16,,,,,,2.1,1.2,1.7*36
$GPRMC,215010.000,A,3352.6232,N,09833.5876,W,0.07,164.62,020412,,,D*74
$GPGGA,215011.000,3352.6235,N,09833.5876,W,2,07,1.2,316.2,M,-23.7,M,0.8,0000*4C
$GPGSA,A,3,31,30,20,32,23,06,16,,,,,,2.1,1.2,1.7*36
$GPGSV,3,1,12,30,66,075,32,16,64,152,22,32,61,203,29,20,56,261,33*73
$GPGSV,3,2,12,23,39,315,38,31,28,050,26,06,11,141,28,13,11,303,*7F
$GPGSV,3,3,12,03,09,156,22,14,05,110,17,01,03,225,29,29,01,045,*73
$GPRMC,215011.000,A,3352.6235,N,09833.5876,W,0.11,6.35,020412,,,D*72
$GPGGA,215012.000,3352.6236,N,09833.5875,W,2,07,1.2,316.1,M,-23.7,M,1.8,0000*4D
$GPGSA,A,3,31,30,20,32,23,06,16,,,,,,2.1,1.2,1.7*36
$GPRMC,215012.000,A,3352.6236,N,09833.5875,W,0.07,116.36,020412,,,D*75
$GPGGA,215013.000,3352.6235,N,09833.5876,W,2,07,1.2,316.2,M,-23.7,M,2.8,0000*4C
$GPGSA,A,3,31,30,20,32,23,06,16,,,,,,2.1,1.2,1.7*36
$GPRMC,215013.000,A,3352.6235,N,09833.5876,W,0.02,192.55,020412,,,D*78
$GPGGA,215014.000,3352.6234,N,09833.5876,W,2,07,1.2,316.2,M,-23.7,M,3.8,0000*4B
$GPGSA,A,3,31,30,20,32,23,06,16,,,,,,2.1,1.2,1.7*36
$GPRMC,215014.000,A,3352.6234,N,09833.5876,W,0.03,34.19,020412,,,D*4A
$GPGGA,215015.000,3352.6234,N,09833.5876,W,2,07,1.2,316.2,M,-23.7,M,0.8,0000*49
$GPGSA,A,3,31,30,20,32,23,06,16,,,,,,2.1,1.2,1.7*36
$GPRMC,215015.000,A,3352.6234,N,09833.5876,W,0.07,132.77,020412,,,D*70
$GPGGA,215016.000,3352.6233,N,09833.5876,W,2,07,1.2,316.2,M,-23.7,M,0.8,0000*4D
$GPGSA,A,3,31,30,20,32,23,06,16,,,,,,2.1,1.2,1.7*36
$GPGSV,3,1,12,30,66,075,32,16,64,152,22,32,61,203,29,20,56,261,32*72
$GPGSV,3,2,12,23,39,315,37,31,28,050,26,06,11,141,27,13,11,303,*7F
$GPGSV,3,3,12,03,09,156,22,14,05,110,17,01,03,225,29,29,01,045,*73
$GPRMC,215016.000,A,3352.6233,N,09833.5876,W,0.15,157.89,020412,,,D*75
$GPGGA,215017.000,3352.6233,N,09833.5876,W,2,07,1.2,315.9,M,-23.7,M,0.8,0000*44
$GPGSA,A,3,31,30,20,32,23,06,16,,,,,,2.1,1.2,1.7*36
$GPRMC,215017.000,A,3352.6233,N,09833.5876,W,0.01,157.66,020412,,,D*70
$GPGGA,215018.000,3352.6234,N,09833.5876,W,2,07,1.2,315.7,M,-23.7,M,0.8,0000*42
$GPGSA,A,3,31,30,20,32,23,06,16,,,,,,2.1,1.2,1.7*36
$GPRMC,215018.000,A,3352.6234,N,09833.5876,W,0.05,140.52,020412,,,D*7D
$GPGGA,215019.000,3352.6235,N,09833.5875,W,2,07,1.2,315.3,M,-23.7,M,1.8,0000*44
$GPGSA,A,3,31,30,20,32,23,06,16,,,,,,2.1,1.2,1.7*36
$GPRMC,215019.000,A,3352.6235,N,09833.5875,W,0.12,169.81,020412,,,D*7D
$GPGGA,215020.000,3352.6235,N,09833.5874,W,2,07,1.2,314.1,M,-23.7,M,2.8,0000*4F
$GPGSA,A,3,31,30,20,32,23,06,16,,,,,,2.1,1.2,1.7*36
$GPRMC,215020.000,A,3352.6235,N,09833.5874,W,0.04,88.96,020412,,,D*49
$GPGGA,215021.000,3352.6238,N,09833.5872,W,2,07,1.2,313.6,M,-23.7,M,0.8,0000*47
$GPGSA,A,3,31,30,20,32,23,06,16,,,,,,2.1,1.2,1.7*36
$GPGSV,3,1,12,30,66,075,33,16,64,152,23,32,61,203,30,20,56,261,32*7A
$GPGSV,3,2,12,23,39,315,38,31,28,050,27,06,11,141,27,13,11,303,*71
$GPGSV,3,3,12,03,09,156,21,14,05,110,16,01,03,225,24,29,01,045,*7C
$GPRMC,215021.000,A,3352.6238,N,09833.5872,W,0.04,203.75,020412,,,D*7F
$GPGGA,215022.000,3352.6240,N,09833.5870,W,2,07,1.2,313.2,M,-23.7,M,0.8,0000*4D
$GPGSA,A,3,31,30,20,32,23,06,16,,,,,,2.1,1.2,1.7*36
$GPRMC,215022.000,A,3352.6240,N,09833.5870,W,0.10,163.16,020412,,,D*74
$GPGGA,215023.000,3352.6242,N,09833.5869,W,2,07,1.2,312.9,M,-23.7,M,0.8,0000*4C
$GPGSA,A,3,31,30,20,32,23,06,16,,,,,,2.1,1.2,1.7*36
$GPRMC,215023.000,A,3352.6242,N,09833.5869,W,0.00,199.60,020412,,,D*7A
$GPGGA,215024.000,3352.6243,N,09833.5868,W,2,07,1.2,312.8,M,-23.7,M,1.8,0000*4B
$GPGSA,A,3,31,30,20,32,23,06,16,,,,,,2.1,1.2,1.7*36
$GPRMC,215024.000,A,3352.6243,N,09833.5868,W,0.11,173.94,020412,,,D*72
$GPGGA,215025.000,3352.6243,N,09833.5868,W,2,07,1.2,312.6,M,-23.7,M,2.8,0000*47
$GPGSA,A,3,31,30,20,32,23,06,16,,,,,,2.1,1.2,1.7*36
$GPRMC,215025.000,A,3352.6243,N,09833.5868,W,0.02,236.10,020412,,,D*7F
$GPGGA,215026.000,3352.6244,N,09833.5868,W,2,07,1.2,312.4,M,-23.7,M,3.8,0000*40
$GPGSA,A,3,31,30,20,32,23,06,16,,,,,,2.1,1.2,1.7*36
$GPGSV,3,1,12,30,66,075,33,16,64,152,23,32,61,203,30,20,56,261,32*7A
$GPGSV,3,2,12,23,39,315,38,31,28,050,27,06,11,141,26,13,11,303,*70
$GPGSV,3,3,12,03,09,156,21,14,05,110,17,01,03,225,22,29,01,045,*7B
$GPRMC,215026.000,A,3352.6244,N,09833.5868,W,0.08,321.27,020412,,,D*72
$GPGGA,215027.000,3352.6245,N,09833.5867,W,2,07,1.2,312.3,M,-23.7,M,0.8,0000*4B
$GPGSA,A,3,31,30,20,32,23,06,16,,,,,,2.1,1.2,1.7*36
$GPRMC,215027.000,A,3352.6245,N,09833.5867,W,0.03,340.75,020412,,,D*76
$GPGGA,215028.000,3352.6245,N,09833.5867,W,2,07,1.2,312.2,M,-23.7,M,0.8,0000*45
$GPGSA,A,3,31,30,20,32,23,06,16,,,,,,2.1,1.2,1.7*36
$GPRMC,215028.000,A,3352.6245,N,09833.5867,W,0.10,159.57,020412,,,D*71
$GPGGA,215029.000,3352.6245,N,09833.5867,W,2,07,1.2,312.1,M,-23.7,M,0.8,0000*47
$GPGSA,A,3,31,30,20,32,23,06,16,,,,,,2.1,1.2,1.7*36
$GPRMC,215029.000,A,3352.6245,N,09833.5867,W,0.07,156.54,020412,,,D*7A
$GPGGA,215030.000,3352.6245,N,09833.5867,W,2,07,1.2,311.9,M,-23.7,M,1.8,0000*45
$GPGSA,A,3,31,30,20,32,23,06,16,,,,,,2.1,1.2,1.7*36
$GPRMC,215030.000,A,3352.6245,N,09833.5867,W,0.08,156.34,020412,,,D*7B
$GPGGA,215031.000,3352.6244,N,09833.5867,W,2,07,1.2,311.8,M,-23.7,M,2.8,0000*47
$GPGSA,A,3,31,30,20,32,23,06,16,,,,,,2.1,1.2,1.7*36
$GPGSV,3,1,12,30,66,075,33,16,64,152,25,32,61,203,30,20,56,261,33*7D
$GPGSV,3,2,12,23,39,315,38,31,28,050,27,06,11,141,26,13,11,303,*70
$GPGSV,3,3,12,03,09,156,21,14,05,110,17,01,03,225,18,29,01,045,*72
$GPRMC,215031.000,A,3352.6244,N,09833.5867,W,0.06,150.97,020412,,,D*7A
$GPGGA,215032.000,3352.6244,N,09833.5867,W,2,07,1.2,311.7,M,-23.7,M,0.8,0000*49
$GPGSA,A,3,31,30,20,32,23,06,16,,,,,,2.1,1.2,1.7*36
$GPRMC,215032.000,A,3352.6244,N,09833.5867,W,0.06,149.02,020412,,,D*7D
$GPGGA,215033.000,3352.6243,N,09833.5867,W,2,07,1.2,311.6,M,-23.7,M,0.8,0000*4E
$GPGSA,A,3,31,30,20,32,23,06,16,,,,,,2.1,1.2,1.7*36
$GPRMC,215033.000,A,3352.6243,N,09833.5867,W,0.06,195.03,020412,,,D*7B
$GPGGA,215034.000,3352.6243,N,09833.5867,W,2,07,1.2,311.5,M,-23.7,M,0.8,0000*4A
$GPGSA,A,3,31,30,20,32,23,06,16,,,,,,2.1,1.2,1.7*36
$GPRMC,215034.000,A,3352.6243,N,09833.5867,W,0.09,183.21,020412,,,D*74
$GPGGA,215035.000,3352.6242,N,09833.5867,W,2,07,1.2,311.5,M,-23.7,M,0.8,0000*4A
$GPGSA,A,3,31,30,20,32,23,06,16,,,,,,2.1,1.2,1.7*36
$GPRMC,215035.000,A,3352.6242,N,09833.5867,W,0.06,183.17,020412,,,D*7E
$GPGGA,215036.000,3352.6242,N,09833.5867,W,2,07,1.2,311.5,M,-23.7,M,1.8,0000*48
$GPGSA,A,3,31,30,20,32,23,06,16,,,,,,2.1,1.2,1.7*36
$GPGSV,3,1,12,30,66,075,33,16,64,152,25,32,61,203,30,20,56,261,33*7D
$GPGSV,3,2,12,23,39,315,38,31,28,050,28,06,11,141,25,13,11,303,*7C
$GPGSV,3,3,12,03,09,156,20,14,05,110,17,01,03,225,19,29,01,045,*72
$GPRMC,215036.000,A,3352.6242,N,09833.5867,W,0.08,191.47,020412,,,D*75
$GPGGA,215037.000,3352.6241,N,09833.5867,W,2,07,1.2,311.5,M,-23.7,M,0.8,0000*4B
$GPGSA,A,3,31,30,20,32,23,06,16,,,,,,2.1,1.2,1.7*36
$GPRMC,215037.000,A,3352.6241,N,09833.5867,W,0.13,160.35,020412,,,D*76
$GPGGA,215038.000,3352.6240,N,09833.5867,W,2,07,1.2,311.5,M,-23.7,M,1.8,0000*44
$GPGSA,A,3,31,30,20,32,23,06,16,,,,,,2.1,1.2,1.7*36
$GPRMC,215038.000,A,3352.6240,N,09833.5867,W,0.09,162.84,020412,,,D*7B
$GPGGA,215039.000,3352.6240,N,09833.5867,W,2,07,1.2,311.5,M,-23.7,M,0.8,0000*44
$GPGSA,A,3,31,30,20,32,23,06,16,,,,,,2.1,1.2,1.7*36
$GPRMC,215039.000,A,3352.6240,N,09833.5867,W,0.07,149.65,020412,,,D*72
$GPGGA,215040.000,3352.6239,N,09833.5867,W,2,07,1.2,311.4,M,-23.7,M,0.8,0000*45
$GPGSA,A,3,31,30,20,32,23,06,16,,,,,,2.1,1.2,1.7*36
$GPRMC,215040.000,A,3352.6239,N,09833.5867,W,0.07,137.87,020412,,,D*77
$GPGGA,215041.000,3352.6238,N,09833.5867,W,2,07,1.2,311.3,M,-23.7,M,0.8,0000*42
$GPGSA,A,3,31,30,20,32,23,06,16,,,,,,2.1,1.2,1.7*36
$GPGSV,3,1,12,30,66,075,34,16,64,152,26,32,61,203,30,20,56,261,33*79
$GPGSV,3,2,12,23,39,315,38,31,28,050,28,06,11,141,25,13,11,303,*7C
$GPGSV,3,3,12,03,09,156,20,14,05,110,17,01,03,225,25,29,01,045,*7D
$GPRMC,215041.000,A,3352.6238,N,09833.5867,W,0.08,133.90,020412,,,D*7A
$GPGGA,215042.000,3352.6238,N,09833.5867,W,2,07,1.2,311.2,M,-23.7,M,1.8,0000*41
$GPGSA,A,3,31,30,20,32,23,06,16,,,,,,2.1,1.2,1.7*36
$GPRMC,215042.000,A,3352.6238,N,09833.5867,W,0.07,143.33,020412,,,D*78
$GPGGA,215043.000,3352.6237,N,09833.5867,W,2,07,1.2,311.0,M,-23.7,M,0.8,0000*4C
$GPGSA,A,3,31,30,20,32,23,06,16,,,,,,2.1,1.2,1.7*36
$GPRMC,215043.000,A,3352.6237,N,09833.5867,W,0.09,146.44,020412,,,D*7D
$GPGGA,215044.000,3352.6236,N,09833.5867,W,2,07,1.2,310.8,M,-23.7,M,1.8,0000*42
$GPGSA,A,3,31,30,20,32,23,06,16,,,,,,2.1,1.2,1.7*36
$GPRMC,215044.000,A,3352.6236,N,09833.5867,W,0.17,154.08,020412,,,D*7F
$GPGGA,215045.000,3352.6235,N,09833.5867,W,2,07,1.2,310.7,M,-23.7,M,0.8,0000*4E
$GPGSA,A,3,31,30,20,32,23,06,16,,,,,,2.1,1.2,1.7*36
$GPRMC,215045.000,A,3352.6235,N,09833.5867,W,0.08,184.31,020412,,,D*74
$GPGGA,215046.000,3352.6234,N,09833.5867,W,2,07,1.2,310.4,M,-23.7,M,0.8,0000*4F
$GPGSA,A,3,31,30,20,32,23,06,16,,,,,,2.1,1.2,1.7*36
$GPGSV,3,1,12,30,66,075,34,16,64,152,28,32,61,203,30,20,56,261,33*77
$GPGSV,3,2,12,23,39,315,38,31,28,050,28,06,11,141,25,13,11,303,*7C
$GPGSV,3,3,12,03,09,156,21,14,05,110,17,01,03,225,27,29,01,045,*7E
$GPRMC,215046.000,A,3352.6234,N,09833.5867,W,0.28,164.47,020412,,,D*7B
$GPGGA,215047.000,3352.6232,N,09833.5866,W,2,07,1.2,310.5,M,-23.7,M,0.8,0000*48
$GPGSA,A,3,31,30,20,32,23,06,16,,,,,,2.1,1.2,1.7*36
$GPRMC,215047.000,A,3352.6232,N,09833.5866,W,0.11,172.48,020412,,,D*7F
$GPGGA,215048.000,3352.6230,N,09833.5866,W,2,07,1.2,310.5,M,-23.7,M,1.8,0000*44
$GPGSA,A,3,31,30,20,32,23,06,16,,,,,,2.1,1.2,1.7*36
$GPRMC,215048.000,A,3352.6230,N,09833.5866,W,0.11,177.63,020412,,,D*7E
$GPGGA,215049.000,3352.6228,N,09833.5865,W,2,07,1.2,310.5,M,-23.7,M,0.8,0000*4E
$GPGSA,A,3,31,30,20,32,23,06,16,,,,,,2.1,1.2,1.7*36
$GPRMC,215049.000,A,3352.6228,N,09833.5865,W,0.18,168.73,020412,,,D*73
$GPGGA,215050.000,3352.6227,N,09833.5865,W,2,07,1.2,310.5,M,-23.7,M,1.8,0000*48
$GPGSA,A,3,31,30,20,32,23,06,16,,,,,,2.1,1.2,1.7*36
$GPRMC,215050.000,A,3352.6227,N,09833.5865,W,0.10,189.61,020412,,,D*70
$GPGGA,215051.000,3352.6226,N,09833.5865,W,2,07,1.2,310.5,M,-23.7,M,0.8,0000*49
$GPGSA,A,3,31,30,20,32,23,06,16,,,,,,2.1,1.2,1.7*36
$GPGSV,3,1,12,30,66,075,34,16,64,152,29,32,61,203,30,20,56,261,33*76
$GPGSV,3,2,12,23,39,315,38,31,28,050,28,06,11,141,25,13,11,303,*7C
$GPGSV,3,3,12,03,09,156,21,14,05,110,17,01,03,225,29,29,01,045,*70
$GPRMC,215051.000,A,3352.6226,N,09833.5865,W,0.05,196.98,020412,,,D*7C
$GPGGA,215052.000,3352.6224,N,09833.5865,W,2,07,1.2,310.2,M,-23.7,M,0.8,0000*4F
$GPGSA,A,3,31,30,20,32,23,06,16,,,,,,2.1,1.2,1.7*36
$GPRMC,215052.000,A,3352.6224,N,09833.5865,W,0.25,147.26,020412,,,D*76
$GPGGA,215053.000,3352.6223,N,09833.5864,W,2,07,1.2,310.2,M,-23.7,M,0.8,0000*48
$GPGSA,A,3,31,30,20,32,23,06,16,,,,,,2.1,1.2,1.7*36
$GPRMC,215053.000,A,3352.6223,N,09833.5864,W,0.04,140.30,020412,,,D*72
$GPGGA,215054.000,3352.6222,N,09833.5864,W,2,07,1.2,309.9,M,-23.7,M,0.8,0000*4D
$GPGSA,A,3,31,30,20,32,23,06,16,,,,,,2.1,1.2,1.7*36
$GPRMC,215054.000,A,3352.6222,N,09833.5864,W,0.23,140.49,020412,,,D*7F
$GPGGA,215055.000,3352.6221,N,09833.5864,W,2,07,1.2,309.7,M,-23.7,M,1.8,0000*40
$GPGSA,A,3,31,30,20,32,23,06,16,,,,,,2.1,1.2,1.7*36
$GPRMC,215055.000,A,3352.6221,N,09833.5864,W,0.14,148.50,020412,,,D*79
$GPGGA,215056.000,3352.6221,N,09833.5864,W,2,07,1.2,309.6,M,-23.7,M,2.8,0000*41
$GPGSA,A,3,31,30,20,32,23,06,16,,,,,,2.1,1.2,1.7*36
$GPGSV,3,1,12,30,66,075,34,16,64,152,30,32,61,203,31,20,56,261,33*7F
$GPGSV,3,2,12,23,39,315,37,31,28,050,28,06,11,141,24,13,11,303,*72
$GPGSV,3,3,12,03,09,156,21,14,05,110,17,01,03,225,30,29,01,045,*78
$GPRMC,215056.000,A,3352.6221,N,09833.5864,W,0.02,0.83,020412,,,D*7E
$GPGGA,215057.000,3352.6221,N,09833.5864,W,2,07,1.2,309.6,M,-23.7,M,0.8,0000*42
$GPGSA,A,3,31,30,20,32,23,06,16,,,,,,2.1,1.2,1.7*36
$GPRMC,215057.000,A,3352.6221,N,09833.5864,W,0.05,105.82,020412,,,D*7D
$GPGGA,215058.000,3352.6220,N,09833.5864,W,2,07,1.2,309.5,M,-23.7,M,0.8,0000*4F
$GPGSA,A,3,31,30,20,32,23,06,16,,,,,,2.1,1.2,1.7*36
$GPRMC,215058.000,A,3352.6220,N,09833.5864,W,0.10,170.21,020412,,,D*7C
$GPGGA,215059.000,3352.6219,N,09833.5864,W,2,07,1.2,309.5,M,-23.7,M,0.8,0000*44
$GPGSA,A,3,31,30,20,32,23,06,16,,,,,,2.1,1.2,1.7*36
$GPRMC,215059.000,A,3352.6219,N,09833.5864,W,0.09,185.67,020412,,,D*77
$GPGGA,215100.000,3352.6218,N,09833.5864,W,2,07,1.2,309.2,M,-23.7,M,0.8,0000*4F
$GPGSA,A,3,31,30,20,32,23,06,16,,,,,,2.1,1.2,1.7*36
$GPRMC,215100.000,A,3352.6218,N,09833.5864,W,0.24,165.88,020412,,,D*7B
$GPGGA,215101.000,3352.6218,N,09833.5864,W,2,07,1.2,309.2,M,-23.7,M,1.8,0000*4F
$GPGSA,A,3,31,30,20,32,23,06,16,,,,,,2.1,1.2,1.7*36
$GPGSV,3,1,12,30,66,075,34,16,64,152,30,32,61,203,31,20,56,261,33*7F
$GPGSV,3,2,12,23,39,315,37,31,28,050,27,06,11,141,25,13,11,303,*7C
$GPGSV,3,3,12,03,09,156,20,14,05,110,16,01,03,225,30,29,01,045,*78
$GPRMC,215101.000,A,3352.6218,N,09833.5864,W,0.07,189.96,020412,,,D*76
$GPGGA,215102.000,3352.6217,N,09833.5864,W,2,07,1.2,309.0,M,-23.7,M,2.8,0000*42
$GPGSA,A,3,31,30,20,32,23,06,16,,,,,,2.1,1.2,1.7*36
$GPRMC,215102.000,A,3352.6217,N,09833.5864,W,0.16,156.68,020412,,,D*79
$GPGGA,215103.000,3352.6216,N,09833.5864,W,2,07,1.2,308.9,M,-23.7,M,0.8,0000*48
$GPGSA,A,3,31,30,20,32,23,06,16,,,,,,2.1,1.2,1.7*36
$GPRMC,215103.000,A,3352.6216,N,09833.5864,W,0.19,173.25,020412,,,D*78
$GPGGA,215104.000,3352.6216,N,09833.5864,W,2,07,1.2,308.8,M,-23.7,M,0.8,0000*4E
$GPGSA,A,3,31,30,20,32,23,06,16,,,,,,2.1,1.2,1.7*36
$GPRMC,215104.000,A,3352.6216,N,09833.5864,W,0.07,210.28,020412,,,D*7B
$GPGGA,215105.000,3352.6215,N,09833.5865,W,2,07,1.2,308.7,M,-23.7,M,0.8,0000*42
$GPGSA,A,3,31,30,20,32,23,06,16,,,,,,2.1,1.2,1.7*36
$GPRMC,215105.000,A,3352.6215,N,09833.5865,W,0.09,170.61,020412,,,D*7E
$GPGGA,215106.000,3352.6215,N,09833.5865,W,2,07,1.2,308.7,M,-23.7,M,1.8,0000*40
$GPGSA,A,3,31,30,20,32,23,06,16,,,,,,2.1,1.2,1.7*36
$GPGSV,3,1,12,30,66,075,35,16,64,152,30,32,61,203,32,20,56,261,33*7D
$GPGSV,3,2,12,23,39,315,37,31,28,050,27,06,11,141,25,13,11,303,*7C
$GPGSV,3,3,12,03,09,156,21,14,05,110,16,01,03,225,29,29,01,045,*71
$GPRMC,215106.000,A,3352.6215,N,09833.5865,W,0.04,195.27,020412,,,D*79
$GPGGA,215107.000,3352.6215,N,09833.5865,W,2,07,1.2,308.6,M,-23.7,M,2.8,0000*43
$GPGSA,A,3,31,30,20,32,23,06,16,,,,,,2.1,1.2,1.7*36
$GPRMC,215107.000,A,3352.6215,N,09833.5865,W,0.03,170.06,020412,,,D*77
$GPGGA,215108.000,3352.6214,N,09833.5866,W,2,07,1.2,308.6,M,-23.7,M,3.8,0000*4F
$GPGSA,A,3,31,30,20,32,23,06,16,,,,,,2.1,1.2,1.7*36
$GPRMC,215108.000,A,3352.6214,N,09833.5866,W,0.04,206.46,020412,,,D*7B
$GPGGA,215109.000,3352.6214,N,09833.5866,W,2,07,1.2,308.5,M,-23.7,M,0.8,0000*4E
$GPGSA,A,3,31,30,20,32,23,06,16,,,,,,2.1,1.2,1.7*36
$GPRMC,215109.000,A,3352.6214,N,09833.5866,W,0.08,111.59,020412,,,D*7D
$GPGGA,215110.000,3352.6214,N,09833.5866,W,2,07,1.2,308.3,M,-23.7,M,1.8,0000*41
$GPGSA,A,3,31,30,20,32,23,06,16,,,,,,2.1,1.2,1.7*36
$GPRMC,215110.000,A,3352.6214,N,09833.5866,W,0.08,131.35,020412,,,D*7D
$GPGGA,215111.000,3352.6214,N,09833.5865,W,2,07,1.2,308.1,M,-23.7,M,0.8,0000*40
$GPGSA,A,3,31,30,20,32,23,06,16,,,,,,2.1,1.2,1.7*36
$GPGSV,3,1,12,30,66,075,35,16,64,152,30,32,61,203,32,20,56,261,34*7A
$GPGSV,3,2,12,23,39,315,36,31,28,050,27,06,11,141,25,13,11,303,*7D
$GPGSV,3,3,12,03,09,156,21,14,05,110,16,01,03,225,25,29,01,045,*7D
$GPRMC,215111.000,A,3352.6214,N,09833.5865,W,0.05,109.20,020412,,,D*7D
$GPGGA,215112.000,3352.6214,N,09833.5865,W,2,07,1.2,308.0,M,-23.7,M,1.8,0000*43
$GPGSA,A,3,31,30,20,32,23,06,16,,,,,,2.1,1.2,1.7*36
$GPRMC,215112.000,A,3352.6214,N,09833.5865,W,0.06,98.58,020412,,,D*4B
$GPGGA,215113.000,3352.6214,N,09833.5865,W,2,07,1.2,307.8,M,-23.7,M,0.8,0000*44
$GPGSA,A,3,31,30,20,32,23,06,16,,,,,,2.1,1.2,1.7*36
$GPRMC,215113.000,A,3352.6214,N,09833.5865,W,0.04,70.44,020412,,,D*43
$GPGGA,215114.000,3352.6214,N,09833.5865,W,2,07,1.2,307.7,M,-23.7,M,1.8,0000*4D
$GPGSA,A,3,31,30,20,32,23,06,16,,,,,,2.1,1.2,1.7*36
$GPRMC,215114.000,A,3352.6214,N,09833.5865,W,0.06,98.67,020412,,,D*41
$GPGGA,215115.000,3352.6214,N,09833.5865,W,2,07,1.2,307.5,M,-23.7,M,0.8,0000*4F
$GPGSA,A,3,31,30,20,32,23,06,16,,,,,,2.1,1.2,1.7*36
$GPRMC,215115.000,A,3352.6214,N,09833.5865,W,0.04,200.70,020412,,,D*77
$GPGGA,215116.000,3352.6214,N,09833.5865,W,2,07,1.2,307.3,M,-23.7,M,0.8,0000*4A
$GPGSA,A,3,31,30,20,32,23,06,16,,,,,,2.1,1.2,1.7*36
$GPGSV,3,1,12,30,66,075,35,16,64,152,30,32,61,203,32,20,56,261,34*7A
$GPGSV,3,2,12,23,39,315,36,31,28,050,27,06,11,141,26,13,11,303,*7E
$GPGSV,3,3,12,03,09,156,22,14,05,110,16,01,03,225,23,29,01,045,*78
$GPRMC,215116.000,A,3352.6214,N,09833.5865,W,0.03,177.98,020412,,,D*76
$GPGGA,215117.000,3352.6213,N,09833.5865,W,2,07,1.2,307.2,M,-23.7,M,0.8,0000*4D
$GPGSA,A,3,31,30,20,32,23,06,16,,,,,,2.1,1.2,1.7*36
$GPRMC,215117.000,A,3352.6213,N,09833.5865,W,0.04,177.98,020412,,,D*77
$GPGGA,215118.000,3352.6213,N,09833.5865,W,2,07,1.2,307.0,M,-23.7,M,1.8,0000*41
$GPGSA,A,3,31,30,20,32,23,06,16,,,,,,2.1,1.2,1.7*36
$GPRMC,215118.000,A,3352.6213,N,09833.5865,W,0.04,199.41,020412,,,D*7C
$GPGGA,215119.000,3352.6213,N,09833.5865,W,2,07,1.2,306.9,M,-23.7,M,2.8,0000*4B
$GPGSA,A,3,31,30,20,32,23,06,16,,,,,,2.1,1.2,1.7*36
$GPRMC,215119.000,A,3352.6213,N,09833.5865,W,0.06,200.17,020412,,,D*7F
$GPGGA,215120.000,3352.6213,N,09833.5865,W,2,07,1.2,306.8,M,-23.7,M,3.8,0000*41
$GPGSA,A,3,31,30,20,32,23,06,16,,,,,,2.1,1.2,1.7*36
$GPRMC,215120.000,A,3352.6213,N,09833.5865,W,0.04,169.49,020412,,,D*70
$GPGGA,215121.000,3352.6213,N,09833.5865,W,2,07,1.2,306.7,M,-23.7,M,0.8,0000*4C
$GPGSA,A,3,31,30,20,32,23,06,16,,,,,,2.1,1.2,1.7*36
$GPRMC,215121.000,A,3352.6213,N,09833.5865,W,0.06,144.33,020412,,,D*71
$GPGGA,215122.000,3352.6213,N,09833.5865,W,2,07,1.2,306.7,M,-23.7,M,0.8,0000*4F
$GPGSA,A,3,31,30,20,32,23,06,16,,,,,,2.1,1.2,1.7*36
$GPRMC,215122.000,A,3352.6213,N,09833.5865,W,0.06,96.68,020412,,,D*42
$GPGGA,215123.000,3352.6213,N,09833.5864,W,2,07,1.2,306.7,M,-23.7,M,0.8,0000*4F
$GPGSA,A,3,31,30,20,32,23,06,16,,,,,,2.1,1.2,1.7*36
$GPRMC,215123.000,A,3352.6213,N,09833.5864,W,0.06,108.27,020412,,,D*7F
$GPGGA,215124.000,3352.6213,N,09833.5864,W,2,07,1.2,306.7,M,-23.7,M,0.8,0000*48
$GPGSA,A,3,31,30,20,32,23,06,16,,,,,,2.1,1.2,1.7*36
$GPRMC,215124.000,A,3352.6213,N,09833.5864,W,0.04,106.58,020412,,,D*7C
$GPGGA,215125.000,3352.6213,N,09833.5864,W,2,07,1.2,306.8,M,-23.7,M,0.8,0000*46
$GPGSA,A,3,31,30,20,32,23,06,16,,,,,,2.1,1.2,1.7*36
$GPRMC,215125.000,A,3352.6213,N,09833.5864,W,0.05,100.20,020412,,,D*75
$GPGGA,215126.000,3352.6213,N,09833.5864,W,2,07,1.2,306.9,M,-23.7,M,1.8,0000*45
$GPGSA,A,3,31,30,20,32,23,06,16,,,,,,2.1,1.2,1.7*36
$GPGSV,3,1,12,30,66,073,35,16,64,151,29,32,60,203,32,20,56,260,34*77
$GPGSV,3,2,12,23,39,316,36,31,28,050,27,06,11,141,26,13,11,303,*7D
$GPGSV,3,3,12,03,10,156,25,14,05,110,15,01,03,224,24,29,01,045,*72
$GPRMC,215126.000,A,3352.6213,N,09833.5864,W,0.07,91.55,020412,,,D*4F
$GPGGA,215127.000,3352.6213,N,09833.5864,W,2,07,1.2,307.0,M,-23.7,M,0.8,0000*4D
$GPGSA,A,3,31,30,20,32,23,06,16,,,,,,2.1,1.2,1.7*36
$GPRMC,215127.000,A,3352.6213,N,09833.5864,W,0.06,161.58,020412,,,D*7C
$GPGGA,215128.000,3352.6213,N,09833.5864,W,2,07,1.2,307.1,M,-23.7,M,0.8,0000*43
$GPGSA,A,3,31,30,20,32,23,06,16,,,,,,2.1,1.2,1.7*36
$GPRMC,215128.000,A,3352.6213,N,09833.5864,W,0.04,94.56,020412,,,D*44
$GPGGA,215129.000,3352.6213,N,09833.5864,W,2,07,1.2,307.1,M,-23.7,M,0.8,0000*42
$GPGSA,A,3,31,30,20,32,23,06,16,,,,,,2.1,1.2,1.7*36
$GPRMC,215129.000,A,3352.6213,N,09833.5864,W,0.06,125.41,020412,,,D*7A
$GPGGA,215130.000,3352.6212,N,09833.5864,W,2,07,1.2,307.2,M,-23.7,M,0.8,0000*48
$GPGSA,A,3,31,30,20,32,23,06,16,,,,,,2.1,1.2,1.7*36
$GPRMC,215130.000,A,3352.6212,N,09833.5864,W,0.05,136.26,020412,,,D*73
$GPGGA,215131.000,3352.6212,N,09833.5864,W,2,07,1.2,307.2,M,-23.7,M,0.8,0000*49
$GPGSA,A,3,31,30,20,32,23,06,16,,,,,,2.1,1.2,1.7*36
$GPGSV,3,1,12,30,66,073,35,16,64,151,29,32,60,203,32,20,56,260,34*77
$GPGSV,3,2,12,23,39,316,36,31,28,050,28,06,11,141,27,13,11,303,*73
$GPGSV,3,3,12,03,10,156,26,14,05,110,,01,03,224,25,29,01,045,*74
$GPRMC,215131.000,A,3352.6212,N,09833.5864,W,0.06,124.13,020412,,,D*74
$GPGGA,215132.000,3352.6212,N,09833.5864,W,2,07,1.2,307.3,M,-23.7,M,1.8,0000*4A
$GPGSA,A,3,31,30,20,32,23,06,16,,,,,,2.1,1.2,1.7*36
$GPRMC,215132.000,A,3352.6212,N,09833.5864,W,0.05,137.23,020412,,,D*75
$GPGGA,215133.000,3352.6212,N,09833.5865,W,2,07,1.2,307.3,M,-23.7,M,0.8,0000*4B
$GPGSA,A,3,31,30,20,32,23,06,16,,,,,,2.1,1.2,1.7*36
$GPRMC,215133.000,A,3352.6212,N,09833.5865,W,0.06,85.20,020412,,,D*4D
$GPGGA,215134.000,3352.6212,N,09833.5865,W,2,07,1.2,307.4,M,-23.7,M,0.8,0000*4B
$GPGSA,A,3,31,30,20,32,23,06,16,,,,,,2.1,1.2,1.7*36
$GPRMC,215134.000,A,3352.6212,N,09833.5865,W,0.06,146.63,020412,,,D*73
$GPGGA,215135.000,3352.6212,N,09833.5865,W,2,07,1.2,307.6,M,-23.7,M,0.8,0000*48
$GPGSA,A,3,31,30,20,32,23,06,16,,,,,,2.1,1.2,1.7*36
$GPRMC,215135.000,A,3352.6212,N,09833.5865,W,0.04,133.17,020412,,,D*71
$GPGGA,215136.000,3352.6212,N,09833.5865,W,2,07,1.2,307.7,M,-23.7,M,1.8,0000*4B
$GPGSA,A,3,31,30,20,32,23,06,16,,,,,,2.1,1.2,1.7*36
$GPGSV,3,1,12,30,66,073,35,16,64,151,29,32,60,203,32,20,56,260,34*77
$GPGSV,3,2,12,23,40,316,37,31,28,051,29,06,12,141,28,13,11,303,17*76
$GPGSV,3,3,12,03,10,156,27,14,04,110,,01,03,224,27,29,01,045,*76
$GPRMC,215136.000,A,3352.6212,N,09833.5865,W,0.04,142.07,020412,,,D*75
$GPGGA,215137.000,3352.6212,N,09833.5865,W,2,07,1.2,307.9,M,-23.7,M,2.8,0000*47
$GPGSA,A,3,31,30,20,32,23,06,16,,,,,,2.1,1.2,1.7*36
$GPRMC,215137.000,A,3352.6212,N,09833.5865,W,0.03,143.49,020412,,,D*78
$GPGGA,215138.000,3352.6212,N,09833.5866,W,2,07,1.2,307.9,M,-23.7,M,3.8,0000*4A
$GPGSA,A,3,31,30,20,32,23,06,16,,,,,,2.1,1.2,1.7*36
$GPRMC,215138.000,A,3352.6212,N,09833.5866,W,0.03,118.33,020412,,,D*77
$GPGGA,215139.000,3352.6212,N,09833.5866,W,2,07,1.2,308.1,M,-23.7,M,0.8,0000*4F
$GPGSA,A,3,31,30,20,32,23,06,16,,,,,,2.1,1.2,1.7*36
$GPRMC,215139.000,A,3352.6212,N,09833.5866,W,0.06,118.00,020412,,,D*73
$GPGGA,215140.000,3352.6212,N,09833.5866,W,2,08,1.2,308.1,M,-23.7,M,0.8,0000*4E
$GPGSA,A,3,31,30,20,32,23,06,03,16,,,,,1.9,1.2,1.5*3C
$GPRMC,215140.000,A,3352.6212,N,09833.5866,W,0.09,78.02,020412,,,D*47
$GPGGA,215141.000,3352.6213,N,09833.5866,W,2,08,1.2,308.2,M,-23.7,M,0.8,0000*4D
$GPGSA,A,3,31,30,20,32,23,06,03,16,,,,,1.9,1.2,1.5*3C
$GPGSV,3,1,12,30,66,073,35,16,64,151,28,32,60,203,32,20,56,260,34*76
$GPGSV,3,2,12,23,40,316,37,31,28,051,29,06,12,141,28,13,11,303,18*79
$GPGSV,3,3,12,03,10,156,27,14,04,110,,01,03,224,28,29,01,045,*79
$GPRMC,215141.000,A,3352.6213,N,09833.5866,W,0.10,96.43,020412,,,D*4A
$GPGGA,215142.000,3352.6213,N,09833.5866,W,2,08,1.2,308.2,M,-23.7,M,1.8,0000*4F
$GPGSA,A,3,31,30,20,32,23,06,03,16,,,,,1.9,1.2,1.5*3C
$GPRMC,215142.000,A,3352.6213,N,09833.5866,W,0.08,94.22,020412,,,D*45
$GPGGA,215143.000,3352.6213,N,09833.5866,W,2,08,1.2,308.2,M,-23.7,M,2.8,0000*4D
$GPGSA,A,3,31,30,20,32,23,06,03,16,,,,,1.9,1.2,1.5*3C
$GPRMC,215143.000,A,3352.6213,N,09833.5866,W,0.10,91.78,020412,,,D*47
$GPGGA,215144.000,3352.6214,N,09833.5866,W,2,08,1.2,308.2,M,-23.7,M,3.8,0000*4C
$GPGSA,A,3,31,30,20,32,23,06,03,16,,,,,1.9,1.2,1.5*3C
$GPRMC,215144.000,A,3352.6214,N,09833.5866,W,0.08,102.26,020412,,,D*7E
$GPGGA,215145.000,3352.6214,N,09833.5866,W,2,08,1.2,308.2,M,-23.7,M,0.8,0000*4E
$GPGSA,A,3,31,30,20,32,23,06,03,16,,,,,1.9,1.2,1.5*3C
$GPRMC,215145.000,A,3352.6214,N,09833.5866,W,0.03,46.34,020412,,,D*46
$GPGGA,215146.000,3352.6214,N,09833.5867,W,2,08,1.2,308.3,M,-23.7,M,0.8,0000*4D
$GPGSA,A,3,31,30,20,32,23,06,03,16,,,,,1.9,1.2,1.5*3C
$GPGSV,3,1,12,30,66,073,35,16,64,151,28,32,60,203,32,20,56,260,34*76
$GPGSV,3,2,12,23,40,316,37,31,28,051,30,06,12,141,28,13,11,303,18*71
$GPGSV,3,3,12,03,10,156,27,14,04,110,,01,03,224,29,29,01,045,*78
$GPRMC,215146.000,A,3352.6214,N,09833.5867,W,0.04,229.47,020412,,,D*7C
$GPGGA,215147.000,3352.6214,N,09833.5867,W,2,08,1.2,308.4,M,-23.7,M,0.8,0000*4B
$GPGSA,A,3,31,30,20,32,23,06,03,16,,,,,1.9,1.2,1.5*3C
$GPRMC,215147.000,A,3352.6214,N,09833.5867,W,0.02,340.49,020412,,,D*7B
$GPGGA,215148.000,3352.6215,N,09833.5868,W,2,08,1.2,308.5,M,-23.7,M,1.8,0000*4A
$GPGSA,A,3,31,30,20,32,23,06,03,16,,,,,1.9,1.2,1.5*3C
$GPRMC,215148.000,A,3352.6215,N,09833.5868,W,0.03,230.72,020412,,,D*75
$GPGGA,215149.000,3352.6215,N,09833.5868,W,2,08,1.2,308.7,M,-23.7,M,2.8,0000*4A
$GPGSA,A,3,31,30,20,32,23,06,03,16,,,,,1.9,1.2,1.5*3C
$GPRMC,215149.000,A,3352.6215,N,09833.5868,W,0.03,275.64,020412,,,D*72
$GPGGA,215150.000,3352.6215,N,09833.5869,W,2,08,1.2,308.9,M,-23.7,M,3.8,0000*4C
$GPGSA,A,3,31,30,20,32,23,06,03,16,,,,,1.9,1.2,1.5*3C
$GPRMC,215150.000,A,3352.6215,N,09833.5869,W,0.02,240.67,020412,,,D*7F
$GPGGA,215151.000,3352.6215,N,09833.5869,W,2,08,1.2,309.1,M,-23.7,M,0.8,0000*47
$GPGSA,A,3,31,30,20,32,23,06,03,16,,,,,1.9,1.2,1.5*3C
$GPGSV,3,1,12,30,66,073,35,16,64,151,27,32,60,203,32,20,56,260,33*7E
$GPGSV,3,2,12,23,40,316,37,31,28,051,30,06,12,141,28,13,11,303,19*70
$GPGSV,3,3,12,03,10,156,27,14,04,110,,01,03,224,29,29,01,045,*78
$GPRMC,215151.000,A,3352.6215,N,09833.5869,W,0.05,116.10,020412,,,D*79
$GPGGA,215152.000,3352.6216,N,09833.5869,W,2,08,1.2,309.2,M,-23.7,M,0.8,0000*44
$GPGSA,A,3,31,30,20,32,23,06,03,16,,,,,1.9,1.2,1.5*3C
$GPRMC,215152.000,A,3352.6216,N,09833.5869,W,0.10,95.12,020412,,,D*45
$GPGGA,215153.000,3352.6216,N,09833.5868,W,2,08,1.2,309.3,M,-23.7,M,0.8,0000*45
$GPGSA,A,3,31,30,20,32,23,06,03,16,,,,,1.9,1.2,1.5*3C
$GPRMC,215153.000,A,3352.6216,N,09833.5868,W,0.10,95.01,020412,,,D*47
$GPGGA,215154.000,3352.6216,N,09833.5868,W,2,08,1.2,309.4,M,-23.7,M,0.8,0000*45
$GPGSA,A,3,31,30,20,32,23,06,03,16,,,,,1.9,1.2,1.5*3C
$GPRMC,215154.000,A,3352.6216,N,09833.5868,W,0.11,89.43,020412,,,D*4A
$GPGGA,215155.000,3352.6216,N,09833.5868,W,2,08,1.2,309.5,M,-23.7,M,0.8,0000*45
$GPGSA,A,3,31,30,20,32,23,06,03,16,,,,,1.9,1.2,1.5*3C
$GPRMC,215155.000,A,3352.6216,N,09833.5868,W,0.10,99.98,020412,,,D*4D
$GPGGA,215156.000,3352.6216,N,09833.5868,W,2,08,1.2,309.6,M,-23.7,M,1.8,0000*44
$GPGSA,A,3,31,30,20,32,23,06,03,16,,,,,1.9,1.2,1.5*3C
$GPGSV,3,1,12,30,66,073,35,16,64,151,27,32,60,203,32,20,56,260,33*7E
$GPGSV,3,2,12,23,40,316,38,31,28,051,31,06,12,141,28,13,11,303,20*74
$GPGSV,3,3,12,03,10,156,27,14,04,110,,01,03,224,29,29,01,045,*78
$GPRMC,215156.000,A,3352.6216,N,09833.5868,W,0.12,84.46,020412,,,D*43
$GPGGA,215157.000,3352.6217,N,09833.5868,W,2,08,1.2,309.7,M,-23.7,M,0.8,0000*44
$GPGSA,A,3,31,30,20,32,23,06,03,16,,,,,1.9,1.2,1.5*3C
$GPRMC,215157.000,A,3352.6217,N,09833.5868,W,0.03,65.30,020412,,,D*4D
$GPGGA,215158.000,3352.6217,N,09833.5868,W,2,08,1.2,309.8,M,-23.7,M,0.8,0000*44
$GPGSA,A,3,31,30,20,32,23,06,03,16,,,,,1.9,1.2,1.5*3C
$GPRMC,215158.000,A,3352.6217,N,09833.5868,W,0.03,176.65,020412,,,D*71
$GPGGA,215159.000,3352.6217,N,09833.5869,W,2,08,1.2,310.0,M,-23.7,M,0.8,0000*44
$GPGSA,A,3,31,30,20,32,23,06,03,16,,,,,1.9,1.2,1.5*3C
$GPRMC,215159.000,A,3352.6217,N,09833.5869,W,0.02,318.75,020412,,,D*7B
$GPGGA,215200.000,3352.6217,N,09833.5869,W,2,08,1.2,310.2,M,-23.7,M,1.8,0000*48
$GPGSA,A,3,31,30,20,32,23,06,03,16,,,,,1.9,1.2,1.5*3C
$GPRMC,215200.000,A,3352.6217,N,09833.5869,W,0.01,184.49,020412,,,D*7F
$GPGGA,215201.000,3352.6217,N,09833.5869,W,2,08,1.2,310.3,M,-23.7,M,2.8,0000*4B
$GPGSA,A,3,31,30,20,32,23,06,03,16,,,,,1.9,1.2,1.5*3C
$GPGSV,3,1,12,30,66,073,35,16,64,151,26,32,60,203,32,20,56,260,33*7F
$GPGSV,3,2,12,23,40,316,38,31,28,051,31,06,12,141,28,13,11,303,20*74
$GPGSV,3,3,12,03,10,156,28,14,04,110,,01,03,224,28,29,01,045,*76
$GPRMC,215201.000,A,3352.6217,N,09833.5869,W,0.02,251.40,020412,,,D*7F
$GPGGA,215202.000,3352.6217,N,09833.5869,W,2,08,1.2,310.5,M,-23.7,M,3.8,0000*4F
$GPGSA,A,3,31,30,20,32,23,06,03,16,,,,,1.9,1.2,1.5*3C
$GPRMC,215202.000,A,3352.6217,N,09833.5869,W,0.01,305.25,020412,,,D*7C
$GPGGA,215203.000,3352.6217,N,09833.5869,W,2,08,1.2,310.7,M,-23.7,M,0.8,0000*4F
$GPGSA,A,3,31,30,20,32,23,06,03,16,,,,,1.9,1.2,1.5*3C
$GPRMC,215203.000,A,3352.6217,N,09833.5869,W,0.10,127.99,020412,,,D*78
$GPGGA,215204.000,3352.6217,N,09833.5869,W,2,08,1.2,310.8,M,-23.7,M,0.8,0000*47
$GPGSA,A,3,31,30,20,32,23,06,03,16,,,,,1.9,1.2,1.5*3C
$GPRMC,215204.000,A,3352.6217,N,09833.5869,W,0.11,89.22,020412,,,D*4B
$GPGGA,215205.000,3352.6217,N,09833.5869,W,2,08,1.2,311.0,M,-23.7,M,0.8,0000*4F
$GPGSA,A,3,31,30,20,32,23,06,03,16,,,,,1.9,1.2,1.5*3C
$GPRMC,215205.000,A,3352.6217,N,09833.5869,W,0.13,98.01,020412,,,D*49
$GPGGA,215206.000,3352.6217,N,09833.5868,W,2,08,1.2,311.0,M,-23.7,M,1.8,0000*4C
$GPGSA,A,3,31,30,20,32,23,06,03,16,,,,,1.9,1.2,1.5*3C
$GPGSV,3,1,12,30,66,073,35,16,64,151,25,32,60,203,32,20,56,260,32*7D
$GPGSV,3,2,12,23,40,316,38,31,28,051,31,06,12,141,27,13,11,303,18*70
$GPGSV,3,3,12,03,10,156,28,14,04,110,,01,03,224,28,29,01,045,*76
$GPRMC,215206.000,A,3352.6217,N,09833.5868,W,0.12,85.29,020412,,,D*4C
$GPGGA,215207.000,3352.6217,N,09833.5868,W,2,08,1.2,311.1,M,-23.7,M,2.8,0000*4F
$GPGSA,A,3,31,30,20,32,23,06,03,16,,,,,1.9,1.2,1.5*3C
$GPRMC,215207.000,A,3352.6217,N,09833.5868,W,0.12,110.60,020412,,,D*7D
$GPGGA,215208.000,3352.6217,N,09833.5868,W,2,08,1.2,311.2,M,-23.7,M,3.8,0000*42
$GPGSA,A,3,31,30,20,32,23,06,03,16,,,,,1.9,1.2,1.5*3C
$GPRMC,215208.000,A,3352.6217,N,09833.5868,W,0.13,105.69,020412,,,D*7E
$GPGGA,215209.000,3352.6217,N,09833.5868,W,2,08,1.2,311.2,M,-23.7,M,0.8,0000*40
$GPGSA,A,3,31,30,20,32,23,06,03,16,,,,,1.9,1.2,1.5*3C
$GPRMC,215209.000,A,3352.6217,N,09833.5868,W,0.08,119.82,020412,,,D*7D
$GPGGA,215210.000,3352.6217,N,09833.5868,W,2,08,1.2,311.3,M,-23.7,M,0.8,0000*49
$GPGSA,A,3,31,30,20,32,23,06,03,16,,,,,1.9,1.2,1.5*3C
$GPRMC,215210.000,A,3352.6217,N,09833.5868,W,0.01,112.70,020412,,,D*7A
$GPGGA,215211.000,3352.6217,N,09833.5868,W,2,08,1.2,311.5,M,-23.7,M,0.8,0000*4E
$GPGSA,A,3,31,30,20,32,23,06,03,16,,,,,1.9,1.2,1.5*3C
$GPGSV,3,1,12,30,66,073,35,16,64,151,25,32,60,203,32,20,56,260,32*7D
$GPGSV,3,2,12,23,40,316,38,31,28,051,31,06,12,141,27,13,11,303,17*7F
$GPGSV,3,3,12,03,10,156,27,14,04,110,,01,03,224,28,29,01,045,*79
$GPRMC,215211.000,A,3352.6217,N,09833.5868,W,0.07,168.57,020412,,,D*75
$GPGGA,215212.000,3352.6217,N,09833.5868,W,2,08,1.2,311.5,M,-23.7,M,1.8,0000*4C
$GPGSA,A,3,31,30,20,32,23,06,03,16,,,,,1.9,1.2,1.5*3C
$GPRMC,215212.000,A,3352.6217,N,09833.5868,W,0.01,185.85,020412,,,D*7C
$GPGGA,215213.000,3352.6217,N,09833.5868,W,2,08,1.2,311.7,M,-23.7,M,0.8,0000*4E
$GPGSA,A,3,31,30,20,32,23,06,03,16,,,,,1.9,1.2,1.5*3C
$GPRMC,215213.000,A,3352.6217,N,09833.5868,W,0.07,170.94,020412,,,D*71
$GPGGA,215214.000,3352.6217,N,09833.5868,W,2,08,1.2,311.8,M,-23.7,M,1.8,0000*47
$GPGSA,A,3,31,30,20,32,23,06,03,16,,,,,1.9,1.2,1.5*3C
$GPRMC,215214.000,A,3352.6217,N,09833.5868,W,0.03,319.98,020412,,,D*73
$GPGGA,215215.000,3352.6217,N,09833.5868,W,2,08,1.2,311.9,M,-23.7,M,0.8,0000*46
$GPGSA,A,3,31,30,20,32,23,06,03,16,,,,,1.9,1.2,1.5*3C
$GPRMC,215215.000,A,3352.6217,N,09833.5868,W,0.11,144.63,020412,,,D*7F
$GPGGA,215216.000,3352.6218,N,09833.5868,W,2,08,1.2,312.0,M,-23.7,M,0.8,0000*40
$GPGSA,A,3,31,30,20,32,23,06,03,16,,,,,1.9,1.2,1.5*3C
$GPGSV,3,1,12,30,66,073,35,16,64,151,25,32,60,203,31,20,56,260,32*7E
$GPGSV,3,2,12,23,40,316,37,31,28,051,31,06,12,141,27,13,11,303,*76
$GPGSV,3,3,12,03,10,156,27,14,04,110,,01,03,224,27,29,01,045,*76
$GPRMC,215216.000,A,3352.6218,N,09833.5868,W,0.09,54.94,020412,,,D*42
$GPGGA,215217.000,3352.6218,N,09833.5868,W,2,08,1.2,312.0,M,-23.7,M,0.8,0000*41
$GPGSA,A,3,31,30,20,32,23,06,03,16,,,,,1.9,1.2,1.5*3C
$GPRMC,215217.000,A,3352.6218,N,09833.5868,W,0.09,94.32,020412,,,D*43
$GPGGA,215218.000,3352.6218,N,09833.5867,W,2,08,1.2,312.0,M,-23.7,M,0.8,0000*41
$GPGSA,A,3,31,30,20,32,23,06,03,16,,,,,1.9,1.2,1.5*3C
$GPRMC,215218.000,A,3352.6218,N,09833.5867,W,0.10,57.70,020412,,,D*42
$GPGGA,215219.000,3352.6218,N,09833.5867,W,2,08,1.2,312.0,M,-23.7,M,1.8,0000*41
$GPGSA,A,3,31,30,20,32,23,06,03,16,,,,,1.9,1.2,1.5*3C
$GPRMC,215219.000,A,3352.6218,N,09833.5867,W,0.07,79.13,020412,,,D*4C
$GPGGA,215220.000,3352.6219,N,09833.5867,W,2,08,1.2,312.0,M,-23.7,M,2.8,0000*49
$GPGSA,A,3,31,30,20,32,23,06,03,16,,,,,1.9,1.2,1.5*3C
$GPRMC,215220.000,A,3352.6219,N,09833.5867,W,0.09,57.06,020412,,,D*41
$GPGGA,215221.000,3352.6219,N,09833.5867,W,2,08,1.2,311.9,M,-23.7,M,0.8,0000*40
$GPGSA,A,3,31,30,20,32,23,06,03,16,,,,,1.9,1.2,1.5*3C
$GPGSV,3,1,12,30,66,073,35,16,64,151,24,32,60,203,31,20,56,260,32*7F
$GPGSV,3,2,12,23,40,316,37,31,28,051,31,06,12,141,26,13,11,303,*77
$GPGSV,3,3,12,03,10,156,26,14,04,110,,01,03,224,27,29,01,045,*77
$GPRMC,215221.000,A,3352.6219,N,09833.5867,W,0.06,50.07,020412,,,D*49
$GPGGA,215222.000,3352.6219,N,09833.5867,W,2,08,1.2,312.0,M,-23.7,M,0.8,0000*49
$GPGSA,A,3,31,30,20,32,23,06,03,16,,,,,1.9,1.2,1.5*3C
$GPRMC,215222.000,A,3352.6219,N,09833.5867,W,0.07,154.02,020412,,,D*7B
$GPGGA,215223.000,3352.6219,N,09833.5867,W,2,08,1.2,312.1,M,-23.7,M,0.8,0000*49
$GPGSA,A,3,31,30,20,32,23,06,03,16,,,,,1.9,1.2,1.5*3C
$GPRMC,215223.000,A,3352.6219,N,09833.5867,W,0.08,165.90,020412,,,D*7C
$GPGGA,215224.000,3352.6219,N,09833.5867,W,2,08,1.2,312.2,M,-23.7,M,1.8,0000*4C
$GPGSA,A,3,31,30,20,32,23,06,03,16,,,,,1.9,1.2,1.5*3C
$GPRMC,215224.000,A,3352.6219,N,09833.5867,W,0.04,159.91,020412,,,D*79
$GPGGA,215225.000,3352.6219,N,09833.5867,W,2,08,1.2,312.3,M,-23.7,M,0.8,0000*4D
$GPGSA,A,3,31,30,20,32,23,06,03,16,,,,,1.9,1.2,1.5*3C
$GPRMC,215225.000,A,3352.6219,N,09833.5867,W,0.06,133.79,020412,,,D*70
$GPGGA,215226.000,3352.6219,N,09833.5867,W,2,08,1.2,312.3,M,-23.7,M,1.8,0000*4F
$GPGSA,A,3,31,30,20,32,23,06,03,16,,,,,1.9,1.2,1.5*3C
$GPGSV,3,1,12,30,66,073,35,16,64,151,24,32,60,203,31,20,56,260,32*7F
$GPGSV,3,2,12,23,40,316,37,31,28,051,31,06,12,141,26,13,11,303,*77
$GPGSV,3,3,12,03,10,156,26,14,04,110,,01,03,224,29,29,01,045,*79
$GPRMC,215226.000,A,3352.6219,N,09833.5867,W,0.04,149.01,020412,,,D*73
$GPGGA,215227.000,3352.6219,N,09833.5867,W,2,08,1.2,312.4,M,-23.7,M,0.8,0000*48
$GPGSA,A,3,31,30,20,32,23,06,03,16,,,,,1.9,1.2,1.5*3C
$GPRMC,215227.000,A,3352.6219,N,09833.5867,W,0.08,138.27,020412,,,D*7C
$GPGGA,215228.000,3352.6219,N,09833.5867,W,2,08,1.2,312.4,M,-23.7,M,0.8,0000*47
$GPGSA,A,3,31,30,20,32,23,06,03,16,,,,,1.9,1.2,1.5*3C
$GPRMC,215228.000,A,3352.6219,N,09833.5867,W,0.10,104.44,020412,,,D*70
$GPGGA,215229.000,3352.6219,N,09833.5866,W,2,08,1.2,312.3,M,-23.7,M,0.8,0000*40
$GPGSA,A,3,31,30,20,32,23,06,03,16,,,,,1.9,1.2,1.5*3C
$GPRMC,215229.000,A,3352.6219,N,09833.5866,W,0.09,53.27,020412,,,D*4E
$GPGGA,215230.000,3352.6219,N,09833.5866,W,2,08,1.2,312.3,M,-23.7,M,0.8,0000*48
$GPGSA,A,3,31,30,20,32,23,06,03,16,,,,,1.9,1.2,1.5*3C
$GPRMC,215230.000,A,3352.6219,N,09833.5866,W,0.06,59.52,020412,,,D*41
$GPGGA,215231.000,3352.6219,N,09833.5866,W,2,08,1.2,312.2,M,-23.7,M,1.8,0000*49
$GPGSA,A,3,31,30,20,32,23,06,03,16,,,,,1.9,1.2,1.5*3C
$GPGSV,3,1,12,30,66,073,35,16,64,151,25,32,60,203,31,20,56,260,32*7E
$GPGSV,3,2,12,23,40,316,37,31,28,051,30,06,12,141,26,13,11,303,*76
$GPGSV,3,3,12,03,10,156,26,14,04,110,11,01,03,224,33,29,01,045,*72
$GPRMC,215231.000,A,3352.6219,N,09833.5866,W,0.08,85.95,020412,,,D*44
$GPGGA,215232.000,3352.6220,N,09833.5866,W,2,08,1.2,312.1,M,-23.7,M,0.8,0000*42
$GPGSA,A,3,31,30,20,32,23,06,03,16,,,,,1.9,1.2,1.5*3C
$GPRMC,215232.000,A,3352.6220,N,09833.5866,W,0.07,79.24,020412,,,D*4B
$GPGGA,215233.000,3352.6220,N,09833.5866,W,2,08,1.2,312.1,M,-23.7,M,0.8,0000*43
$GPGSA,A,3,31,30,20,32,23,06,03,16,,,,,1.9,1.2,1.5*3C
$GPRMC,215233.000,A,3352.6220,N,09833.5866,W,0.04,52.15,020412,,,D*42
$GPGGA,215234.000,3352.6220,N,09833.5866,W,2,08,1.2,312.1,M,-23.7,M,0.8,0000*44
$GPGSA,A,3,31,30,20,32,23,06,03,16,,,,,1.9,1.2,1.5*3C
$GPRMC,215234.000,A,3352.6220,N,09833.5866,W,0.02,112.61,020412,,,D*75
$GPGGA,215235.000,3352.6220,N,09833.5867,W,2,08,1.2,312.1,M,-23.7,M,0.8,0000*44
$GPGSA,A,3,31,30,20,32,23,06,03,16,,,,,1.9,1.2,1.5*3C
$GPRMC,215235.000,A,3352.6220,N,09833.5867,W,0.04,146.09,020412,,,D*7C
$GPGGA,215236.000,3352.6220,N,09833.5867,W,2,08,1.2,312.0,M,-23.7,M,1.8,0000*47
$GPGSA,A,3,31,30,20,32,23,06,03,16,,,,,1.9,1.2,1.5*3C
$GPGSV,3,1,12,30,66,073,35,16,64,151,26,32,60,203,31,20,56,260,31*7E
$GPGSV,3,2,12,23,40,316,36,31,28,051,30,06,12,141,25,13,11,303,*74
$GPGSV,3,3,12,03,10,156,25,14,04,110,,01,03,224,32,29,01,045,*70
$GPRMC,215236.000,A,3352.6220,N,09833.5867,W,0.16,173.02,020412,,,D*71
$GPGGA,215237.000,3352.6219,N,09833.5867,W,2,08,1.2,312.0,M,-23.7,M,2.8,0000*4F
$GPGSA,A,3,31,30,20,32,23,06,03,16,,,,,1.9,1.2,1.5*3C
$GPRMC,215237.000,A,3352.6219,N,09833.5867,W,0.06,172.13,020412,,,D*7A
$GPGGA,215238.000,3352.6219,N,09833.5867,W,2,08,1.2,312.1,M,-23.7,M,3.8,0000*40
$GPGSA,A,3,31,30,20,32,23,06,03,16,,,,,1.9,1.2,1.5*3C
$GPRMC,215238.000,A,3352.6219,N,09833.5867,W,0.04,3.68,020412,,,D*7C
$GPGGA,215239.000,3352.6220,N,09833.5867,W,2,08,1.2,312.2,M,-23.7,M,0.8,0000*4B
$GPGSA,A,3,31,30,20,32,23,06,03,16,,,,,1.9,1.2,1.5*3C
$GPRMC,215239.000,A,3352.6220,N,09833.5867,W,0.07,54.20,020412,,,D*4A
$GPGGA,215240.000,3352.6220,N,09833.5867,W,2,08,1.2,312.2,M,-23.7,M,0.8,0000*45
$GPGSA,A,3,31,30,20,32,23,06,03,16,,,,,1.9,1.2,1.5*3C
$GPRMC,215240.000,A,3352.6220,N,09833.5867,W,0.15,22.52,020412,,,D*43
$GPGGA,215241.000,3352.6221,N,09833.5867,W,2,08,1.2,312.3,M,-23.7,M,0.8,0000*44
$GPGSA,A,3,31,30,20,32,23,06,03,16,,,,,1.9,1.2,1.5*3C
$GPGSV,3,1,12,30,66,073,35,16,64,151,27,32,60,203,31,20,56,260,31*7F
$GPGSV,3,2,12,23,40,316,36,31,28,051,30,06,12,141,25,13,11,303,*74
$GPGSV,3,3,12,03,10,156,24,14,04,110,,01,03,224,32,29,01,045,*71
$GPRMC,215241.000,A,3352.6221,N,09833.5867,W,0.25,4.84,020412,,,D*7F
$GPGGA,215242.000,3352.6221,N,09833.5867,W,2,08,1.2,312.1,M,-23.7,M,0.8,0000*45
$GPGSA,A,3,31,30,20,32,23,06,03,16,,,,,1.9,1.2,1.5*3C
$GPRMC,215242.000,A,3352.6221,N,09833.5867,W,0.29,139.69,020412,,,D*7C
$GPGGA,215243.000,3352.6220,N,09833.5866,W,2,08,1.2,311.9,M,-23.7,M,1.8,0000*4E
$GPGSA,A,3,31,30,20,32,23,06,03,16,,,,,1.9,1.2,1.5*3C
$GPRMC,215243.000,A,3352.6220,N,09833.5866,W,0.26,139.51,020412,,,D*79
$GPGGA,215244.000,3352.6220,N,09833.5866,W,2,08,1.2,311.8,M,-23.7,M,2.8,0000*4B
$GPGSA,A,3,31,30,20,32,23,06,03,16,,,,,1.9,1.2,1.5*3C
$GPRMC,215244.000,A,3352.6220,N,09833.5866,W,0.15,119.31,020412,,,D*7A
$GPGGA,215245.000,3352.6220,N,09833.5866,W,2,08,1.2,311.6,M,-23.7,M,0.8,0000*46
$GPGSA,A,3,31,30,20,32,23,06,03,16,,,,,1.9,1.2,1.5*3C
$GPRMC,215245.000,A,3352.6220,N,09833.5866,W,0.07,126.03,020412,,,D*75
$GPGGA,215246.000,3352.6220,N,09833.5866,W,2,08,1.2,311.4,M,-23.7,M,1.8,0000*46
$GPGSA,A,3,31,30,20,32,23,06,03,16,,,,,1.9,1.2,1.5*3C
$GPGSV,3,1,12,30,66,073,35,16,64,151,28,32,60,203,31,20,56,260,31*70
$GPGSV,3,2,12,23,40,316,36,31,28,051,30,06,12,141,24,13,11,303,*75
$GPGSV,3,3,12,03,10,156,24,14,04,110,,01,03,224,31,29,01,045,*72
$GPRMC,215246.000,A,3352.6220,N,09833.5866,W,0.20,167.05,020412,,,D*70
$GPGGA,215247.000,3352.6220,N,09833.5866,W,2,08,1.2,311.3,M,-23.7,M,0.8,0000*41
$GPGSA,A,3,31,30,20,32,23,06,03,16,,,,,1.9,1.2,1.5*3C
$GPRMC,215247.000,A,3352.6220,N,09833.5866,W,0.16,342.13,020412,,,D*76
$GPGGA,215248.000,3352.6221,N,09833.5867,W,2,08,1.2,311.2,M,-23.7,M,1.8,0000*4E
$GPGSA,A,3,31,30,20,32,23,06,03,16,,,,,1.9,1.2,1.5*3C
$GPRMC,215248.000,A,3352.6221,N,09833.5867,W,0.06,348.41,020412,,,D*75
$GPGGA,215249.000,3352.6221,N,09833.5867,W,2,08,1.2,311.0,M,-23.7,M,2.8,0000*4E
$GPGSA,A,3,31,30,20,32,23,06,03,16,,,,,1.9,1.2,1.5*3C
$GPRMC,215249.000,A,3352.6221,N,09833.5867,W,0.12,172.74,020412,,,D*7C
$GPGGA,215250.000,3352.6221,N,09833.5867,W,2,08,1.2,310.9,M,-23.7,M,3.8,0000*4F
$GPGSA,A,3,31,30,20,32,23,06,03,16,,,,,1.9,1.2,1.5*3C
$GPRMC,215250.000,A,3352.6221,N,09833.5867,W,0.14,358.76,020412,,,D*7A
$GPGGA,215251.000,3352.6221,N,09833.5867,W,2,08,1.2,310.9,M,-23.7,M,0.8,0000*4D
$GPGSA,A,3,31,30,20,32,23,06,03,16,,,,,1.9,1.2,1.5*3C
$GPGSV,3,1,12,30,66,073,35,16,64,151,29,32,60,203,32,20,56,260,31*72
$GPGSV,3,2,12,23,40,316,37,31,28,051,30,06,12,141,24,13,11,303,*74
$GPGSV,3,3,12,03,10,156,24,14,04,110,13,01,03,224,30,29,01,045,*71
$GPRMC,215251.000,A,3352.6221,N,09833.5867,W,0.05,45.61,020412,,,D*42
$GPGGA,215252.000,3352.6221,N,09833.5867,W,2,08,1.2,310.8,M,-23.7,M,0.8,0000*4F
$GPGSA,A,3,31,30,20,32,23,06,03,16,,,,,1.9,1.2,1.5*3C
$GPRMC,215252.000,A,3352.6221,N,09833.5867,W,0.16,153.28,020412,,,D*78
$GPGGA,215253.000,3352.6221,N,09833.5867,W,2,08,1.2,310.8,M,-23.7,M,0.8,0000*4E
$GPGSA,A,3,31,30,20,32,23,06,03,16,,,,,1.9,1.2,1.5*3C
$GPRMC,215253.000,A,3352.6221,N,09833.5867,W,0.07,54.00,020412,,,D*45
$GPGGA,215254.000,3352.6221,N,09833.5866,W,2,08,1.2,310.9,M,-23.7,M,1.8,0000*48
$GPGSA,A,3,31,30,20,32,23,06,03,16,,,,,1.9,1.2,1.5*3C
$GPRMC,215254.000,A,3352.6221,N,09833.5866,W,0.04,80.86,020412,,,D*47
$GPGGA,215255.000,3352.6221,N,09833.5866,W,2,08,1.2,310.9,M,-23.7,M,2.8,0000*4A
$GPGSA,A,3,31,30,20,32,23,06,03,16,,,,,1.9,1.2,1.5*3C
$GPRMC,215255.000,A,3352.6221,N,09833.5866,W,0.07,40.92,020412,,,D*4C
$GPGGA,215256.000,3352.6221,N,09833.5866,W,2,08,1.2,310.8,M,-23.7,M,3.8,0000*49
$GPGSA,A,3,31,30,20,32,23,06,03,16,,,,,1.9,1.2,1.5*3C
$GPGSV,3,1,12,30,66,073,35,16,64,151,29,32,60,203,32,20,56,260,31*72
$GPGSV,3,2,12,23,40,316,37,31,28,051,30,06,12,141,24,13,11,303,*74
$GPGSV,3,3,12,03,10,156,24,14,04,110,14,01,03,224,25,29,01,045,*72
$GPRMC,215256.000,A,3352.6221,N,09833.5866,W,0.27,151.13,020412,,,D*75
$GPGGA,215257.000,3352.6221,N,09833.5866,W,2,08,1.2,310.8,M,-23.7,M,0.8,0000*4B
$GPGSA,A,3,31,30,20,32,23,06,03,16,,,,,1.9,1.2,1.5*3C
$GPRMC,215257.000,A,3352.6221,N,09833.5866,W,0.08,139.39,020412,,,D*7F
$GPGGA,215258.000,3352.6221,N,09833.5866,W,2,08,1.2,310.8,M,-23.7,M,0.8,0000*44
$GPGSA,A,3,31,30,20,32,23,06,03,16,,,,,1.9,1.2,1.5*3C
$GPRMC,215258.000,A,3352.6221,N,09833.5866,W,0.07,328.52,020412,,,D*70
$GPGGA,215259.000,3352.6221,N,09833.5866,W,2,08,1.2,310.7,M,-23.7,M,0.8,0000*4A
$GPGSA,A,3,31,30,20,32,23,06,03,16,,,,,1.9,1.2,1.5*3C
$GPRMC,215259.000,A,3352.6221,N,09833.5866,W,0.18,183.43,020412,,,D*7C
$GPGGA,215300.000,3352.6220,N,09833.5867,W,2,08,1.2,310.6,M,-23.7,M,0.8,0000*46
$GPGSA,A,3,31,30,20,32,23,06,03,16,,,,,1.9,1.2,1.5*3C
$GPRMC,215300.000,A,3352.6220,N,09833.5867,W,0.21,174.56,020412,,,D*77
$GPGGA,215301.000,3352.6220,N,09833.5867,W,2,08,1.2,310.7,M,-23.7,M,0.8,0000*46
$GPGSA,A,3,31,30,20,32,23,06,03,16,,,,,1.9,1.2,1.5*3C
$GPGSV,3,1,12,30,66,073,35,16,64,151,30,32,60,203,32,20,56,260,31*7A
$GPGSV,3,2,12,23,40,316,37,31,28,051,31,06,12,141,25,13,11,303,*74
$GPGSV,3,3,12,03,10,156,24,14,04,110,15,01,03,224,24,29,01,045,*72
$GPRMC,215301.000,A,3352.6220,N,09833.5867,W,0.08,288.66,020412,,,D*7E
$GPGGA,215302.000,3352.6220,N,09833.5867,W,2,08,1.2,310.8,M,-23.7,M,1.8,0000*4B
$GPGSA,A,3,31,30,20,32,23,06,03,16,,,,,1.9,1.2,1.5*3C
$GPRMC,215302.000,A,3352.6220,N,09833.5867,W,0.10,325.00,020412,,,D*72
$GPGGA,215303.000,3352.6220,N,09833.5867,W,2,08,1.2,310.9,M,-23.7,M,0.8,0000*4A
$GPGSA,A,3,31,30,20,32,23,06,03,16,,,,,1.9,1.2,1.5*3C
$GPRMC,215303.000,A,3352.6220,N,09833.5867,W,0.11,138.06,020412,,,D*7A
$GPGGA,215304.000,3352.6220,N,09833.5867,W,2,08,1.2,310.9,M,-23.7,M,0.8,0000*4D
$GPGSA,A,3,31,30,20,32,23,06,03,16,,,,,1.9,1.2,1.5*3C
$GPRMC,215304.000,A,3352.6220,N,09833.5867,W,0.07,127.29,020412,,,D*79
$GPGGA,215305.000,3352.6220,N,09833.5866,W,2,08,1.2,311.0,M,-23.7,M,0.8,0000*45
$GPGSA,A,3,31,30,20,32,23,06,03,16,,,,,1.9,1.2,1.5*3C
$GPRMC,215305.000,A,3352.6220,N,09833.5866,W,0.09,50.25,020412,,,D*4A
$GPGGA,215306.000,3352.6220,N,09833.5866,W,2,08,1.2,310.9,M,-23.7,M,1.8,0000*4F
$GPGSA,A,3,31,30,20,32,23,06,03,16,,,,,1.9,1.2,1.5*3C
$GPGSV,3,1,12,30,66,073,35,16,64,151,31,32,60,203,32,20,56,260,31*7B
$GPGSV,3,2,12,23,40,316,37,31,28,051,31,06,12,141,25,13,11,303,*74
$GPGSV,3,3,12,03,10,156,25,14,04,110,15,01,03,224,24,29,01,045,*73
$GPRMC,215306.000,A,3352.6220,N,09833.5866,W,0.14,140.72,020412,,,D*77
$GPGGA,215307.000,3352.6220,N,09833.5865,W,2,08,1.2,311.2,M,-23.7,M,0.8,0000*46
$GPGSA,A,3,31,30,20,32,23,06,03,16,,,,,1.9,1.2,1.5*3C
$GPRMC,215307.000,A,3352.6220,N,09833.5865,W,0.09,73.14,020412,,,D*48
$GPGGA,215308.000,3352.6219,N,09833.5864,W,2,08,1.2,311.4,M,-23.7,M,1.8,0000*45
$GPGSA,A,3,31,30,20,32,23,06,03,16,,,,,1.9,1.2,1.5*3C
$GPRMC,215308.000,A,3352.6219,N,09833.5864,W,0.10,88.00,020412,,,D*45
$GPGGA,215309.000,3352.6219,N,09833.5864,W,2,08,1.2,311.6,M,-23.7,M,0.8,0000*47
$GPGSA,A,3,31,30,20,32,23,06,03,16,,,,,1.9,1.2,1.5*3C
$GPRMC,215309.000,A,3352.6219,N,09833.5864,W,0.07,14.32,020412,,,D*46
$GPGGA,215310.000,3352.6218,N,09833.5864,W,2,08,1.2,311.8,M,-23.7,M,0.8,0000*40
$GPGSA,A,3,31,30,20,32,23,06,03,16,,,,,1.9,1.2,1.5*3C
$GPRMC,215310.000,A,3352.6218,N,09833.5864,W,0.00,303.24,020412,,,D*7A
$GPGGA,215311.000,3352.6218,N,09833.5863,W,2,08,1.2,312.0,M,-23.7,M,0.8,0000*4D
$GPGSA,A,3,31,30,20,32,23,06,03,16,,,,,1.9,1.2,1.5*3C
$GPGSV,3,1,12,30,66,073,34,16,64,151,31,32,60,203,32,20,56,260,31*7A
$GPGSV,3,2,12,23,40,316,37,31,28,051,31,06,12,141,25,13,11,303,*74
$GPGSV,3,3,12,03,10,156,25,14,04,110,15,01,03,224,24,29,01,045,*73
$GPRMC,215311.000,A,3352.6218,N,09833.5863,W,0.04,176.13,020412,,,D*7C
$GPGGA,215312.000,3352.6217,N,09833.5863,W,2,08,1.2,312.1,M,-23.7,M,1.8,0000*41
$GPGSA,A,3,31,30,20,32,23,06,03,16,,,,,1.9,1.2,1.5*3C
$GPRMC,215312.000,A,3352.6217,N,09833.5863,W,0.03,158.93,020412,,,D*73
$GPGGA,215313.000,3352.6217,N,09833.5863,W,2,08,1.2,312.3,M,-23.7,M,0.8,0000*43
$GPGSA,A,3,31,30,20,32,23,06,03,16,,,,,1.9,1.2,1.5*3C
$GPRMC,215313.000,A,3352.6217,N,09833.5863,W,0.06,191.57,020412,,,D*7A
$GPGGA,215314.000,3352.6216,N,09833.5863,W,2,08,1.2,312.3,M,-23.7,M,1.8,0000*44
$GPGSA,A,3,31,30,20,32,23,06,03,16,,,,,1.9,1.2,1.5*3C
$GPRMC,215314.000,A,3352.6216,N,09833.5863,W,0.10,155.76,020412,,,D*70
$GPGGA,215315.000,3352.6216,N,09833.5863,W,2,08,1.2,312.6,M,-23.7,M,0.8,0000*41
$GPGSA,A,3,31,30,20,32,23,06,03,16,,,,,1.9,1.2,1.5*3C
