$GPGGA,065147.000,3353.7578,N,09832.0222,W,1,06,1.7,325.3,M,-23.7,M,18.8,0000*75
$GPGSA,A,3,02,20,17,04,10,28,,,,,,,2.6,1.7,2.0*3B
$GPRMC,065147.000,A,3353.7578,N,09832.0222,W,0.34,81.51,010412,,,A*48
$GPGGA,065148.000,3353.7578,N,09832.0221,W,1,06,1.7,325.5,M,-23.7,M,19.8,0000*7E
$GPGSA,A,3,02,20,17,04,10,28,,,,,,,2.6,1.7,2.0*3B
$GPGSV,3,1,12,04,68,194,31,17,51,038,35,28,46,111,41,27,44,276,*79
$GPGSV,3,2,12,02,35,212,26,09,35,296,,20,16,060,32,10,14,153,30*7A
$GPGSV,3,3,12,12,11,312,22,08,02,165,19,32,01,038,,51,49,195,38*7D
$GPRMC,065148.000,A,3353.7578,N,09832.0221,W,0.24,90.59,010412,,,A*4D
$GPGGA,065149.000,3353.7578,N,09832.0220,W,1,06,1.7,325.8,M,-23.7,M,19.8,0000*73
$GPGSA,A,3,02,20,17,04,10,28,,,,,,,2.6,1.7,2.0*3B
$GPRMC,065149.000,A,3353.7578,N,09832.0220,W,0.14,67.95,010412,,,A*46
$GPGGA,065150.000,3353.7578,N,09832.0219,W,1,06,1.7,326.1,M,-23.7,M,19.8,0000*7B
$GPGSA,A,3,02,20,17,04,10,28,,,,,,,2.6,1.7,2.0*3B
$GPRMC,065150.000,A,3353.7578,N,09832.0219,W,0.14,73.18,010412,,,A*44
$GPGGA,065151.000,3353.7579,N,09832.0215,W,2,06,1.7,327.5,M,-23.7,M,0.8,0000*49
$GPGSA,A,3,02,20,17,04,10,28,,,,,,,2.6,1.7,2.0*3B
$GPRMC,065151.000,A,3353.7579,N,09832.0215,W,0.13,73.77,010412,,,D*43
$GPGGA,065152.000,3353.7579,N,09832.0214,W,2,07,1.2,328.0,M,-23.7,M,0.8,0000*45
$GPGSA,A,3,02,20,27,17,04,10,28,,,,,,2.2,1.2,1.8*34
$GPRMC,065152.000,A,3353.7579,N,09832.0214,W,0.20,87.98,010412,,,D*4B
$GPGGA,065153.000,3353.7578,N,09832.0213,W,2,07,1.2,328.3,M,-23.7,M,0.8,0000*41
$GPGSA,A,3,02,20,27,17,04,10,28,,,,,,2.2,1.2,1.8*34
$GPGSV,3,1,12,04,68,194,31,17,51,038,35,28,46,111,40,27,44,276,18*71
$GPGSV,3,2,12,02,35,212,27,09,35,296,,20,16,060,32,10,14,153,29*73
$GPGSV,3,3,12,12,11,312,22,08,02,165,21,32,01,038,,51,49,195,37*79
$GPRMC,065153.000,A,3353.7578,N,09832.0213,W,0.09,356.68,010412,,,D*77
$GPGGA,065154.000,3353.7578,N,09832.0213,W,2,07,1.2,328.5,M,-23.7,M,1.8,0000*41
$GPGSA,A,3,02,20,27,17,04,10,28,,,,,,2.2,1.2,1.8*34
$GPRMC,065154.000,A,3353.7578,N,09832.0213,W,0.16,313.03,010412,,,D*72
$GPGGA,065155.000,3353.7578,N,09832.0212,W,2,07,1.2,328.7,M,-23.7,M,2.8,0000*40
$GPGSA,A,3,02,20,27,17,04,10,28,,,,,,2.2,1.2,1.8*34
$GPRMC,065155.000,A,3353.7578,N,09832.0212,W,0.26,95.52,010412,,,D*48
$GPGGA,065156.000,3353.7578,N,09832.0212,W,2,07,1.2,328.9,M,-23.7,M,0.8,0000*4F
$GPGSA,A,3,02,20,27,17,04,10,28,,,,,,2.2,1.2,1.8*34
$GPRMC,065156.000,A,3353.7578,N,09832.0212,W,0.11,348.49,010412,,,D*76
$GPGGA,065157.000,3353.7578,N,09832.0211,W,2,07,1.2,329.1,M,-23.7,M,0.8,0000*44
$GPGSA,A,3,02,20,27,17,04,10,28,,,,,,2.2,1.2,1.8*34
$GPRMC,065157.000,A,3353.7578,N,09832.0211,W,0.09,46.94,010412,,,D*40
$GPGGA,065158.000,3353.7577,N,09832.0211,W,2,07,1.2,329.2,M,-23.7,M,0.8,0000*47
$GPGSA,A,3,02,20,27,17,04,10,28,,,,,,2.2,1.2,1.8*34
$GPGSV,3,1,12,04,68,194,32,17,51,038,34,28,46,111,40,27,44,276,19*72
$GPGSV,3,2,12,02,35,212,27,09,35,296,21,20,16,060,32,10,14,153,30*78
$GPGSV,3,3,12,12,11,312,21,08,02,165,21,32,01,038,,51,49,195,37*7A
$GPRMC,065158.000,A,3353.7577,N,09832.0211,W,0.08,342.14,010412,,,D*7E
$GPGGA,065159.000,3353.7577,N,09832.0211,W,2,07,1.2,329.4,M,-23.7,M,0.8,0000*40
$GPGSA,A,3,02,20,27,17,04,10,28,,,,,,2.2,1.2,1.8*34
$GPRMC,065159.000,A,3353.7577,N,09832.0211,W,0.15,322.75,010412,,,D*72
$GPGGA,065200.000,3353.7577,N,09832.0211,W,2,07,1.2,329.6,M,-23.7,M,1.8,0000*4C
$GPGSA,A,3,02,20,27,17,04,10,28,,,,,,2.2,1.2,1.8*34
$GPRMC,065200.000,A,3353.7577,N,09832.0211,W,0.14,323.82,010412,,,D*75
$GPGGA,065201.000,3353.7577,N,09832.0211,W,2,07,1.2,329.8,M,-23.7,M,2.8,0000*40
$GPGSA,A,3,02,20,27,17,04,10,28,,,,,,2.2,1.2,1.8*34
$GPRMC,065201.000,A,3353.7577,N,09832.0211,W,0.12,333.02,010412,,,D*7B
$GPGGA,065202.000,3353.7577,N,09832.0210,W,2,07,1.2,330.0,M,-23.7,M,3.8,0000*43
$GPGSA,A,3,02,20,27,17,04,10,28,,,,,,2.2,1.2,1.8*34
$GPRMC,065202.000,A,3353.7577,N,09832.0210,W,0.24,92.48,010412,,,D*4A
$GPGGA,065203.000,3353.7576,N,09832.0209,W,2,07,1.2,330.1,M,-23.7,M,0.8,0000*49
$GPGSA,A,3,02,20,27,17,04,10,28,,,,,,2.2,1.2,1.8*34
$GPGSV,3,1,12,04,68,194,32,17,51,038,34,28,46,111,40,27,44,276,20*78
$GPGSV,3,2,12,02,35,212,28,09,35,296,20,20,16,060,32,10,14,153,30*76
$GPGSV,3,3,12,12,11,312,20,08,02,165,21,32,01,038,,51,49,195,38*74
$GPRMC,065203.000,A,3353.7576,N,09832.0209,W,0.19,91.19,010412,,,D*4B
$GPGGA,065204.000,3353.7576,N,09832.0207,W,2,07,1.2,330.2,M,-23.7,M,0.8,0000*43
$GPGSA,A,3,02,20,27,17,04,10,28,,,,,,2.2,1.2,1.8*34
$GPRMC,065204.000,A,3353.7576,N,09832.0207,W,0.30,104.37,010412,,,D*78
$GPGGA,065205.000,3353.7575,N,09832.0206,W,2,07,1.2,330.4,M,-23.7,M,0.8,0000*46
$GPGSA,A,3,02,20,27,17,04,10,28,,,,,,2.2,1.2,1.8*34
$GPRMC,065205.000,A,3353.7575,N,09832.0206,W,0.24,86.68,010412,,,D*4F
$GPGGA,065206.000,3353.7575,N,09832.0205,W,2,07,1.2,330.5,M,-23.7,M,1.8,0000*46
$GPGSA,A,3,02,20,27,17,04,10,28,,,,,,2.2,1.2,1.8*34
$GPRMC,065206.000,A,3353.7575,N,09832.0205,W,0.26,97.00,010412,,,D*43
$GPGGA,065207.000,3353.7574,N,09832.0204,W,2,07,1.2,330.6,M,-23.7,M,2.8,0000*47
$GPGSA,A,3,02,20,27,17,04,10,28,,,,,,2.2,1.2,1.8*34
$GPRMC,065207.000,A,3353.7574,N,09832.0204,W,0.26,99.71,010412,,,D*4A
$GPGGA,065208.000,3353.7574,N,09832.0204,W,2,07,1.2,330.7,M,-23.7,M,3.8,0000*48
$GPGSA,A,3,02,20,27,17,04,10,28,,,,,,2.2,1.2,1.8*34
$GPGSV,3,1,12,04,68,194,32,17,51,038,34,28,46,111,40,27,44,276,22*7A
$GPGSV,3,2,12,02,35,212,28,09,35,296,20,20,16,060,32,10,14,153,30*76
$GPGSV,3,3,12,12,11,312,20,08,02,165,22,32,01,038,,51,49,195,38*77
$GPRMC,065208.000,A,3353.7574,N,09832.0204,W,0.07,54.71,010412,,,D*47
$GPGGA,065209.000,3353.7574,N,09832.0204,W,2,07,1.2,330.8,M,-23.7,M,0.8,0000*45
$GPGSA,A,3,02,20,27,17,04,10,28,,,,,,2.2,1.2,1.8*34
$GPRMC,065209.000,A,3353.7574,N,09832.0204,W,0.19,326.04,010412,,,D*7D
$GPGGA,065210.000,3353.7574,N,09832.0204,W,2,07,1.2,331.0,M,-23.7,M,0.8,0000*44
$GPGSA,A,3,02,20,27,17,04,10,28,,,,,,2.2,1.2,1.8*34
$GPRMC,065210.000,A,3353.7574,N,09832.0204,W,0.09,1.90,010412,,,D*7F
$GPGGA,065211.000,3353.7574,N,09832.0203,W,2,07,1.2,331.1,M,-23.7,M,0.8,0000*43
$GPGSA,A,3,02,20,27,17,04,10,28,,,,,,2.2,1.2,1.8*34
$GPRMC,065211.000,A,3353.7574,N,09832.0203,W,0.13,81.60,010412,,,D*45
$GPGGA,065212.000,3353.7574,N,09832.0203,W,2,07,1.2,331.3,M,-23.7,M,0.8,0000*42
$GPGSA,A,3,02,20,27,17,04,10,28,,,,,,2.2,1.2,1.8*34
$GPRMC,065212.000,A,3353.7574,N,09832.0203,W,0.11,340.91,010412,,,D*74
$GPGGA,065213.000,3353.7574,N,09832.0203,W,2,07,1.2,331.5,M,-23.7,M,0.8,0000*45
$GPGSA,A,3,02,20,27,17,04,10,28,,,,,,2.2,1.2,1.8*34
$GPGSV,3,1,12,04,68,194,32,17,51,038,34,28,46,111,40,27,44,276,23*7B
$GPGSV,3,2,12,02,35,212,28,09,35,296,20,20,16,060,32,10,14,153,31*77
$GPGSV,3,3,12,12,11,312,20,08,02,165,22,32,01,038,,51,49,195,37*78
$GPRMC,065213.000,A,3353.7574,N,09832.0203,W,0.15,80.64,010412,,,D*44
$GPGGA,065214.000,3353.7573,N,09832.0202,W,2,07,1.2,331.7,M,-23.7,M,1.8,0000*47
$GPGSA,A,3,02,20,27,17,04,10,28,,,,,,2.2,1.2,1.8*34
$GPRMC,065214.000,A,3353.7573,N,09832.0202,W,0.15,101.76,010412,,,D*7E
$GPGGA,065215.000,3353.7573,N,09832.0201,W,2,07,1.2,331.8,M,-23.7,M,0.8,0000*4B
$GPGSA,A,3,02,20,27,17,04,10,28,,,,,,2.2,1.2,1.8*34
$GPRMC,065215.000,A,3353.7573,N,09832.0201,W,0.10,12.03,010412,,,D*48
$GPGGA,065216.000,3353.7573,N,09832.0201,W,2,07,1.2,331.9,M,-23.7,M,0.8,0000*49
$GPGSA,A,3,02,20,27,17,04,10,28,,,,,,2.2,1.2,1.8*34
$GPRMC,065216.000,A,3353.7573,N,09832.0201,W,0.14,84.65,010412,,,D*40
$GPGGA,065217.000,3353.7573,N,09832.0200,W,2,07,1.2,332.1,M,-23.7,M,0.8,0000*42
$GPGSA,A,3,02,20,27,17,04,10,28,,,,,,2.2,1.2,1.8*34
$GPRMC,065217.000,A,3353.7573,N,09832.0200,W,0.12,87.56,010412,,,D*45
$GPGGA,065218.000,3353.7573,N,09832.0201,W,2,07,1.2,332.1,M,-23.7,M,1.8,0000*4D
$GPGSA,A,3,02,20,27,17,04,10,28,,,,,,2.2,1.2,1.8*34
$GPGSV,3,1,12,04,68,194,32,17,51,038,34,28,46,111,40,27,44,276,23*7B
$GPGSV,3,2,12,02,35,212,28,09,35,296,20,20,16,060,32,10,14,153,31*77
$GPGSV,3,3,12,12,11,312,20,08,02,165,22,32,01,038,21,51,49,195,37*7B
$GPRMC,065218.000,A,3353.7573,N,09832.0201,W,0.21,317.30,010412,,,D*71
$GPGGA,065219.000,3353.7573,N,09832.0200,W,2,07,1.2,332.2,M,-23.7,M,2.8,0000*4D
$GPGSA,A,3,02,20,27,17,04,10,28,,,,,,2.2,1.2,1.8*34
$GPRMC,065219.000,A,3353.7573,N,09832.0200,W,0.20,87.83,010412,,,D*42
$GPGGA,065220.000,3353.7573,N,09832.0200,W,2,07,1.2,332.2,M,-23.7,M,3.8,0000*46
$GPGSA,A,3,02,20,27,17,04,10,28,,,,,,2.2,1.2,1.8*34
$GPRMC,065220.000,A,3353.7573,N,09832.0200,W,0.20,315.14,010412,,,D*7E
$GPGGA,065221.000,3353.7573,N,09832.0201,W,2,07,1.2,332.3,M,-23.7,M,0.8,0000*44
$GPGSA,A,3,02,20,27,17,04,10,28,,,,,,2.2,1.2,1.8*34
$GPRMC,065221.000,A,3353.7573,N,09832.0201,W,0.17,323.58,010412,,,D*77
$GPGGA,065222.000,3353.7571,N,09832.0199,W,2,07,1.2,332.5,M,-23.7,M,0.8,0000*41
$GPGSA,A,3,02,20,27,17,04,10,28,,,,,,2.2,1.2,1.8*34
$GPRMC,065222.000,A,3353.7571,N,09832.0199,W,0.01,17.47,010412,,,D*49
$GPGGA,065223.000,3353.7568,N,09832.0194,W,2,07,1.2,333.0,M,-23.7,M,0.8,0000*41
$GPGSA,A,3,02,20,27,17,04,10,28,,,,,,2.2,1.2,1.8*34
$GPGSV,3,1,12,04,68,194,32,17,51,038,34,28,46,111,40,27,44,276,23*7B
$GPGSV,3,2,12,02,35,212,21,09,35,296,20,20,16,060,32,10,14,153,32*7D
$GPGSV,3,3,12,12,11,312,19,08,02,165,23,32,01,038,21,51,49,195,37*70
$GPRMC,065223.000,A,3353.7568,N,09832.0194,W,0.13,80.01,010412,,,D*42
$GPGGA,065224.000,3353.7566,N,09832.0190,W,2,07,1.2,333.4,M,-23.7,M,1.8,0000*49
$GPGSA,A,3,02,20,27,17,04,10,28,,,,,,2.2,1.2,1.8*34
$GPRMC,065224.000,A,3353.7566,N,09832.0190,W,0.20,58.61,010412,,,D*4C
$GPGGA,065225.000,3353.7563,N,09832.0184,W,2,07,1.2,334.0,M,-23.7,M,2.8,0000*48
$GPGSA,A,3,02,20,27,17,04,10,28,,,,,,2.2,1.2,1.8*34
$GPRMC,065225.000,A,3353.7563,N,09832.0184,W,0.24,58.81,010412,,,D*47
$GPGGA,065226.000,3353.7562,N,09832.0182,W,2,07,1.2,334.1,M,-23.7,M,3.8,0000*4C
$GPGSA,A,3,02,20,27,17,04,10,28,,,,,,2.2,1.2,1.8*34
$GPRMC,065226.000,A,3353.7562,N,09832.0182,W,0.20,127.05,010412,,,D*72
$GPGGA,065227.000,3353.7561,N,09832.0184,W,2,07,1.2,333.8,M,-23.7,M,0.8,0000*45
$GPGSA,A,3,02,20,27,17,04,10,28,,,,,,2.2,1.2,1.8*34
$GPRMC,065227.000,A,3353.7561,N,09832.0184,W,0.21,131.13,010412,,,D*77
$GPGGA,065228.000,3353.7559,N,09832.0179,W,2,07,1.2,334.3,M,-23.7,M,0.8,0000*4F
$GPGSA,A,3,02,20,27,17,04,10,28,,,,,,2.2,1.2,1.8*34
$GPGSV,3,1,12,04,68,194,32,17,51,038,33,28,46,111,40,27,44,276,23*7C
$GPGSV,3,2,12,02,35,212,19,09,35,296,20,20,16,060,32,10,14,153,33*77
$GPGSV,3,3,12,12,11,312,19,08,02,165,23,32,01,038,,51,49,195,38*7C
$GPRMC,065228.000,A,3353.7559,N,09832.0179,W,0.33,81.32,010412,,,D*4B
$GPGGA,065229.000,3353.7558,N,09832.0176,W,2,06,1.3,334.5,M,-23.7,M,0.8,0000*46
$GPGSA,A,3,20,27,17,04,10,28,,,,,,,2.2,1.3,1.9*36
$GPRMC,065229.000,A,3353.7558,N,09832.0176,W,0.66,88.92,010412,,,D*47
$GPGGA,065230.000,3353.7558,N,09832.0177,W,2,06,1.3,334.3,M,-23.7,M,1.8,0000*48
$GPGSA,A,3,20,27,17,04,10,28,,,,,,,2.2,1.3,1.9*36
$GPRMC,065230.000,A,3353.7558,N,09832.0177,W,0.10,57.90,010412,,,D*4F
$GPGGA,065231.000,3353.7558,N,09832.0182,W,2,06,1.3,333.9,M,-23.7,M,2.8,0000*4D
$GPGSA,A,3,20,27,17,04,10,28,,,,,,,2.2,1.3,1.9*36
$GPRMC,065231.000,A,3353.7558,N,09832.0182,W,0.36,294.73,010412,,,D*70
$GPGGA,065232.000,3353.7559,N,09832.0188,W,2,06,1.3,333.3,M,-23.7,M,0.8,0000*4D
$GPGSA,A,3,20,27,17,04,10,28,,,,,,,2.2,1.3,1.9*36
$GPRMC,065232.000,A,3353.7559,N,09832.0188,W,0.06,29.30,010412,,,D*48
$GPGGA,065233.000,3353.7561,N,09832.0194,W,2,06,1.3,332.5,M,-23.7,M,0.8,0000*4D
$GPGSA,A,3,20,27,17,04,10,28,,,,,,,2.2,1.3,1.9*36
$GPGSV,3,1,12,04,68,194,32,17,51,038,33,28,46,111,39,27,44,276,22*73
$GPGSV,3,2,12,02,35,212,,09,35,296,22,20,16,060,32,10,14,153,34*7A
$GPGSV,3,3,12,12,11,312,17,08,02,165,23,32,01,038,,51,49,195,38*72
$GPRMC,065233.000,A,3353.7561,N,09832.0194,W,0.09,50.40,010412,,,D*49
$GPGGA,065234.000,3353.7560,N,09832.0194,W,2,06,1.3,332.5,M,-23.7,M,0.8,0000*4B
$GPGSA,A,3,20,27,17,04,10,28,,,,,,,2.2,1.3,1.9*36
$GPRMC,065234.000,A,3353.7560,N,09832.0194,W,0.14,66.67,010412,,,D*43
$GPGGA,065235.000,3353.7560,N,09832.0194,W,2,06,1.3,332.3,M,-23.7,M,0.8,0000*4C
$GPGSA,A,3,20,27,17,04,10,28,,,,,,,2.2,1.3,1.9*36
$GPRMC,065235.000,A,3353.7560,N,09832.0194,W,0.08,323.44,010412,,,D*7C
$GPGGA,065236.000,3353.7559,N,09832.0195,W,2,06,1.3,332.1,M,-23.7,M,1.8,0000*47
$GPGSA,A,3,20,27,17,04,10,28,,,,,,,2.2,1.3,1.9*36
$GPRMC,065236.000,A,3353.7559,N,09832.0195,W,0.19,83.85,010412,,,D*40
$GPGGA,065237.000,3353.7559,N,09832.0197,W,2,06,1.3,331.7,M,-23.7,M,2.8,0000*42
$GPGSA,A,3,20,27,17,04,10,28,,,,,,,2.2,1.3,1.9*36
$GPRMC,065237.000,A,3353.7559,N,09832.0197,W,0.23,297.56,010412,,,D*73
$GPGGA,065238.000,3353.7560,N,09832.0203,W,2,06,1.3,331.0,M,-23.7,M,3.8,0000*4F
$GPGSA,A,3,20,27,17,04,10,28,,,,,,,2.2,1.3,1.9*36
$GPGSV,3,1,12,04,68,194,32,17,51,038,33,28,46,111,39,27,44,276,21*70
$GPGSV,3,2,12,02,35,212,,09,35,296,22,20,16,060,32,10,14,153,34*7A
$GPGSV,3,3,12,12,11,312,16,08,02,165,23,32,01,038,,51,49,195,37*7C
$GPRMC,065238.000,A,3353.7560,N,09832.0203,W,0.08,14.89,010412,,,D*4A
$GPGGA,065239.000,3353.7560,N,09832.0201,W,2,06,1.3,330.9,M,-23.7,M,0.8,0000*47
$GPGSA,A,3,20,27,17,04,10,28,,,,,,,2.2,1.3,1.9*36
$GPRMC,065239.000,A,3353.7560,N,09832.0201,W,0.40,95.98,010412,,,D*4C
$GPGGA,065240.000,3353.7559,N,09832.0203,W,2,07,1.2,330.5,M,-23.7,M,0.8,0000*4D
$GPGSA,A,3,02,20,27,17,04,10,28,,,,,,2.2,1.2,1.8*34
$GPRMC,065240.000,A,3353.7559,N,09832.0203,W,0.20,84.19,010412,,,D*45
$GPGGA,065241.000,3353.7560,N,09832.0202,W,2,07,1.2,330.6,M,-23.7,M,0.8,0000*44
$GPGSA,A,3,02,20,27,17,04,10,28,,,,,,2.2,1.2,1.8*34
$GPRMC,065241.000,A,3353.7560,N,09832.0202,W,0.18,37.71,010412,,,D*42
$GPGGA,065242.000,3353.7561,N,09832.0201,W,2,07,1.2,330.8,M,-23.7,M,0.8,0000*4B
$GPGSA,A,3,02,20,27,17,04,10,28,,,,,,2.2,1.2,1.8*34
$GPRMC,065242.000,A,3353.7561,N,09832.0201,W,0.22,36.21,010412,,,D*4E
$GPGGA,065243.000,3353.7561,N,09832.0202,W,2,07,1.2,330.7,M,-23.7,M,0.8,0000*46
$GPGSA,A,3,02,20,27,17,04,10,28,,,,,,2.2,1.2,1.8*34
$GPGSV,3,1,12,04,68,194,32,17,51,038,33,28,46,111,39,27,44,276,21*70
$GPGSV,3,2,12,02,35,212,23,09,35,296,21,20,16,060,32,10,14,153,35*79
$GPGSV,3,3,12,12,11,312,14,08,02,165,22,32,01,038,,51,49,195,38*70
$GPRMC,065243.000,A,3353.7561,N,09832.0202,W,0.34,287.00,010412,,,D*70
$GPGGA,065244.000,3353.7561,N,09832.0203,W,2,07,1.2,330.6,M,-23.7,M,1.8,0000*40
$GPGSA,A,3,02,20,27,17,04,10,28,,,,,,2.2,1.2,1.8*34
$GPRMC,065244.000,A,3353.7561,N,09832.0203,W,0.05,196.95,010412,,,D*7B
$GPGGA,065245.000,3353.7561,N,09832.0204,W,2,07,1.2,330.4,M,-23.7,M,0.8,0000*45
$GPGSA,A,3,02,20,27,17,04,10,28,,,,,,2.2,1.2,1.8*34
$GPRMC,065245.000,A,3353.7561,N,09832.0204,W,0.18,278.79,010412,,,D*70
$GPGGA,065246.000,3353.7562,N,09832.0204,W,2,07,1.2,330.6,M,-23.7,M,0.8,0000*47
$GPGSA,A,3,02,20,27,17,04,10,28,,,,,,2.2,1.2,1.8*34
$GPRMC,065246.000,A,3353.7562,N,09832.0204,W,0.39,318.26,010412,,,D*7E
$GPGGA,065247.000,3353.7562,N,09832.0208,W,2,07,1.2,330.0,M,-23.7,M,0.8,0000*4C
$GPGSA,A,3,02,20,27,17,04,10,28,,,,,,2.2,1.2,1.8*34
$GPRMC,065247.000,A,3353.7562,N,09832.0208,W,0.51,298.47,010412,,,D*73
$GPGGA,065248.000,3353.7561,N,09832.0215,W,2,07,1.2,329.0,M,-23.7,M,1.8,0000*45
$GPGSA,A,3,02,20,27,17,04,10,28,,,,,,2.2,1.2,1.8*34
$GPGSV,3,1,12,04,69,194,32,17,51,038,33,28,46,111,39,27,43,275,21*75
$GPGSV,3,2,12,02,36,213,23,09,35,296,20,20,16,059,32,10,14,153,35*70
$GPGSV,3,3,12,12,12,312,14,08,02,165,22,32,01,037,,51,49,195,38*7C
$GPRMC,065248.000,A,3353.7561,N,09832.0215,W,0.25,285.35,010412,,,D*79
$GPGGA,065249.000,3353.7561,N,09832.0217,W,2,07,1.2,328.5,M,-23.7,M,2.8,0000*41
$GPGSA,A,3,02,20,27,17,04,10,28,,,,,,2.2,1.2,1.8*34
$GPRMC,065249.000,A,3353.7561,N,09832.0217,W,0.05,339.33,010412,,,D*78
$GPGGA,065250.000,3353.7561,N,09832.0218,W,2,07,1.2,328.4,M,-23.7,M,3.8,0000*46
$GPGSA,A,3,02,20,27,17,04,10,28,,,,,,2.2,1.2,1.8*34
$GPRMC,065250.000,A,3353.7561,N,09832.0218,W,0.13,50.92,010412,,,D*4F
$GPGGA,065251.000,3353.7563,N,09832.0217,W,2,07,1.2,328.4,M,-23.7,M,0.8,0000*49
$GPGSA,A,3,02,20,27,17,04,10,28,,,,,,2.2,1.2,1.8*34
$GPRMC,065251.000,A,3353.7563,N,09832.0217,W,0.23,8.12,010412,,,D*75
$GPGGA,065252.000,3353.7564,N,09832.0216,W,2,07,1.2,328.4,M,-23.7,M,0.8,0000*4C
$GPGSA,A,3,02,20,27,17,04,10,28,,,,,,2.2,1.2,1.8*34
$GPRMC,065252.000,A,3353.7564,N,09832.0216,W,0.24,347.27,010412,,,D*79
$GPGGA,065253.000,3353.7563,N,09832.0219,W,2,07,1.2,328.0,M,-23.7,M,0.8,0000*41
$GPGSA,A,3,02,20,27,17,04,10,28,,,,,,2.2,1.2,1.8*34
$GPGSV,3,1,12,04,69,194,32,17,51,038,32,28,46,111,39,27,43,275,21*74
$GPGSV,3,2,12,02,36,213,24,09,35,296,19,20,16,059,33,10,14,153,35*7C
$GPGSV,3,3,12,12,12,312,14,08,02,165,21,32,01,037,,51,49,195,38*7F
$GPRMC,065253.000,A,3353.7563,N,09832.0219,W,0.05,120.69,010412,,,D*7A
$GPGGA,065254.000,3353.7563,N,09832.0219,W,2,07,1.2,327.9,M,-23.7,M,1.8,0000*41
$GPGSA,A,3,02,20,27,17,04,10,28,,,,,,2.2,1.2,1.8*34
$GPRMC,065254.000,A,3353.7563,N,09832.0219,W,0.21,89.37,010412,,,D*42
$GPGGA,065255.000,3353.7563,N,09832.0220,W,2,07,1.2,327.6,M,-23.7,M,2.8,0000*46
$GPGSA,A,3,02,20,27,17,04,10,28,,,,,,2.2,1.2,1.8*34
$GPRMC,065255.000,A,3353.7563,N,09832.0220,W,0.17,317.73,010412,,,D*78
$GPGGA,065256.000,3353.7563,N,09832.0221,W,2,07,1.2,327.4,M,-23.7,M,3.8,0000*47
$GPGSA,A,3,02,20,27,17,04,10,28,,,,,,2.2,1.2,1.8*34
$GPRMC,065256.000,A,3353.7563,N,09832.0221,W,0.08,38.57,010412,,,D*4C
$GPGGA,065257.000,3353.7563,N,09832.0222,W,2,07,1.2,327.4,M,-23.7,M,0.8,0000*46
$GPGSA,A,3,02,20,27,17,04,10,28,,,,,,2.2,1.2,1.8*34
$GPRMC,065257.000,A,3353.7563,N,09832.0222,W,0.22,93.55,010412,,,D*45
$GPGGA,065258.000,3353.7563,N,09832.0221,W,2,07,1.2,327.3,M,-23.7,M,0.8,0000*4D
$GPGSA,A,3,02,20,27,17,04,10,28,,,,,,2.2,1.2,1.8*34
$GPGSV,3,1,12,04,69,194,32,17,51,038,31,28,46,111,39,27,43,275,20*76
$GPGSV,3,2,12,02,36,213,25,09,35,296,20,20,16,059,33,10,14,153,36*74
$GPGSV,3,3,12,12,12,312,15,08,02,165,21,32,01,037,,51,49,195,38*7E
$GPRMC,065258.000,A,3353.7563,N,09832.0221,W,0.30,97.34,010412,,,D*49
$GPGGA,065259.000,3353.7564,N,09832.0222,W,2,07,1.2,327.2,M,-23.7,M,0.8,0000*49
$GPGSA,A,3,02,20,27,17,04,10,28,,,,,,2.2,1.2,1.8*34
$GPRMC,065259.000,A,3353.7564,N,09832.0222,W,0.13,356.78,010412,,,D*7B
$GPGGA,065300.000,3353.7564,N,09832.0223,W,2,07,1.2,327.1,M,-23.7,M,0.8,0000*46
$GPGSA,A,3,02,20,27,17,04,10,28,,,,,,2.2,1.2,1.8*34
$GPRMC,065300.000,A,3353.7564,N,09832.0223,W,0.14,5.83,010412,,,D*71
$GPGGA,065301.000,3353.7565,N,09832.0224,W,2,07,1.2,327.0,M,-23.7,M,0.8,0000*40
$GPGSA,A,3,02,20,27,17,04,10,28,,,,,,2.2,1.2,1.8*34
$GPRMC,065301.000,A,3353.7565,N,09832.0224,W,0.32,318.06,010412,,,D*70
$GPGGA,065302.000,3353.7566,N,09832.0225,W,2,07,1.2,327.0,M,-23.7,M,1.8,0000*40
$GPGSA,A,3,02,20,27,17,04,10,28,,,,,,2.2,1.2,1.8*34
$GPRMC,065302.000,A,3353.7566,N,09832.0225,W,0.17,61.80,010412,,,D*45
$GPGGA,065303.000,3353.7566,N,09832.0224,W,2,07,1.2,326.9,M,-23.7,M,0.8,0000*49
$GPGSA,A,3,02,20,27,17,04,10,28,,,,,,2.2,1.2,1.8*34
$GPGSV,3,1,12,04,69,194,32,17,51,038,31,28,46,111,38,27,43,275,21*76
$GPGSV,3,2,12,02,36,213,26,09,35,296,21,20,16,059,33,10,14,153,36*76
$GPGSV,3,3,12,12,12,312,16,08,02,165,20,32,01,037,,51,49,195,37*73
$GPRMC,065303.000,A,3353.7566,N,09832.0224,W,0.31,87.05,010412,,,D*44
$GPGGA,065304.000,3353.7566,N,09832.0225,W,2,07,1.2,326.8,M,-23.7,M,0.8,0000*4E
$GPGSA,A,3,02,20,27,17,04,10,28,,,,,,2.2,1.2,1.8*34
$GPRMC,065304.000,A,3353.7566,N,09832.0225,W,0.14,22.65,010412,,,D*4C
$GPGGA,065305.000,3353.7566,N,09832.0228,W,2,07,1.2,326.3,M,-23.7,M,0.8,0000*49
$GPGSA,A,3,02,20,27,17,04,10,28,,,,,,2.2,1.2,1.8*34
$GPRMC,065305.000,A,3353.7566,N,09832.0228,W,0.07,85.89,010412,,,D*4D
$GPGGA,065306.000,3353.7565,N,09832.0231,W,2,07,1.2,325.9,M,-23.7,M,1.8,0000*49
$GPGSA,A,3,02,20,27,17,04,10,28,,,,,,2.2,1.2,1.8*34
$GPRMC,065306.000,A,3353.7565,N,09832.0231,W,0.25,104.91,010412,,,D*74
$GPGGA,065307.000,3353.7565,N,09832.0232,W,2,07,1.2,325.6,M,-23.7,M,2.8,0000*47
$GPGSA,A,3,02,20,27,17,04,10,28,,,,,,2.2,1.2,1.8*34
$GPRMC,065307.000,A,3353.7565,N,09832.0232,W,0.14,67.52,010412,,,D*4F
$GPGGA,065308.000,3353.7565,N,09832.0235,W,2,07,1.2,325.1,M,-23.7,M,3.8,0000*49
$GPGSA,A,3,02,20,27,17,04,10,28,,,,,,2.2,1.2,1.8*34
$GPGSV,3,1,12,04,69,194,31,17,51,038,30,28,46,111,38,27,43,275,21*74
$GPGSV,3,2,12,02,36,213,25,09,35,296,22,20,16,059,34,10,14,153,36*71
$GPGSV,3,3,12,12,12,312,17,08,02,165,19,32,01,037,,51,49,195,37*78
$GPRMC,065308.000,A,3353.7565,N,09832.0235,W,0.26,274.59,010412,,,D*7D
$GPGGA,065309.000,3353.7566,N,09832.0235,W,2,07,1.2,325.3,M,-23.7,M,0.8,0000*4A
$GPGSA,A,3,02,20,27,17,04,10,28,,,,,,2.2,1.2,1.8*34
$GPRMC,065309.000,A,3353.7566,N,09832.0235,W,0.26,318.97,010412,,,D*76
$GPGGA,065310.000,3353.7567,N,09832.0235,W,2,07,1.2,325.3,M,-23.7,M,0.8,0000*43
$GPGSA,A,3,02,20,27,17,04,10,28,,,,,,2.2,1.2,1.8*34
$GPRMC,065310.000,A,3353.7567,N,09832.0235,W,0.17,300.14,010412,,,D*7F
$GPGGA,065311.000,3353.7568,N,09832.0237,W,2,07,1.2,325.2,M,-23.7,M,0.8,0000*4E
$GPGSA,A,3,02,20,27,17,04,10,28,,,,,,2.2,1.2,1.8*34
$GPRMC,065311.000,A,3353.7568,N,09832.0237,W,0.41,313.85,010412,,,D*7A
$GPGGA,065312.000,3353.7569,N,09832.0236,W,2,07,1.2,325.5,M,-23.7,M,1.8,0000*4B
$GPGSA,A,3,02,20,27,17,04,10,28,,,,,,2.2,1.2,1.8*34
$GPRMC,065312.000,A,3353.7569,N,09832.0236,W,0.41,326.76,010412,,,D*73
$GPGGA,065313.000,3353.7570,N,09832.0235,W,2,07,1.2,325.8,M,-23.7,M,0.8,0000*4D
$GPGSA,A,3,02,20,27,17,04,10,28,,,,,,2.2,1.2,1.8*34
$GPGSV,3,1,12,04,69,194,31,17,51,039,29,28,45,112,38,27,43,275,21*7D
$GPGSV,3,2,12,02,36,213,24,09,35,295,22,20,16,059,34,10,15,153,35*71
$GPGSV,3,3,12,12,12,312,18,08,01,165,18,32,01,037,,51,49,195,37*75
$GPRMC,065313.000,A,3353.7570,N,09832.0235,W,0.19,65.70,010412,,,D*46
$GPGGA,065314.000,3353.7570,N,09832.0236,W,2,07,1.2,325.6,M,-23.7,M,0.8,0000*47
$GPGSA,A,3,02,20,27,17,04,10,28,,,,,,2.2,1.2,1.8*34
$GPRMC,065314.000,A,3353.7570,N,09832.0236,W,0.26,102.10,010412,,,D*78
$GPGGA,065315.000,3353.7571,N,09832.0239,W,2,07,1.2,325.2,M,-23.7,M,0.8,0000*4C
$GPGSA,A,3,02,20,27,17,04,10,28,,,,,,2.2,1.2,1.8*34
$GPRMC,065315.000,A,3353.7571,N,09832.0239,W,0.06,22.60,010412,,,D*41
$GPGGA,065316.000,3353.7571,N,09832.0241,W,2,07,1.2,325.0,M,-23.7,M,0.8,0000*42
$GPGSA,A,3,02,20,27,17,04,10,28,,,,,,2.2,1.2,1.8*34
$GPRMC,065316.000,A,3353.7571,N,09832.0241,W,0.19,273.35,010412,,,D*75
$GPGGA,065317.000,3353.7574,N,09832.0248,W,2,07,1.2,324.2,M,-23.7,M,0.8,0000*4C
$GPGSA,A,3,02,20,27,17,04,10,28,,,,,,2.2,1.2,1.8*34
$GPRMC,065317.000,A,3353.7574,N,09832.0248,W,0.45,308.13,010412,,,D*78
$GPGGA,065318.000,3353.7574,N,09832.0249,W,2,07,1.2,324.0,M,-23.7,M,0.8,0000*40
$GPGSA,A,3,02,20,27,17,04,10,28,,,,,,2.2,1.2,1.8*34
$GPGSV,3,1,12,04,69,194,31,17,51,039,30,28,45,112,38,27,43,274,21*74
$GPGSV,3,2,12,02,36,213,20,09,35,295,22,20,16,059,34,10,15,153,34*74
$GPGSV,3,3,12,12,12,312,18,08,01,165,,32,01,037,,51,49,195,38*73
$GPRMC,065318.000,A,3353.7574,N,09832.0249,W,0.14,301.52,010412,,,D*7E
$GPGGA,065319.000,3353.7577,N,09832.0257,W,2,07,1.2,322.8,M,-23.7,M,1.8,0000*42
$GPGSA,A,3,02,20,27,17,04,10,28,,,,,,2.2,1.2,1.8*34
$GPRMC,065319.000,A,3353.7577,N,09832.0257,W,0.50,307.56,010412,,,D*71
$GPGGA,065320.000,3353.7579,N,09832.0264,W,2,07,1.2,321.9,M,-23.7,M,2.8,0000*47
$GPGSA,A,3,02,20,27,17,04,10,28,,,,,,2.2,1.2,1.8*34
$GPRMC,065320.000,A,3353.7579,N,09832.0264,W,0.60,306.18,010412,,,D*7D
$GPGGA,065321.000,3353.7580,N,09832.0267,W,2,07,1.2,321.3,M,-23.7,M,0.8,0000*4B
$GPGSA,A,3,02,20,27,17,04,10,28,,,,,,2.2,1.2,1.8*34
$GPRMC,065321.000,A,3353.7580,N,09832.0267,W,0.28,286.54,010412,,,D*74
$GPGGA,065322.000,3353.7581,N,09832.0273,W,2,07,1.2,320.4,M,-23.7,M,0.8,0000*4A
$GPGSA,A,3,02,20,27,17,04,10,28,,,,,,2.2,1.2,1.8*34
$GPRMC,065322.000,A,3353.7581,N,09832.0273,W,0.15,282.13,010412,,,D*7A
$GPGGA,065323.000,3353.7582,N,09832.0278,W,2,06,1.3,319.6,M,-23.7,M,0.8,0000*4B
$GPGSA,A,3,20,27,17,04,10,28,,,,,,,2.3,1.3,1.9*37
$GPGSV,3,1,12,04,69,194,31,17,51,039,30,28,45,112,38,27,43,274,21*74
$GPGSV,3,2,12,02,36,213,12,09,35,295,23,20,16,059,33,10,15,153,34*73
$GPGSV,3,3,12,12,12,312,18,08,01,165,,32,01,037,,51,49,195,38*73
$GPRMC,065323.000,A,3353.7582,N,09832.0278,W,0.45,292.24,010412,,,D*73
$GPGGA,065324.000,3353.7582,N,09832.0278,W,2,06,1.3,319.4,M,-23.7,M,1.8,0000*4F
$GPGSA,A,3,20,27,17,04,10,28,,,,,,,2.3,1.3,1.9*37
$GPRMC,065324.000,A,3353.7582,N,09832.0278,W,0.67,290.82,010412,,,D*7A
$GPGGA,065325.000,3353.7582,N,09832.0283,W,2,06,1.3,318.8,M,-23.7,M,2.8,0000*44
$GPGSA,A,3,20,27,17,04,10,28,,,,,,,2.3,1.3,1.9*37
$GPRMC,065325.000,A,3353.7582,N,09832.0283,W,0.46,295.59,010412,,,D*7F
$GPGGA,065326.000,3353.7583,N,09832.0286,W,2,07,1.2,318.2,M,-23.7,M,3.8,0000*48
$GPGSA,A,3,02,20,27,17,04,10,28,,,,,,2.2,1.2,1.8*34
$GPRMC,065326.000,A,3353.7583,N,09832.0286,W,0.34,291.28,010412,,,D*7F
$GPGGA,065327.000,3353.7581,N,09832.0283,W,2,07,1.2,318.3,M,-23.7,M,0.8,0000*4C
$GPGSA,A,3,02,20,27,17,04,10,28,,,,,,2.2,1.2,1.8*34
$GPRMC,065327.000,A,3353.7581,N,09832.0283,W,0.13,296.55,010412,,,D*71
$GPGGA,065328.000,3353.7581,N,09832.0284,W,2,07,1.2,318.0,M,-23.7,M,0.8,0000*47
$GPGSA,A,3,02,20,27,17,04,10,28,,,,,,2.2,1.2,1.8*34
$GPGSV,3,1,12,04,69,194,31,17,51,039,31,28,45,112,37,27,43,274,21*7A
$GPGSV,3,2,12,02,36,213,18,09,35,295,23,20,16,059,33,10,15,153,33*7E
$GPGSV,3,3,12,12,12,312,18,08,01,165,,32,01,037,,51,49,195,38*73
$GPRMC,065328.000,A,3353.7581,N,09832.0284,W,0.68,287.23,010412,,,D*74
$GPGGA,065329.000,3353.7583,N,09832.0283,W,2,07,1.2,318.2,M,-23.7,M,0.8,0000*41
$GPGSA,A,3,02,20,27,17,04,10,28,,,,,,2.2,1.2,1.8*34
$GPRMC,065329.000,A,3353.7583,N,09832.0283,W,0.40,297.60,010412,,,D*7C
$GPGGA,065330.000,3353.7582,N,09832.0281,W,2,07,1.2,318.2,M,-23.7,M,1.8,0000*4B
$GPGSA,A,3,02,20,27,17,04,10,28,,,,,,2.2,1.2,1.8*34
$GPRMC,065330.000,A,3353.7582,N,09832.0281,W,0.23,62.21,010412,,,D*4F
$GPGGA,065331.000,3353.7581,N,09832.0280,W,2,07,1.2,318.2,M,-23.7,M,2.8,0000*4B
$GPGSA,A,3,02,20,27,17,04,10,28,,,,,,2.2,1.2,1.8*34
$GPRMC,065331.000,A,3353.7581,N,09832.0280,W,0.21,355.26,010412,,,D*7E
$GPGGA,065332.000,3353.7580,N,09832.0276,W,2,07,1.2,318.4,M,-23.7,M,3.8,0000*47
$GPGSA,A,3,02,20,27,17,04,10,28,,,,,,2.2,1.2,1.8*34
$GPRMC,065332.000,A,3353.7580,N,09832.0276,W,0.22,17.40,010412,,,D*43
$GPGGA,065333.000,3353.7579,N,09832.0273,W,2,07,1.2,318.7,M,-23.7,M,0.8,0000*45
$GPGSA,A,3,02,20,27,17,04,10,28,,,,,,2.2,1.2,1.8*34
$GPGSV,3,1,12,04,69,194,30,17,51,039,32,28,45,112,37,27,43,274,22*7B
$GPGSV,3,2,12,02,36,213,22,09,35,295,24,20,16,059,34,10,15,153,33*77
$GPGSV,3,3,12,12,12,312,18,08,01,165,,32,01,037,,51,49,195,38*73
$GPRMC,065333.000,A,3353.7579,N,09832.0273,W,0.24,279.88,010412,,,D*79
$GPGGA,065334.000,3353.7577,N,09832.0268,W,2,07,1.2,319.2,M,-23.7,M,0.8,0000*42
$GPGSA,A,3,02,20,27,17,04,10,28,,,,,,2.2,1.2,1.8*34
$GPRMC,065334.000,A,3353.7577,N,09832.0268,W,0.45,90.11,010412,,,D*48
$GPGGA,065335.000,3353.7577,N,09832.0266,W,2,07,1.2,319.4,M,-23.7,M,0.8,0000*4B
$GPGSA,A,3,02,20,27,17,04,10,28,,,,,,2.2,1.2,1.8*34
$GPRMC,065335.000,A,3353.7577,N,09832.0266,W,0.20,56.09,010412,,,D*47
$GPGGA,065336.000,3353.7576,N,09832.0263,W,2,07,1.2,319.7,M,-23.7,M,1.8,0000*4E
$GPGSA,A,3,02,20,27,17,04,10,28,,,,,,2.2,1.2,1.8*34
$GPRMC,065336.000,A,3353.7576,N,09832.0263,W,0.28,61.44,010412,,,D*45
$GPGGA,065337.000,3353.7579,N,09832.0256,W,2,07,1.2,321.1,M,-23.7,M,0.8,0000*4A
$GPGSA,A,3,02,20,27,17,04,10,28,,,,,,2.2,1.2,1.8*34
$GPRMC,065337.000,A,3353.7579,N,09832.0256,W,0.42,65.90,010412,,,D*4C
$GPGGA,065338.000,3353.7579,N,09832.0253,W,2,07,1.2,321.6,M,-23.7,M,1.8,0000*46
$GPGSA,A,3,02,20,27,17,04,10,28,,,,,,2.2,1.2,1.8*34
$GPGSV,3,1,12,04,69,194,29,17,51,039,33,28,45,112,36,27,43,274,23*72
$GPGSV,3,2,12,02,36,213,24,09,35,295,24,20,16,059,33,10,15,153,33*76
$GPGSV,3,3,12,12,12,312,18,08,01,165,,32,01,037,,51,49,195,38*73
$GPRMC,065338.000,A,3353.7579,N,09832.0253,W,0.19,58.95,010412,,,D*43
$GPGGA,065339.000,3353.7577,N,09832.0250,W,2,07,1.2,322.0,M,-23.7,M,0.8,0000*4E
$GPGSA,A,3,02,20,27,17,04,10,28,,,,,,2.2,1.2,1.8*34
$GPRMC,065339.000,A,3353.7577,N,09832.0250,W,0.22,111.02,010412,,,D*75
$GPGGA,065340.000,3353.7577,N,09832.0248,W,2,07,1.2,322.4,M,-23.7,M,0.8,0000*4D
$GPGSA,A,3,02,20,27,17,04,10,28,,,,,,2.2,1.2,1.8*34
$GPRMC,065340.000,A,3353.7577,N,09832.0248,W,0.28,81.24,010412,,,D*44
$GPGGA,065341.000,3353.7577,N,09832.0251,W,2,07,1.2,322.0,M,-23.7,M,0.8,0000*40
$GPGSA,A,3,02,20,27,17,04,10,28,,,,,,2.2,1.2,1.8*34
$GPRMC,065341.000,A,3353.7577,N,09832.0251,W,0.20,107.50,010412,,,D*79
$GPGGA,065342.000,3353.7580,N,09832.0245,W,2,07,1.2,323.2,M,-23.7,M,1.8,0000*4C
$GPGSA,A,3,02,20,27,17,04,10,28,,,,,,2.2,1.2,1.8*34
$GPRMC,065342.000,A,3353.7580,N,09832.0245,W,0.20,80.65,010412,,,D*4F
$GPGGA,065343.000,3353.7578,N,09832.0245,W,2,07,1.2,324.3,M,-23.7,M,2.8,0000*4F
$GPGSA,A,3,02,20,27,17,04,10,28,,,,,,2.2,1.2,1.8*34
$GPGSV,3,1,12,04,69,194,25,17,51,039,33,28,45,112,36,27,43,274,23*7E
$GPGSV,3,2,12,02,36,213,24,09,35,295,25,20,15,059,33,10,15,153,33*74
$GPGSV,3,3,12,12,12,312,17,08,01,165,,32,01,037,,51,49,195,38*7C
$GPRMC,065343.000,A,3353.7578,N,09832.0245,W,0.06,272.13,010412,,,D*73
$GPGGA,065344.000,3353.7578,N,09832.0242,W,2,07,1.2,325.9,M,-23.7,M,3.8,0000*45
$GPGSA,A,3,02,20,27,17,04,10,28,,,,,,2.2,1.2,1.8*34
$GPRMC,065344.000,A,3353.7578,N,09832.0242,W,0.07,190.19,010412,,,D*77
$GPGGA,065345.000,3353.7577,N,09832.0242,W,2,07,1.2,326.2,M,-23.7,M,0.8,0000*40
$GPGSA,A,3,02,20,27,17,04,10,28,,,,,,2.2,1.2,1.8*34
$GPRMC,065345.000,A,3353.7577,N,09832.0242,W,0.28,288.80,010412,,,D*7E
$GPGGA,065346.000,3353.7578,N,09832.0240,W,2,07,1.2,326.2,M,-23.7,M,0.8,0000*4E
$GPGSA,A,3,02,20,27,17,04,10,28,,,,,,2.2,1.2,1.8*34
$GPRMC,065346.000,A,3353.7578,N,09832.0240,W,0.26,283.77,010412,,,D*7D
$GPGGA,065347.000,3353.7577,N,09832.0238,W,2,07,1.2,328.1,M,-23.7,M,0.8,0000*42
$GPGSA,A,3,02,20,27,17,04,10,28,,,,,,2.2,1.2,1.8*34
$GPRMC,065347.000,A,3353.7577,N,09832.0238,W,0.39,89.93,010412,,,D*40
$GPGGA,065348.000,3353.7575,N,09832.0237,W,2,07,1.2,329.4,M,-23.7,M,0.8,0000*44
$GPGSA,A,3,02,20,27,17,04,10,28,,,,,,2.2,1.2,1.8*34
$GPGSV,3,1,12,04,69,194,24,17,51,039,33,28,45,112,36,27,43,274,23*7F
$GPGSV,3,2,12,02,36,213,24,09,35,295,25,20,15,058,33,10,15,153,33*75
$GPGSV,3,3,12,12,12,312,17,08,01,165,,32,01,037,,51,49,195,38*7C
$GPRMC,065348.000,A,3353.7575,N,09832.0237,W,0.53,97.41,010412,,,D*4E
$GPGGA,065349.000,3353.7575,N,09832.0235,W,2,07,1.2,329.3,M,-23.7,M,1.8,0000*41
$GPGSA,A,3,02,20,27,17,04,10,28,,,,,,2.2,1.2,1.8*34
$GPRMC,065349.000,A,3353.7575,N,09832.0235,W,0.07,250.30,010412,,,D*73
$GPGGA,065350.000,3353.7572,N,09832.0233,W,2,07,1.2,330.2,M,-23.7,M,2.8,0000*42
$GPGSA,A,3,02,20,27,17,04,10,28,,,,,,2.2,1.2,1.8*34
$GPRMC,065350.000,A,3353.7572,N,09832.0233,W,0.14,76.65,010412,,,D*4E
$GPGGA,065351.000,3353.7571,N,09832.0235,W,2,07,1.2,330.9,M,-23.7,M,0.8,0000*4F
$GPGSA,A,3,02,20,27,17,04,10,28,,,,,,2.2,1.2,1.8*34
$GPRMC,065351.000,A,3353.7571,N,09832.0235,W,0.22,259.37,010412,,,D*77
$GPGGA,065352.000,3353.7569,N,09832.0235,W,2,07,1.2,331.6,M,-23.7,M,0.8,0000*4B
$GPGSA,A,3,02,20,27,17,04,10,28,,,,,,2.2,1.2,1.8*34
$GPRMC,065352.000,A,3353.7569,N,09832.0235,W,0.32,105.16,010412,,,D*75
$GPGGA,065353.000,3353.7569,N,09832.0240,W,2,07,1.2,331.3,M,-23.7,M,0.8,0000*4D
$GPGSA,A,3,02,20,27,17,04,10,28,,,,,,2.2,1.2,1.8*34
$GPGSV,3,1,12,04,69,194,24,17,51,039,34,28,45,112,36,27,43,274,24*7F
$GPGSV,3,2,12,02,36,213,23,09,35,295,24,20,15,058,33,10,15,153,34*74
$GPGSV,3,3,12,12,12,312,16,08,01,165,,32,01,037,,51,49,195,38*7D
$GPRMC,065353.000,A,3353.7569,N,09832.0240,W,0.28,277.94,010412,,,D*71
$GPGGA,065354.000,3353.7569,N,09832.0245,W,2,07,1.2,330.8,M,-23.7,M,1.8,0000*44
$GPGSA,A,3,02,20,27,17,04,10,28,,,,,,2.2,1.2,1.8*34
$GPRMC,065354.000,A,3353.7569,N,09832.0245,W,0.55,272.69,010412,,,D*7E
$GPGGA,065355.000,3353.7568,N,09832.0247,W,2,07,1.2,330.5,M,-23.7,M,0.8,0000*4A
$GPGSA,A,3,02,20,27,17,04,10,28,,,,,,2.2,1.2,1.8*34
$GPRMC,065355.000,A,3353.7568,N,09832.0247,W,0.14,262.38,010412,,,D*7C
$GPGGA,065356.000,3353.7568,N,09832.0247,W,2,07,1.2,330.2,M,-23.7,M,0.8,0000*4E
$GPGSA,A,3,02,20,27,17,04,10,28,,,,,,2.2,1.2,1.8*34
$GPRMC,065356.000,A,3353.7568,N,09832.0247,W,0.13,56.36,010412,,,D*43
$GPGGA,065357.000,3353.7567,N,09832.0245,W,2,07,1.2,330.1,M,-23.7,M,0.8,0000*41
$GPGSA,A,3,02,20,27,17,04,10,28,,,,,,2.2,1.2,1.8*34
$GPRMC,065357.000,A,3353.7567,N,09832.0245,W,0.22,108.07,010412,,,D*75
$GPGGA,065358.000,3353.7566,N,09832.0244,W,2,07,1.2,329.8,M,-23.7,M,0.8,0000*4F
$GPGSA,A,3,02,20,27,17,04,10,28,,,,,,2.2,1.2,1.8*34
$GPGSV,3,1,12,04,69,194,25,17,51,039,34,28,45,112,36,27,43,274,24*7E
$GPGSV,3,2,12,02,36,213,15,09,35,295,25,20,15,058,33,10,15,153,34*70
$GPGSV,3,3,12,12,12,312,17,08,01,165,,32,01,037,,51,49,195,37*73
$GPRMC,065358.000,A,3353.7566,N,09832.0244,W,0.07,246.18,010412,,,D*7A
$GPGGA,065359.000,3353.7565,N,09832.0245,W,2,07,1.2,329.4,M,-23.7,M,0.8,0000*40
$GPGSA,A,3,02,20,27,17,04,10,28,,,,,,2.2,1.2,1.8*34
$GPRMC,065359.000,A,3353.7565,N,09832.0245,W,0.13,274.78,010412,,,D*7B
$GPGGA,065400.000,3353.7565,N,09832.0244,W,2,07,1.2,329.1,M,-23.7,M,1.8,0000*4E
$GPGSA,A,3,02,20,27,17,04,10,28,,,,,,2.2,1.2,1.8*34
$GPRMC,065400.000,A,3353.7565,N,09832.0244,W,0.09,280.67,010412,,,D*7F
$GPGGA,065401.000,3353.7565,N,09832.0243,W,2,07,1.2,328.8,M,-23.7,M,0.8,0000*41
$GPGSA,A,3,02,20,27,17,04,10,28,,,,,,2.2,1.2,1.8*34
$GPRMC,065401.000,A,3353.7565,N,09832.0243,W,0.12,305.27,010412,,,D*7B
$GPGGA,065402.000,3353.7565,N,09832.0246,W,2,07,1.2,328.1,M,-23.7,M,1.8,0000*4F
$GPGSA,A,3,02,20,27,17,04,10,28,,,,,,2.2,1.2,1.8*34
$GPRMC,065402.000,A,3353.7565,N,09832.0246,W,0.59,286.31,010412,,,D*7F
$GPGGA,065403.000,3353.7565,N,09832.0248,W,2,07,1.2,327.5,M,-23.7,M,0.8,0000*4A
$GPGSA,A,3,02,20,27,17,04,10,28,,,,,,2.2,1.2,1.8*34
$GPGSV,3,1,12,04,69,194,26,17,51,039,35,28,45,112,36,27,43,274,25*7D
$GPGSV,3,2,12,02,36,213,14,09,35,295,25,20,15,058,33,10,15,153,34*71
$GPGSV,3,3,12,12,12,312,17,08,01,165,,32,01,037,,51,49,195,38*7C
$GPRMC,065403.000,A,3353.7565,N,09832.0248,W,0.24,282.04,010412,,,D*78
$GPGGA,065404.000,3353.7566,N,09832.0250,W,2,07,1.2,326.7,M,-23.7,M,0.8,0000*44
$GPGSA,A,3,02,20,27,17,04,10,28,,,,,,2.2,1.2,1.8*34
$GPRMC,065404.000,A,3353.7566,N,09832.0250,W,0.28,273.02,010412,,,D*71
$GPGGA,065405.000,3353.7565,N,09832.0250,W,2,07,1.2,326.3,M,-23.7,M,0.8,0000*42
$GPGSA,A,3,02,20,27,17,04,10,28,,,,,,2.2,1.2,1.8*34
$GPRMC,065405.000,A,3353.7565,N,09832.0250,W,0.16,257.76,010412,,,D*7B
$GPGGA,065406.000,3353.7565,N,09832.0247,W,2,07,1.2,326.3,M,-23.7,M,1.8,0000*46
$GPGSA,A,3,02,20,27,17,04,10,28,,,,,,2.2,1.2,1.8*34
$GPRMC,065406.000,A,3353.7565,N,09832.0247,W,0.14,34.26,010412,,,D*4E
$GPGGA,065407.000,3353.7564,N,09832.0244,W,2,07,1.2,326.4,M,-23.7,M,2.8,0000*41
$GPGSA,A,3,02,20,27,17,04,10,28,,,,,,2.2,1.2,1.8*34
$GPRMC,065407.000,A,3353.7564,N,09832.0244,W,0.17,52.53,010412,,,D*4C
$GPGGA,065408.000,3353.7563,N,09832.0241,W,2,07,1.2,326.5,M,-23.7,M,3.8,0000*4C
$GPGSA,A,3,02,20,27,17,04,10,28,,,,,,2.2,1.2,1.8*34
$GPGSV,3,1,12,04,69,194,27,17,51,039,35,28,45,112,36,27,43,274,26*7F
$GPGSV,3,2,12,02,36,213,21,09,35,295,25,20,15,058,33,10,15,153,34*77
$GPGSV,3,3,12,12,12,312,16,08,01,165,,32,01,037,,51,49,195,38*7D
$GPRMC,065408.000,A,3353.7563,N,09832.0241,W,0.10,44.80,010412,,,D*4F
$GPGGA,065409.000,3353.7563,N,09832.0241,W,2,07,1.2,326.2,M,-23.7,M,0.8,0000*49
$GPGSA,A,3,02,20,27,17,04,10,28,,,,,,2.2,1.2,1.8*34
$GPRMC,065409.000,A,3353.7563,N,09832.0241,W,0.19,19.03,010412,,,D*44
$GPGGA,065410.000,3353.7563,N,09832.0239,W,2,07,1.2,326.1,M,-23.7,M,0.8,0000*4D
$GPGSA,A,3,02,20,27,17,04,10,28,,,,,,2.2,1.2,1.8*34
$GPRMC,065410.000,A,3353.7563,N,09832.0239,W,0.29,300.74,010412,,,D*7B
$GPGGA,065411.000,3353.7563,N,09832.0238,W,2,07,1.2,326.1,M,-23.7,M,0.8,0000*4D
$GPGSA,A,3,02,20,27,17,04,10,28,,,,,,2.2,1.2,1.8*34
$GPRMC,065411.000,A,3353.7563,N,09832.0238,W,0.11,260.23,010412,,,D*75
$GPGGA,065412.000,3353.7562,N,09832.0235,W,2,07,1.2,326.2,M,-23.7,M,1.8,0000*40
$GPGSA,A,3,02,20,27,17,04,10,28,,,,,,2.2,1.2,1.8*34
$GPRMC,065412.000,A,3353.7562,N,09832.0235,W,0.06,242.75,010412,,,D*7F
$GPGGA,065413.000,3353.7561,N,09832.0232,W,2,07,1.2,326.2,M,-23.7,M,2.8,0000*46
$GPGSA,A,3,02,20,27,17,04,10,28,,,,,,2.2,1.2,1.8*34
$GPGSV,3,1,12,04,70,194,28,17,50,039,35,28,45,112,35,27,43,274,26*7A
$GPGSV,3,2,12,02,36,213,21,09,35,295,26,20,15,058,32,10,15,152,34*74
$GPGSV,3,3,12,12,12,312,17,08,01,165,,32,01,037,,51,49,195,38*7C
$GPRMC,065413.000,A,3353.7561,N,09832.0232,W,0.03,225.67,010412,,,D*7D
$GPGGA,065414.000,3353.7561,N,09832.0229,W,2,07,1.2,326.3,M,-23.7,M,3.8,0000*4B
$GPGSA,A,3,02,20,27,17,04,10,28,,,,,,2.2,1.2,1.8*34
$GPRMC,065414.000,A,3353.7561,N,09832.0229,W,0.23,51.78,010412,,,D*4D
$GPGGA,065415.000,3353.7560,N,09832.0226,W,2,07,1.2,326.5,M,-23.7,M,0.8,0000*41
$GPGSA,A,3,02,20,27,17,04,10,28,,,,,,2.2,1.2,1.8*34
$GPRMC,065415.000,A,3353.7560,N,09832.0226,W,0.27,70.47,010412,,,D*49
$GPGGA,065416.000,3353.7560,N,09832.0225,W,2,07,1.2,326.4,M,-23.7,M,0.8,0000*40
$GPGSA,A,3,02,20,27,17,04,10,28,,,,,,2.2,1.2,1.8*34
$GPRMC,065416.000,A,3353.7560,N,09832.0225,W,0.06,64.78,010412,,,D*43
$GPGGA,065417.000,3353.7560,N,09832.0225,W,2,07,1.2,326.3,M,-23.7,M,0.8,0000*46
$GPGSA,A,3,02,20,27,17,04,10,28,,,,,,2.2,1.2,1.8*34
$GPRMC,065417.000,A,3353.7560,N,09832.0225,W,0.11,312.51,010412,,,D*7D
$GPGGA,065418.000,3353.7560,N,09832.0227,W,2,07,1.2,325.9,M,-23.7,M,0.8,0000*42
$GPGSA,A,3,02,20,27,17,04,10,28,,,,,,2.2,1.2,1.8*34
$GPGSV,3,1,12,04,70,194,28,17,50,039,35,28,45,112,34,27,43,274,26*7B
$GPGSV,3,2,12,02,36,213,21,09,35,295,26,20,15,058,32,10,15,152,35*75
$GPGSV,3,3,12,12,12,312,17,08,01,165,,32,01,037,,51,49,195,38*7C
$GPRMC,065418.000,A,3353.7560,N,09832.0227,W,0.24,269.29,010412,,,D*74
$GPGGA,065419.000,3353.7561,N,09832.0229,W,2,07,1.2,325.5,M,-23.7,M,1.8,0000*41
$GPGSA,A,3,02,20,27,17,04,10,28,,,,,,2.2,1.2,1.8*34
$GPRMC,065419.000,A,3353.7561,N,09832.0229,W,0.21,288.30,010412,,,D*78
$GPGGA,065420.000,3353.7561,N,09832.0231,W,2,07,1.2,325.2,M,-23.7,M,2.8,0000*46
$GPGSA,A,3,02,20,27,17,04,10,28,,,,,,2.2,1.2,1.8*34
$GPRMC,065420.000,A,3353.7561,N,09832.0231,W,0.16,349.23,010412,,,D*71
$GPGGA,065421.000,3353.7562,N,09832.0233,W,2,07,1.2,324.8,M,-23.7,M,0.8,0000*4F
$GPGSA,A,3,02,20,27,17,04,10,28,,,,,,2.2,1.2,1.8*34
$GPRMC,065421.000,A,3353.7562,N,09832.0233,W,0.26,348.29,010412,,,D*79
$GPGGA,065422.000,3353.7563,N,09832.0236,W,2,07,1.2,324.1,M,-23.7,M,0.8,0000*41
$GPGSA,A,3,02,20,27,17,04,10,28,,,,,,2.2,1.2,1.8*34
$GPRMC,065422.000,A,3353.7563,N,09832.0236,W,0.25,295.41,010412,,,D*72
$GPGGA,065423.000,3353.7564,N,09832.0240,W,2,07,1.2,323.4,M,-23.7,M,0.8,0000*44
$GPGSA,A,3,02,20,27,17,04,10,28,,,,,,2.2,1.2,1.8*34
$GPGSV,3,1,12,04,70,194,29,17,50,039,36,28,45,112,34,27,43,274,25*7A
$GPGSV,3,2,12,02,36,213,21,09,35,295,26,20,15,058,32,10,15,152,35*75
$GPGSV,3,3,12,12,12,312,17,08,01,165,,32,01,037,,51,49,195,38*7C
$GPRMC,065423.000,A,3353.7564,N,09832.0240,W,0.60,284.68,010412,,,D*7F
$GPGGA,065424.000,3353.7565,N,09832.0244,W,2,07,1.2,322.8,M,-23.7,M,1.8,0000*4A
$GPGSA,A,3,02,20,27,17,04,10,28,,,,,,2.2,1.2,1.8*34
$GPRMC,065424.000,A,3353.7565,N,09832.0244,W,0.36,297.85,010412,,,D*7F
$GPGGA,065425.000,3353.7566,N,09832.0247,W,2,07,1.2,322.1,M,-23.7,M,2.8,0000*41
$GPGSA,A,3,02,20,27,17,04,10,28,,,,,,2.2,1.2,1.8*34
$GPRMC,065425.000,A,3353.7566,N,09832.0247,W,0.35,315.38,010412,,,D*70
$GPGGA,065426.000,3353.7568,N,09832.0253,W,2,07,1.2,321.0,M,-23.7,M,0.8,0000*49
$GPGSA,A,3,02,20,27,17,04,10,28,,,,,,2.2,1.2,1.8*34
$GPRMC,065426.000,A,3353.7568,N,09832.0253,W,0.34,304.72,010412,,,D*77
$GPGGA,065427.000,3353.7568,N,09832.0257,W,2,07,1.2,320.2,M,-23.7,M,0.8,0000*4F
$GPGSA,A,3,02,20,27,17,04,10,28,,,,,,2.2,1.2,1.8*34
$GPRMC,065427.000,A,3353.7568,N,09832.0257,W,0.31,292.70,010412,,,D*7B
$GPGGA,065428.000,3353.7569,N,09832.0260,W,2,07,1.2,319.5,M,-23.7,M,0.8,0000*48
$GPGSA,A,3,02,20,27,17,04,10,28,,,,,,2.2,1.2,1.8*34
$GPGSV,3,1,12,04,70,194,28,17,50,039,36,28,45,112,34,27,43,274,25*7B
$GPGSV,3,2,12,02,36,213,22,09,35,295,26,20,15,058,31,10,15,152,35*75
$GPGSV,3,3,12,12,12,312,16,08,01,165,,32,01,037,,51,49,195,38*7D
$GPRMC,065428.000,A,3353.7569,N,09832.0260,W,0.47,304.75,010412,,,D*7B
$GPGGA,065429.000,3353.7569,N,09832.0259,W,2,07,1.2,319.6,M,-23.7,M,0.8,0000*40
$GPGSA,A,3,02,20,27,17,04,10,28,,,,,,2.2,1.2,1.8*34
$GPRMC,065429.000,A,3353.7569,N,09832.0259,W,0.50,306.04,010412,,,D*72
$GPGGA,065430.000,3353.7570,N,09832.0263,W,2,07,1.2,318.9,M,-23.7,M,1.8,0000*46
$GPGSA,A,3,02,20,27,17,04,10,28,,,,,,2.2,1.2,1.8*34
$GPRMC,065430.000,A,3353.7570,N,09832.0263,W,0.71,300.28,010412,,,D*70
$GPGGA,065431.000,3353.7572,N,09832.0270,W,2,07,1.2,317.8,M,-23.7,M,2.8,0000*4A
$GPGSA,A,3,02,20,27,17,04,10,28,,,,,,2.2,1.2,1.8*34
$GPRMC,065431.000,A,3353.7572,N,09832.0270,W,0.92,295.22,010412,,,D*7B
$GPGGA,065432.000,3353.7573,N,09832.0277,W,2,07,1.2,316.9,M,-23.7,M,3.8,0000*4E
$GPGSA,A,3,02,20,27,17,04,10,28,,,,,,2.2,1.2,1.8*34
$GPRMC,065432.000,A,3353.7573,N,09832.0277,W,0.55,304.73,010412,,,D*78
$GPGGA,065433.000,3353.7574,N,09832.0281,W,2,07,1.2,316.2,M,-23.7,M,0.8,0000*49
$GPGSA,A,3,02,20,27,17,04,10,28,,,,,,2.2,1.2,1.8*34
$GPGSV,3,1,12,04,70,194,28,17,50,039,37,28,45,112,34,27,43,274,24*7B
$GPGSV,3,2,12,02,36,213,24,09,35,295,26,20,15,058,31,10,15,152,35*73
$GPGSV,3,3,12,12,12,312,15,08,01,165,,32,01,037,,51,49,195,38*7E
$GPRMC,065433.000,A,3353.7574,N,09832.0281,W,0.78,296.79,010412,,,D*78
$GPGGA,065434.000,3353.7577,N,09832.0276,W,2,07,1.2,317.1,M,-23.7,M,0.8,0000*47
$GPGSA,A,3,02,20,27,17,04,10,28,,,,,,2.2,1.2,1.8*34
$GPRMC,065434.000,A,3353.7577,N,09832.0276,W,0.22,343.94,010412,,,D*71
$GPGGA,065435.000,3353.7579,N,09832.0272,W,2,07,1.2,317.8,M,-23.7,M,0.8,0000*45
$GPGSA,A,3,02,20,27,17,04,10,28,,,,,,2.2,1.2,1.8*34
$GPRMC,065435.000,A,3353.7579,N,09832.0272,W,0.33,346.12,010412,,,D*71
$GPGGA,065436.000,3353.7580,N,09832.0270,W,2,07,1.2,318.0,M,-23.7,M,1.8,0000*44
$GPGSA,A,3,02,20,27,17,04,10,28,,,,,,2.2,1.2,1.8*34
$GPRMC,065436.000,A,3353.7580,N,09832.0270,W,0.30,326.50,010412,,,D*75
$GPGGA,065437.000,3353.7580,N,09832.0269,W,2,07,1.2,318.3,M,-23.7,M,2.8,0000*4D
$GPGSA,A,3,02,20,27,17,04,10,28,,,,,,2.2,1.2,1.8*34
$GPRMC,065437.000,A,3353.7580,N,09832.0269,W,0.17,19.33,010412,,,D*43
$GPGGA,065438.000,3353.7580,N,09832.0265,W,2,07,1.2,318.8,M,-23.7,M,3.8,0000*44
$GPGSA,A,3,02,20,27,17,04,10,28,,,,,,2.2,1.2,1.8*34
$GPGSV,3,1,12,04,70,194,27,17,50,039,37,28,45,112,34,27,43,274,23*73
$GPGSV,3,2,12,02,36,213,24,09,35,295,26,20,15,058,31,10,15,152,34*72
$GPGSV,3,3,12,12,12,312,14,08,01,165,,32,01,037,,51,49,195,38*7F
$GPRMC,065438.000,A,3353.7580,N,09832.0265,W,0.22,91.26,010412,,,D*42
$GPGGA,065439.000,3353.7578,N,09832.0268,W,2,07,1.2,319.6,M,-23.7,M,0.8,0000*43
$GPGSA,A,3,02,20,27,17,04,10,28,,,,,,2.2,1.2,1.8*34
$GPRMC,065439.000,A,3353.7578,N,09832.0268,W,0.18,187.53,010412,,,D*74
$GPGGA,065440.000,3353.7578,N,09832.0264,W,2,07,1.2,320.6,M,-23.7,M,0.8,0000*4B
$GPGSA,A,3,02,20,27,17,04,10,28,,,,,,2.2,1.2,1.8*34
$GPRMC,065440.000,A,3353.7578,N,09832.0264,W,0.10,10.18,010412,,,D*4E
$GPGGA,065441.000,3353.7579,N,09832.0257,W,2,07,1.2,321.1,M,-23.7,M,0.8,0000*4D
$GPGSA,A,3,02,20,27,17,04,10,28,,,,,,2.2,1.2,1.8*34
$GPRMC,065441.000,A,3353.7579,N,09832.0257,W,0.67,89.82,010412,,,D*4D
$GPGGA,065442.000,3353.7579,N,09832.0253,W,2,07,1.2,321.2,M,-23.7,M,0.8,0000*49
$GPGSA,A,3,02,20,27,17,04,10,28,,,,,,2.2,1.2,1.8*34
$GPRMC,065442.000,A,3353.7579,N,09832.0253,W,0.04,83.40,010412,,,D*4B
$GPGGA,065443.000,3353.7580,N,09832.0258,W,2,07,1.2,320.5,M,-23.7,M,1.8,0000*42
$GPGSA,A,3,02,20,27,17,04,10,28,,,,,,2.2,1.2,1.8*34
$GPGSV,3,1,12,04,70,194,21,17,50,039,37,28,45,112,34,27,43,274,24*72
$GPGSV,3,2,12,02,36,213,24,09,36,295,26,20,15,058,31,10,15,152,34*71
$GPGSV,3,3,12,12,12,312,,08,01,165,,32,01,037,,51,49,195,38*7A
$GPRMC,065443.000,A,3353.7580,N,09832.0258,W,0.11,280.38,010412,,,D*7D
$GPGGA,065444.000,3353.7581,N,09832.0261,W,2,07,1.2,319.9,M,-23.7,M,2.8,0000*4B
$GPGSA,A,3,02,20,27,17,04,10,28,,,,,,2.2,1.2,1.8*34
$GPRMC,065444.000,A,3353.7581,N,09832.0261,W,0.17,99.98,010412,,,D*47
$GPGGA,065445.000,3353.7583,N,09832.0269,W,2,07,1.2,318.7,M,-23.7,M,0.8,0000*4D
$GPGSA,A,3,02,20,27,17,04,10,28,,,,,,2.2,1.2,1.8*34
$GPRMC,065445.000,A,3353.7583,N,09832.0269,W,0.27,318.84,010412,,,D*78
$GPGGA,065446.000,3353.7582,N,09832.0267,W,2,07,1.2,318.4,M,-23.7,M,0.8,0000*42
$GPGSA,A,3,02,20,27,17,04,10,28,,,,,,2.2,1.2,1.8*34
$GPRMC,065446.000,A,3353.7582,N,09832.0267,W,0.07,345.04,010412,,,D*76
$GPGGA,065447.000,3353.7582,N,09832.0269,W,2,07,1.2,317.9,M,-23.7,M,0.8,0000*4F
$GPGSA,A,3,02,20,27,17,04,10,28,,,,,,2.2,1.2,1.8*34
$GPRMC,065447.000,A,3353.7582,N,09832.0269,W,0.41,300.94,010412,,,D*73
$GPGGA,065448.000,3353.7583,N,09832.0272,W,2,07,1.2,317.3,M,-23.7,M,1.8,0000*40
$GPGSA,A,3,02,20,27,17,04,10,28,,,,,,2.2,1.2,1.8*34
$GPGSV,3,1,12,04,70,194,21,17,50,039,37,28,45,112,34,27,43,274,23*75
$GPGSV,3,2,12,02,36,213,23,09,36,295,27,20,15,058,30,10,15,152,34*76
$GPGSV,3,3,12,12,12,312,,08,01,165,,32,01,037,,51,49,195,38*7A
$GPRMC,065448.000,A,3353.7583,N,09832.0272,W,0.33,309.49,010412,,,D*7B
$GPGGA,065449.000,3353.7583,N,09832.0275,W,2,07,1.2,316.7,M,-23.7,M,0.8,0000*42
$GPGSA,A,3,02,20,27,17,04,10,28,,,,,,2.2,1.2,1.8*34
$GPRMC,065449.000,A,3353.7583,N,09832.0275,W,0.22,308.06,010412,,,D*77
$GPGGA,065450.000,3353.7582,N,09832.0273,W,2,07,1.2,316.5,M,-23.7,M,0.8,0000*4F
$GPGSA,A,3,02,20,27,17,04,10,28,,,,,,2.2,1.2,1.8*34
$GPRMC,065450.000,A,3353.7582,N,09832.0273,W,0.21,286.92,010412,,,D*71
$GPGGA,065451.000,3353.7581,N,09832.0271,W,2,07,1.2,316.3,M,-23.7,M,0.8,0000*49
$GPGSA,A,3,02,20,27,17,04,10,28,,,,,,2.2,1.2,1.8*34
$GPRMC,065451.000,A,3353.7581,N,09832.0271,W,0.12,350.06,010412,,,D*76
$GPGGA,065452.000,3353.7581,N,09832.0273,W,2,07,1.2,315.8,M,-23.7,M,0.8,0000*40
$GPGSA,A,3,02,20,27,17,04,10,28,,,,,,2.2,1.2,1.8*34
$GPRMC,065452.000,A,3353.7581,N,09832.0273,W,0.09,77.71,010412,,,D*4B
$GPGGA,065453.000,3353.7580,N,09832.0274,W,2,07,1.2,315.4,M,-23.7,M,0.8,0000*4B
$GPGSA,A,3,02,20,27,17,04,10,28,,,,,,2.2,1.2,1.8*34
$GPGSV,3,1,12,04,70,194,22,17,50,039,38,28,45,112,34,27,43,274,23*79
$GPGSV,3,2,12,02,36,213,23,09,36,295,26,20,15,058,30,10,15,152,34*77
$GPGSV,3,3,12,12,12,312,,08,01,165,,32,01,037,,51,49,195,38*7A
$GPRMC,065453.000,A,3353.7580,N,09832.0274,W,0.42,284.61,010412,,,D*7C
$GPGGA,065454.000,3353.7581,N,09832.0280,W,2,07,1.2,314.6,M,-23.7,M,1.8,0000*44
$GPGSA,A,3,02,20,27,17,04,10,28,,,,,,2.2,1.2,1.8*34
$GPRMC,065454.000,A,3353.7581,N,09832.0280,W,0.59,298.02,010412,,,D*73
$GPGGA,065455.000,3353.7581,N,09832.0281,W,2,07,1.2,314.4,M,-23.7,M,2.8,0000*45
$GPGSA,A,3,02,20,27,17,04,10,28,,,,,,2.2,1.2,1.8*34
$GPRMC,065455.000,A,3353.7581,N,09832.0281,W,0.37,278.46,010412,,,D*75
$GPGGA,065456.000,3353.7580,N,09832.0281,W,2,07,1.2,314.1,M,-23.7,M,3.8,0000*43
$GPGSA,A,3,02,20,27,17,04,10,28,,,,,,2.2,1.2,1.8*34
$GPRMC,065456.000,A,3353.7580,N,09832.0281,W,0.13,290.18,010412,,,D*7C
$GPGGA,065457.000,3353.7579,N,09832.0278,W,2,07,1.2,314.0,M,-23.7,M,0.8,0000*40
$GPGSA,A,3,02,20,27,17,04,10,28,,,,,,2.2,1.2,1.8*34
$GPRMC,065457.000,A,3353.7579,N,09832.0278,W,0.28,340.81,010412,,,D*79
$GPGGA,065458.000,3353.7579,N,09832.0273,W,2,07,1.2,314.2,M,-23.7,M,0.8,0000*46
$GPGSA,A,3,02,20,27,17,04,10,28,,,,,,2.2,1.2,1.8*34
$GPGSV,3,1,12,04,70,194,23,17,50,039,38,28,45,112,34,27,43,274,23*78
$GPGSV,3,2,12,02,36,213,23,09,36,295,26,20,15,058,30,10,15,152,34*77
$GPGSV,3,3,12,12,12,312,,08,01,165,,32,01,037,,51,49,195,38*7A
$GPRMC,065458.000,A,3353.7579,N,09832.0273,W,0.24,19.83,010412,,,D*4C
$GPGGA,065459.000,3353.7578,N,09832.0267,W,2,07,1.2,314.5,M,-23.7,M,0.8,0000*44
$GPGSA,A,3,02,20,27,17,04,10,28,,,,,,2.2,1.2,1.8*34
$GPRMC,065459.000,A,3353.7578,N,09832.0267,W,0.43,81.46,010412,,,D*40
$GPGGA,065500.000,3353.7577,N,09832.0263,W,2,07,1.2,314.5,M,-23.7,M,0.8,0000*42
$GPGSA,A,3,02,20,27,17,04,10,28,,,,,,2.2,1.2,1.8*34
$GPRMC,065500.000,A,3353.7577,N,09832.0263,W,0.15,70.30,010412,,,D*4A
$GPGGA,065501.000,3353.7576,N,09832.0260,W,2,07,1.2,314.5,M,-23.7,M,0.8,0000*41
$GPGSA,A,3,02,20,27,17,04,10,28,,,,,,2.2,1.2,1.8*34
$GPRMC,065501.000,A,3353.7576,N,09832.0260,W,0.45,75.74,010412,,,D*49
$GPGGA,065502.000,3353.7576,N,09832.0257,W,2,07,1.2,314.4,M,-23.7,M,1.8,0000*46
$GPGSA,A,3,02,20,27,17,04,10,28,,,,,,2.2,1.2,1.8*34
$GPRMC,065502.000,A,3353.7576,N,09832.0257,W,0.22,69.60,010412,,,D*47
$GPGGA,065503.000,3353.7579,N,09832.0253,W,2,07,1.2,314.6,M,-23.7,M,0.8,0000*4F
$GPGSA,A,3,02,20,27,17,04,10,28,,,,,,2.2,1.2,1.8*34
$GPGSV,3,1,12,04,70,194,23,17,50,039,37,28,45,112,34,27,43,274,24*70
$GPGSV,3,2,12,02,36,213,24,09,36,295,25,20,15,058,30,10,15,152,34*73
$GPGSV,3,3,12,12,12,312,,08,01,165,,32,01,037,,51,49,195,38*7A
$GPRMC,065503.000,A,3353.7579,N,09832.0253,W,0.13,301.99,010412,,,D*74
$GPGGA,065504.000,3353.7578,N,09832.0246,W,2,07,1.2,314.9,M,-23.7,M,0.8,0000*42
$GPGSA,A,3,02,20,27,17,04,10,28,,,,,,2.2,1.2,1.8*34
$GPRMC,065504.000,A,3353.7578,N,09832.0246,W,0.10,16.24,010412,,,D*46
$GPGGA,065505.000,3353.7581,N,09832.0239,W,2,07,1.2,315.2,M,-23.7,M,0.8,0000*47
$GPGSA,A,3,02,20,27,17,04,10,28,,,,,,2.2,1.2,1.8*34
$GPRMC,065505.000,A,3353.7581,N,09832.0239,W,0.30,74.89,010412,,,D*48
$GPGGA,065506.000,3353.7583,N,09832.0233,W,2,07,1.2,315.5,M,-23.7,M,1.8,0000*4A
$GPGSA,A,3,02,20,27,17,04,10,28,,,,,,2.2,1.2,1.8*34
$GPRMC,065506.000,A,3353.7583,N,09832.0233,W,0.06,340.08,010412,,,D*7B
$GPGGA,065507.000,3353.7585,N,09832.0228,W,2,07,1.2,315.9,M,-23.7,M,2.8,0000*48
$GPGSA,A,3,02,20,27,17,04,10,28,,,,,,2.2,1.2,1.8*34
$GPRMC,065507.000,A,3353.7585,N,09832.0228,W,0.14,318.15,010412,,,D*74
$GPGGA,065508.000,3353.7586,N,09832.0223,W,2,07,1.2,316.2,M,-23.7,M,3.8,0000*46
$GPGSA,A,3,02,20,27,17,04,10,28,,,,,,2.2,1.2,1.8*34
$GPGSV,3,1,12,04,70,194,24,17,50,039,38,28,45,112,34,27,43,274,24*78
$GPGSV,3,2,12,02,36,213,25,09,36,295,25,20,15,058,31,10,15,152,35*72
$GPGSV,3,3,12,12,12,312,,08,01,165,,32,01,037,,51,49,195,38*7A
$GPRMC,065508.000,A,3353.7586,N,09832.0223,W,0.25,85.05,010412,,,D*47
$GPGGA,065509.000,3353.7587,N,09832.0216,W,2,07,1.2,316.4,M,-23.7,M,0.8,0000*45
$GPGSA,A,3,02,20,27,17,04,10,28,,,,,,2.2,1.2,1.8*34
$GPRMC,065509.000,A,3353.7587,N,09832.0216,W,0.47,84.89,010412,,,D*40
$GPGGA,065510.000,3353.7588,N,09832.0211,W,2,07,1.2,316.7,M,-23.7,M,0.8,0000*46
$GPGSA,A,3,02,20,27,17,04,10,28,,,,,,2.2,1.2,1.8*34
$GPRMC,065510.000,A,3353.7588,N,09832.0211,W,0.28,81.69,010412,,,D*42
$GPGGA,065511.000,3353.7589,N,09832.0206,W,2,07,1.2,316.8,M,-23.7,M,0.8,0000*4F
$GPGSA,A,3,02,20,27,17,04,10,28,,,,,,2.2,1.2,1.8*34
$GPRMC,065511.000,A,3353.7589,N,09832.0206,W,0.20,62.98,010412,,,D*4F
$GPGGA,065512.000,3353.7589,N,09832.0202,W,2,07,1.2,317.0,M,-23.7,M,1.8,0000*40
$GPGSA,A,3,02,20,27,17,04,10,28,,,,,,2.2,1.2,1.8*34
$GPRMC,065512.000,A,3353.7589,N,09832.0202,W,0.07,46.14,010412,,,D*4F
$GPGGA,065513.000,3353.7590,N,09832.0199,W,2,07,1.2,317.1,M,-23.7,M,2.8,0000*4A
$GPGSA,A,3,02,20,27,17,04,10,28,,,,,,2.2,1.2,1.8*34
$GPGSV,3,1,12,04,70,194,24,17,50,039,37,28,45,112,34,27,43,274,24*77
$GPGSV,3,2,12,02,36,213,26,09,36,295,25,20,15,058,31,10,15,152,35*71
$GPGSV,3,3,12,12,12,312,,08,01,165,,32,01,037,,51,49,195,38*7A
$GPRMC,065513.000,A,3353.7590,N,09832.0199,W,0.17,307.60,010412,,,D*73
$GPGGA,065514.000,3353.7591,N,09832.0197,W,2,07,1.2,317.1,M,-23.7,M,3.8,0000*43
$GPGSA,A,3,02,20,27,17,04,10,28,,,,,,2.2,1.2,1.8*34
$GPRMC,065514.000,A,3353.7591,N,09832.0197,W,0.15,317.76,010412,,,D*7F
$GPGGA,065515.000,3353.7589,N,09832.0194,W,2,07,1.2,319.0,M,-23.7,M,0.8,0000*44
$GPGSA,A,3,02,20,27,17,04,10,28,,,,,,2.2,1.2,1.8*34
$GPRMC,065515.000,A,3353.7589,N,09832.0194,W,0.02,70.54,010412,,,D*40
$GPGGA,065516.000,3353.7587,N,09832.0192,W,2,07,1.2,320.4,M,-23.7,M,0.8,0000*41
$GPGSA,A,3,02,20,27,17,04,10,28,,,,,,2.2,1.2,1.8*34
$GPRMC,065516.000,A,3353.7587,N,09832.0192,W,0.15,103.69,010412,,,D*76
$GPGGA,065517.000,3353.7586,N,09832.0191,W,2,07,1.2,321.7,M,-23.7,M,0.8,0000*40
$GPGSA,A,3,02,20,27,17,04,10,28,,,,,,2.2,1.2,1.8*34
$GPRMC,065517.000,A,3353.7586,N,09832.0191,W,0.11,108.59,010412,,,D*79
$GPGGA,065518.000,3353.7585,N,09832.0189,W,2,07,1.2,322.8,M,-23.7,M,1.8,0000*48
$GPGSA,A,3,02,20,27,17,04,10,28,,,,,,2.2,1.2,1.8*34
$GPGSV,3,1,12,04,70,194,29,17,50,039,37,28,45,112,35,27,43,274,24*7B
$GPGSV,3,2,12,02,36,213,27,09,36,295,26,20,15,058,30,10,15,152,36*71
$GPGSV,3,3,12,12,12,312,,08,01,165,,32,01,037,,51,49,195,38*7A
$GPRMC,065518.000,A,3353.7585,N,09832.0189,W,0.11,116.40,010412,,,D*7B
$GPGGA,065519.000,3353.7584,N,09832.0188,W,2,07,1.2,323.6,M,-23.7,M,2.8,0000*45
$GPGSA,A,3,02,20,27,17,04,10,28,,,,,,2.2,1.2,1.8*34
$GPRMC,065519.000,A,3353.7584,N,09832.0188,W,0.09,132.35,010412,,,D*77
$GPGGA,065520.000,3353.7583,N,09832.0186,W,2,07,1.2,324.4,M,-23.7,M,3.8,0000*42
$GPGSA,A,3,02,20,27,17,04,10,28,,,,,,2.2,1.2,1.8*34
$GPRMC,065520.000,A,3353.7583,N,09832.0186,W,0.10,117.21,010412,,,D*7E
$GPGGA,065521.000,3353.7582,N,09832.0185,W,2,07,1.2,325.0,M,-23.7,M,0.8,0000*47
$GPGSA,A,3,02,20,27,17,04,10,28,,,,,,2.2,1.2,1.8*34
$GPRMC,065521.000,A,3353.7582,N,09832.0185,W,0.14,69.90,010412,,,D*4B
$GPGGA,065522.000,3353.7582,N,09832.0184,W,2,07,1.2,325.6,M,-23.7,M,0.8,0000*43
$GPGSA,A,3,02,20,27,17,04,10,28,,,,,,2.2,1.2,1.8*34
$GPRMC,065522.000,A,3353.7582,N,09832.0184,W,0.14,88.61,010412,,,D*48
$GPGGA,065523.000,3353.7581,N,09832.0182,W,2,07,1.2,326.2,M,-23.7,M,0.8,0000*40
$GPGSA,A,3,02,20,27,17,04,10,28,,,,,,2.2,1.2,1.8*34
$GPGSV,3,1,12,04,70,194,28,17,50,039,37,28,45,112,35,27,43,274,24*7A
$GPGSV,3,2,12,02,36,213,27,09,36,295,26,20,15,058,30,10,15,152,36*71
$GPGSV,3,3,12,12,12,312,,08,01,165,,32,01,037,,51,49,195,38*7A
$GPRMC,065523.000,A,3353.7581,N,09832.0182,W,0.16,83.87,010412,,,D*4D
$GPGGA,065524.000,3353.7581,N,09832.0180,W,2,07,1.2,326.7,M,-23.7,M,0.8,0000*40
$GPGSA,A,3,02,20,27,17,04,10,28,,,,,,2.2,1.2,1.8*34
$GPRMC,065524.000,A,3353.7581,N,09832.0180,W,0.23,93.44,010412,,,D*40
$GPGGA,065525.000,3353.7580,N,09832.0178,W,2,07,1.2,327.3,M,-23.7,M,0.8,0000*42
$GPGSA,A,3,02,20,27,17,04,10,28,,,,,,2.2,1.2,1.8*34
$GPRMC,065525.000,A,3353.7580,N,09832.0178,W,0.33,98.05,010412,,,D*48
$GPGGA,065526.000,3353.7580,N,09832.0176,W,2,07,1.2,327.8,M,-23.7,M,1.8,0000*45
$GPGSA,A,3,02,20,27,17,04,10,28,,,,,,2.2,1.2,1.8*34
$GPRMC,065526.000,A,3353.7580,N,09832.0176,W,0.18,83.81,010412,,,D*4A
$GPGGA,065527.000,3353.7579,N,09832.0174,W,2,07,1.2,328.4,M,-23.7,M,0.8,0000*42
$GPGSA,A,3,02,20,27,17,04,10,28,,,,,,2.2,1.2,1.8*34
$GPRMC,065527.000,A,3353.7579,N,09832.0174,W,0.20,104.43,010412,,,D*74
$GPGGA,065528.000,3353.7579,N,09832.0172,W,2,07,1.2,328.8,M,-23.7,M,0.8,0000*47
$GPGSA,A,3,02,20,27,17,04,10,28,,,,,,2.2,1.2,1.8*34
$GPGSV,3,1,12,04,70,194,28,17,50,039,37,28,45,112,36,27,43,274,24*79
$GPGSV,3,2,12,02,36,213,27,09,36,295,26,20,15,058,29,10,15,152,36*79
$GPGSV,3,3,12,12,12,312,,08,01,165,,32,01,037,,51,49,195,38*7A
$GPRMC,065528.000,A,3353.7579,N,09832.0172,W,0.15,105.47,010412,,,D*7E
$GPGGA,065529.000,3353.7579,N,09832.0171,W,2,07,1.2,329.2,M,-23.7,M,0.8,0000*4E
$GPGSA,A,3,02,20,27,17,04,10,28,,,,,,2.2,1.2,1.8*34
$GPRMC,065529.000,A,3353.7579,N,09832.0171,W,0.06,80.11,010412,,,D*41
$GPGGA,065530.000,3353.7578,N,09832.0166,W,2,07,1.2,330.3,M,-23.7,M,1.8,0000*49
$GPGSA,A,3,02,20,27,17,04,10,28,,,,,,2.2,1.2,1.8*34
$GPRMC,065530.000,A,3353.7578,N,09832.0166,W,0.44,99.80,010412,,,D*48
$GPGGA,065531.000,3353.7581,N,09832.0176,W,2,07,1.2,329.0,M,-23.7,M,2.8,0000*47
$GPGSA,A,3,02,20,27,17,04,10,28,,,,,,2.2,1.2,1.8*34
$GPRMC,065531.000,A,3353.7581,N,09832.0176,W,0.06,141.21,010412,,,D*77
$GPGGA,065532.000,3353.7582,N,09832.0173,W,2,07,1.2,329.6,M,-23.7,M,3.8,0000*45
$GPGSA,A,3,02,20,27,17,04,10,28,,,,,,2.2,1.2,1.8*34
$GPRMC,065532.000,A,3353.7582,N,09832.0173,W,0.16,299.95,010412,,,D*7A
$GPGGA,065533.000,3353.7582,N,09832.0169,W,2,07,1.2,330.5,M,-23.7,M,0.8,0000*47
$GPGSA,A,3,02,20,27,17,04,10,28,,,,,,2.2,1.2,1.8*34
$GPGSV,3,1,12,04,70,194,28,17,50,039,37,28,45,112,36,27,43,274,23*7E
$GPGSV,3,2,12,02,36,213,26,09,36,295,26,20,15,058,28,10,15,152,36*79
$GPGSV,3,3,12,12,12,312,,08,01,165,,32,01,037,,51,49,195,38*7A
$GPRMC,065533.000,A,3353.7582,N,09832.0169,W,0.21,61.06,010412,,,D*4B
$GPGGA,065534.000,3353.7582,N,09832.0167,W,2,07,1.2,331.0,M,-23.7,M,0.8,0000*4A
$GPGSA,A,3,02,20,27,17,04,10,28,,,,,,2.2,1.2,1.8*34
$GPRMC,065534.000,A,3353.7582,N,09832.0167,W,0.23,89.94,010412,,,D*4D
$GPGGA,065535.000,3353.7584,N,09832.0176,W,2,07,1.2,329.9,M,-23.7,M,0.8,0000*4D
$GPGSA,A,3,02,20,27,17,04,10,28,,,,,,2.2,1.2,1.8*34
$GPRMC,065535.000,A,3353.7584,N,09832.0176,W,0.06,61.03,010412,,,D*45
$GPGGA,065536.000,3353.7584,N,09832.0176,W,2,07,1.2,329.9,M,-23.7,M,1.8,0000*4F
$GPGSA,A,3,02,20,27,17,04,10,28,,,,,,2.2,1.2,1.8*34
$GPRMC,065536.000,A,3353.7584,N,09832.0176,W,0.56,89.38,010412,,,D*4D
$GPGGA,065537.000,3353.7584,N,09832.0179,W,2,07,1.2,329.3,M,-23.7,M,0.8,0000*4A
$GPGSA,A,3,02,20,27,17,04,10,28,,,,,,2.2,1.2,1.8*34
$GPRMC,065537.000,A,3353.7584,N,09832.0179,W,0.20,281.74,010412,,,D*70
$GPGGA,065538.000,3353.7583,N,09832.0179,W,2,07,1.2,329.4,M,-23.7,M,1.8,0000*44
$GPGSA,A,3,02,20,27,17,04,10,28,,,,,,2.2,1.2,1.8*34
$GPGSV,3,1,12,04,70,194,27,17,50,039,37,28,45,112,36,27,43,274,22*70
$GPGSV,3,2,12,02,36,213,25,09,36,295,25,20,15,058,28,10,15,152,37*78
$GPGSV,3,3,12,12,12,312,,08,01,165,,32,01,037,,51,49,195,38*7A
$GPRMC,065538.000,A,3353.7583,N,09832.0179,W,0.26,93.19,010412,,,D*44
$GPGGA,065539.000,3353.7583,N,09832.0183,W,2,07,1.2,329.0,M,-23.7,M,0.8,0000*45
$GPGSA,A,3,02,20,27,17,04,10,28,,,,,,2.2,1.2,1.8*34
$GPRMC,065539.000,A,3353.7583,N,09832.0183,W,0.08,34.65,010412,,,D*4A
$GPGGA,065540.000,3353.7582,N,09832.0185,W,2,07,1.2,328.9,M,-23.7,M,0.8,0000*44
$GPGSA,A,3,02,20,27,17,04,10,28,,,,,,2.2,1.2,1.8*34
$GPRMC,065540.000,A,3353.7582,N,09832.0185,W,0.38,277.47,010412,,,D*75
$GPGGA,065541.000,3353.7582,N,09832.0192,W,2,07,1.2,328.1,M,-23.7,M,0.8,0000*4B
$GPGSA,A,3,02,20,27,17,04,10,28,,,,,,2.2,1.2,1.8*34
$GPRMC,065541.000,A,3353.7582,N,09832.0192,W,0.21,269.94,010412,,,D*7B
$GPGGA,065542.000,3353.7581,N,09832.0194,W,2,07,1.2,328.5,M,-23.7,M,0.8,0000*49
$GPGSA,A,3,02,20,27,17,04,10,28,,,,,,2.2,1.2,1.8*34
$GPRMC,065542.000,A,3353.7581,N,09832.0194,W,0.23,299.14,010412,,,D*78
$GPGGA,065543.000,3353.7578,N,09832.0191,W,2,07,1.2,329.3,M,-23.7,M,1.8,0000*4D
$GPGSA,A,3,02,20,27,17,04,10,28,,,,,,2.2,1.2,1.8*34
$GPGSV,3,1,12,04,70,194,26,17,50,040,37,28,45,113,35,27,43,273,22*7A
$GPGSV,3,2,12,02,37,213,25,09,36,294,25,10,15,152,37,20,15,058,27*77
$GPGSV,3,3,12,12,13,312,,32,01,036,,08,00,165,,51,49,195,38*7B
$GPRMC,065543.000,A,3353.7578,N,09832.0191,W,0.19,286.08,010412,,,D*70
$GPGGA,065544.000,3353.7579,N,09832.0190,W,2,07,1.2,329.3,M,-23.7,M,2.8,0000*49
$GPGSA,A,3,02,20,27,17,04,10,28,,,,,,2.2,1.2,1.8*34
$GPRMC,065544.000,A,3353.7579,N,09832.0190,W,0.07,354.47,010412,,,D*7D
$GPGGA,065545.000,3353.7577,N,09832.0186,W,2,07,1.2,329.4,M,-23.7,M,0.8,0000*44
$GPGSA,A,3,02,20,27,17,04,10,28,,,,,,2.2,1.2,1.8*34
$GPRMC,065545.000,A,3353.7577,N,09832.0186,W,0.19,74.04,010412,,,D*4C
$GPGGA,065546.000,3353.7579,N,09832.0181,W,2,07,1.2,329.7,M,-23.7,M,0.8,0000*4D
$GPGSA,A,3,02,20,27,17,04,10,28,,,,,,2.2,1.2,1.8*34
$GPRMC,065546.000,A,3353.7579,N,09832.0181,W,0.18,46.85,010412,,,D*4F
$GPGGA,065547.000,3353.7578,N,09832.0176,W,2,07,1.2,329.9,M,-23.7,M,0.8,0000*4B
$GPGSA,A,3,02,20,27,17,04,10,28,,,,,,2.2,1.2,1.8*34
$GPRMC,065547.000,A,3353.7578,N,09832.0176,W,0.33,87.76,010412,,,D*4F
$GPGGA,065548.000,3353.7580,N,09832.0171,W,2,07,1.2,329.7,M,-23.7,M,1.8,0000*4B
$GPGSA,A,3,02,20,27,17,04,10,28,,,,,,2.2,1.2,1.8*34
$GPGSV,3,1,12,04,70,194,26,17,50,040,37,28,45,113,35,27,43,273,21*79
$GPGSV,3,2,12,02,37,213,26,09,36,294,24,10,15,152,37,20,15,058,27*75
$GPGSV,3,3,12,12,13,312,,32,00,036,,08,00,165,,51,49,195,38*7A
$GPRMC,065548.000,A,3353.7580,N,09832.0171,W,0.20,55.80,010412,,,D*44
$GPGGA,065549.000,3353.7581,N,09832.0166,W,2,07,1.2,329.4,M,-23.7,M,2.8,0000*4D
$GPGSA,A,3,02,20,27,17,04,10,28,,,,,,2.2,1.2,1.8*34
