$GPGGA,225232.000,3353.7548,N,09832.0255,W,2,07,1.5,314.7,M,-23.7,M,3.8,0000*4D
$GPGSA,A,3,03,30,31,16,23,32,20,,,,,,2.8,1.5,2.3*3A
$GPRMC,225232.000,A,3353.7548,N,09832.0255,W,0.20,137.05,310312,,,D*75
$GPGGA,225233.000,3353.7548,N,09832.0256,W,2,08,1.4,314.2,M,-23.7,M,0.8,0000*47
$GPGSA,A,3,03,30,06,31,16,23,32,20,,,,,2.6,1.4,2.3*33
$GPRMC,225233.000,A,3353.7548,N,09832.0256,W,0.04,191.97,310312,,,D*76
$GPGGA,225234.000,3353.7549,N,09832.0257,W,2,08,1.4,313.6,M,-23.7,M,0.8,0000*43
$GPGSA,A,3,03,30,06,31,16,23,32,20,,,,,2.6,1.4,2.3*33
$GPGSV,3,1,12,16,73,074,32,23,60,328,34,30,47,045,35,20,44,225,30*73
$GPGSV,3,2,12,32,37,190,36,13,29,315,,06,27,123,32,03,27,141,26*79
$GPGSV,3,3,12,07,14,269,,31,13,066,36,10,05,322,,19,03,167,*7C
$GPRMC,225234.000,A,3353.7549,N,09832.0257,W,0.03,53.53,310312,,,D*41
$GPGGA,225235.000,3353.7550,N,09832.0258,W,2,08,1.4,312.9,M,-23.7,M,0.8,0000*4B
$GPGSA,A,3,03,30,06,31,16,23,32,20,,,,,2.6,1.4,2.3*33
$GPRMC,225235.000,A,3353.7550,N,09832.0258,W,0.06,312.76,310312,,,D*73
$GPGGA,225236.000,3353.7550,N,09832.0260,W,2,08,1.4,312.3,M,-23.7,M,1.8,0000*48
$GPGSA,A,3,03,30,06,31,16,23,32,20,,,,,2.6,1.4,2.3*33
$GPRMC,225236.000,A,3353.7550,N,09832.0260,W,0.04,278.69,310312,,,D*7A
$GPGGA,225237.000,3353.7551,N,09832.0261,W,2,08,1.4,311.6,M,-23.7,M,2.8,0000*4C
$GPGSA,A,3,03,30,06,31,16,23,32,20,,,,,2.6,1.4,2.3*33
$GPRMC,225237.000,A,3353.7551,N,09832.0261,W,0.11,304.62,310312,,,D*7E
$GPGGA,225238.000,3353.7552,N,09832.0263,W,2,08,1.4,311.0,M,-23.7,M,3.8,0000*45
$GPGSA,A,3,03,30,06,31,16,23,32,20,,,,,2.6,1.4,2.3*33
$GPRMC,225238.000,A,3353.7552,N,09832.0263,W,0.14,299.10,310312,,,D*75
$GPGGA,225239.000,3353.7552,N,09832.0264,W,2,08,1.4,310.3,M,-23.7,M,0.8,0000*42
$GPGSA,A,3,03,30,06,31,16,23,32,20,,,,,2.6,1.4,2.3*33
$GPGSV,3,1,12,16,73,074,32,23,60,328,34,30,47,045,35,20,44,225,30*73
$GPGSV,3,2,12,32,37,190,36,13,29,315,,06,27,123,32,03,27,141,25*7A
$GPGSV,3,3,12,07,14,269,,31,13,066,35,10,05,322,,19,03,167,*7F
$GPRMC,225239.000,A,3353.7552,N,09832.0264,W,0.12,285.78,310312,,,D*76
$GPGGA,225240.000,3353.7553,N,09832.0265,W,2,08,1.4,309.7,M,-23.7,M,0.8,0000*40
$GPGSA,A,3,03,30,06,31,16,23,32,20,,,,,2.6,1.4,2.3*33
$GPRMC,225240.000,A,3353.7553,N,09832.0265,W,0.17,270.50,310312,,,D*7D
$GPGGA,225241.000,3353.7553,N,09832.0267,W,2,08,1.4,309.1,M,-23.7,M,0.8,0000*45
$GPGSA,A,3,03,30,06,31,16,23,32,20,,,,,2.6,1.4,2.3*33
$GPRMC,225241.000,A,3353.7553,N,09832.0267,W,0.17,268.41,310312,,,D*77
$GPGGA,225242.000,3353.7554,N,09832.0268,W,2,08,1.4,308.4,M,-23.7,M,0.8,0000*4A
$GPGSA,A,3,03,30,06,31,16,23,32,20,,,,,2.6,1.4,2.3*33
$GPRMC,225242.000,A,3353.7554,N,09832.0268,W,0.17,273.78,310312,,,D*7C
$GPGGA,225243.000,3353.7554,N,09832.0269,W,2,08,1.4,307.8,M,-23.7,M,0.8,0000*49
$GPGSA,A,3,03,30,06,31,16,23,32,20,,,,,2.6,1.4,2.3*33
$GPRMC,225243.000,A,3353.7554,N,09832.0269,W,0.19,267.40,310312,,,D*7C
$GPGGA,225244.000,3353.7554,N,09832.0270,W,2,08,1.4,307.3,M,-23.7,M,1.8,0000*4C
$GPGSA,A,3,03,30,06,31,16,23,32,20,,,,,2.6,1.4,2.3*33
$GPGSV,3,1,12,16,73,074,32,23,60,328,34,30,47,045,35,20,44,225,30*73
$GPGSV,3,2,12,32,37,190,36,13,29,315,,06,27,123,32,03,27,141,25*7A
$GPGSV,3,3,12,07,14,269,,31,13,066,35,10,05,322,,19,03,167,*7F
$GPRMC,225244.000,A,3353.7554,N,09832.0270,W,0.18,273.63,310312,,,D*76
$GPGGA,225245.000,3353.7555,N,09832.0272,W,2,08,1.4,306.8,M,-23.7,M,0.8,0000*45
$GPGSA,A,3,03,30,06,31,16,23,32,20,,,,,2.6,1.4,2.3*33
$GPRMC,225245.000,A,3353.7555,N,09832.0272,W,0.24,288.36,310312,,,D*7F
$GPGGA,225246.000,3353.7555,N,09832.0273,W,2,08,1.4,306.3,M,-23.7,M,0.8,0000*4C
$GPGSA,A,3,03,30,06,31,16,23,32,20,,,,,2.6,1.4,2.3*33
$GPRMC,225246.000,A,3353.7555,N,09832.0273,W,0.19,300.21,310312,,,D*74
$GPGGA,225247.000,3353.7556,N,09832.0274,W,2,08,1.4,305.9,M,-23.7,M,0.8,0000*40
$GPGSA,A,3,03,30,06,31,16,23,32,20,,,,,2.6,1.4,2.3*33
$GPRMC,225247.000,A,3353.7556,N,09832.0274,W,0.19,301.44,310312,,,D*73
$GPGGA,225248.000,3353.7556,N,09832.0275,W,2,08,1.4,305.5,M,-23.7,M,1.8,0000*43
$GPGSA,A,3,03,30,06,31,16,23,32,20,,,,,2.6,1.4,2.3*33
$GPRMC,225248.000,A,3353.7556,N,09832.0275,W,0.19,301.96,310312,,,D*72
$GPGGA,225249.000,3353.7557,N,09832.0275,W,2,08,1.4,305.1,M,-23.7,M,2.8,0000*44
$GPGSA,A,3,03,30,06,31,16,23,32,20,,,,,2.6,1.4,2.3*33
$GPGSV,3,1,12,16,73,074,33,23,60,328,34,30,47,045,35,20,44,225,30*72
$GPGSV,3,2,12,32,37,190,37,13,29,315,,06,27,123,32,03,27,141,25*7B
$GPGSV,3,3,12,07,14,269,,31,13,066,35,10,05,322,,19,03,167,*7F
$GPRMC,225249.000,A,3353.7557,N,09832.0275,W,0.18,302.88,310312,,,D*7F
$GPGGA,225250.000,3353.7557,N,09832.0276,W,2,08,1.4,304.7,M,-23.7,M,3.8,0000*49
$GPGSA,A,3,03,30,06,31,16,23,32,20,,,,,2.6,1.4,2.3*33
$GPRMC,225250.000,A,3353.7557,N,09832.0276,W,0.18,297.70,310312,,,D*7E
$GPGGA,225251.000,3353.7558,N,09832.0277,W,2,08,1.4,304.3,M,-23.7,M,0.8,0000*41
$GPGSA,A,3,03,30,06,31,16,23,32,20,,,,,2.6,1.4,2.3*33
$GPRMC,225251.000,A,3353.7558,N,09832.0277,W,0.17,293.80,310312,,,D*75
$GPGGA,225252.000,3353.7558,N,09832.0278,W,2,08,1.4,303.9,M,-23.7,M,0.8,0000*40
$GPGSA,A,3,03,30,06,31,16,23,32,20,,,,,2.6,1.4,2.3*33
$GPRMC,225252.000,A,3353.7558,N,09832.0278,W,0.20,287.01,310312,,,D*71
$GPGGA,225253.000,3353.7559,N,09832.0280,W,2,08,1.4,303.5,M,-23.7,M,0.8,0000*4B
$GPGSA,A,3,03,30,06,31,16,23,32,20,,,,,2.6,1.4,2.3*33
$GPRMC,225253.000,A,3353.7559,N,09832.0280,W,0.17,286.55,310312,,,D*72
$GPGGA,225254.000,3353.7559,N,09832.0280,W,2,08,1.4,303.2,M,-23.7,M,1.8,0000*4A
$GPGSA,A,3,03,30,06,31,16,23,32,20,,,,,2.6,1.4,2.3*33
$GPGSV,3,1,12,16,72,069,33,23,61,328,34,30,46,045,35,20,43,223,30*7E
$GPGSV,3,2,12,32,36,189,37,13,30,316,,06,28,122,33,03,28,140,25*78
$GPGSV,3,3,12,07,15,270,,31,12,067,35,10,06,322,,19,04,166,*73
$GPRMC,225254.000,A,3353.7559,N,09832.0280,W,0.15,286.50,310312,,,D*72
$GPGGA,225255.000,3353.7559,N,09832.0281,W,2,08,1.4,302.8,M,-23.7,M,2.8,0000*42
$GPGSA,A,3,03,30,06,31,16,23,32,20,,,,,2.6,1.4,2.3*33
$GPRMC,225255.000,A,3353.7559,N,09832.0281,W,0.16,290.19,310312,,,D*7B
$GPGGA,225256.000,3353.7560,N,09832.0282,W,2,08,1.4,302.5,M,-23.7,M,0.8,0000*47
$GPGSA,A,3,03,30,06,31,16,23,32,20,,,,,2.6,1.4,2.3*33
$GPRMC,225256.000,A,3353.7560,N,09832.0282,W,0.17,291.78,310312,,,D*76
$GPGGA,225257.000,3353.7560,N,09832.0283,W,2,08,1.4,302.1,M,-23.7,M,0.8,0000*43
$GPGSA,A,3,03,30,06,31,16,23,32,20,,,,,2.6,1.4,2.3*33
$GPRMC,225257.000,A,3353.7560,N,09832.0283,W,0.17,292.63,310312,,,D*7F
$GPGGA,225258.000,3353.7561,N,09832.0284,W,2,08,1.4,301.8,M,-23.7,M,0.8,0000*40
$GPGSA,A,3,03,30,06,31,16,23,32,20,,,,,2.6,1.4,2.3*33
$GPRMC,225258.000,A,3353.7561,N,09832.0284,W,0.18,304.89,310312,,,D*73
$GPGGA,225259.000,3353.7561,N,09832.0285,W,2,08,1.4,301.4,M,-23.7,M,0.8,0000*4C
$GPGSA,A,3,03,30,06,31,16,23,32,20,,,,,2.6,1.4,2.3*33
$GPGSV,3,1,12,16,72,069,33,23,61,328,34,30,46,045,36,20,43,223,30*7D
$GPGSV,3,2,12,32,36,189,37,13,30,316,,06,28,122,33,03,28,140,25*78
$GPGSV,3,3,12,07,15,270,,31,12,067,35,10,06,322,,19,04,166,*73
$GPRMC,225259.000,A,3353.7561,N,09832.0285,W,0.20,309.37,310312,,,D*70
$GPGGA,225300.000,3353.7562,N,09832.0286,W,2,08,1.4,301.1,M,-23.7,M,1.8,0000*45
$GPGSA,A,3,03,30,06,31,16,23,32,20,,,,,2.6,1.4,2.3*33
$GPRMC,225300.000,A,3353.7562,N,09832.0286,W,0.20,308.70,310312,,,D*7F
$GPGGA,225301.000,3353.7563,N,09832.0287,W,2,08,1.4,300.8,M,-23.7,M,2.8,0000*4F
$GPGSA,A,3,03,30,06,31,16,23,32,20,,,,,2.6,1.4,2.3*33
$GPRMC,225301.000,A,3353.7563,N,09832.0287,W,0.20,304.55,310312,,,D*75
$GPGGA,225302.000,3353.7563,N,09832.0288,W,2,08,1.4,300.5,M,-23.7,M,0.8,0000*4C
$GPGSA,A,3,03,30,06,31,16,23,32,20,,,,,2.6,1.4,2.3*33
$GPRMC,225302.000,A,3353.7563,N,09832.0288,W,0.18,304.47,310312,,,D*71
$GPGGA,225303.000,3353.7563,N,09832.0288,W,2,08,1.4,300.3,M,-23.7,M,0.8,0000*4B
$GPGSA,A,3,03,30,06,31,16,23,32,20,,,,,2.6,1.4,2.3*33
$GPRMC,225303.000,A,3353.7563,N,09832.0288,W,0.15,303.27,310312,,,D*7C
$GPGGA,225304.000,3353.7564,N,09832.0289,W,2,08,1.4,300.1,M,-23.7,M,0.8,0000*48
$GPGSA,A,3,03,30,06,31,16,23,32,20,,,,,2.6,1.4,2.3*33
$GPGSV,3,1,12,16,72,069,32,23,61,328,34,30,46,045,35,20,43,223,30*7F
$GPGSV,3,2,12,32,36,189,37,13,30,316,,06,28,122,33,03,28,140,24*79
$GPGSV,3,3,12,07,15,270,,31,12,067,35,10,06,322,,19,04,166,*73
$GPRMC,225304.000,A,3353.7564,N,09832.0289,W,0.17,281.26,310312,,,D*75
$GPGGA,225305.000,3353.7563,N,09832.0289,W,2,08,1.4,299.9,M,-23.7,M,0.8,0000*47
$GPGSA,A,3,03,30,06,31,16,23,32,20,,,,,2.6,1.4,2.3*33
$GPRMC,225305.000,A,3353.7563,N,09832.0289,W,0.11,254.74,310312,,,D*7A
$GPGGA,225306.000,3353.7563,N,09832.0290,W,2,08,1.4,299.8,M,-23.7,M,1.8,0000*4C
$GPGSA,A,3,03,30,06,31,16,23,32,20,,,,,2.6,1.4,2.3*33
$GPRMC,225306.000,A,3353.7563,N,09832.0290,W,0.20,289.08,310312,,,D*78
$GPGGA,225307.000,3353.7564,N,09832.0290,W,2,08,1.4,299.7,M,-23.7,M,0.8,0000*44
$GPGSA,A,3,03,30,06,31,16,23,32,20,,,,,2.6,1.4,2.3*33
$GPRMC,225307.000,A,3353.7564,N,09832.0290,W,0.25,295.28,310312,,,D*74
$GPGGA,225308.000,3353.7563,N,09832.0291,W,2,08,1.4,299.6,M,-23.7,M,1.8,0000*4D
$GPGSA,A,3,03,30,06,31,16,23,32,20,,,,,2.6,1.4,2.3*33
$GPRMC,225308.000,A,3353.7563,N,09832.0291,W,0.12,256.40,310312,,,D*78
$GPGGA,225309.000,3353.7563,N,09832.0291,W,2,08,1.4,299.4,M,-23.7,M,0.8,0000*4F
$GPGSA,A,3,03,30,06,31,16,23,32,20,,,,,2.6,1.4,2.3*33
$GPGSV,3,1,12,16,72,069,32,23,61,328,33,30,46,045,35,20,43,223,30*78
$GPGSV,3,2,12,32,36,189,37,13,30,316,,06,28,122,32,03,28,140,23*7F
$GPGSV,3,3,12,07,15,270,,31,12,067,35,10,06,322,,19,04,166,*73
$GPRMC,225309.000,A,3353.7563,N,09832.0291,W,0.09,260.80,310312,,,D*7A
$GPGGA,225310.000,3353.7564,N,09832.0291,W,2,08,1.4,299.2,M,-23.7,M,0.8,0000*46
$GPGSA,A,3,03,30,06,31,16,23,32,20,,,,,2.6,1.4,2.3*33
$GPRMC,225310.000,A,3353.7564,N,09832.0291,W,0.17,317.50,310312,,,D*76
$GPGGA,225311.000,3353.7564,N,09832.0292,W,2,08,1.4,299.0,M,-23.7,M,0.8,0000*46
$GPGSA,A,3,03,30,06,31,16,23,32,20,,,,,2.6,1.4,2.3*33
$GPRMC,225311.000,A,3353.7564,N,09832.0292,W,0.01,221.44,310312,,,D*72
$GPGGA,225312.000,3353.7564,N,09832.0292,W,2,08,1.4,298.9,M,-23.7,M,1.8,0000*4C
$GPGSA,A,3,03,30,06,31,16,23,32,20,,,,,2.6,1.4,2.3*33
$GPRMC,225312.000,A,3353.7564,N,09832.0292,W,0.07,315.48,310312,,,D*7D
$GPGGA,225313.000,3353.7565,N,09832.0292,W,2,08,1.4,298.7,M,-23.7,M,0.8,0000*43
$GPGSA,A,3,03,30,06,31,16,23,32,20,,,,,2.6,1.4,2.3*33
$GPRMC,225313.000,A,3353.7565,N,09832.0292,W,0.08,302.20,310312,,,D*7A
$GPGGA,225314.000,3353.7565,N,09832.0292,W,2,08,1.4,298.5,M,-23.7,M,0.8,0000*46
$GPGSA,A,3,03,30,06,31,16,23,32,20,,,,,2.6,1.4,2.3*33
$GPGSV,3,1,12,16,72,069,32,23,61,328,33,30,46,045,34,20,43,223,30*79
$GPGSV,3,2,12,32,36,189,37,13,30,316,,06,28,122,32,03,28,140,22*7E
$GPGSV,3,3,12,07,15,270,,31,12,067,35,10,06,322,,19,04,166,*73
$GPRMC,225314.000,A,3353.7565,N,09832.0292,W,0.01,168.39,310312,,,D*72
$GPGGA,225315.000,3353.7565,N,09832.0292,W,2,08,1.4,298.5,M,-23.7,M,0.8,0000*47
$GPGSA,A,3,03,30,06,31,16,23,32,20,,,,,2.6,1.4,2.3*33
$GPRMC,225315.000,A,3353.7565,N,09832.0292,W,0.09,150.56,310312,,,D*79
$GPGGA,225316.000,3353.7565,N,09832.0292,W,2,08,1.4,298.5,M,-23.7,M,0.8,0000*44
$GPGSA,A,3,03,30,06,31,16,23,32,20,,,,,2.6,1.4,2.3*33
$GPRMC,225316.000,A,3353.7565,N,09832.0292,W,0.12,185.94,310312,,,D*76
$GPGGA,225317.000,3353.7565,N,09832.0292,W,2,08,1.4,298.5,M,-23.7,M,0.8,0000*45
$GPGSA,A,3,03,30,06,31,16,23,32,20,,,,,2.6,1.4,2.3*33
$GPRMC,225317.000,A,3353.7565,N,09832.0292,W,0.09,200.71,310312,,,D*78
$GPGGA,225318.000,3353.7564,N,09832.0292,W,2,08,1.4,298.5,M,-23.7,M,1.8,0000*4A
$GPGSA,A,3,03,30,06,31,16,23,32,20,,,,,2.6,1.4,2.3*33
$GPRMC,225318.000,A,3353.7564,N,09832.0292,W,0.14,168.65,310312,,,D*72
$GPGGA,225319.000,3353.7564,N,09832.0292,W,2,08,1.4,298.5,M,-23.7,M,2.8,0000*48
$GPGSA,A,3,03,30,06,31,16,23,32,20,,,,,2.6,1.4,2.3*33
$GPGSV,3,1,12,16,72,069,31,23,61,328,33,30,46,045,34,20,43,223,31*7B
$GPGSV,3,2,12,32,36,189,37,13,30,316,,06,28,122,32,03,28,140,22*7E
$GPGSV,3,3,12,07,15,270,,31,12,067,35,10,06,322,,19,04,166,*73
$GPRMC,225319.000,A,3353.7564,N,09832.0292,W,0.10,283.75,310312,,,D*70
$GPGGA,225320.000,3353.7565,N,09832.0292,W,2,08,1.4,298.5,M,-23.7,M,3.8,0000*42
$GPGSA,A,3,03,30,06,31,16,23,32,20,,,,,2.6,1.4,2.3*33
$GPRMC,225320.000,A,3353.7565,N,09832.0292,W,0.15,294.01,310312,,,D*7B
$GPGGA,225321.000,3353.7565,N,09832.0293,W,2,08,1.4,298.5,M,-23.7,M,0.8,0000*41
$GPGSA,A,3,03,30,06,31,16,23,32,20,,,,,2.6,1.4,2.3*33
$GPRMC,225321.000,A,3353.7565,N,09832.0293,W,0.10,184.86,310312,,,D*73
$GPGGA,225322.000,3353.7565,N,09832.0293,W,2,08,1.4,298.4,M,-23.7,M,0.8,0000*43
$GPGSA,A,3,03,30,06,31,16,23,32,20,,,,,2.6,1.4,2.3*33
$GPRMC,225322.000,A,3353.7565,N,09832.0293,W,0.07,153.67,310312,,,D*73
$GPGGA,225323.000,3353.7565,N,09832.0293,W,2,08,1.4,298.5,M,-23.7,M,0.8,0000*43
$GPGSA,A,3,03,30,06,31,16,23,32,20,,,,,2.6,1.4,2.3*33
$GPRMC,225323.000,A,3353.7565,N,09832.0293,W,0.01,302.61,310312,,,D*74
$GPGGA,225324.000,3353.7565,N,09832.0293,W,2,08,1.4,298.5,M,-23.7,M,1.8,0000*45
$GPGSA,A,3,03,30,06,31,16,23,32,20,,,,,2.6,1.4,2.3*33
$GPGSV,3,1,12,16,72,069,31,23,61,328,33,30,46,045,34,20,43,223,31*7B
$GPGSV,3,2,12,32,36,189,37,13,30,316,,06,28,122,32,03,28,140,22*7E
$GPGSV,3,3,12,07,15,270,,31,12,067,36,10,06,322,,19,04,166,*70
$GPRMC,225324.000,A,3353.7565,N,09832.0293,W,0.17,314.99,310312,,,D*74
$GPGGA,225325.000,3353.7566,N,09832.0294,W,2,08,1.4,298.5,M,-23.7,M,2.8,0000*43
$GPGSA,A,3,03,30,06,31,16,23,32,20,,,,,2.6,1.4,2.3*33
$GPRMC,225325.000,A,3353.7566,N,09832.0294,W,0.23,319.89,310312,,,D*7A
$GPGGA,225326.000,3353.7566,N,09832.0294,W,2,08,1.4,298.7,M,-23.7,M,3.8,0000*43
$GPGSA,A,3,03,30,06,31,16,23,32,20,,,,,2.6,1.4,2.3*33
$GPRMC,225326.000,A,3353.7566,N,09832.0294,W,0.02,234.67,310312,,,D*74
$GPGGA,225327.000,3353.7566,N,09832.0294,W,2,08,1.4,298.8,M,-23.7,M,0.8,0000*4E
$GPGSA,A,3,03,30,06,31,16,23,32,20,,,,,2.6,1.4,2.3*33
$GPRMC,225327.000,A,3353.7566,N,09832.0294,W,0.14,143.30,310312,,,D*73
$GPGGA,225328.000,3353.7565,N,09832.0293,W,2,08,1.4,299.0,M,-23.7,M,0.8,0000*4C
$GPGSA,A,3,03,30,06,31,16,23,32,20,,,,,2.6,1.4,2.3*33
$GPRMC,225328.000,A,3353.7565,N,09832.0293,W,0.08,186.31,310312,,,D*7D
$GPGGA,225329.000,3353.7565,N,09832.0293,W,2,08,1.4,299.2,M,-23.7,M,0.8,0000*4F
$GPGSA,A,3,03,30,06,31,16,23,32,20,,,,,2.6,1.4,2.3*33
$GPGSV,3,1,12,16,72,069,31,23,61,328,33,30,46,045,34,20,43,223,32*78
$GPGSV,3,2,12,32,36,189,37,13,30,316,,06,28,122,32,03,28,140,22*7E
$GPGSV,3,3,12,07,15,270,,31,12,067,35,10,06,322,,19,04,166,*73
$GPRMC,225329.000,A,3353.7565,N,09832.0293,W,0.09,298.19,310312,,,D*7B
$GPGGA,225330.000,3353.7565,N,09832.0293,W,2,08,1.4,299.4,M,-23.7,M,0.8,0000*41
$GPGSA,A,3,03,30,06,31,16,23,32,20,,,,,2.6,1.4,2.3*33
$GPRMC,225330.000,A,3353.7565,N,09832.0293,W,0.11,298.89,310312,,,D*73
$GPGGA,225331.000,3353.7565,N,09832.0293,W,2,08,1.4,299.6,M,-23.7,M,1.8,0000*43
$GPGSA,A,3,03,30,06,31,16,23,32,20,,,,,2.6,1.4,2.3*33
$GPRMC,225331.000,A,3353.7565,N,09832.0293,W,0.08,166.92,310312,,,D*72
$GPGGA,225332.000,3353.7564,N,09832.0292,W,2,08,1.4,299.9,M,-23.7,M,2.8,0000*4C
$GPGSA,A,3,03,30,06,31,16,23,32,20,,,,,2.6,1.4,2.3*33
$GPRMC,225332.000,A,3353.7564,N,09832.0292,W,0.15,148.86,310312,,,D*74
$GPGGA,225333.000,3353.7564,N,09832.0291,W,2,08,1.4,300.2,M,-23.7,M,0.8,0000*46
$GPGSA,A,3,03,30,06,31,16,23,32,20,,,,,2.6,1.4,2.3*33
$GPRMC,225333.000,A,3353.7564,N,09832.0291,W,0.09,151.62,310312,,,D*79
$GPGGA,225334.000,3353.7564,N,09832.0290,W,2,08,1.4,300.4,M,-23.7,M,0.8,0000*46
$GPGSA,A,3,03,30,06,31,16,23,32,20,,,,,2.6,1.4,2.3*33
$GPGSV,3,1,12,16,72,069,31,23,61,328,33,30,46,045,34,20,43,223,32*78
$GPGSV,3,2,12,32,36,189,37,13,30,316,,06,28,122,32,03,28,140,24*78
$GPGSV,3,3,12,07,15,270,,31,12,067,35,10,06,322,,19,04,166,*73
$GPRMC,225334.000,A,3353.7564,N,09832.0290,W,0.13,120.61,310312,,,D*71
$GPGGA,225335.000,3353.7564,N,09832.0290,W,2,08,1.4,300.6,M,-23.7,M,0.8,0000*45
$GPGSA,A,3,03,30,06,31,16,23,32,20,,,,,2.6,1.4,2.3*33
$GPRMC,225335.000,A,3353.7564,N,09832.0290,W,0.09,345.71,310312,,,D*7B
$GPGGA,225336.000,3353.7564,N,09832.0290,W,2,08,1.4,300.8,M,-23.7,M,1.8,0000*49
$GPGSA,A,3,03,30,06,31,16,23,32,20,,,,,2.6,1.4,2.3*33
$GPRMC,225336.000,A,3353.7564,N,09832.0290,W,0.03,45.24,310312,,,D*41
$GPGGA,225337.000,3353.7564,N,09832.0290,W,2,08,1.4,300.9,M,-23.7,M,2.8,0000*4A
$GPGSA,A,3,03,30,06,31,16,23,32,20,,,,,2.6,1.4,2.3*33
$GPRMC,225337.000,A,3353.7564,N,09832.0290,W,0.04,53.91,310312,,,D*4E
$GPGGA,225338.000,3353.7564,N,09832.0289,W,2,08,1.4,301.1,M,-23.7,M,3.8,0000*45
$GPGSA,A,3,03,30,06,31,16,23,32,20,,,,,2.6,1.4,2.3*33
$GPRMC,225338.000,A,3353.7564,N,09832.0289,W,0.03,77.93,310312,,,D*4A
$GPGGA,225339.000,3353.7564,N,09832.0289,W,2,08,1.4,301.2,M,-23.7,M,0.8,0000*44
$GPGSA,A,3,03,30,06,31,16,23,32,20,,,,,2.6,1.4,2.3*33
$GPGSV,3,1,12,16,72,069,31,23,61,328,34,30,46,045,34,20,43,223,32*7F
$GPGSV,3,2,12,32,36,189,37,13,30,316,,06,28,122,32,03,28,140,25*79
$GPGSV,3,3,12,07,15,270,,31,12,067,35,10,06,322,,19,04,166,*73
$GPRMC,225339.000,A,3353.7564,N,09832.0289,W,0.04,101.39,310312,,,D*7C
$GPGGA,225340.000,3353.7564,N,09832.0289,W,2,08,1.4,301.4,M,-23.7,M,0.8,0000*4C
$GPGSA,A,3,03,30,06,31,16,23,32,20,,,,,2.6,1.4,2.3*33
$GPRMC,225340.000,A,3353.7564,N,09832.0289,W,0.05,195.68,310312,,,D*7A
$GPGGA,225341.000,3353.7563,N,09832.0288,W,2,08,1.4,301.6,M,-23.7,M,0.8,0000*49
$GPGSA,A,3,03,30,06,31,16,23,32,20,,,,,2.6,1.4,2.3*33
$GPRMC,225341.000,A,3353.7563,N,09832.0288,W,0.05,180.36,310312,,,D*72
$GPGGA,225342.000,3353.7563,N,09832.0288,W,2,08,1.4,301.8,M,-23.7,M,1.8,0000*45
$GPGSA,A,3,03,30,06,31,16,23,32,20,,,,,2.6,1.4,2.3*33
$GPRMC,225342.000,A,3353.7563,N,09832.0288,W,0.06,168.06,310312,,,D*77
$GPGGA,225343.000,3353.7563,N,09832.0287,W,2,08,1.4,302.1,M,-23.7,M,2.8,0000*42
$GPGSA,A,3,03,30,06,31,16,23,32,20,,,,,2.6,1.4,2.3*33
$GPRMC,225343.000,A,3353.7563,N,09832.0287,W,0.07,158.88,310312,,,D*7D
$GPGGA,225344.000,3353.7562,N,09832.0286,W,2,08,1.4,302.3,M,-23.7,M,3.8,0000*46
$GPGSA,A,3,03,30,06,31,16,23,32,20,,,,,2.6,1.4,2.3*33
$GPGSV,3,1,12,16,72,069,31,23,61,328,34,30,46,045,34,20,43,223,32*7F
$GPGSV,3,2,12,32,36,189,37,13,30,316,,06,28,122,32,03,28,140,26*7A
$GPGSV,3,3,12,07,15,270,,31,12,067,35,10,06,322,,19,04,166,*73
$GPRMC,225344.000,A,3353.7562,N,09832.0286,W,0.07,154.67,310312,,,D*77
$GPGGA,225345.000,3353.7562,N,09832.0286,W,2,08,1.4,302.5,M,-23.7,M,0.8,0000*42
$GPGSA,A,3,03,30,06,31,16,23,32,20,,,,,2.6,1.4,2.3*33
$GPRMC,225345.000,A,3353.7562,N,09832.0286,W,0.06,151.95,310312,,,D*7F
$GPGGA,225346.000,3353.7562,N,09832.0285,W,2,08,1.4,302.7,M,-23.7,M,0.8,0000*40
$GPGSA,A,3,03,30,06,31,16,23,32,20,,,,,2.6,1.4,2.3*33
$GPRMC,225346.000,A,3353.7562,N,09832.0285,W,0.07,98.17,310312,,,D*40
$GPGGA,225347.000,3353.7562,N,09832.0285,W,2,08,1.4,302.8,M,-23.7,M,0.8,0000*4E
$GPGSA,A,3,03,30,06,31,16,23,32,20,,,,,2.6,1.4,2.3*33
$GPRMC,225347.000,A,3353.7562,N,09832.0285,W,0.07,86.87,310312,,,D*47
$GPGGA,225348.000,3353.7562,N,09832.0285,W,2,08,1.4,303.0,M,-23.7,M,1.8,0000*49
$GPGSA,A,3,03,30,06,31,16,23,32,20,,,,,2.6,1.4,2.3*33
$GPRMC,225348.000,A,3353.7562,N,09832.0285,W,0.03,68.02,310312,,,D*41
$GPGGA,225349.000,3353.7562,N,09832.0284,W,2,08,1.4,303.1,M,-23.7,M,0.8,0000*49
$GPGSA,A,3,03,30,06,31,16,23,32,20,,,,,2.6,1.4,2.3*33
$GPGSV,3,1,12,16,72,069,31,23,61,328,34,30,46,045,34,20,43,223,32*7F
$GPGSV,3,2,12,32,36,189,37,13,30,316,,06,28,122,32,03,28,140,25*79
$GPGSV,3,3,12,07,15,270,,31,12,067,35,10,06,322,,19,04,166,*73
$GPRMC,225349.000,A,3353.7562,N,09832.0284,W,0.03,37.76,310312,,,D*48
$GPGGA,225350.000,3353.7562,N,09832.0284,W,2,08,1.4,303.2,M,-23.7,M,1.8,0000*43
$GPGSA,A,3,03,30,06,31,16,23,32,20,,,,,2.6,1.4,2.3*33
$GPRMC,225350.000,A,3353.7562,N,09832.0284,W,0.04,95.85,310312,,,D*43
$GPGGA,225351.000,3353.7562,N,09832.0284,W,2,08,1.4,303.3,M,-23.7,M,0.8,0000*42
$GPGSA,A,3,03,30,06,31,16,23,32,20,,,,,2.6,1.4,2.3*33
$GPRMC,225351.000,A,3353.7562,N,09832.0284,W,0.04,356.72,310312,,,D*76
$GPGGA,225352.000,3353.7562,N,09832.0284,W,2,08,1.4,303.0,M,-23.7,M,0.8,0000*42
$GPGSA,A,3,03,30,06,31,16,23,32,20,,,,,2.6,1.4,2.3*33
$GPRMC,225352.000,A,3353.7562,N,09832.0284,W,0.06,212.87,310312,,,D*7C
$GPGGA,225353.000,3353.7562,N,09832.0284,W,2,08,1.4,302.8,M,-23.7,M,0.8,0000*4A
$GPGSA,A,3,03,30,06,31,16,23,32,20,,,,,2.6,1.4,2.3*33
$GPRMC,225353.000,A,3353.7562,N,09832.0284,W,0.08,176.81,310312,,,D*74
$GPGGA,225354.000,3353.7562,N,09832.0284,W,2,08,1.4,302.6,M,-23.7,M,0.8,0000*43
$GPGSA,A,3,03,30,06,31,16,23,32,20,,,,,2.6,1.4,2.3*33
$GPGSV,3,1,12,16,72,069,31,23,61,328,34,30,46,045,33,20,43,223,31*7B
$GPGSV,3,2,12,32,36,189,38,13,30,316,,06,28,122,31,03,28,140,24*74
$GPGSV,3,3,12,07,15,270,,31,12,067,35,10,06,322,,19,04,166,*73
$GPRMC,225354.000,A,3353.7562,N,09832.0284,W,0.06,216.55,310312,,,D*71
$GPGGA,225355.000,3353.7562,N,09832.0284,W,2,08,1.4,302.5,M,-23.7,M,1.8,0000*40
$GPGSA,A,3,03,30,06,31,16,23,32,20,,,,,2.6,1.4,2.3*33
$GPRMC,225355.000,A,3353.7562,N,09832.0284,W,0.06,187.28,310312,,,D*71
$GPGGA,225356.000,3353.7562,N,09832.0284,W,2,08,1.4,302.4,M,-23.7,M,0.8,0000*43
$GPGSA,A,3,03,30,06,31,16,23,32,20,,,,,2.6,1.4,2.3*33
$GPRMC,225356.000,A,3353.7562,N,09832.0284,W,0.07,212.28,310312,,,D*7C
$GPGGA,225357.000,3353.7562,N,09832.0285,W,2,08,1.4,302.3,M,-23.7,M,0.8,0000*44
$GPGSA,A,3,03,30,06,31,16,23,32,20,,,,,2.6,1.4,2.3*33
$GPRMC,225357.000,A,3353.7562,N,09832.0285,W,0.05,272.39,310312,,,D*78
$GPGGA,225358.000,3353.7563,N,09832.0285,W,2,08,1.4,302.1,M,-23.7,M,0.8,0000*48
$GPGSA,A,3,03,30,06,31,16,23,32,20,,,,,2.6,1.4,2.3*33
$GPRMC,225358.000,A,3353.7563,N,09832.0285,W,0.06,324.61,310312,,,D*7A
$GPGGA,225359.000,3353.7563,N,09832.0285,W,2,08,1.4,302.0,M,-23.7,M,0.8,0000*48
$GPGSA,A,3,03,30,06,31,16,23,32,20,,,,,2.6,1.4,2.3*33
$GPGSV,3,1,12,16,72,069,31,23,61,328,34,30,46,045,33,20,43,223,30*7A
$GPGSV,3,2,12,32,36,189,38,13,30,316,,06,28,122,31,03,28,140,24*74
$GPGSV,3,3,12,07,15,270,,31,12,067,35,10,06,322,,19,04,166,*73
$GPRMC,225359.000,A,3353.7563,N,09832.0285,W,0.07,317.26,310312,,,D*79
$GPGGA,225400.000,3353.7563,N,09832.0285,W,2,08,1.4,301.9,M,-23.7,M,1.8,0000*48
$GPGSA,A,3,03,30,06,31,16,23,32,20,,,,,2.6,1.4,2.3*33
$GPRMC,225400.000,A,3353.7563,N,09832.0285,W,0.10,314.83,310312,,,D*78
$GPGGA,225401.000,3353.7564,N,09832.0285,W,2,08,1.4,301.7,M,-23.7,M,0.8,0000*41
$GPGSA,A,3,03,30,06,31,16,23,32,20,,,,,2.6,1.4,2.3*33
$GPRMC,225401.000,A,3353.7564,N,09832.0285,W,0.14,315.16,310312,,,D*77
$GPGGA,225402.000,3353.7564,N,09832.0286,W,2,08,1.4,301.6,M,-23.7,M,1.8,0000*41
$GPGSA,A,3,03,30,06,31,16,23,32,20,,,,,2.6,1.4,2.3*33
$GPRMC,225402.000,A,3353.7564,N,09832.0286,W,0.07,308.27,310312,,,D*7B
$GPGGA,225403.000,3353.7564,N,09832.0285,W,2,08,1.4,301.6,M,-23.7,M,0.8,0000*42
$GPGSA,A,3,03,30,06,31,16,23,32,20,,,,,2.6,1.4,2.3*33
$GPRMC,225403.000,A,3353.7564,N,09832.0285,W,0.02,140.55,310312,,,D*77
$GPGGA,225404.000,3353.7564,N,09832.0285,W,2,08,1.4,301.5,M,-23.7,M,0.8,0000*46
$GPGSA,A,3,03,30,06,31,16,23,32,20,,,,,2.6,1.4,2.3*33
$GPGSV,3,1,12,16,72,069,31,23,61,328,34,30,46,045,32,20,43,223,30*7B
$GPGSV,3,2,12,32,36,189,38,13,30,316,,06,28,122,31,03,28,140,24*74
$GPGSV,3,3,12,07,15,270,,31,12,067,35,10,06,322,,19,04,166,*73
$GPRMC,225404.000,A,3353.7564,N,09832.0285,W,0.12,167.11,310312,,,D*74
$GPGGA,225405.000,3353.7564,N,09832.0285,W,2,08,1.4,301.5,M,-23.7,M,0.8,0000*47
$GPGSA,A,3,03,30,06,31,16,23,32,20,,,,,2.6,1.4,2.3*33
$GPRMC,225405.000,A,3353.7564,N,09832.0285,W,0.14,162.13,310312,,,D*74
$GPGGA,225406.000,3353.7564,N,09832.0284,W,2,08,1.4,301.5,M,-23.7,M,0.8,0000*45
$GPGSA,A,3,03,30,06,31,16,23,32,20,,,,,2.6,1.4,2.3*33
$GPRMC,225406.000,A,3353.7564,N,09832.0284,W,0.10,265.16,310312,,,D*73
$GPGGA,225407.000,3353.7564,N,09832.0284,W,2,08,1.4,301.5,M,-23.7,M,1.8,0000*45
$GPGSA,A,3,03,30,06,31,16,23,32,20,,,,,2.6,1.4,2.3*33
$GPRMC,225407.000,A,3353.7564,N,09832.0284,W,0.08,255.81,310312,,,D*76
$GPGGA,225408.000,3353.7564,N,09832.0284,W,2,08,1.4,301.5,M,-23.7,M,2.8,0000*49
$GPGSA,A,3,03,30,06,31,16,23,32,20,,,,,2.6,1.4,2.3*33
$GPRMC,225408.000,A,3353.7564,N,09832.0284,W,0.07,227.52,310312,,,D*7D
$GPGGA,225409.000,3353.7564,N,09832.0284,W,2,08,1.4,301.4,M,-23.7,M,0.8,0000*4B
$GPGSA,A,3,03,30,06,31,16,23,32,20,,,,,2.6,1.4,2.3*33
$GPGSV,3,1,12,16,72,069,32,23,61,328,34,30,46,045,32,20,43,223,30*78
$GPGSV,3,2,12,32,36,189,38,13,30,316,,06,28,122,31,03,28,140,24*74
$GPGSV,3,3,12,07,15,270,,31,12,067,35,10,06,322,,19,04,166,*73
$GPRMC,225409.000,A,3353.7564,N,09832.0284,W,0.05,243.87,310312,,,D*74
$GPGGA,225410.000,3353.7564,N,09832.0284,W,2,08,1.4,301.4,M,-23.7,M,0.8,0000*43
$GPGSA,A,3,03,30,06,31,16,23,32,20,,,,,2.6,1.4,2.3*33
$GPRMC,225410.000,A,3353.7564,N,09832.0284,W,0.05,318.09,310312,,,D*75
$GPGGA,225411.000,3353.7564,N,09832.0284,W,2,08,1.4,301.4,M,-23.7,M,0.8,0000*42
$GPGSA,A,3,03,30,06,31,16,23,32,20,,,,,2.6,1.4,2.3*33
$GPRMC,225411.000,A,3353.7564,N,09832.0284,W,0.03,315.94,310312,,,D*7B
$GPGGA,225412.000,3353.7565,N,09832.0284,W,2,08,1.4,301.3,M,-23.7,M,1.8,0000*46
$GPGSA,A,3,03,30,06,31,16,23,32,20,,,,,2.6,1.4,2.3*33
$GPRMC,225412.000,A,3353.7565,N,09832.0284,W,0.04,333.30,310312,,,D*74
$GPGGA,225413.000,3353.7565,N,09832.0284,W,2,08,1.4,301.3,M,-23.7,M,2.8,0000*44
$GPGSA,A,3,03,30,06,31,16,23,32,20,,,,,2.6,1.4,2.3*33
$GPRMC,225413.000,A,3353.7565,N,09832.0284,W,0.03,349.11,310312,,,D*7C
$GPGGA,225414.000,3353.7565,N,09832.0284,W,2,08,1.4,301.3,M,-23.7,M,3.8,0000*42
$GPGSA,A,3,03,30,06,31,16,23,32,20,,,,,2.6,1.4,2.3*33
$GPGSV,3,1,12,16,72,069,32,23,61,328,34,30,46,045,32,20,43,223,30*78
$GPGSV,3,2,12,32,36,189,38,13,30,316,,06,28,122,31,03,28,140,24*74
$GPGSV,3,3,12,07,15,270,,31,12,067,35,10,06,322,,19,04,166,*73
$GPRMC,225414.000,A,3353.7565,N,09832.0284,W,0.10,316.70,310312,,,D*74
$GPGGA,225415.000,3353.7565,N,09832.0283,W,2,08,1.4,301.3,M,-23.7,M,0.8,0000*47
$GPGSA,A,3,03,30,06,31,16,23,32,20,,,,,2.6,1.4,2.3*33
$GPRMC,225415.000,A,3353.7565,N,09832.0283,W,0.10,144.34,310312,,,D*77
$GPGGA,225416.000,3353.7565,N,09832.0283,W,2,08,1.4,301.2,M,-23.7,M,0.8,0000*45
$GPGSA,A,3,03,30,06,31,16,23,32,20,,,,,2.6,1.4,2.3*33
$GPRMC,225416.000,A,3353.7565,N,09832.0283,W,0.19,151.26,310312,,,D*7A
$GPGGA,225417.000,3353.7565,N,09832.0283,W,2,08,1.4,301.2,M,-23.7,M,0.8,0000*44
$GPGSA,A,3,03,30,06,31,16,23,32,20,,,,,2.6,1.4,2.3*33
$GPRMC,225417.000,A,3353.7565,N,09832.0283,W,0.07,181.53,310312,,,D*7B
$GPGGA,225418.000,3353.7565,N,09832.0282,W,2,08,1.4,301.2,M,-23.7,M,0.8,0000*4A
$GPGSA,A,3,03,30,06,31,16,23,32,20,,,,,2.6,1.4,2.3*33
$GPRMC,225418.000,A,3353.7565,N,09832.0282,W,0.13,159.36,310312,,,D*76
$GPGGA,225419.000,3353.7565,N,09832.0282,W,2,08,1.4,301.1,M,-23.7,M,1.8,0000*49
$GPGSA,A,3,03,30,06,31,16,23,32,20,,,,,2.6,1.4,2.3*33
$GPGSV,3,1,12,16,72,069,32,23,61,328,34,30,46,045,33,20,43,223,30*79
$GPGSV,3,2,12,32,36,189,38,13,30,316,,06,28,122,31,03,28,140,23*73
$GPGSV,3,3,12,07,15,270,,31,12,067,35,10,06,322,,19,04,166,*73
$GPRMC,225419.000,A,3353.7565,N,09832.0282,W,0.07,271.35,310312,,,D*78
$GPGGA,225420.000,3353.7565,N,09832.0282,W,2,08,1.4,301.1,M,-23.7,M,0.8,0000*42
$GPGSA,A,3,03,30,06,31,16,23,32,20,,,,,2.6,1.4,2.3*33
$GPRMC,225420.000,A,3353.7565,N,09832.0282,W,0.08,174.84,310312,,,D*71
$GPGGA,225421.000,3353.7565,N,09832.0281,W,2,08,1.4,301.1,M,-23.7,M,0.8,0000*40
$GPGSA,A,3,03,30,06,31,16,23,32,20,,,,,2.6,1.4,2.3*33
$GPRMC,225421.000,A,3353.7565,N,09832.0281,W,0.03,264.25,310312,,,D*71
$GPGGA,225422.000,3353.7565,N,09832.0281,W,2,07,1.5,301.1,M,-23.7,M,0.8,0000*4D
$GPGSA,A,3,30,06,31,16,23,32,20,,,,,,2.7,1.5,2.3*30
$GPRMC,225422.000,A,3353.7565,N,09832.0281,W,0.07,303.86,310312,,,D*7F
$GPGGA,225423.000,3353.7565,N,09832.0281,W,2,07,1.5,301.2,M,-23.7,M,0.8,0000*4F
$GPGSA,A,3,30,06,31,16,23,32,20,,,,,,2.7,1.5,2.3*30
$GPRMC,225423.000,A,3353.7565,N,09832.0281,W,0.01,28.25,310312,,,D*4B
$GPGGA,225424.000,3353.7565,N,09832.0281,W,2,07,1.5,301.2,M,-23.7,M,1.8,0000*49
$GPGSA,A,3,30,06,31,16,23,32,20,,,,,,2.7,1.5,2.3*30
$GPGSV,3,1,12,16,72,069,32,23,61,328,34,30,46,045,33,20,43,223,30*79
$GPGSV,3,2,12,32,36,189,38,13,30,316,13,06,28,122,31,03,28,140,11*70
$GPGSV,3,3,12,07,15,270,,31,12,067,35,10,06,322,,19,04,166,*73
$GPRMC,225424.000,A,3353.7565,N,09832.0281,W,0.01,23.53,310312,,,D*46
$GPGGA,225425.000,3353.7565,N,09832.0281,W,2,07,1.5,301.2,M,-23.7,M,2.8,0000*4B
$GPGSA,A,3,30,06,31,16,23,32,20,,,,,,2.7,1.5,2.3*30
$GPRMC,225425.000,A,3353.7565,N,09832.0281,W,0.01,32.39,310312,,,D*4B
$GPGGA,225426.000,3353.7565,N,09832.0281,W,2,07,1.5,301.3,M,-23.7,M,0.8,0000*4B
$GPGSA,A,3,30,06,31,16,23,32,20,,,,,,2.7,1.5,2.3*30
$GPRMC,225426.000,A,3353.7565,N,09832.0281,W,0.02,122.28,310312,,,D*7B
$GPGGA,225427.000,3353.7565,N,09832.0280,W,2,07,1.5,301.3,M,-23.7,M,0.8,0000*4B
$GPGSA,A,3,30,06,31,16,23,32,20,,,,,,2.7,1.5,2.3*30
$GPRMC,225427.000,A,3353.7565,N,09832.0280,W,0.05,174.52,310312,,,D*72
$GPGGA,225428.000,3353.7565,N,09832.0281,W,2,07,1.5,301.2,M,-23.7,M,0.8,0000*44
$GPGSA,A,3,30,06,31,16,23,32,20,,,,,,2.7,1.5,2.3*30
$GPRMC,225428.000,A,3353.7565,N,09832.0281,W,0.05,188.48,310312,,,D*74
$GPGGA,225429.000,3353.7565,N,09832.0281,W,2,07,1.5,301.2,M,-23.7,M,0.8,0000*45
$GPGSA,A,3,30,06,31,16,23,32,20,,,,,,2.7,1.5,2.3*30
$GPGSV,3,1,12,16,72,069,31,23,61,328,34,30,46,045,33,20,43,223,30*7A
$GPGSV,3,2,12,32,36,189,38,13,30,316,15,06,28,122,31,03,28,140,*76
$GPGSV,3,3,12,07,15,270,,31,12,067,35,10,06,322,,19,04,166,*73
$GPRMC,225429.000,A,3353.7565,N,09832.0281,W,0.06,205.47,310312,,,D*7F
$GPGGA,225430.000,3353.7565,N,09832.0281,W,2,07,1.5,301.2,M,-23.7,M,1.8,0000*4C
$GPGSA,A,3,30,06,31,16,23,32,20,,,,,,2.7,1.5,2.3*30
$GPRMC,225430.000,A,3353.7565,N,09832.0281,W,0.04,211.23,310312,,,D*72
$GPGGA,225431.000,3353.7565,N,09832.0281,W,2,07,1.5,301.1,M,-23.7,M,2.8,0000*4D
$GPGSA,A,3,30,06,31,16,23,32,20,,,,,,2.7,1.5,2.3*30
$GPRMC,225431.000,A,3353.7565,N,09832.0281,W,0.05,213.35,310312,,,D*77
$GPGGA,225432.000,3353.7566,N,09832.0281,W,2,07,1.5,301.1,M,-23.7,M,3.8,0000*4C
$GPGSA,A,3,30,06,31,16,23,32,20,,,,,,2.7,1.5,2.3*30
$GPRMC,225432.000,A,3353.7566,N,09832.0281,W,0.05,210.16,310312,,,D*75
$GPGGA,225433.000,3353.7566,N,09832.0281,W,2,07,1.5,301.1,M,-23.7,M,0.8,0000*4E
$GPGSA,A,3,30,06,31,16,23,32,20,,,,,,2.7,1.5,2.3*30
$GPRMC,225433.000,A,3353.7566,N,09832.0281,W,0.05,261.80,310312,,,D*7D
$GPGGA,225434.000,3353.7566,N,09832.0281,W,2,07,1.5,301.2,M,-23.7,M,0.8,0000*4A
$GPGSA,A,3,30,06,31,16,23,32,20,,,,,,2.7,1.5,2.3*30
$GPGSV,3,1,12,16,72,069,31,23,61,328,34,30,46,045,33,20,43,223,30*7A
$GPGSV,3,2,12,32,36,189,38,13,30,316,15,06,28,122,32,03,28,140,*75
$GPGSV,3,3,12,07,15,270,,31,12,067,35,10,06,322,,19,04,166,*73
$GPRMC,225434.000,A,3353.7566,N,09832.0281,W,0.04,321.32,310312,,,D*77
$GPGGA,225435.000,3353.7566,N,09832.0281,W,2,07,1.5,301.2,M,-23.7,M,0.8,0000*4B
$GPGSA,A,3,30,06,31,16,23,32,20,,,,,,2.7,1.5,2.3*30
$GPRMC,225435.000,A,3353.7566,N,09832.0281,W,0.02,333.34,310312,,,D*75
$GPGGA,225436.000,3353.7566,N,09832.0281,W,2,07,1.5,301.3,M,-23.7,M,1.8,0000*48
$GPGSA,A,3,30,06,31,16,23,32,20,,,,,,2.7,1.5,2.3*30
$GPRMC,225436.000,A,3353.7566,N,09832.0281,W,0.00,214.56,310312,,,D*74
$GPGGA,225437.000,3353.7566,N,09832.0281,W,2,08,1.4,301.4,M,-23.7,M,0.8,0000*41
$GPGSA,A,3,03,30,06,31,16,23,32,20,,,,,2.6,1.4,2.3*33
$GPRMC,225437.000,A,3353.7566,N,09832.0281,W,0.12,314.08,310312,,,D*7C
$GPGGA,225438.000,3353.7566,N,09832.0281,W,2,08,1.4,301.5,M,-23.7,M,1.8,0000*4E
$GPGSA,A,3,03,30,06,31,16,23,32,20,,,,,2.6,1.4,2.3*33
$GPRMC,225438.000,A,3353.7566,N,09832.0281,W,0.09,321.31,310312,,,D*75
$GPGGA,225439.000,3353.7566,N,09832.0280,W,2,08,1.4,301.6,M,-23.7,M,0.8,0000*4C
$GPGSA,A,3,03,30,06,31,16,23,32,20,,,,,2.6,1.4,2.3*33
$GPGSV,3,1,12,16,72,069,31,23,61,328,34,30,46,045,32,20,43,223,30*7B
$GPGSV,3,2,12,32,36,189,38,13,30,316,15,06,28,122,32,03,28,140,18*7C
$GPGSV,3,3,12,07,15,270,,31,12,067,35,10,06,322,,19,04,166,*73
$GPRMC,225439.000,A,3353.7566,N,09832.0280,W,0.16,148.90,310312,,,D*7D
$GPGGA,225440.000,3353.7566,N,09832.0280,W,2,08,1.4,301.5,M,-23.7,M,0.8,0000*41
$GPGSA,A,3,03,30,06,31,16,23,32,20,,,,,2.6,1.4,2.3*33
$GPRMC,225440.000,A,3353.7566,N,09832.0280,W,0.18,145.43,310312,,,D*7E
$GPGGA,225441.000,3353.7566,N,09832.0280,W,2,08,1.4,301.5,M,-23.7,M,0.8,0000*40
$GPGSA,A,3,03,30,06,31,16,23,32,20,,,,,2.6,1.4,2.3*33
$GPRMC,225441.000,A,3353.7566,N,09832.0280,W,0.11,296.18,310312,,,D*75
$GPGGA,225442.000,3353.7566,N,09832.0280,W,2,08,1.4,301.5,M,-23.7,M,1.8,0000*42
$GPGSA,A,3,03,30,06,31,16,23,32,20,,,,,2.6,1.4,2.3*33
$GPRMC,225442.000,A,3353.7566,N,09832.0280,W,0.07,274.31,310312,,,D*76
$GPGGA,225443.000,3353.7566,N,09832.0281,W,2,08,1.4,301.4,M,-23.7,M,0.8,0000*42
$GPGSA,A,3,03,30,06,31,16,23,32,20,,,,,2.6,1.4,2.3*33
$GPRMC,225443.000,A,3353.7566,N,09832.0281,W,0.17,301.27,310312,,,D*73
$GPGGA,225444.000,3353.7567,N,09832.0281,W,2,08,1.4,301.3,M,-23.7,M,0.8,0000*43
$GPGSA,A,3,03,30,06,31,16,23,32,20,,,,,2.6,1.4,2.3*33
$GPGSV,3,1,12,16,72,069,31,23,61,328,34,30,46,045,32,20,43,223,29*73
$GPGSV,3,2,12,32,36,189,37,13,30,316,16,06,28,122,32,03,28,140,19*71
$GPGSV,3,3,12,07,15,270,,31,12,067,34,10,06,322,,19,04,166,*72
$GPRMC,225444.000,A,3353.7567,N,09832.0281,W,0.08,275.56,310312,,,D*7F
$GPGGA,225445.000,3353.7567,N,09832.0281,W,2,08,1.4,301.3,M,-23.7,M,0.8,0000*42
$GPGSA,A,3,03,30,06,31,16,23,32,20,,,,,2.6,1.4,2.3*33
$GPRMC,225445.000,A,3353.7567,N,09832.0281,W,0.12,309.52,310312,,,D*7B
$GPGGA,225446.000,3353.7567,N,09832.0281,W,2,08,1.4,301.4,M,-23.7,M,0.8,0000*46
$GPGSA,A,3,03,30,06,31,16,23,32,20,,,,,2.6,1.4,2.3*33
$GPRMC,225446.000,A,3353.7567,N,09832.0281,W,0.09,292.51,310312,,,D*72
$GPGGA,225447.000,3353.7567,N,09832.0281,W,2,08,1.4,301.5,M,-23.7,M,0.8,0000*46
$GPGSA,A,3,03,30,06,31,16,23,32,20,,,,,2.6,1.4,2.3*33
$GPRMC,225447.000,A,3353.7567,N,09832.0281,W,0.12,309.04,310312,,,D*7A
$GPGGA,225448.000,3353.7567,N,09832.0281,W,2,08,1.4,301.6,M,-23.7,M,1.8,0000*4B
$GPGSA,A,3,03,30,06,31,16,23,32,20,,,,,2.6,1.4,2.3*33
$GPRMC,225448.000,A,3353.7567,N,09832.0281,W,0.19,313.97,310312,,,D*7F
$GPGGA,225449.000,3353.7567,N,09832.0281,W,2,08,1.4,301.7,M,-23.7,M,2.8,0000*48
$GPGSA,A,3,03,30,06,31,16,23,32,20,,,,,2.6,1.4,2.3*33
$GPGSV,3,1,12,16,72,069,31,23,61,328,34,30,46,045,32,20,43,223,29*73
$GPGSV,3,2,12,32,36,189,37,13,30,316,16,06,28,122,33,03,28,140,20*7A
$GPGSV,3,3,12,07,15,270,,31,12,067,34,10,06,322,,19,04,166,*72
$GPRMC,225449.000,A,3353.7567,N,09832.0281,W,0.03,174.86,310312,,,D*76
$GPGGA,225450.000,3353.7567,N,09832.0281,W,2,08,1.4,301.8,M,-23.7,M,0.8,0000*4D
$GPGSA,A,3,03,30,06,31,16,23,32,20,,,,,2.6,1.4,2.3*33
$GPRMC,225450.000,A,3353.7567,N,09832.0281,W,0.05,145.29,310312,,,D*7F
$GPGGA,225451.000,3353.7567,N,09832.0281,W,2,08,1.4,301.9,M,-23.7,M,0.8,0000*4D
$GPGSA,A,3,03,30,06,31,16,23,32,20,,,,,2.6,1.4,2.3*33
$GPRMC,225451.000,A,3353.7567,N,09832.0281,W,0.09,294.62,310312,,,D*72
$GPGGA,225452.000,3353.7567,N,09832.0281,W,2,08,1.4,301.8,M,-23.7,M,0.8,0000*4F
$GPGSA,A,3,03,30,06,31,16,23,32,20,,,,,2.6,1.4,2.3*33
$GPRMC,225452.000,A,3353.7567,N,09832.0281,W,0.14,303.62,310312,,,D*72
$GPGGA,225453.000,3353.7567,N,09832.0281,W,2,08,1.4,301.8,M,-23.7,M,0.8,0000*4E
$GPGSA,A,3,03,30,06,31,16,23,32,20,,,,,2.6,1.4,2.3*33
$GPRMC,225453.000,A,3353.7567,N,09832.0281,W,0.05,270.56,310312,,,D*71
$GPGGA,225454.000,3353.7566,N,09832.0281,W,2,08,1.4,301.8,M,-23.7,M,1.8,0000*49
$GPGSA,A,3,03,30,06,31,16,23,32,20,,,,,2.6,1.4,2.3*33
$GPGSV,3,1,12,16,72,069,31,23,61,328,34,30,46,045,32,20,43,223,28*72
$GPGSV,3,2,12,32,36,189,37,13,30,316,15,06,28,122,33,03,28,140,20*79
$GPGSV,3,3,12,07,15,270,,31,12,067,34,10,06,322,,19,04,166,*72
$GPRMC,225454.000,A,3353.7566,N,09832.0281,W,0.14,147.45,310312,,,D*72
$GPGGA,225455.000,3353.7566,N,09832.0280,W,2,08,1.4,301.8,M,-23.7,M,2.8,0000*4A
$GPGSA,A,3,03,30,06,31,16,23,32,20,,,,,2.6,1.4,2.3*33
$GPRMC,225455.000,A,3353.7566,N,09832.0280,W,0.05,176.46,310312,,,D*73
$GPGGA,225456.000,3353.7566,N,09832.0281,W,2,08,1.4,301.8,M,-23.7,M,3.8,0000*49
$GPGSA,A,3,03,30,06,31,16,23,32,20,,,,,2.6,1.4,2.3*33
$GPRMC,225456.000,A,3353.7566,N,09832.0281,W,0.13,299.34,310312,,,D*71
$GPGGA,225457.000,3353.7566,N,09832.0281,W,2,08,1.4,301.8,M,-23.7,M,0.8,0000*4B
$GPGSA,A,3,03,30,06,31,16,23,32,20,,,,,2.6,1.4,2.3*33
$GPRMC,225457.000,A,3353.7566,N,09832.0281,W,0.14,307.20,310312,,,D*74
$GPGGA,225458.000,3353.7566,N,09832.0281,W,2,08,1.4,301.8,M,-23.7,M,0.8,0000*44
$GPGSA,A,3,03,30,06,31,16,23,32,20,,,,,2.6,1.4,2.3*33
$GPRMC,225458.000,A,3353.7566,N,09832.0281,W,0.04,148.27,310312,,,D*74
$GPGGA,225459.000,3353.7566,N,09832.0280,W,2,08,1.4,301.9,M,-23.7,M,0.8,0000*45
$GPGSA,A,3,03,30,06,31,16,23,32,20,,,,,2.6,1.4,2.3*33
$GPGSV,3,1,12,16,72,069,31,23,61,328,35,30,46,045,31,20,43,223,28*70
$GPGSV,3,2,12,32,36,189,37,13,30,316,13,06,28,122,33,03,28,140,19*75
$GPGSV,3,3,12,07,15,270,,31,12,067,34,10,06,322,,19,04,166,*72
$GPRMC,225459.000,A,3353.7566,N,09832.0280,W,0.14,141.94,310312,,,D*74
$GPGGA,225500.000,3353.7566,N,09832.0280,W,2,08,1.4,301.9,M,-23.7,M,1.8,0000*49
$GPGSA,A,3,03,30,06,31,16,23,32,20,,,,,2.6,1.4,2.2*32
$GPRMC,225500.000,A,3353.7566,N,09832.0280,W,0.20,140.20,310312,,,D*70
$GPGGA,225501.000,3353.7565,N,09832.0279,W,2,08,1.4,302.0,M,-23.7,M,2.8,0000*44
$GPGSA,A,3,03,30,06,31,16,23,32,20,,,,,2.6,1.4,2.2*32
$GPRMC,225501.000,A,3353.7565,N,09832.0279,W,0.18,133.89,310312,,,D*78
$GPGGA,225502.000,3353.7565,N,09832.0279,W,2,08,1.4,302.1,M,-23.7,M,3.8,0000*47
$GPGSA,A,3,03,30,06,31,16,23,32,20,,,,,2.6,1.4,2.2*32
$GPRMC,225502.000,A,3353.7565,N,09832.0279,W,0.19,138.58,310312,,,D*7D
$GPGGA,225503.000,3353.7565,N,09832.0279,W,2,08,1.4,302.1,M,-23.7,M,0.8,0000*45
$GPGSA,A,3,03,30,06,31,16,23,32,20,,,,,2.6,1.4,2.2*32
$GPRMC,225503.000,A,3353.7565,N,09832.0279,W,0.03,300.16,310312,,,D*74
$GPGGA,225504.000,3353.7565,N,09832.0279,W,2,08,1.4,302.1,M,-23.7,M,0.8,0000*42
$GPGSA,A,3,03,30,06,31,16,23,32,20,,,,,2.6,1.4,2.2*32
$GPGSV,3,1,12,16,72,069,31,23,61,328,35,30,46,045,31,20,43,223,28*70
$GPGSV,3,2,12,32,36,189,37,13,30,316,,06,28,122,33,03,28,140,19*77
$GPGSV,3,3,12,07,15,270,,31,12,067,33,10,06,322,,19,04,166,*75
$GPRMC,225504.000,A,3353.7565,N,09832.0279,W,0.04,200.97,310312,,,D*7C
$GPGGA,225505.000,3353.7564,N,09832.0279,W,2,08,1.4,302.0,M,-23.7,M,0.8,0000*43
$GPGSA,A,3,03,30,06,31,16,23,32,20,,,,,2.6,1.4,2.2*32
$GPRMC,225505.000,A,3353.7564,N,09832.0279,W,0.05,234.64,310312,,,D*76
$GPGGA,225506.000,3353.7564,N,09832.0279,W,2,08,1.4,302.0,M,-23.7,M,0.8,0000*40
$GPGSA,A,3,03,30,06,31,16,23,32,20,,,,,2.6,1.4,2.2*32
$GPRMC,225506.000,A,3353.7564,N,09832.0279,W,0.14,160.02,310312,,,D*77
$GPGGA,225507.000,3353.7563,N,09832.0279,W,2,08,1.4,302.0,M,-23.7,M,1.8,0000*47
$GPGSA,A,3,03,30,06,31,16,23,32,20,,,,,2.6,1.4,2.2*32
$GPRMC,225507.000,A,3353.7563,N,09832.0279,W,0.07,249.05,310312,,,D*7C
$GPGGA,225508.000,3353.7563,N,09832.0280,W,2,08,1.4,302.0,M,-23.7,M,2.8,0000*4D
$GPGSA,A,3,03,30,06,31,16,23,32,20,,,,,2.6,1.4,2.2*32
$GPRMC,225508.000,A,3353.7563,N,09832.0280,W,0.06,237.75,310312,,,D*7A
$GPGGA,225509.000,3353.7563,N,09832.0280,W,2,08,1.4,302.0,M,-23.7,M,0.8,0000*4E
$GPGSA,A,3,03,30,06,31,16,23,32,20,,,,,2.6,1.4,2.2*32
$GPGSV,3,1,12,16,72,069,31,23,61,328,35,30,46,045,30,20,43,223,28*71
$GPGSV,3,2,12,32,36,189,36,13,30,316,,06,28,122,33,03,28,140,19*76
$GPGSV,3,3,12,07,15,270,,31,12,067,33,10,06,322,,19,04,166,*75
$GPRMC,225509.000,A,3353.7563,N,09832.0280,W,0.08,176.53,310312,,,D*77
$GPGGA,225510.000,3353.7562,N,09832.0280,W,2,08,1.4,302.0,M,-23.7,M,0.8,0000*47
$GPGSA,A,3,03,30,06,31,16,23,32,20,,,,,2.6,1.4,2.2*32
$GPRMC,225510.000,A,3353.7562,N,09832.0280,W,0.16,316.20,310312,,,D*71
$GPGGA,225511.000,3353.7563,N,09832.0281,W,2,08,1.4,302.1,M,-23.7,M,0.8,0000*47
$GPGSA,A,3,03,30,06,31,16,23,32,20,,,,,2.6,1.4,2.2*32
$GPRMC,225511.000,A,3353.7563,N,09832.0281,W,0.22,314.75,310312,,,D*75
$GPGGA,225512.000,3353.7562,N,09832.0281,W,2,08,1.4,302.2,M,-23.7,M,1.8,0000*47
$GPGSA,A,3,03,30,06,31,16,23,32,20,,,,,2.6,1.4,2.2*32
$GPRMC,225512.000,A,3353.7562,N,09832.0281,W,0.02,166.02,310312,,,D*72
$GPGGA,225513.000,3353.7562,N,09832.0280,W,2,08,1.4,302.3,M,-23.7,M,2.8,0000*45
$GPGSA,A,3,03,30,06,31,16,23,32,20,,,,,2.6,1.4,2.2*32
$GPRMC,225513.000,A,3353.7562,N,09832.0280,W,0.01,300.86,310312,,,D*7F
$GPGGA,225514.000,3353.7562,N,09832.0280,W,2,08,1.4,302.4,M,-23.7,M,3.8,0000*44
$GPGSA,A,3,03,30,06,31,16,23,32,20,,,,,2.6,1.4,2.2*32
$GPGSV,3,1,12,16,72,069,31,23,61,328,35,30,46,045,29,20,43,223,28*79
$GPGSV,3,2,12,32,36,189,36,13,30,316,,06,28,122,34,03,28,140,21*7A
$GPGSV,3,3,12,07,15,270,,31,12,067,32,10,06,322,,19,04,166,*74
$GPRMC,225514.000,A,3353.7562,N,09832.0280,W,0.15,323.85,310312,,,D*7F
$GPGGA,225515.000,3353.7562,N,09832.0280,W,2,08,1.4,302.4,M,-23.7,M,0.8,0000*46
$GPGSA,A,3,03,30,06,31,16,23,32,20,,,,,2.6,1.4,2.2*32
$GPRMC,225515.000,A,3353.7562,N,09832.0280,W,0.09,150.63,310312,,,D*7D
$GPGGA,225516.000,3353.7561,N,09832.0280,W,2,08,1.4,302.4,M,-23.7,M,0.8,0000*46
$GPGSA,A,3,03,30,06,31,16,23,32,20,,,,,2.6,1.4,2.2*32
$GPRMC,225516.000,A,3353.7561,N,09832.0280,W,0.15,163.12,310312,,,D*76
$GPGGA,225517.000,3353.7560,N,09832.0280,W,2,08,1.4,302.4,M,-23.7,M,0.8,0000*46
$GPGSA,A,3,03,30,06,31,16,23,32,20,,,,,2.6,1.4,2.2*32
$GPRMC,225517.000,A,3353.7560,N,09832.0280,W,0.19,157.68,310312,,,D*70
$GPGGA,225518.000,3353.7560,N,09832.0281,W,2,08,1.4,302.3,M,-23.7,M,1.8,0000*4E
$GPGSA,A,3,03,30,06,31,16,23,32,20,,,,,2.6,1.4,2.2*32
$GPRMC,225518.000,A,3353.7560,N,09832.0281,W,0.12,267.46,310312,,,D*79
$GPGGA,225519.000,3353.7560,N,09832.0281,W,2,08,1.4,302.3,M,-23.7,M,2.8,0000*4C
$GPGSA,A,3,03,30,06,31,16,23,32,20,,,,,2.6,1.4,2.2*32
$GPGSV,3,1,12,16,72,069,31,23,61,328,35,30,46,045,28,20,43,223,29*79
$GPGSV,3,2,12,32,36,189,36,13,30,316,,06,28,122,34,03,28,140,21*7A
$GPGSV,3,3,12,07,15,270,,31,12,067,32,10,06,322,,19,04,166,*74
$GPRMC,225519.000,A,3353.7560,N,09832.0281,W,0.08,246.39,310312,,,D*78
$GPGGA,225520.000,3353.7560,N,09832.0282,W,2,08,1.4,302.2,M,-23.7,M,3.8,0000*45
$GPGSA,A,3,03,30,06,31,16,23,32,20,,,,,2.6,1.4,2.2*32
$GPRMC,225520.000,A,3353.7560,N,09832.0282,W,0.18,287.95,310312,,,D*7B
$GPGGA,225521.000,3353.7559,N,09832.0282,W,2,08,1.4,302.2,M,-23.7,M,0.8,0000*4D
$GPGSA,A,3,03,30,06,31,16,23,32,20,,,,,2.6,1.4,2.2*32
$GPRMC,225521.000,A,3353.7559,N,09832.0282,W,0.08,182.57,310312,,,D*79
$GPGGA,225522.000,3353.7559,N,09832.0282,W,2,08,1.4,302.2,M,-23.7,M,0.8,0000*4E
$GPGSA,A,3,03,30,06,31,16,23,32,20,,,,,2.6,1.4,2.2*32
$GPRMC,225522.000,A,3353.7559,N,09832.0282,W,0.18,313.08,310312,,,D*7B
$GPGGA,225523.000,3353.7560,N,09832.0283,W,2,08,1.4,302.3,M,-23.7,M,0.8,0000*45
$GPGSA,A,3,03,30,06,31,16,23,32,20,,,,,2.6,1.4,2.2*32
$GPRMC,225523.000,A,3353.7560,N,09832.0283,W,0.16,318.18,310312,,,D*75
$GPGGA,225524.000,3353.7560,N,09832.0283,W,2,08,1.4,302.3,M,-23.7,M,0.8,0000*42
$GPGSA,A,3,03,30,06,31,16,23,32,20,,,,,2.6,1.4,2.2*32
$GPGSV,3,1,12,16,72,069,30,23,61,328,34,30,46,045,27,20,43,223,28*77
$GPGSV,3,2,12,32,36,189,37,13,30,316,,06,28,122,34,03,28,140,21*7B
$GPGSV,3,3,12,07,15,270,,31,12,067,32,10,06,322,,19,04,166,*74
$GPRMC,225524.000,A,3353.7560,N,09832.0283,W,0.19,315.81,310312,,,D*70
$GPGGA,225525.000,3353.7560,N,09832.0283,W,2,08,1.4,302.3,M,-23.7,M,0.8,0000*43
$GPGSA,A,3,03,30,06,31,16,23,32,20,,,,,2.6,1.4,2.2*32
$GPRMC,225525.000,A,3353.7560,N,09832.0283,W,0.03,98.41,310312,,,D*40
$GPGGA,225526.000,3353.7560,N,09832.0283,W,2,08,1.4,302.4,M,-23.7,M,1.8,0000*46
$GPGSA,A,3,03,30,06,31,16,23,32,20,,,,,2.6,1.4,2.2*32
$GPRMC,225526.000,A,3353.7560,N,09832.0283,W,0.14,131.49,310312,,,D*7F
$GPGGA,225527.000,3353.7559,N,09832.0282,W,2,08,1.4,302.4,M,-23.7,M,0.8,0000*4D
$GPGSA,A,3,03,30,06,31,16,23,32,20,,,,,2.6,1.4,2.2*32
$GPRMC,225527.000,A,3353.7559,N,09832.0282,W,0.20,137.76,310312,,,D*78
$GPGGA,225528.000,3353.7559,N,09832.0282,W,2,08,1.4,302.4,M,-23.7,M,0.8,0000*42
$GPGSA,A,3,03,30,06,31,16,23,32,20,,,,,2.6,1.4,2.2*32
$GPRMC,225528.000,A,3353.7559,N,09832.0282,W,0.24,147.04,310312,,,D*71
$GPGGA,225529.000,3353.7558,N,09832.0282,W,2,08,1.4,302.3,M,-23.7,M,0.8,0000*45
$GPGSA,A,3,03,30,06,31,16,23,32,20,,,,,2.6,1.4,2.2*32
$GPGSV,3,1,12,16,72,069,30,23,61,328,34,30,46,045,27,20,43,223,27*78
$GPGSV,3,2,12,32,36,189,36,13,30,316,,06,28,122,34,03,28,140,20*7B
$GPGSV,3,3,12,07,15,270,,31,12,067,32,10,06,322,,19,04,166,*74
$GPRMC,225529.000,A,3353.7558,N,09832.0282,W,0.06,228.85,310312,,,D*72
$GPGGA,225530.000,3353.7558,N,09832.0283,W,2,08,1.4,302.2,M,-23.7,M,1.8,0000*4C
$GPGSA,A,3,03,30,06,31,16,23,32,20,,,,,2.6,1.4,2.2*32
$GPRMC,225530.000,A,3353.7558,N,09832.0283,W,0.17,285.59,310312,,,D*7D
$GPGGA,225531.000,3353.7558,N,09832.0283,W,2,08,1.4,302.2,M,-23.7,M,0.8,0000*4C
$GPGSA,A,3,03,30,06,31,16,23,32,20,,,,,2.6,1.4,2.2*32
$GPRMC,225531.000,A,3353.7558,N,09832.0283,W,0.21,122.95,310312,,,D*77
$GPGGA,225532.000,3353.7558,N,09832.0283,W,2,08,1.4,302.1,M,-23.7,M,1.8,0000*4D
$GPGSA,A,3,03,30,06,31,16,23,32,20,,,,,2.6,1.4,2.2*32
$GPRMC,225532.000,A,3353.7558,N,09832.0283,W,0.16,193.72,310312,,,D*73
$GPGGA,225533.000,3353.7557,N,09832.0283,W,2,08,1.4,302.0,M,-23.7,M,0.8,0000*43
$GPGSA,A,3,03,30,06,31,16,23,32,20,,,,,2.6,1.4,2.2*32
$GPRMC,225533.000,A,3353.7557,N,09832.0283,W,0.17,219.13,310312,,,D*7A
$GPGGA,225534.000,3353.7557,N,09832.0283,W,2,08,1.4,302.1,M,-23.7,M,0.8,0000*45
$GPGSA,A,3,03,30,06,31,16,23,32,20,,,,,2.6,1.4,2.2*32
$GPGSV,3,1,12,16,72,069,30,23,61,328,34,30,46,045,27,20,43,223,22*7D
$GPGSV,3,2,12,32,36,189,36,13,30,316,,06,28,122,34,03,28,140,19*71
$GPGSV,3,3,12,07,15,270,,31,12,067,32,10,06,322,,19,04,166,*74
$GPRMC,225534.000,A,3353.7557,N,09832.0283,W,0.07,25.15,310312,,,D*47
$GPGGA,225535.000,3353.7557,N,09832.0283,W,2,08,1.4,302.2,M,-23.7,M,0.8,0000*47
$GPGSA,A,3,03,30,06,31,16,23,32,20,,,,,2.6,1.4,2.2*32
$GPRMC,225535.000,A,3353.7557,N,09832.0283,W,0.10,69.44,310312,,,D*4C
$GPGGA,225536.000,3353.7557,N,09832.0283,W,2,08,1.4,302.3,M,-23.7,M,1.8,0000*44
$GPGSA,A,3,03,30,06,31,16,23,32,20,,,,,2.6,1.4,2.2*32
$GPRMC,225536.000,A,3353.7557,N,09832.0283,W,0.07,157.33,310312,,,D*75
$GPGGA,225537.000,3353.7557,N,09832.0282,W,2,08,1.4,302.4,M,-23.7,M,2.8,0000*40
$GPGSA,A,3,03,30,06,31,16,23,32,20,,,,,2.6,1.4,2.2*32
$GPRMC,225537.000,A,3353.7557,N,09832.0282,W,0.11,14.07,310312,,,D*43
$GPGGA,225538.000,3353.7558,N,09832.0282,W,2,08,1.4,302.5,M,-23.7,M,3.8,0000*40
$GPGSA,A,3,03,30,06,31,16,23,32,20,,,,,2.6,1.4,2.2*32
$GPRMC,225538.000,A,3353.7558,N,09832.0282,W,0.17,24.06,310312,,,D*47
$GPGGA,225539.000,3353.7558,N,09832.0281,W,2,08,1.4,302.6,M,-23.7,M,0.8,0000*42
$GPGSA,A,3,03,30,06,31,16,23,32,20,,,,,2.6,1.4,2.2*32
$GPGSV,3,1,12,16,72,069,30,23,61,328,34,30,46,045,26,20,43,223,21*7F
$GPGSV,3,2,12,32,36,189,36,13,30,316,,06,28,122,34,03,28,140,18*70
$GPGSV,3,3,12,07,15,270,,31,12,067,32,10,06,322,,19,04,166,*74
$GPRMC,225539.000,A,3353.7558,N,09832.0281,W,0.15,46.62,310312,,,D*41
$GPGGA,225540.000,3353.7558,N,09832.0282,W,2,08,1.4,302.4,M,-23.7,M,0.8,0000*4D
$GPGSA,A,3,03,30,06,31,16,23,32,20,,,,,2.6,1.4,2.2*32
$GPRMC,225540.000,A,3353.7558,N,09832.0282,W,0.17,276.88,310312,,,D*7B
$GPGGA,225541.000,3353.7558,N,09832.0282,W,2,08,1.4,302.4,M,-23.7,M,0.8,0000*4C
$GPGSA,A,3,03,30,06,31,16,23,32,20,,,,,2.6,1.4,2.2*32
$GPRMC,225541.000,A,3353.7558,N,09832.0282,W,0.15,197.12,310312,,,D*77
$GPGGA,225542.000,3353.7558,N,09832.0283,W,2,08,1.4,302.3,M,-23.7,M,0.8,0000*49
$GPGSA,A,3,03,30,06,31,16,23,32,20,,,,,2.6,1.4,2.2*32
$GPRMC,225542.000,A,3353.7558,N,09832.0283,W,0.07,250.88,310312,,,D*7D
$GPGGA,225543.000,3353.7557,N,09832.0282,W,2,08,1.4,302.3,M,-23.7,M,1.8,0000*47
$GPGSA,A,3,03,30,06,31,16,23,32,20,,,,,2.6,1.4,2.2*32
$GPRMC,225543.000,A,3353.7557,N,09832.0282,W,0.12,100.45,310312,,,D*71
$GPGGA,225544.000,3353.7557,N,09832.0283,W,2,08,1.4,302.2,M,-23.7,M,2.8,0000*43
$GPGSA,A,3,03,30,06,31,16,23,32,20,,,,,2.6,1.4,2.2*32
$GPGSV,3,1,12,16,72,069,30,23,61,328,33,30,46,045,26,20,43,223,21*78
$GPGSV,3,2,12,32,36,189,36,13,30,316,,06,28,122,34,03,28,140,19*71
$GPGSV,3,3,12,07,15,270,,31,12,067,32,10,06,322,,19,04,166,*74
$GPRMC,225544.000,A,3353.7557,N,09832.0283,W,0.08,266.52,310312,,,D*79
$GPGGA,225545.000,3353.7558,N,09832.0283,W,2,08,1.4,302.2,M,-23.7,M,0.8,0000*4F
$GPGSA,A,3,03,30,06,31,16,23,32,20,,,,,2.6,1.4,2.2*32
$GPRMC,225545.000,A,3353.7558,N,09832.0283,W,0.10,351.19,310312,,,D*74
$GPGGA,225546.000,3353.7558,N,09832.0283,W,2,08,1.4,302.2,M,-23.7,M,0.8,0000*4C
$GPGSA,A,3,03,30,06,31,16,23,32,20,,,,,2.6,1.4,2.2*32
$GPRMC,225546.000,A,3353.7558,N,09832.0283,W,0.25,289.89,310312,,,D*7C
$GPGGA,225547.000,3353.7558,N,09832.0283,W,2,08,1.4,302.3,M,-23.7,M,0.8,0000*4C
$GPGSA,A,3,03,30,06,31,16,23,32,20,,,,,2.6,1.4,2.2*32
$GPRMC,225547.000,A,3353.7558,N,09832.0283,W,0.06,229.76,310312,,,D*76
$GPGGA,225548.000,3353.7558,N,09832.0283,W,2,08,1.4,302.4,M,-23.7,M,1.8,0000*45
$GPGSA,A,3,03,30,06,31,16,23,32,20,,,,,2.6,1.4,2.2*32
$GPRMC,225548.000,A,3353.7558,N,09832.0283,W,0.10,330.74,310312,,,D*75
$GPGGA,225549.000,3353.7558,N,09832.0283,W,2,08,1.4,302.5,M,-23.7,M,2.8,0000*46
$GPGSA,A,3,03,30,06,31,16,23,32,20,,,,,2.6,1.4,2.2*32
$GPGSV,3,1,12,16,72,069,30,23,61,328,33,30,46,045,26,20,43,223,22*7B
$GPGSV,3,2,12,32,36,189,36,13,30,316,,06,28,122,34,03,28,140,20*7B
$GPGSV,3,3,12,07,15,270,,31,12,067,32,10,06,322,,19,04,166,*74
$GPRMC,225549.000,A,3353.7558,N,09832.0283,W,0.12,89.28,310312,,,D*4E
$GPGGA,225550.000,3353.7558,N,09832.0283,W,2,08,1.4,302.6,M,-23.7,M,3.8,0000*4C
$GPGSA,A,3,03,30,06,31,16,23,32,20,,,,,2.6,1.4,2.2*32
$GPRMC,225550.000,A,3353.7558,N,09832.0283,W,0.12,300.80,310312,,,D*76
$GPGGA,225551.000,3353.7558,N,09832.0283,W,2,08,1.4,302.6,M,-23.7,M,0.8,0000*4E
$GPGSA,A,3,03,30,06,31,16,23,32,20,,,,,2.6,1.4,2.2*32
$GPRMC,225551.000,A,3353.7558,N,09832.0283,W,0.14,195.21,310312,,,D*74
$GPGGA,225552.000,3353.7557,N,09832.0283,W,2,08,1.4,302.6,M,-23.7,M,0.8,0000*42
$GPGSA,A,3,03,30,06,31,16,23,32,20,,,,,2.6,1.4,2.2*32
$GPRMC,225552.000,A,3353.7557,N,09832.0283,W,0.15,141.69,310312,,,D*7C
$GPGGA,225553.000,3353.7557,N,09832.0283,W,2,08,1.4,302.5,M,-23.7,M,0.8,0000*40
$GPGSA,A,3,03,30,06,31,16,23,32,20,,,,,2.6,1.4,2.2*32
$GPRMC,225553.000,A,3353.7557,N,09832.0283,W,0.11,105.48,310312,,,D*7A
$GPGGA,225554.000,3353.7557,N,09832.0283,W,2,08,1.4,302.4,M,-23.7,M,0.8,0000*46
$GPGSA,A,3,03,30,06,31,16,23,32,20,,,,,2.6,1.4,2.2*32
$GPGSV,3,1,12,16,72,065,30,23,63,329,33,30,44,044,26,20,42,222,23*76
$GPGSV,3,2,12,32,34,189,36,13,31,316,,03,29,139,21,06,29,121,34*74
$GPGSV,3,3,12,07,16,271,,31,11,068,32,10,07,321,,19,05,165,*7A
$GPRMC,225554.000,A,3353.7557,N,09832.0283,W,0.10,198.17,310312,,,D*72
$GPGGA,225555.000,3353.7557,N,09832.0283,W,2,08,1.4,302.4,M,-23.7,M,0.8,0000*47
$GPGSA,A,3,03,30,06,31,16,23,32,20,,,,,2.6,1.4,2.2*32
$GPRMC,225555.000,A,3353.7557,N,09832.0283,W,0.02,3.41,310312,,,D*70
$GPGGA,225556.000,3353.7557,N,09832.0284,W,2,08,1.4,302.3,M,-23.7,M,1.8,0000*45
$GPGSA,A,3,03,30,06,31,16,23,32,20,,,,,2.6,1.4,2.2*32
$GPRMC,225556.000,A,3353.7557,N,09832.0284,W,0.12,182.37,310312,,,D*7C
$GPGGA,225557.000,3353.7556,N,09832.0284,W,2,08,1.4,302.3,M,-23.7,M,0.8,0000*44
$GPGSA,A,3,03,30,06,31,16,23,32,20,,,,,2.6,1.4,2.2*32
$GPRMC,225557.000,A,3353.7556,N,09832.0284,W,0.06,193.05,310312,,,D*78
$GPGGA,225558.000,3353.7557,N,09832.0284,W,2,08,1.4,302.3,M,-23.7,M,1.8,0000*4B
$GPGSA,A,3,03,30,06,31,16,23,32,20,,,,,2.6,1.4,2.2*32
$GPRMC,225558.000,A,3353.7557,N,09832.0284,W,0.20,305.68,310312,,,D*74
$GPGGA,225559.000,3353.7557,N,09832.0285,W,2,08,1.4,302.3,M,-23.7,M,0.8,0000*4A
$GPGSA,A,3,03,30,06,31,16,23,32,20,,,,,2.6,1.4,2.2*32
$GPGSV,3,1,12,16,72,065,30,23,63,329,33,30,44,044,25,20,42,222,25*73
$GPGSV,3,2,12,32,34,189,36,13,31,316,,03,29,139,21,06,29,121,34*74
$GPGSV,3,3,12,07,16,271,,31,11,068,32,10,07,321,,19,05,165,*7A
$GPRMC,225559.000,A,3353.7557,N,09832.0285,W,0.12,300.83,310312,,,D*75
$GPGGA,225600.000,3353.7557,N,09832.0285,W,2,08,1.4,302.4,M,-23.7,M,1.8,0000*43
$GPGSA,A,3,03,30,06,31,16,23,32,20,,,,,2.6,1.4,2.2*32
$GPRMC,225600.000,A,3353.7557,N,09832.0285,W,0.06,150.74,310312,,,D*70
$GPGGA,225601.000,3353.7557,N,09832.0285,W,2,08,1.4,302.4,M,-23.7,M,2.8,0000*41
$GPGSA,A,3,03,30,06,31,16,23,32,20,,,,,2.6,1.4,2.2*32
$GPRMC,225601.000,A,3353.7557,N,09832.0285,W,0.12,307.60,310312,,,D*71
$GPGGA,225602.000,3353.7557,N,09832.0285,W,2,08,1.4,302.4,M,-23.7,M,0.8,0000*40
$GPGSA,A,3,03,30,06,31,16,23,32,20,,,,,2.6,1.4,2.2*32
$GPRMC,225602.000,A,3353.7557,N,09832.0285,W,0.09,309.28,310312,,,D*7A
$GPGGA,225603.000,3353.7557,N,09832.0285,W,2,08,1.4,302.4,M,-23.7,M,0.8,0000*41
$GPGSA,A,3,03,30,06,31,16,23,32,20,,,,,2.6,1.4,2.2*32
$GPRMC,225603.000,A,3353.7557,N,09832.0285,W,0.09,163.43,310312,,,D*78
$GPGGA,225604.000,3353.7556,N,09832.0285,W,2,08,1.4,302.5,M,-23.7,M,0.8,0000*46
$GPGSA,A,3,03,30,06,31,16,23,32,20,,,,,2.6,1.4,2.2*32
$GPGSV,3,1,12,16,72,065,30,23,63,329,33,30,44,044,25,20,42,222,26*70
$GPGSV,3,2,12,32,34,189,36,13,31,316,,03,29,139,21,06,29,121,34*74
$GPGSV,3,3,12,07,16,271,,31,11,068,32,10,07,321,,19,05,165,*7A
$GPRMC,225604.000,A,3353.7556,N,09832.0285,W,0.07,180.33,310312,,,D*7A
$GPGGA,225605.000,3353.7556,N,09832.0285,W,2,08,1.4,302.5,M,-23.7,M,0.8,0000*47
$GPGSA,A,3,03,30,06,31,16,23,32,20,,,,,2.6,1.4,2.2*32
$GPRMC,225605.000,A,3353.7556,N,09832.0285,W,0.05,212.88,310312,,,D*71
$GPGGA,225606.000,3353.7556,N,09832.0286,W,2,08,1.4,302.5,M,-23.7,M,1.8,0000*46
$GPGSA,A,3,03,30,06,31,16,23,32,20,,,,,2.6,1.4,2.2*32
$GPRMC,225606.000,A,3353.7556,N,09832.0286,W,0.05,255.17,310312,,,D*74
$GPGGA,225607.000,3353.7556,N,09832.0286,W,2,08,1.4,302.5,M,-23.7,M,2.8,0000*44
$GPGSA,A,3,03,30,06,31,16,23,32,20,,,,,2.6,1.4,2.2*32
$GPRMC,225607.000,A,3353.7556,N,09832.0286,W,0.12,157.96,310312,,,D*7B
$GPGGA,225608.000,3353.7555,N,09832.0285,W,2,08,1.4,302.6,M,-23.7,M,0.8,0000*4A
$GPGSA,A,3,03,30,06,31,16,23,32,20,,,,,2.6,1.4,2.2*32
$GPRMC,225608.000,A,3353.7555,N,09832.0285,W,0.06,185.27,310312,,,D*74
$GPGGA,225609.000,3353.7555,N,09832.0285,W,2,08,1.4,302.7,M,-23.7,M,0.8,0000*4A
$GPGSA,A,3,03,30,06,31,16,23,32,20,,,,,2.6,1.4,2.2*32
$GPGSV,3,1,12,16,72,065,29,23,63,329,33,30,44,044,25,20,42,222,26*78
$GPGSV,3,2,12,32,34,189,36,13,31,316,,03,29,139,21,06,29,121,34*74
$GPGSV,3,3,12,07,16,271,,31,11,068,31,10,07,321,,19,05,165,*79
$GPRMC,225609.000,A,3353.7555,N,09832.0285,W,0.05,161.38,310312,,,D*72
$GPGGA,225610.000,3353.7555,N,09832.0285,W,2,08,1.4,302.8,M,-23.7,M,0.8,0000*4D
$GPGSA,A,3,03,30,06,31,16,23,32,20,,,,,2.6,1.4,2.2*32
$GPRMC,225610.000,A,3353.7555,N,09832.0285,W,0.06,165.90,310312,,,D*7F
$GPGGA,225611.000,3353.7555,N,09832.0285,W,2,08,1.4,302.9,M,-23.7,M,0.8,0000*4D
$GPGSA,A,3,03,30,06,31,16,23,32,20,,,,,2.6,1.4,2.2*32
$GPRMC,225611.000,A,3353.7555,N,09832.0285,W,0.07,326.30,310312,,,D*70
$GPGGA,225612.000,3353.7555,N,09832.0285,W,2,08,1.4,303.1,M,-23.7,M,1.8,0000*46
$GPGSA,A,3,03,30,06,31,16,23,32,20,,,,,2.6,1.4,2.2*32
$GPRMC,225612.000,A,3353.7555,N,09832.0285,W,0.13,136.15,310312,,,D*72
$GPGGA,225613.000,3353.7554,N,09832.0284,W,2,08,1.4,303.3,M,-23.7,M,0.8,0000*44
$GPGSA,A,3,03,30,06,31,16,23,32,20,,,,,2.6,1.4,2.2*32
$GPRMC,225613.000,A,3353.7554,N,09832.0284,W,0.21,133.86,310312,,,D*7D
$GPGGA,225614.000,3353.7554,N,09832.0283,W,2,08,1.4,303.5,M,-23.7,M,1.8,0000*43
$GPGSA,A,3,03,30,06,31,16,23,32,20,,,,,2.6,1.4,2.2*32
$GPGSV,3,1,12,16,72,065,29,23,63,329,33,30,44,044,25,20,42,222,26*78
$GPGSV,3,2,12,32,34,189,36,13,31,316,,03,29,139,21,06,29,121,34*74
$GPGSV,3,3,12,07,16,271,18,31,11,068,31,10,07,321,,19,05,165,*70
$GPRMC,225614.000,A,3353.7554,N,09832.0283,W,0.21,131.87,310312,,,D*7E
$GPGGA,225615.000,3353.7554,N,09832.0283,W,2,08,1.4,303.5,M,-23.7,M,0.8,0000*43
$GPGSA,A,3,03,30,06,31,16,23,32,20,,,,,2.6,1.4,2.2*32
$GPRMC,225615.000,A,3353.7554,N,09832.0283,W,0.02,261.82,310312,,,D*7D
$GPGGA,225616.000,3353.7554,N,09832.0283,W,2,08,1.4,303.5,M,-23.7,M,0.8,0000*40
$GPGSA,A,3,03,30,06,31,16,23,32,20,,,,,2.6,1.4,2.2*32
$GPRMC,225616.000,A,3353.7554,N,09832.0283,W,0.04,250.75,310312,,,D*72
$GPGGA,225617.000,3353.7554,N,09832.0284,W,2,08,1.4,303.4,M,-23.7,M,0.8,0000*47
$GPGSA,A,3,03,30,06,31,16,23,32,20,,,,,2.6,1.4,2.2*32
$GPRMC,225617.000,A,3353.7554,N,09832.0284,W,0.10,288.67,310312,,,D*77
$GPGGA,225618.000,3353.7554,N,09832.0284,W,2,08,1.4,303.3,M,-23.7,M,1.8,0000*4E
$GPGSA,A,3,03,30,06,31,16,23,32,20,,,,,2.6,1.4,2.2*32
$GPRMC,225618.000,A,3353.7554,N,09832.0284,W,0.16,282.05,310312,,,D*70
$GPGGA,225619.000,3353.7554,N,09832.0284,W,2,08,1.4,303.3,M,-23.7,M,2.8,0000*4C
$GPGSA,A,3,03,30,06,31,16,23,32,20,,,,,2.6,1.4,2.2*32
$GPGSV,3,1,12,16,72,065,29,23,63,329,33,30,44,044,25,20,42,222,25*7B
$GPGSV,3,2,12,32,34,189,36,13,31,316,,03,29,139,20,06,29,121,34*75
$GPGSV,3,3,12,07,16,271,18,31,11,068,31,10,07,321,,19,05,165,*70
$GPRMC,225619.000,A,3353.7554,N,09832.0284,W,0.10,346.19,310312,,,D*73
$GPGGA,225620.000,3353.7554,N,09832.0284,W,2,08,1.4,303.2,M,-23.7,M,3.8,0000*46
$GPGSA,A,3,03,30,06,31,16,23,32,20,,,,,2.6,1.4,2.2*32
$GPRMC,225620.000,A,3353.7554,N,09832.0284,W,0.09,100.47,310312,,,D*7A
$GPGGA,225621.000,3353.7554,N,09832.0284,W,2,08,1.4,303.3,M,-23.7,M,0.8,0000*45
$GPGSA,A,3,03,30,06,31,16,23,32,20,,,,,2.6,1.4,2.2*32
$GPRMC,225621.000,A,3353.7554,N,09832.0284,W,0.10,92.95,310312,,,D*46
$GPGGA,225622.000,3353.7553,N,09832.0283,W,2,08,1.4,303.5,M,-23.7,M,0.8,0000*40
$GPGSA,A,3,03,30,06,31,16,23,32,20,,,,,2.6,1.4,2.2*32
$GPRMC,225622.000,A,3353.7553,N,09832.0283,W,0.21,104.50,310312,,,D*70
$GPGGA,225623.000,3353.7553,N,09832.0282,W,2,08,1.4,303.6,M,-23.7,M,0.8,0000*43
$GPGSA,A,3,03,30,06,31,16,23,32,20,,,,,2.6,1.4,2.2*32
$GPRMC,225623.000,A,3353.7553,N,09832.0282,W,0.13,49.00,310312,,,D*4C
$GPGGA,225624.000,3353.7553,N,09832.0282,W,2,08,1.4,303.7,M,-23.7,M,1.8,0000*44
$GPGSA,A,3,03,30,06,31,16,23,32,20,,,,,2.6,1.4,2.2*32
$GPGSV,3,1,12,16,72,065,28,23,63,329,33,30,44,044,25,20,42,222,14*78
$GPGSV,3,2,12,32,34,189,35,13,31,316,,03,29,139,19,06,29,121,34*7C
$GPGSV,3,3,12,07,16,271,18,31,11,068,30,10,07,321,,19,05,165,*71
$GPRMC,225624.000,A,3353.7553,N,09832.0282,W,0.21,91.24,310312,,,D*49
$GPGGA,225625.000,3353.7553,N,09832.0281,W,2,07,1.6,303.8,M,-23.7,M,0.8,0000*45
$GPGSA,A,3,03,30,06,31,16,23,32,,,,,,2.9,1.6,2.4*3B
$GPRMC,225625.000,A,3353.7553,N,09832.0281,W,0.10,126.39,310312,,,D*78
$GPGGA,225626.000,3353.7553,N,09832.0281,W,2,07,1.6,303.8,M,-23.7,M,1.8,0000*47
$GPGSA,A,3,03,30,06,31,16,23,32,,,,,,2.9,1.6,2.4*3B
$GPRMC,225626.000,A,3353.7553,N,09832.0281,W,0.05,345.50,310312,,,D*77
$GPGGA,225627.000,3353.7553,N,09832.0281,W,2,07,1.6,303.8,M,-23.7,M,0.8,0000*47
$GPGSA,A,3,03,30,06,31,16,23,32,,,,,,2.9,1.6,2.4*3B
$GPRMC,225627.000,A,3353.7553,N,09832.0281,W,0.10,324.99,310312,,,D*70
$GPGGA,225628.000,3353.7553,N,09832.0281,W,2,07,1.6,303.7,M,-23.7,M,0.8,0000*47
$GPGSA,A,3,03,30,06,31,16,23,32,,,,,,2.9,1.6,2.4*3B
$GPRMC,225628.000,A,3353.7553,N,09832.0281,W,0.06,287.44,310312,,,D*70
$GPGGA,225629.000,3353.7553,N,09832.0282,W,2,07,1.6,303.6,M,-23.7,M,0.8,0000*44
$GPGSA,A,3,03,30,06,31,16,23,32,,,,,,2.9,1.6,2.4*3B
$GPGSV,3,1,12,16,72,065,28,23,63,329,32,30,44,044,27,20,42,222,*7E
$GPGSV,3,2,12,32,34,189,35,13,31,316,,03,29,139,18,06,29,121,34*7D
$GPGSV,3,3,12,07,16,271,18,31,11,068,30,10,07,321,,19,05,165,*71
$GPRMC,225629.000,A,3353.7553,N,09832.0282,W,0.12,157.55,310312,,,D*79
$GPGGA,225630.000,3353.7553,N,09832.0282,W,2,08,1.4,303.6,M,-23.7,M,0.8,0000*41
$GPGSA,A,3,03,30,06,31,16,23,32,20,,,,,2.6,1.4,2.2*32
$GPRMC,225630.000,A,3353.7553,N,09832.0282,W,0.06,26.70,310312,,,D*44
$GPGGA,225631.000,3353.7554,N,09832.0281,W,2,08,1.4,303.3,M,-23.7,M,1.8,0000*40
$GPGSA,A,3,03,30,06,31,16,23,32,20,,,,,2.6,1.4,2.2*32
$GPRMC,225631.000,A,3353.7554,N,09832.0281,W,0.20,289.16,310312,,,D*72
$GPGGA,225632.000,3353.7555,N,09832.0281,W,2,08,1.4,303.1,M,-23.7,M,2.8,0000*43
$GPGSA,A,3,03,30,06,31,16,23,32,20,,,,,2.6,1.4,2.2*32
$GPRMC,225632.000,A,3353.7555,N,09832.0281,W,0.17,249.97,310312,,,D*71
$GPGGA,225633.000,3353.7556,N,09832.0281,W,2,08,1.4,303.1,M,-23.7,M,0.8,0000*43
$GPGSA,A,3,03,30,06,31,16,23,32,20,,,,,2.6,1.4,2.2*32
$GPRMC,225633.000,A,3353.7556,N,09832.0281,W,0.05,1.38,310312,,,D*7B
