$GPGGA,021328.000,3353.7446,N,09832.0270,W,1,08,1.0,308.2,M,-23.7,M,18.8,0000*72
$GPGSA,A,3,13,11,07,28,19,23,08,03,,,,,2.0,1.0,1.7*3A
$GPRMC,021328.000,A,3353.7446,N,09832.0270,W,0.10,260.33,020412,,,A*74
$GPGGA,021329.000,3353.7445,N,09832.0270,W,1,08,1.0,308.1,M,-23.7,M,18.8,0000*73
$GPGSA,A,3,13,11,07,28,19,23,08,03,,,,,2.0,1.0,1.7*3A
$GPRMC,021329.000,A,3353.7445,N,09832.0270,W,0.17,92.24,020412,,,A*48
$GPGGA,021330.000,3353.7445,N,09832.0269,W,1,08,1.0,308.0,M,-23.7,M,18.8,0000*72
$GPGSA,A,3,13,11,07,28,19,23,08,03,,,,,2.0,1.0,1.7*3A
$GPRMC,021330.000,A,3353.7445,N,09832.0269,W,0.28,94.00,020412,,,A*44
$GPGGA,021331.000,3353.7445,N,09832.0268,W,1,08,1.0,308.0,M,-23.7,M,18.8,0000*72
$GPGSA,A,3,13,11,07,28,19,23,08,03,,,,,2.0,1.0,1.7*3A
$GPRMC,021331.000,A,3353.7445,N,09832.0268,W,0.34,98.75,020412,,,A*47
$GPGGA,021332.000,3353.7445,N,09832.0267,W,1,08,1.0,308.0,M,-23.7,M,18.8,0000*7E
$GPGSA,A,3,13,11,07,28,19,23,08,03,,,,,2.0,1.0,1.7*3A
$GPGSV,3,1,12,07,72,029,33,19,50,061,39,13,45,184,34,08,44,322,33*73
$GPGSV,3,2,12,28,30,266,16,11,30,126,25,03,17,043,26,23,17,168,35*7E
$GPGSV,3,3,12,01,13,139,,17,06,207,16,06,06,040,24,26,06,324,*75
$GPRMC,021332.000,A,3353.7445,N,09832.0267,W,0.37,96.98,020412,,,A*45
$GPGGA,021333.000,3353.7445,N,09832.0267,W,1,08,1.0,308.0,M,-23.7,M,18.8,0000*7F
$GPGSA,A,3,13,11,07,28,19,23,08,03,,,,,2.0,1.0,1.7*3A
$GPRMC,021333.000,A,3353.7445,N,09832.0267,W,0.16,99.94,020412,,,A*44
$GPGGA,021334.000,3353.7445,N,09832.0267,W,1,08,1.0,308.0,M,-23.7,M,18.8,0000*78
$GPGSA,A,3,13,11,07,28,19,23,08,03,,,,,2.0,1.0,1.7*3A
$GPRMC,021334.000,A,3353.7445,N,09832.0267,W,0.08,256.57,020412,,,A*72
$GPGGA,021335.000,3353.7445,N,09832.0268,W,1,08,1.0,307.9,M,-23.7,M,18.8,0000*70
$GPGSA,A,3,13,11,07,28,19,23,08,03,,,,,2.0,1.0,1.7*3A
$GPRMC,021335.000,A,3353.7445,N,09832.0268,W,0.13,269.67,020412,,,A*79
$GPGGA,021336.000,3353.7444,N,09832.0269,W,1,08,1.0,307.9,M,-23.7,M,18.8,0000*73
$GPGSA,A,3,13,11,07,28,19,23,08,03,,,,,2.0,1.0,1.7*3A
$GPRMC,021336.000,A,3353.7444,N,09832.0269,W,0.19,274.25,020412,,,A*7A
$GPGGA,021337.000,3353.7444,N,09832.0269,W,1,08,1.0,307.9,M,-23.7,M,18.8,0000*72
$GPGSA,A,3,13,11,07,28,19,23,08,03,,,,,2.0,1.0,1.7*3A
$GPGSV,3,1,12,07,72,029,33,19,50,061,39,13,45,184,34,08,44,322,33*73
$GPGSV,3,2,12,28,30,266,17,11,30,126,26,03,17,043,26,23,17,168,35*7C
$GPGSV,3,3,12,01,13,139,,17,06,207,15,06,06,040,24,26,06,324,*76
$GPRMC,021337.000,A,3353.7444,N,09832.0269,W,0.10,102.62,020412,,,A*73
$GPGGA,021338.000,3353.7444,N,09832.0268,W,1,08,1.0,307.9,M,-23.7,M,18.8,0000*7C
$GPGSA,A,3,13,11,07,28,19,23,08,03,,,,,2.0,1.0,1.7*3A
$GPRMC,021338.000,A,3353.7444,N,09832.0268,W,0.28,102.88,020412,,,A*72
$GPGGA,021339.000,3353.7444,N,09832.0267,W,1,08,1.0,307.9,M,-23.7,M,18.8,0000*72
$GPGSA,A,3,13,11,07,28,19,23,08,03,,,,,2.0,1.0,1.7*3A
$GPRMC,021339.000,A,3353.7444,N,09832.0267,W,0.30,98.52,020412,,,A*40
$GPGGA,021340.000,3353.7443,N,09832.0267,W,1,08,1.0,308.0,M,-23.7,M,18.8,0000*7D
$GPGSA,A,3,13,11,07,28,19,23,08,03,,,,,2.0,1.0,1.7*3A
$GPRMC,021340.000,A,3353.7443,N,09832.0267,W,0.30,102.14,020412,,,A*79
$GPGGA,021341.000,3353.7443,N,09832.0266,W,1,08,1.0,308.0,M,-23.7,M,18.8,0000*7D
$GPGSA,A,3,13,11,07,28,19,23,08,03,,,,,2.0,1.0,1.7*3A
$GPRMC,021341.000,A,3353.7443,N,09832.0266,W,0.28,99.35,020412,,,A*40
$GPGGA,021342.000,3353.7443,N,09832.0266,W,1,08,1.0,308.1,M,-23.7,M,18.8,0000*7F
$GPGSA,A,3,13,11,07,28,19,23,08,03,,,,,1.9,1.0,1.7*30
$GPGSV,3,1,12,07,72,029,32,19,50,061,39,13,45,184,34,08,44,322,33*72
$GPGSV,3,2,12,28,30,266,21,11,30,126,26,03,17,043,27,23,17,168,35*78
$GPGSV,3,3,12,01,13,139,,17,06,207,16,06,06,040,25,26,06,324,*74
$GPRMC,021342.000,A,3353.7443,N,09832.0266,W,0.07,138.84,020412,,,A*7E
$GPGGA,021343.000,3353.7443,N,09832.0265,W,1,08,1.0,308.1,M,-23.7,M,18.8,0000*7D
$GPGSA,A,3,13,11,07,28,19,23,08,03,,,,,1.9,1.0,1.7*30
$GPRMC,021343.000,A,3353.7443,N,09832.0265,W,0.30,101.85,020412,,,A*73
$GPGGA,021344.000,3353.7442,N,09832.0265,W,1,08,1.0,308.2,M,-23.7,M,18.8,0000*78
$GPGSA,A,3,13,11,07,28,19,23,08,03,,,,,1.9,1.0,1.7*30
$GPRMC,021344.000,A,3353.7442,N,09832.0265,W,0.17,108.54,020412,,,A*75
$GPGGA,021345.000,3353.7442,N,09832.0264,W,1,08,1.0,308.2,M,-23.7,M,18.8,0000*78
$GPGSA,A,3,13,11,07,28,19,23,08,03,,,,,1.9,1.0,1.7*30
$GPRMC,021345.000,A,3353.7442,N,09832.0264,W,0.27,100.60,020412,,,A*79
$GPGGA,021346.000,3353.7442,N,09832.0264,W,1,08,1.0,308.3,M,-23.7,M,18.8,0000*7A
$GPGSA,A,3,13,11,07,28,19,23,08,03,,,,,1.9,1.0,1.7*30
$GPRMC,021346.000,A,3353.7442,N,09832.0264,W,0.13,115.94,020412,,,A*72
$GPGGA,021347.000,3353.7442,N,09832.0263,W,1,08,1.0,308.4,M,-23.7,M,18.8,0000*7B
$GPGSA,A,3,13,11,07,28,19,23,08,03,,,,,1.9,1.0,1.7*30
$GPGSV,3,1,12,07,72,029,32,19,50,061,39,13,45,184,34,08,44,322,33*72
$GPGSV,3,2,12,28,30,266,20,11,30,126,26,03,17,043,27,23,17,168,35*79
$GPGSV,3,3,12,01,13,139,,17,06,207,16,06,06,040,25,26,06,324,*74
$GPRMC,021347.000,A,3353.7442,N,09832.0263,W,0.24,94.67,020412,,,A*44
$GPGGA,021348.000,3353.7442,N,09832.0262,W,1,08,1.0,308.4,M,-23.7,M,18.8,0000*75
$GPGSA,A,3,13,11,07,28,19,23,08,03,,,,,1.9,1.0,1.7*30
$GPRMC,021348.000,A,3353.7442,N,09832.0262,W,0.37,99.31,020412,,,A*46
$GPGGA,021349.000,3353.7441,N,09832.0262,W,1,08,1.0,308.4,M,-23.7,M,18.8,0000*77
$GPGSA,A,3,13,11,07,28,19,23,08,03,,,,,1.9,1.0,1.7*30
$GPRMC,021349.000,A,3353.7441,N,09832.0262,W,0.09,114.40,020412,,,A*7B
$GPGGA,021350.000,3353.7441,N,09832.0262,W,1,08,1.0,308.5,M,-23.7,M,18.8,0000*7E
$GPGSA,A,3,13,11,07,28,19,23,08,03,,,,,1.9,1.0,1.7*30
$GPRMC,021350.000,A,3353.7441,N,09832.0262,W,0.21,104.17,020412,,,A*7A
$GPGGA,021351.000,3353.7441,N,09832.0261,W,1,08,1.0,308.5,M,-23.7,M,18.8,0000*7C
$GPGSA,A,3,13,11,07,28,19,23,08,03,,,,,1.9,1.0,1.7*30
$GPRMC,021351.000,A,3353.7441,N,09832.0261,W,0.26,101.83,020412,,,A*77
$GPGGA,021352.000,3353.7441,N,09832.0262,W,1,08,1.0,308.5,M,-23.7,M,18.8,0000*7C
$GPGSA,A,3,13,11,07,28,19,23,08,03,,,,,1.9,1.0,1.7*30
$GPGSV,3,1,12,07,72,029,32,19,50,061,39,13,45,184,34,08,44,322,33*72
$GPGSV,3,2,12,28,30,266,20,11,30,126,26,03,17,043,26,23,17,168,35*78
$GPGSV,3,3,12,01,13,139,,17,06,207,16,06,06,040,25,26,06,324,*74
$GPRMC,021352.000,A,3353.7441,N,09832.0262,W,0.05,194.08,020412,,,A*79
$GPGGA,021353.000,3353.7441,N,09832.0261,W,1,08,1.0,308.6,M,-23.7,M,18.8,0000*7D
$GPGSA,A,3,13,11,07,28,19,23,08,03,,,,,1.9,1.0,1.7*30
$GPRMC,021353.000,A,3353.7441,N,09832.0261,W,0.22,100.50,020412,,,A*7E
$GPGGA,021354.000,3353.7441,N,09832.0262,W,1,08,1.0,308.6,M,-23.7,M,18.8,0000*79
$GPGSA,A,3,13,11,07,28,19,23,08,03,,,,,1.9,1.0,1.7*30
$GPRMC,021354.000,A,3353.7441,N,09832.0262,W,0.04,163.42,020412,,,A*78
$GPGGA,021355.000,3353.7440,N,09832.0262,W,1,08,1.0,308.6,M,-23.7,M,18.8,0000*79
$GPGSA,A,3,13,11,07,28,19,23,08,03,,,,,1.9,1.0,1.7*30
$GPRMC,021355.000,A,3353.7440,N,09832.0262,W,0.12,257.85,020412,,,A*70
$GPGGA,021356.000,3353.7440,N,09832.0263,W,1,08,1.0,308.6,M,-23.7,M,18.8,0000*7B
$GPGSA,A,3,13,11,07,28,19,23,08,03,,,,,1.9,1.0,1.7*30
$GPRMC,021356.000,A,3353.7440,N,09832.0263,W,0.15,267.18,020412,,,A*72
$GPGGA,021357.000,3353.7440,N,09832.0264,W,1,08,1.0,308.5,M,-23.7,M,18.8,0000*7E
$GPGSA,A,3,13,11,07,28,19,23,08,03,,,,,1.9,1.0,1.7*30
$GPGSV,3,1,12,07,72,029,31,19,50,061,39,13,45,184,34,08,44,322,32*70
$GPGSV,3,2,12,28,30,266,19,11,30,126,27,03,17,043,26,23,17,168,34*72
$GPGSV,3,3,12,01,13,139,,17,06,207,16,06,06,040,25,26,06,324,*74
$GPRMC,021357.000,A,3353.7440,N,09832.0264,W,0.03,150.82,020412,,,A*77
$GPGGA,021358.000,3353.7440,N,09832.0264,W,1,08,1.0,308.5,M,-23.7,M,18.8,0000*71
$GPGSA,A,3,13,11,07,28,19,23,08,03,,,,,1.9,1.0,1.7*30
$GPRMC,021358.000,A,3353.7440,N,09832.0264,W,0.13,104.00,020412,,,A*72
$GPGGA,021359.000,3353.7440,N,09832.0264,W,1,08,1.0,308.5,M,-23.7,M,18.8,0000*70
$GPGSA,A,3,13,11,07,28,19,23,08,03,,,,,1.9,1.0,1.7*30
$GPRMC,021359.000,A,3353.7440,N,09832.0264,W,0.05,239.31,020412,,,A*7B
$GPGGA,021400.000,3353.7440,N,09832.0265,W,1,08,1.0,308.5,M,-23.7,M,18.8,0000*7A
$GPGSA,A,3,13,11,07,28,19,23,08,03,,,,,1.9,1.0,1.7*30
$GPRMC,021400.000,A,3353.7440,N,09832.0265,W,0.14,263.46,020412,,,A*7E
$GPGGA,021401.000,3353.7440,N,09832.0265,W,1,08,1.0,308.5,M,-23.7,M,18.8,0000*7B
$GPGSA,A,3,13,11,07,28,19,23,08,03,,,,,1.9,1.0,1.7*30
$GPRMC,021401.000,A,3353.7440,N,09832.0265,W,0.19,101.81,020412,,,A*7E
$GPGGA,021402.000,3353.7440,N,09832.0264,W,1,08,1.0,308.5,M,-23.7,M,18.8,0000*79
$GPGSA,A,3,13,11,07,28,19,23,08,03,,,,,1.9,1.0,1.7*30
$GPGSV,3,1,12,07,72,029,31,19,50,061,39,13,45,184,34,08,44,322,32*70
$GPGSV,3,2,12,28,30,266,18,11,30,126,27,03,17,043,25,23,17,168,34*70
$GPGSV,3,3,12,01,13,139,,17,06,207,16,06,06,040,25,26,06,324,*74
$GPRMC,021402.000,A,3353.7440,N,09832.0264,W,0.33,97.59,020412,,,A*4F
$GPGGA,021403.000,3353.7440,N,09832.0263,W,1,09,0.9,308.6,M,-23.7,M,18.8,0000*75
$GPGSA,A,3,13,11,07,28,01,19,23,08,03,,,,1.9,0.9,1.6*38
$GPRMC,021403.000,A,3353.7440,N,09832.0263,W,0.29,88.56,020412,,,A*43
$GPGGA,021404.000,3353.7440,N,09832.0263,W,1,09,0.9,308.7,M,-23.7,M,18.8,0000*73
$GPGSA,A,3,13,11,07,28,01,19,23,08,03,,,,1.9,0.9,1.6*38
$GPRMC,021404.000,A,3353.7440,N,09832.0263,W,0.24,83.38,020412,,,A*4A
$GPGGA,021405.000,3353.7440,N,09832.0262,W,1,09,0.9,308.7,M,-23.7,M,18.8,0000*73
$GPGSA,A,3,13,11,07,28,01,19,23,08,03,,,,1.9,0.9,1.6*38
$GPRMC,021405.000,A,3353.7440,N,09832.0262,W,0.24,99.66,020412,,,A*4A
$GPGGA,021406.000,3353.7439,N,09832.0262,W,1,09,0.9,308.8,M,-23.7,M,18.8,0000*71
$GPGSA,A,3,13,11,07,28,01,19,23,08,03,,,,1.9,0.9,1.6*38
$GPRMC,021406.000,A,3353.7439,N,09832.0262,W,0.36,111.41,020412,,,A*70
$GPGGA,021407.000,3353.7439,N,09832.0260,W,1,09,0.9,308.9,M,-23.7,M,18.8,0000*73
$GPGSA,A,3,13,11,07,28,01,19,23,08,03,,,,1.9,0.9,1.6*38
$GPGSV,3,1,12,07,72,029,30,19,50,061,39,13,45,184,34,08,44,322,32*71
$GPGSV,3,2,12,28,30,266,17,11,30,126,24,03,17,043,25,23,17,168,34*7C
$GPGSV,3,3,12,01,13,139,16,17,06,207,16,06,06,040,25,26,06,324,*73
$GPRMC,021407.000,A,3353.7439,N,09832.0260,W,0.46,109.35,020412,,,A*7E
$GPGGA,021408.000,3353.7438,N,09832.0259,W,1,09,0.9,308.9,M,-23.7,M,18.8,0000*77
$GPGSA,A,3,13,11,07,28,01,19,23,08,03,,,,1.9,0.9,1.6*38
$GPRMC,021408.000,A,3353.7438,N,09832.0259,W,0.57,108.75,020412,,,A*7F
$GPGGA,021409.000,3353.7438,N,09832.0258,W,1,09,0.9,308.9,M,-23.7,M,18.8,0000*77
$GPGSA,A,3,13,11,07,28,01,19,23,08,03,,,,1.9,0.9,1.6*38
$GPRMC,021409.000,A,3353.7438,N,09832.0258,W,0.55,109.79,020412,,,A*70
$GPGGA,021410.000,3353.7437,N,09832.0256,W,1,09,0.9,308.9,M,-23.7,M,18.8,0000*7E
$GPGSA,A,3,13,11,07,28,01,19,23,08,03,,,,1.9,0.9,1.6*38
$GPRMC,021410.000,A,3353.7437,N,09832.0256,W,0.53,99.13,020412,,,A*4B
$GPGGA,021411.000,3353.7437,N,09832.0256,W,1,09,0.9,308.9,M,-23.7,M,18.8,0000*7F
$GPGSA,A,3,13,11,07,28,01,19,23,08,03,,,,1.9,0.9,1.6*38
$GPRMC,021411.000,A,3353.7437,N,09832.0256,W,0.45,110.07,020412,,,A*78
$GPGGA,021412.000,3353.7437,N,09832.0255,W,1,09,0.9,309.0,M,-23.7,M,18.8,0000*77
$GPGSA,A,3,13,11,07,28,01,19,23,08,03,,,,1.9,0.9,1.6*38
$GPGSV,3,1,12,07,72,029,30,19,50,061,39,13,45,184,34,08,44,322,31*72
$GPGSV,3,2,12,28,30,266,16,11,30,126,23,03,17,043,25,23,17,168,35*7B
$GPGSV,3,3,12,01,13,139,17,17,06,207,18,06,06,040,25,26,06,324,*7C
$GPRMC,021412.000,A,3353.7437,N,09832.0255,W,0.29,83.15,020412,,,A*4A
$GPGGA,021413.000,3353.7437,N,09832.0255,W,1,09,0.9,309.0,M,-23.7,M,18.8,0000*76
$GPGSA,A,3,13,11,07,28,01,19,23,08,03,,,,1.9,0.9,1.6*38
$GPRMC,021413.000,A,3353.7437,N,09832.0255,W,0.26,79.75,020412,,,A*47
$GPGGA,021414.000,3353.7437,N,09832.0254,W,1,09,0.9,309.1,M,-23.7,M,18.8,0000*71
$GPGSA,A,3,13,11,07,28,01,19,23,08,03,,,,1.9,0.9,1.6*38
$GPRMC,021414.000,A,3353.7437,N,09832.0254,W,0.23,79.97,020412,,,A*48
$GPGGA,021415.000,3353.7437,N,09832.0255,W,1,09,0.9,309.2,M,-23.7,M,18.8,0000*72
$GPGSA,A,3,13,11,07,28,01,19,23,08,03,,,,1.8,0.9,1.6*39
$GPRMC,021415.000,A,3353.7437,N,09832.0255,W,0.10,101.90,020412,,,A*71
$GPGGA,021416.000,3353.7437,N,09832.0255,W,1,09,0.9,309.2,M,-23.7,M,18.8,0000*71
$GPGSA,A,3,13,11,07,28,01,19,23,08,03,,,,1.8,0.9,1.6*39
$GPRMC,021416.000,A,3353.7437,N,09832.0255,W,0.06,257.22,020412,,,A*7C
$GPGGA,021417.000,3353.7437,N,09832.0256,W,1,09,0.9,309.3,M,-23.7,M,18.8,0000*72
$GPGSA,A,3,13,11,07,28,01,19,23,08,03,,,,1.8,0.9,1.6*39
$GPGSV,3,1,12,07,72,029,31,19,50,061,39,13,45,184,34,08,44,322,30*72
$GPGSV,3,2,12,28,30,266,16,11,30,126,23,03,17,043,25,23,17,168,35*7B
$GPGSV,3,3,12,01,13,139,17,17,06,207,18,06,06,040,25,26,06,324,*7C
$GPRMC,021417.000,A,3353.7437,N,09832.0256,W,0.15,98.18,020412,,,A*44
$GPGGA,021418.000,3353.7437,N,09832.0255,W,1,09,0.9,309.3,M,-23.7,M,18.8,0000*7E
$GPGSA,A,3,13,11,07,28,01,19,23,08,03,,,,1.8,0.9,1.6*39
$GPRMC,021418.000,A,3353.7437,N,09832.0255,W,0.24,86.58,020412,,,A*41
$GPGGA,021419.000,3353.7437,N,09832.0255,W,1,09,0.9,309.4,M,-23.7,M,18.8,0000*78
$GPGSA,A,3,13,11,07,28,01,19,23,08,03,,,,1.8,0.9,1.6*39
$GPRMC,021419.000,A,3353.7437,N,09832.0255,W,0.24,75.37,020412,,,A*45
$GPGGA,021420.000,3353.7437,N,09832.0256,W,1,09,0.9,309.4,M,-23.7,M,18.8,0000*71
$GPGSA,A,3,13,11,07,28,01,19,23,08,03,,,,1.8,0.9,1.6*39
$GPRMC,021420.000,A,3353.7437,N,09832.0256,W,0.07,59.03,020412,,,A*44
$GPGGA,021421.000,3353.7437,N,09832.0256,W,1,09,0.9,309.4,M,-23.7,M,18.8,0000*70
$GPGSA,A,3,13,11,07,28,01,19,23,08,03,,,,1.8,0.9,1.6*39
$GPRMC,021421.000,A,3353.7437,N,09832.0256,W,0.15,116.25,020412,,,A*78
$GPGGA,021422.000,3353.7437,N,09832.0257,W,1,09,0.9,309.4,M,-23.7,M,18.8,0000*72
$GPGSA,A,3,13,11,07,28,01,19,23,08,03,,,,1.8,0.9,1.6*39
$GPGSV,3,1,12,07,72,033,31,19,49,059,39,08,45,323,30,13,43,184,35*7D
$GPGSV,3,2,12,28,31,268,18,11,31,125,23,03,16,043,25,23,15,168,34*7A
$GPGSV,3,3,12,01,13,138,17,17,08,207,18,26,07,324,,06,05,040,25*71
$GPRMC,021422.000,A,3353.7437,N,09832.0257,W,0.07,154.09,020412,,,A*71
$GPGGA,021423.000,3353.7437,N,09832.0257,W,1,09,0.9,309.4,M,-23.7,M,18.8,0000*73
$GPGSA,A,3,13,11,07,28,01,19,23,08,03,,,,1.8,0.9,1.6*39
$GPRMC,021423.000,A,3353.7437,N,09832.0257,W,0.26,133.00,020412,,,A*7B
$GPGGA,021424.000,3353.7436,N,09832.0256,W,1,09,0.9,309.3,M,-23.7,M,18.8,0000*73
$GPGSA,A,3,13,11,07,28,01,19,23,08,03,,,,1.8,0.9,1.6*39
$GPRMC,021424.000,A,3353.7436,N,09832.0256,W,0.47,117.97,020412,,,A*73
$GPGGA,021425.000,3353.7436,N,09832.0256,W,1,09,0.9,309.2,M,-23.7,M,18.8,0000*73
$GPGSA,A,3,13,11,07,28,01,19,23,08,03,,,,1.8,0.9,1.6*39
$GPRMC,021425.000,A,3353.7436,N,09832.0256,W,0.31,118.27,020412,,,A*77
$GPGGA,021426.000,3353.7435,N,09832.0256,W,1,09,0.9,309.0,M,-23.7,M,18.8,0000*71
$GPGSA,A,3,13,11,07,28,01,19,23,08,03,,,,1.8,0.9,1.6*39
$GPRMC,021426.000,A,3353.7435,N,09832.0256,W,0.32,121.82,020412,,,A*71
$GPGGA,021427.000,3353.7435,N,09832.0255,W,1,09,0.9,308.9,M,-23.7,M,18.8,0000*7B
$GPGSA,A,3,13,11,07,28,01,19,23,08,03,,,,1.8,0.9,1.6*39
$GPGSV,3,1,12,07,72,033,31,19,49,059,38,08,45,323,29,13,43,184,35*74
$GPGSV,3,2,12,28,31,268,20,11,31,125,22,03,16,043,25,23,15,168,34*70
$GPGSV,3,3,12,01,13,138,16,17,08,207,17,26,07,324,,06,05,040,24*7E
$GPRMC,021427.000,A,3353.7435,N,09832.0255,W,0.34,120.26,020412,,,A*7A
$GPGGA,021428.000,3353.7435,N,09832.0255,W,1,09,0.9,308.7,M,-23.7,M,18.8,0000*7A
$GPGSA,A,3,13,11,07,28,01,19,23,08,03,,,,1.8,0.9,1.6*39
$GPRMC,021428.000,A,3353.7435,N,09832.0255,W,0.34,113.80,020412,,,A*79
$GPGGA,021429.000,3353.7434,N,09832.0255,W,1,09,0.9,308.6,M,-23.7,M,18.8,0000*7B
$GPGSA,A,3,13,11,07,28,01,19,23,08,03,,,,1.8,0.9,1.6*39
$GPRMC,021429.000,A,3353.7434,N,09832.0255,W,0.17,126.35,020412,,,A*70
$GPGGA,021430.000,3353.7434,N,09832.0254,W,1,09,0.9,308.4,M,-23.7,M,18.8,0000*70
$GPGSA,A,3,13,11,07,28,01,19,23,08,03,,,,1.8,0.9,1.6*39
$GPRMC,021430.000,A,3353.7434,N,09832.0254,W,0.47,110.96,020412,,,A*70
$GPGGA,021431.000,3353.7434,N,09832.0254,W,1,09,0.9,308.2,M,-23.7,M,18.8,0000*77
$GPGSA,A,3,13,11,07,28,01,19,23,08,03,,,,1.8,0.9,1.6*39
$GPRMC,021431.000,A,3353.7434,N,09832.0254,W,0.30,123.61,020412,,,A*79
$GPGGA,021432.000,3353.7434,N,09832.0254,W,1,09,0.9,308.1,M,-23.7,M,18.8,0000*77
$GPGSA,A,3,13,11,07,28,01,19,23,08,03,,,,1.8,0.9,1.6*39
$GPGSV,3,1,12,07,72,033,32,19,49,059,38,08,45,323,28,13,43,184,36*75
$GPGSV,3,2,12,28,31,268,20,11,31,125,22,03,16,043,24,23,15,168,35*70
$GPGSV,3,3,12,01,13,138,15,17,08,207,17,26,07,324,,06,05,040,24*7D
$GPRMC,021432.000,A,3353.7434,N,09832.0254,W,0.17,106.14,020412,,,A*7A
$GPGGA,021433.000,3353.7434,N,09832.0256,W,1,09,0.9,307.9,M,-23.7,M,18.8,0000*73
$GPGSA,A,3,13,11,07,28,01,19,23,08,03,,,,1.8,0.9,1.6*39
$GPRMC,021433.000,A,3353.7434,N,09832.0256,W,0.23,293.01,020412,,,A*75
$GPGGA,021434.000,3353.7434,N,09832.0257,W,1,09,0.9,307.8,M,-23.7,M,18.8,0000*74
$GPGSA,A,3,13,11,07,28,01,19,23,08,03,,,,1.8,0.9,1.6*39
$GPRMC,021434.000,A,3353.7434,N,09832.0257,W,0.23,266.32,020412,,,A*79
$GPGGA,021435.000,3353.7434,N,09832.0258,W,1,09,0.9,307.7,M,-23.7,M,18.8,0000*75
$GPGSA,A,3,13,11,07,28,01,19,23,08,03,,,,1.8,0.9,1.6*39
$GPRMC,021435.000,A,3353.7434,N,09832.0258,W,0.23,264.91,020412,,,A*7C
$GPGGA,021436.000,3353.7434,N,09832.0260,W,1,09,0.9,307.5,M,-23.7,M,18.8,0000*7F
$GPGSA,A,3,13,11,07,28,01,19,23,08,03,,,,1.8,0.9,1.6*39
$GPRMC,021436.000,A,3353.7434,N,09832.0260,W,0.46,294.31,020412,,,A*72
$GPGGA,021437.000,3353.7435,N,09832.0261,W,1,09,0.9,307.4,M,-23.7,M,18.8,0000*7F
$GPGSA,A,3,13,11,07,28,01,19,23,08,03,,,,1.8,0.9,1.6*39
$GPGSV,3,1,12,07,72,033,31,19,49,059,38,08,45,323,27,13,43,184,36*79
$GPGSV,3,2,12,28,31,268,19,11,31,125,22,03,16,043,19,23,15,168,35*74
$GPGSV,3,3,12,01,13,138,14,17,08,207,17,26,07,324,,06,05,040,24*7C
$GPRMC,021437.000,A,3353.7435,N,09832.0261,W,0.22,316.27,020412,,,A*7D
$GPGGA,021438.000,3353.7435,N,09832.0262,W,1,09,0.9,307.2,M,-23.7,M,18.8,0000*75
$GPGSA,A,3,13,11,07,28,01,19,23,08,03,,,,1.8,0.9,1.6*39
$GPRMC,021438.000,A,3353.7435,N,09832.0262,W,0.09,149.97,020412,,,A*7B
$GPGGA,021439.000,3353.7434,N,09832.0262,W,1,09,0.9,307.2,M,-23.7,M,18.8,0000*75
$GPGSA,A,3,13,11,07,28,01,19,23,08,03,,,,1.8,0.9,1.6*39
$GPRMC,021439.000,A,3353.7434,N,09832.0262,W,0.15,246.76,020412,,,A*75
$GPGGA,021440.000,3353.7435,N,09832.0264,W,1,09,0.9,307.0,M,-23.7,M,18.8,0000*7E
$GPGSA,A,3,13,11,07,28,01,19,23,08,03,,,,1.8,0.9,1.6*39
$GPRMC,021440.000,A,3353.7435,N,09832.0264,W,0.26,304.48,020412,,,A*76
$GPGGA,021441.000,3353.7435,N,09832.0265,W,1,09,0.9,306.9,M,-23.7,M,18.8,0000*76
$GPGSA,A,3,13,11,07,28,01,19,23,08,03,,,,1.8,0.9,1.6*39
$GPRMC,021441.000,A,3353.7435,N,09832.0265,W,0.26,308.78,020412,,,A*79
$GPGGA,021442.000,3353.7436,N,09832.0266,W,1,09,0.9,306.8,M,-23.7,M,18.8,0000*74
$GPGSA,A,3,13,11,07,28,01,19,23,08,03,,,,1.8,0.9,1.6*39
$GPGSV,3,1,12,07,72,033,32,19,49,059,38,08,45,323,27,13,43,184,36*7A
$GPGSV,3,2,12,28,31,268,19,11,31,125,23,03,16,043,22,23,15,168,35*7D
$GPGSV,3,3,12,01,13,138,15,17,08,207,18,26,07,324,,06,05,040,24*72
$GPRMC,021442.000,A,3353.7436,N,09832.0266,W,0.07,318.54,020412,,,A*76
$GPGGA,021443.000,3353.7436,N,09832.0267,W,1,09,0.9,306.6,M,-23.7,M,18.8,0000*7A
$GPGSA,A,3,13,11,07,28,01,19,23,08,03,,,,1.8,0.9,1.6*39
$GPRMC,021443.000,A,3353.7436,N,09832.0267,W,0.31,309.48,020412,,,A*7E
$GPGGA,021444.000,3353.7437,N,09832.0267,W,1,09,0.9,306.4,M,-23.7,M,18.8,0000*7E
$GPGSA,A,3,13,11,07,28,01,19,23,08,03,,,,1.8,0.9,1.6*39
$GPRMC,021444.000,A,3353.7437,N,09832.0267,W,0.18,52.48,020412,,,A*4E
$GPGGA,021445.000,3353.7437,N,09832.0267,W,1,09,0.9,306.3,M,-23.7,M,18.8,0000*78
$GPGSA,A,3,13,11,07,28,01,19,23,08,03,,,,1.8,0.9,1.6*39
$GPRMC,021445.000,A,3353.7437,N,09832.0267,W,0.07,69.48,020412,,,A*49
$GPGGA,021446.000,3353.7437,N,09832.0267,W,1,09,0.9,306.2,M,-23.7,M,18.8,0000*7A
$GPGSA,A,3,13,11,07,28,01,19,23,08,03,,,,1.8,0.9,1.6*39
$GPRMC,021446.000,A,3353.7437,N,09832.0267,W,0.18,62.93,020412,,,A*49
$GPGGA,021447.000,3353.7438,N,09832.0268,W,1,09,0.9,306.0,M,-23.7,M,18.8,0000*79
$GPGSA,A,3,13,11,07,28,01,19,23,08,03,,,,1.8,0.9,1.6*39
$GPGSV,3,1,12,07,72,033,32,19,49,059,38,08,45,323,27,13,43,184,37*7B
$GPGSV,3,2,12,28,31,268,20,11,31,125,23,03,16,043,21,23,15,168,35*74
$GPGSV,3,3,12,01,13,138,17,17,08,207,19,26,07,324,,06,05,040,24*71
$GPRMC,021447.000,A,3353.7438,N,09832.0268,W,0.15,326.71,020412,,,A*7A
$GPGGA,021448.000,3353.7438,N,09832.0270,W,1,09,0.9,305.7,M,-23.7,M,18.8,0000*7B
$GPGSA,A,3,13,11,07,28,01,19,23,08,03,,,,1.8,0.9,1.6*39
$GPRMC,021448.000,A,3353.7438,N,09832.0270,W,0.27,295.46,020412,,,A*70
$GPGGA,021449.000,3353.7439,N,09832.0272,W,1,09,0.9,305.5,M,-23.7,M,18.8,0000*7B
$GPGSA,A,3,13,11,07,28,01,19,23,08,03,,,,1.8,0.9,1.6*39
$GPRMC,021449.000,A,3353.7439,N,09832.0272,W,0.47,288.24,020412,,,A*7C
$GPGGA,021450.000,3353.7439,N,09832.0273,W,1,09,0.9,305.4,M,-23.7,M,18.8,0000*73
$GPGSA,A,3,13,11,07,28,01,19,23,08,03,,,,1.8,0.9,1.6*39
$GPRMC,021450.000,A,3353.7439,N,09832.0273,W,0.47,283.79,020412,,,A*76
$GPGGA,021451.000,3353.7440,N,09832.0274,W,1,09,0.9,305.3,M,-23.7,M,18.8,0000*7C
$GPGSA,A,3,13,11,07,28,01,19,23,08,03,,,,1.8,0.9,1.6*39
$GPRMC,021451.000,A,3353.7440,N,09832.0274,W,0.11,330.83,020412,,,A*71
$GPGGA,021452.000,3353.7440,N,09832.0274,W,1,09,0.9,305.2,M,-23.7,M,18.8,0000*7E
$GPGSA,A,3,13,11,07,28,01,19,23,08,03,,,,1.8,0.9,1.6*39
$GPGSV,3,1,12,07,72,033,32,19,49,059,38,08,45,323,27,13,43,184,37*7B
$GPGSV,3,2,12,28,31,268,20,11,31,125,23,03,16,043,21,23,15,168,35*74
$GPGSV,3,3,12,01,13,138,16,17,08,207,19,26,07,324,,06,05,040,24*70
$GPRMC,021452.000,A,3353.7440,N,09832.0274,W,0.18,355.54,020412,,,A*72
$GPGGA,021453.000,3353.7441,N,09832.0275,W,1,09,0.9,305.2,M,-23.7,M,18.8,0000*7F
$GPGSA,A,3,13,11,07,28,01,19,23,08,03,,,,1.8,0.9,1.6*39
$GPRMC,021453.000,A,3353.7441,N,09832.0275,W,0.24,330.86,020412,,,A*70
$GPGGA,021454.000,3353.7441,N,09832.0275,W,1,09,0.9,305.2,M,-23.7,M,18.8,0000*78
$GPGSA,A,3,13,11,07,28,01,19,23,08,03,,,,1.8,0.9,1.6*39
$GPRMC,021454.000,A,3353.7441,N,09832.0275,W,0.17,19.22,020412,,,A*41
$GPGGA,021455.000,3353.7441,N,09832.0274,W,1,09,0.9,305.3,M,-23.7,M,18.8,0000*79
$GPGSA,A,3,13,11,07,28,01,19,23,08,03,,,,1.8,0.9,1.6*39
$GPRMC,021455.000,A,3353.7441,N,09832.0274,W,0.38,75.63,020412,,,A*43
$GPGGA,021456.000,3353.7441,N,09832.0273,W,1,09,0.9,305.4,M,-23.7,M,18.8,0000*7A
$GPGSA,A,3,13,11,07,28,01,19,23,08,03,,,,1.8,0.9,1.6*39
$GPRMC,021456.000,A,3353.7441,N,09832.0273,W,0.27,98.48,020412,,,A*43
$GPGGA,021457.000,3353.7440,N,09832.0273,W,1,09,0.9,305.5,M,-23.7,M,18.8,0000*7B
$GPGSA,A,3,13,11,07,28,01,19,23,08,03,,,,1.8,0.9,1.6*39
$GPGSV,3,1,12,07,72,033,32,19,49,059,38,08,45,323,27,13,43,184,37*7B
$GPGSV,3,2,12,28,31,268,20,11,31,125,24,03,16,043,20,23,15,168,35*72
$GPGSV,3,3,12,01,13,138,15,17,08,207,20,26,07,324,,06,05,040,24*79
$GPRMC,021457.000,A,3353.7440,N,09832.0273,W,0.20,245.16,020412,,,A*7D
$GPGGA,021458.000,3353.7440,N,09832.0273,W,1,09,0.9,305.7,M,-23.7,M,18.8,0000*76
$GPGSA,A,3,13,11,07,28,01,19,23,08,03,,,,1.8,0.9,1.6*39
$GPRMC,021458.000,A,3353.7440,N,09832.0273,W,0.16,143.39,020412,,,A*7F
$GPGGA,021459.000,3353.7439,N,09832.0272,W,1,09,0.9,305.9,M,-23.7,M,18.8,0000*76
$GPGSA,A,3,13,11,07,28,01,19,23,08,03,,,,1.8,0.9,1.6*39
$GPRMC,021459.000,A,3353.7439,N,09832.0272,W,0.42,131.22,020412,,,A*7F
$GPGGA,021500.000,3353.7438,N,09832.0271,W,1,09,0.9,306.3,M,-23.7,M,18.8,0000*70
$GPGSA,A,3,13,11,07,28,01,19,23,08,03,,,,1.8,0.9,1.6*39
$GPRMC,021500.000,A,3353.7438,N,09832.0271,W,0.32,135.38,020412,,,A*78
$GPGGA,021501.000,3353.7437,N,09832.0271,W,1,09,0.9,306.6,M,-23.7,M,18.8,0000*7B
$GPGSA,A,3,13,11,07,28,01,19,23,08,03,,,,1.8,0.9,1.6*39
$GPRMC,021501.000,A,3353.7437,N,09832.0271,W,0.13,174.61,020412,,,A*7C
$GPGGA,021502.000,3353.7437,N,09832.0270,W,1,09,0.9,306.8,M,-23.7,M,18.8,0000*77
$GPGSA,A,3,13,11,07,28,01,19,23,08,03,,,,1.8,0.9,1.6*39
$GPGSV,3,1,12,07,72,033,32,19,49,059,38,08,45,323,26,13,43,184,37*7A
$GPGSV,3,2,12,28,31,268,21,11,31,125,24,03,16,043,19,23,15,168,35*79
$GPGSV,3,3,12,01,13,138,14,17,08,207,20,26,07,324,,06,05,040,23*7F
$GPRMC,021502.000,A,3353.7437,N,09832.0270,W,0.14,127.67,020412,,,A*79
$GPGGA,021503.000,3353.7436,N,09832.0270,W,1,09,0.9,307.0,M,-23.7,M,18.8,0000*7E
$GPGSA,A,3,13,11,07,28,01,19,23,08,03,,,,1.8,0.9,1.6*39
$GPRMC,021503.000,A,3353.7436,N,09832.0270,W,0.06,59.96,020412,,,A*4C
$GPGGA,021504.000,3353.7436,N,09832.0270,W,1,09,0.9,307.1,M,-23.7,M,18.8,0000*78
$GPGSA,A,3,13,11,07,28,01,19,23,08,03,,,,1.8,0.9,1.6*39
$GPRMC,021504.000,A,3353.7436,N,09832.0270,W,0.12,292.17,020412,,,A*72
$GPGGA,021505.000,3353.7436,N,09832.0270,W,1,09,0.9,307.2,M,-23.7,M,18.8,0000*7A
$GPGSA,A,3,13,11,07,28,01,19,23,08,03,,,,1.8,0.9,1.6*39
$GPRMC,021505.000,A,3353.7436,N,09832.0270,W,0.06,31.46,020412,,,A*49
$GPGGA,021506.000,3353.7436,N,09832.0270,W,1,09,0.9,307.3,M,-23.7,M,18.8,0000*78
$GPGSA,A,3,13,11,07,28,01,19,23,08,03,,,,1.8,0.9,1.6*39
$GPRMC,021506.000,A,3353.7436,N,09832.0270,W,0.14,219.89,020412,,,A*72
$GPGGA,021507.000,3353.7435,N,09832.0271,W,1,09,0.9,307.5,M,-23.7,M,18.8,0000*7D
$GPGSA,A,3,13,11,07,28,01,19,23,08,03,,,,1.8,0.9,1.6*39
$GPGSV,3,1,12,07,72,033,33,19,49,059,37,08,45,323,26,13,43,184,37*74
$GPGSV,3,2,12,28,31,268,20,11,31,125,23,03,16,043,18,23,15,168,35*7E
$GPGSV,3,3,12,01,13,138,16,17,08,207,19,26,07,324,,06,05,040,23*77
$GPRMC,021507.000,A,3353.7435,N,09832.0271,W,0.18,222.85,020412,,,A*79
$GPGGA,021508.000,3353.7435,N,09832.0271,W,1,09,0.9,307.7,M,-23.7,M,18.8,0000*70
$GPGSA,A,3,13,11,07,28,01,19,23,08,03,,,,1.8,0.9,1.6*39
$GPRMC,021508.000,A,3353.7435,N,09832.0271,W,0.18,211.23,020412,,,A*7A
$GPGGA,021509.000,3353.7434,N,09832.0271,W,1,09,0.9,307.9,M,-23.7,M,18.8,0000*7E
$GPGSA,A,3,13,11,07,28,01,19,23,08,03,,,,1.8,0.9,1.6*39
$GPRMC,021509.000,A,3353.7434,N,09832.0271,W,0.24,157.68,020412,,,A*7B
$GPGGA,021510.000,3353.7433,N,09832.0271,W,1,09,0.9,308.2,M,-23.7,M,18.8,0000*75
$GPGSA,A,3,13,11,07,28,01,19,23,08,03,,,,1.8,0.9,1.6*39
$GPRMC,021510.000,A,3353.7433,N,09832.0271,W,0.23,198.94,020412,,,A*73
$GPGGA,021511.000,3353.7432,N,09832.0270,W,1,09,0.9,308.6,M,-23.7,M,18.8,0000*70
$GPGSA,A,3,13,11,07,28,01,19,23,08,03,,,,1.8,0.9,1.6*39
$GPRMC,021511.000,A,3353.7432,N,09832.0270,W,0.29,155.34,020412,,,A*73
$GPGGA,021512.000,3353.7432,N,09832.0270,W,1,09,0.9,308.9,M,-23.7,M,18.8,0000*7C
$GPGSA,A,3,13,11,07,28,01,19,23,08,03,,,,1.8,0.9,1.6*39
$GPGSV,3,1,12,07,72,033,32,19,49,059,37,08,45,323,26,13,43,184,37*75
$GPGSV,3,2,12,28,31,268,20,11,31,125,22,03,16,043,18,23,15,168,34*7E
$GPGSV,3,3,12,01,13,138,16,17,08,207,19,26,07,324,,06,05,040,23*77
$GPRMC,021512.000,A,3353.7432,N,09832.0270,W,0.25,158.19,020412,,,A*7E
$GPGGA,021513.000,3353.7432,N,09832.0270,W,1,08,1.0,309.1,M,-23.7,M,18.8,0000*7D
$GPGSA,A,3,13,07,28,01,19,23,08,03,,,,,1.9,1.0,1.6*30
$GPRMC,021513.000,A,3353.7432,N,09832.0270,W,0.16,98.61,020412,,,A*4D
$GPGGA,021514.000,3353.7432,N,09832.0269,W,1,09,0.9,309.3,M,-23.7,M,18.8,0000*79
$GPGSA,A,3,13,11,07,28,01,19,23,08,03,,,,1.8,0.9,1.6*39
$GPRMC,021514.000,A,3353.7432,N,09832.0269,W,0.21,79.06,020412,,,A*48
$GPGGA,021515.000,3353.7433,N,09832.0271,W,1,09,0.9,309.3,M,-23.7,M,18.8,0000*70
$GPGSA,A,3,13,11,07,28,01,19,23,08,03,,,,1.8,0.9,1.6*39
$GPRMC,021515.000,A,3353.7433,N,09832.0271,W,0.43,299.94,020412,,,A*72
$GPGGA,021516.000,3353.7434,N,09832.0273,W,1,09,0.9,309.1,M,-23.7,M,18.8,0000*74
$GPGSA,A,3,13,11,07,28,01,19,23,08,03,,,,1.8,0.9,1.6*39
$GPRMC,021516.000,A,3353.7434,N,09832.0273,W,0.52,285.47,020412,,,A*77
$GPGGA,021517.000,3353.7435,N,09832.0276,W,1,09,0.9,308.8,M,-23.7,M,18.8,0000*79
$GPGSA,A,3,13,11,07,28,01,19,23,08,03,,,,1.8,0.9,1.6*39
$GPGSV,3,1,12,07,72,033,33,19,49,059,38,08,45,323,25,13,43,184,37*78
$GPGSV,3,2,12,28,31,268,18,11,31,125,18,03,16,043,18,23,15,168,34*7C
$GPGSV,3,3,12,01,13,138,17,17,08,207,19,26,07,324,,06,05,040,22*77
$GPRMC,021517.000,A,3353.7435,N,09832.0276,W,0.45,295.00,020412,,,A*76
$GPGGA,021518.000,3353.7436,N,09832.0278,W,1,08,1.2,308.4,M,-23.7,M,18.8,0000*7C
$GPGSA,A,3,13,11,07,01,19,23,08,03,,,,,2.1,1.2,1.7*32
$GPRMC,021518.000,A,3353.7436,N,09832.0278,W,0.36,287.03,020412,,,A*70
$GPGGA,021519.000,3353.7437,N,09832.0281,W,1,08,1.2,308.0,M,-23.7,M,18.8,0000*7E
$GPGSA,A,3,13,11,07,01,19,23,08,03,,,,,2.1,1.2,1.7*32
$GPRMC,021519.000,A,3353.7437,N,09832.0281,W,0.41,274.80,020412,,,A*71
$GPGGA,021520.000,3353.7437,N,09832.0283,W,1,08,1.2,307.5,M,-23.7,M,18.8,0000*7C
$GPGSA,A,3,13,11,07,01,19,23,08,03,,,,,2.1,1.2,1.7*32
$GPRMC,021520.000,A,3353.7437,N,09832.0283,W,0.22,252.50,020412,,,A*75
$GPGGA,021521.000,3353.7438,N,09832.0284,W,1,08,1.2,307.1,M,-23.7,M,18.8,0000*71
$GPGSA,A,3,13,11,07,01,19,23,08,03,,,,,2.1,1.2,1.7*32
$GPRMC,021521.000,A,3353.7438,N,09832.0284,W,0.12,186.92,020412,,,A*7B
$GPGGA,021522.000,3353.7438,N,09832.0286,W,1,08,1.2,306.6,M,-23.7,M,18.8,0000*76
$GPGSA,A,3,13,11,07,01,19,23,08,03,,,,,2.1,1.2,1.7*32
$GPGSV,3,1,12,07,72,033,33,19,49,059,37,08,45,323,24,13,43,184,37*76
$GPGSV,3,2,12,28,31,268,,11,31,125,21,03,16,043,17,23,15,168,34*70
$GPGSV,3,3,12,01,13,138,17,17,08,207,13,26,07,324,,06,05,040,22*7D
$GPRMC,021522.000,A,3353.7438,N,09832.0286,W,0.17,149.96,020412,,,A*78
$GPGGA,021523.000,3353.7440,N,09832.0288,W,1,08,1.2,306.0,M,-23.7,M,18.8,0000*70
$GPGSA,A,3,13,11,07,01,19,23,08,03,,,,,2.1,1.2,1.7*32
$GPRMC,021523.000,A,3353.7440,N,09832.0288,W,0.14,264.24,020412,,,A*7E
$GPGGA,021524.000,3353.7441,N,09832.0291,W,1,08,1.2,305.5,M,-23.7,M,18.8,0000*78
$GPGSA,A,3,13,11,07,01,19,23,08,03,,,,,2.1,1.2,1.7*32
$GPRMC,021524.000,A,3353.7441,N,09832.0291,W,0.38,279.20,020412,,,A*76
$GPGGA,021525.000,3353.7442,N,09832.0293,W,1,08,1.2,304.9,M,-23.7,M,18.8,0000*75
$GPGSA,A,3,13,11,07,01,19,23,08,03,,,,,2.1,1.2,1.7*32
$GPRMC,021525.000,A,3353.7442,N,09832.0293,W,0.22,260.21,020412,,,A*74
$GPGGA,021526.000,3353.7443,N,09832.0297,W,1,08,1.2,304.4,M,-23.7,M,18.8,0000*7E
$GPGSA,A,3,13,11,07,01,19,23,08,03,,,,,2.1,1.2,1.7*32
$GPRMC,021526.000,A,3353.7443,N,09832.0297,W,0.45,284.36,020412,,,A*7F
$GPGGA,021527.000,3353.7446,N,09832.0302,W,1,08,1.2,303.8,M,-23.7,M,18.8,0000*7C
$GPGSA,A,3,13,11,07,01,19,23,08,03,,,,,2.1,1.2,1.7*32
$GPGSV,3,1,12,07,72,033,33,19,49,059,37,08,45,323,24,13,43,184,37*76
$GPGSV,3,2,12,28,31,268,,11,31,125,26,03,16,043,18,23,15,168,34*78
$GPGSV,3,3,12,01,13,138,18,17,08,207,16,26,07,324,,06,05,040,22*77
$GPRMC,021527.000,A,3353.7446,N,09832.0302,W,0.57,309.95,020412,,,A*78
$GPGGA,021528.000,3353.7448,N,09832.0306,W,1,08,1.2,303.1,M,-23.7,M,18.8,0000*70
$GPGSA,A,3,13,11,07,01,19,23,08,03,,,,,2.1,1.2,1.7*32
$GPRMC,021528.000,A,3353.7448,N,09832.0306,W,0.64,315.40,020412,,,A*78
$GPGGA,021529.000,3353.7450,N,09832.0309,W,1,08,1.2,302.6,M,-23.7,M,18.8,0000*71
$GPGSA,A,3,13,11,07,01,19,23,08,03,,,,,2.1,1.2,1.7*32
$GPRMC,021529.000,A,3353.7450,N,09832.0309,W,0.28,358.10,020412,,,A*7B
$GPGGA,021530.000,3353.7452,N,09832.0312,W,1,08,1.2,302.2,M,-23.7,M,18.8,0000*75
$GPGSA,A,3,13,11,07,01,19,23,08,03,,,,,2.1,1.2,1.7*32
$GPRMC,021530.000,A,3353.7452,N,09832.0312,W,0.17,320.25,020412,,,A*7E
$GPGGA,021531.000,3353.7453,N,09832.0315,W,1,08,1.2,301.9,M,-23.7,M,18.8,0000*7A
$GPGSA,A,3,13,11,07,01,19,23,08,03,,,,,2.1,1.2,1.7*32
$GPRMC,021531.000,A,3353.7453,N,09832.0315,W,0.12,312.20,020412,,,A*78
$GPGGA,021532.000,3353.7454,N,09832.0318,W,1,08,1.2,301.7,M,-23.7,M,18.8,0000*7D
$GPGSA,A,3,13,11,07,01,19,23,08,03,,,,,2.1,1.2,1.7*32
$GPGSV,3,1,12,07,72,033,33,19,49,059,37,08,45,323,23,13,43,184,37*71
$GPGSV,3,2,12,28,31,268,,11,31,125,25,03,16,043,24,23,15,168,34*74
$GPGSV,3,3,12,01,13,138,17,17,08,207,17,26,07,324,,06,05,040,22*79
$GPRMC,021532.000,A,3353.7454,N,09832.0318,W,0.08,358.93,020412,,,A*7C
$GPGGA,021533.000,3353.7455,N,09832.0321,W,1,08,1.2,301.6,M,-23.7,M,18.8,0000*76
$GPGSA,A,3,13,11,07,01,19,23,08,03,,,,,2.1,1.2,1.7*32
$GPRMC,021533.000,A,3353.7455,N,09832.0321,W,0.04,106.04,020412,,,A*7D
$GPGGA,021534.000,3353.7456,N,09832.0323,W,1,08,1.2,301.6,M,-23.7,M,18.8,0000*70
$GPGSA,A,3,13,11,07,01,19,23,08,03,,,,,2.1,1.2,1.7*32
$GPRMC,021534.000,A,3353.7456,N,09832.0323,W,0.06,27.99,020412,,,A*4F
$GPGGA,021535.000,3353.7456,N,09832.0325,W,1,08,1.2,301.9,M,-23.7,M,18.8,0000*78
$GPGSA,A,3,13,11,07,01,19,23,08,03,,,,,2.1,1.2,1.7*32
$GPRMC,021535.000,A,3353.7456,N,09832.0325,W,0.12,210.00,020412,,,A*7B
$GPGGA,021536.000,3353.7456,N,09832.0327,W,1,08,1.2,302.3,M,-23.7,M,18.8,0000*70
$GPGSA,A,3,13,11,07,01,19,23,08,03,,,,,2.1,1.2,1.7*32
$GPRMC,021536.000,A,3353.7456,N,09832.0327,W,0.04,285.49,020412,,,A*7C
$GPGGA,021537.000,3353.7456,N,09832.0328,W,1,08,1.2,302.7,M,-23.7,M,18.8,0000*7A
$GPGSA,A,3,13,11,07,01,19,23,08,03,,,,,2.1,1.2,1.7*32
$GPGSV,3,1,12,07,72,033,33,19,49,059,36,08,45,323,24,13,43,184,37*77
$GPGSV,3,2,12,28,31,268,,11,31,125,25,03,16,043,21,23,15,168,34*71
$GPGSV,3,3,12,01,13,138,16,17,08,207,17,26,07,324,,06,05,040,22*78
$GPRMC,021537.000,A,3353.7456,N,09832.0328,W,0.09,322.02,020412,,,A*7C
$GPGGA,021538.000,3353.7456,N,09832.0328,W,1,08,1.2,303.2,M,-23.7,M,18.8,0000*71
$GPGSA,A,3,13,11,07,01,19,23,08,03,,,,,2.1,1.2,1.7*32
$GPRMC,021538.000,A,3353.7456,N,09832.0328,W,0.45,107.63,020412,,,A*79
$GPGGA,021539.000,3353.7455,N,09832.0327,W,1,08,1.2,303.8,M,-23.7,M,18.8,0000*76
$GPGSA,A,3,13,11,07,01,19,23,08,03,,,,,2.1,1.2,1.7*32
$GPRMC,021539.000,A,3353.7455,N,09832.0327,W,0.53,131.26,020412,,,A*77
$GPGGA,021540.000,3353.7453,N,09832.0325,W,1,07,1.5,304.5,M,-23.7,M,18.8,0000*7E
$GPGSA,A,3,13,11,07,01,19,23,08,,,,,,2.9,1.5,2.5*3F
$GPRMC,021540.000,A,3353.7453,N,09832.0325,W,0.67,120.11,020412,,,A*7E
$GPGGA,021541.000,3353.7452,N,09832.0323,W,1,08,1.2,305.3,M,-23.7,M,18.8,0000*77
$GPGSA,A,3,13,11,07,01,19,23,08,03,,,,,2.1,1.2,1.7*32
$GPRMC,021541.000,A,3353.7452,N,09832.0323,W,0.48,137.69,020412,,,A*7C
$GPGGA,021542.000,3353.7450,N,09832.0323,W,1,08,1.2,306.1,M,-23.7,M,18.8,0000*77
$GPGSA,A,3,13,11,07,01,19,23,08,03,,,,,2.1,1.2,1.7*32
$GPGSV,3,1,12,07,72,033,33,19,49,059,36,08,45,323,24,13,43,184,37*77
$GPGSV,3,2,12,28,31,268,,11,31,125,24,03,16,043,16,23,15,168,34*74
$GPGSV,3,3,12,01,13,138,16,17,08,207,16,26,07,324,,06,05,040,21*7A
$GPRMC,021542.000,A,3353.7450,N,09832.0323,W,0.29,179.45,020412,,,A*7E
$GPGGA,021543.000,3353.7449,N,09832.0322,W,1,08,1.2,307.0,M,-23.7,M,18.8,0000*7F
$GPGSA,A,3,13,11,07,01,19,23,08,03,,,,,2.1,1.2,1.7*32
$GPRMC,021543.000,A,3353.7449,N,09832.0322,W,0.28,192.87,020412,,,A*7C
$GPGGA,021544.000,3353.7447,N,09832.0320,W,1,08,1.2,307.8,M,-23.7,M,18.8,0000*7C
$GPGSA,A,3,13,11,07,01,19,23,08,03,,,,,2.1,1.2,1.7*32
$GPRMC,021544.000,A,3353.7447,N,09832.0320,W,0.38,136.80,020412,,,A*7F
$GPGGA,021545.000,3353.7446,N,09832.0318,W,1,08,1.2,308.5,M,-23.7,M,18.8,0000*75
$GPGSA,A,3,13,11,07,01,19,23,08,03,,,,,2.1,1.2,1.7*32
$GPRMC,021545.000,A,3353.7446,N,09832.0318,W,0.18,135.24,020412,,,A*7B
$GPGGA,021546.000,3353.7445,N,09832.0316,W,1,08,1.2,309.2,M,-23.7,M,18.8,0000*7D
$GPGSA,A,3,13,11,07,01,19,23,08,03,,,,,2.1,1.2,1.7*32
$GPRMC,021546.000,A,3353.7445,N,09832.0316,W,0.26,123.12,020412,,,A*7A
$GPGGA,021547.000,3353.7444,N,09832.0314,W,1,08,1.2,309.7,M,-23.7,M,18.8,0000*7A
$GPGSA,A,3,13,11,07,01,19,23,08,03,,,,,2.1,1.2,1.7*32
$GPGSV,3,1,12,07,72,033,33,19,49,059,36,08,45,323,24,13,43,184,37*77
$GPGSV,3,2,12,28,31,268,,11,31,125,24,03,16,043,23,23,15,168,34*72
$GPGSV,3,3,12,01,13,138,17,17,08,207,19,26,07,324,,06,05,040,21*74
$GPRMC,021547.000,A,3353.7444,N,09832.0314,W,0.34,120.44,020412,,,A*7B
$GPGGA,021548.000,3353.7443,N,09832.0312,W,1,08,1.2,310.2,M,-23.7,M,18.8,0000*79
$GPGSA,A,3,13,11,07,01,19,23,08,03,,,,,2.1,1.2,1.7*32
$GPRMC,021548.000,A,3353.7443,N,09832.0312,W,0.11,104.98,020412,,,A*75
$GPGGA,021549.000,3353.7443,N,09832.0311,W,1,08,1.2,310.6,M,-23.7,M,18.8,0000*7F
$GPGSA,A,3,13,11,07,01,19,23,08,03,,,,,2.1,1.2,1.7*32
$GPRMC,021549.000,A,3353.7443,N,09832.0311,W,0.05,303.85,020412,,,A*7B
$GPGGA,021550.000,3353.7442,N,09832.0309,W,1,08,1.2,311.0,M,-23.7,M,18.8,0000*78
$GPGSA,A,3,13,11,07,01,19,23,08,03,,,,,2.1,1.2,1.7*32
$GPRMC,021550.000,A,3353.7442,N,09832.0309,W,0.18,130.52,020412,,,A*7F
$GPGGA,021551.000,3353.7441,N,09832.0308,W,1,08,1.2,311.3,M,-23.7,M,18.8,0000*78
$GPGSA,A,3,13,11,07,01,19,23,08,03,,,,,2.1,1.2,1.7*32
$GPRMC,021551.000,A,3353.7441,N,09832.0308,W,0.09,271.50,020412,,,A*78
$GPGGA,021552.000,3353.7440,N,09832.0307,W,1,08,1.2,311.6,M,-23.7,M,18.8,0000*70
$GPGSA,A,3,13,11,07,01,19,23,08,03,,,,,2.1,1.2,1.7*32
$GPGSV,3,1,12,07,72,033,33,19,49,059,36,08,45,323,25,13,43,184,37*76
$GPGSV,3,2,12,28,31,268,,11,31,125,21,03,16,043,23,23,15,168,34*77
$GPGSV,3,3,12,01,13,138,19,17,08,207,13,26,07,324,,06,05,040,21*70
$GPRMC,021552.000,A,3353.7440,N,09832.0307,W,0.13,181.04,020412,,,A*73
$GPGGA,021553.000,3353.7439,N,09832.0306,W,1,08,1.2,311.9,M,-23.7,M,18.8,0000*71
$GPGSA,A,3,13,11,07,01,19,23,08,03,,,,,2.1,1.2,1.7*32
$GPRMC,021553.000,A,3353.7439,N,09832.0306,W,0.23,231.55,020412,,,A*72
$GPGGA,021554.000,3353.7438,N,09832.0305,W,1,08,1.2,312.2,M,-23.7,M,18.8,0000*7C
$GPGSA,A,3,13,11,07,01,19,23,08,03,,,,,2.1,1.2,1.7*32
$GPRMC,021554.000,A,3353.7438,N,09832.0305,W,0.19,142.15,020412,,,A*7D
$GPGGA,021555.000,3353.7438,N,09832.0303,W,1,08,1.2,312.4,M,-23.7,M,18.8,0000*7D
$GPGSA,A,3,13,11,07,01,19,23,08,03,,,,,2.1,1.2,1.7*32
$GPRMC,021555.000,A,3353.7438,N,09832.0303,W,0.10,109.81,020412,,,A*71
$GPGGA,021556.000,3353.7438,N,09832.0301,W,1,08,1.2,312.6,M,-23.7,M,18.8,0000*7E
$GPGSA,A,3,13,11,07,01,19,23,08,03,,,,,2.1,1.2,1.7*32
$GPRMC,021556.000,A,3353.7438,N,09832.0301,W,0.10,46.50,020412,,,A*46
$GPGGA,021557.000,3353.7437,N,09832.0300,W,1,08,1.2,312.8,M,-23.7,M,18.8,0000*7F
$GPGSA,A,3,13,11,07,01,19,23,08,03,,,,,2.1,1.2,1.7*32
$GPGSV,3,1,12,07,72,033,33,19,49,059,36,08,45,323,26,13,43,184,38*7A
$GPGSV,3,2,12,28,31,268,,11,31,125,21,03,16,043,22,23,15,168,34*76
$GPGSV,3,3,12,01,13,138,19,17,08,207,,26,07,324,,06,05,040,20*73
$GPRMC,021557.000,A,3353.7437,N,09832.0300,W,0.08,330.42,020412,,,A*71
$GPGGA,021558.000,3353.7437,N,09832.0299,W,1,08,1.2,313.0,M,-23.7,M,18.8,0000*78
$GPGSA,A,3,13,11,07,01,19,23,08,03,,,,,2.1,1.2,1.7*32
$GPRMC,021558.000,A,3353.7437,N,09832.0299,W,0.17,248.80,020412,,,A*71
$GPGGA,021559.000,3353.7436,N,09832.0298,W,1,08,1.2,313.2,M,-23.7,M,18.8,0000*7B
$GPGSA,A,3,13,11,07,01,19,23,08,03,,,,,2.1,1.2,1.7*32
$GPRMC,021559.000,A,3353.7436,N,09832.0298,W,0.09,253.66,020412,,,A*7D
$GPGGA,021600.000,3353.7435,N,09832.0296,W,1,08,1.2,313.3,M,-23.7,M,18.8,0000*78
$GPGSA,A,3,13,11,07,01,19,23,08,03,,,,,2.1,1.2,1.7*32
$GPRMC,021600.000,A,3353.7435,N,09832.0296,W,0.39,111.61,020412,,,A*7E
$GPGGA,021601.000,3353.7434,N,09832.0294,W,1,09,0.9,313.5,M,-23.7,M,18.8,0000*77
$GPGSA,A,3,13,11,07,01,19,23,08,03,28,,,,1.8,0.9,1.6*39
$GPRMC,021601.000,A,3353.7434,N,09832.0294,W,0.20,141.61,020412,,,A*71
$GPGGA,021602.000,3353.7433,N,09832.0292,W,1,09,0.9,313.8,M,-23.7,M,18.8,0000*78
$GPGSA,A,3,13,11,07,01,19,23,08,03,28,,,,1.8,0.9,1.6*39
$GPGSV,3,1,12,07,72,033,33,19,49,059,35,08,45,323,27,13,43,184,38*78
$GPGSV,3,2,12,28,31,268,13,11,31,125,23,03,16,043,22,23,15,168,34*76
$GPGSV,3,3,12,01,13,138,18,17,08,207,,26,07,324,,06,05,040,20*72
$GPRMC,021602.000,A,3353.7433,N,09832.0292,W,0.34,151.39,020412,,,A*7A
$GPGGA,021603.000,3353.7431,N,09832.0289,W,1,09,0.9,314.1,M,-23.7,M,18.8,0000*7F
$GPGSA,A,3,13,11,07,01,19,23,08,03,28,,,,1.8,0.9,1.6*39
$GPRMC,021603.000,A,3353.7431,N,09832.0289,W,0.38,133.50,020412,,,A*74
$GPGGA,021604.000,3353.7431,N,09832.0287,W,1,09,0.9,314.4,M,-23.7,M,18.8,0000*73
$GPGSA,A,3,13,11,07,01,19,23,08,03,28,,,,1.8,0.9,1.6*39
$GPRMC,021604.000,A,3353.7431,N,09832.0287,W,0.32,113.49,020412,,,A*7D
$GPGGA,021605.000,3353.7430,N,09832.0286,W,1,09,0.9,314.9,M,-23.7,M,18.8,0000*7F
$GPGSA,A,3,13,11,07,01,19,23,08,03,28,,,,1.8,0.9,1.6*39
$GPRMC,021605.000,A,3353.7430,N,09832.0286,W,0.14,161.05,020412,,,A*75
$GPGGA,021606.000,3353.7429,N,09832.0285,W,1,09,0.9,315.4,M,-23.7,M,18.8,0000*7B
$GPGSA,A,3,13,11,07,01,19,23,08,03,28,,,,1.8,0.9,1.6*39
$GPRMC,021606.000,A,3353.7429,N,09832.0285,W,0.18,143.71,020412,,,A*72
$GPGGA,021607.000,3353.7428,N,09832.0284,W,1,09,0.9,315.9,M,-23.7,M,18.8,0000*77
$GPGSA,A,3,13,11,07,01,19,23,08,03,28,,,,1.8,0.9,1.6*39
$GPGSV,3,1,12,07,72,033,34,19,49,059,35,08,45,323,28,13,43,184,38*70
$GPGSV,3,2,12,28,31,268,21,11,31,125,29,03,16,043,22,23,15,168,34*7D
$GPGSV,3,3,12,01,13,138,17,17,08,207,,26,07,324,,06,05,040,19*77
$GPRMC,021607.000,A,3353.7428,N,09832.0284,W,0.28,120.59,020412,,,A*7F
$GPGGA,021608.000,3353.7428,N,09832.0284,W,1,09,0.9,316.5,M,-23.7,M,18.8,0000*77
$GPGSA,A,3,13,11,07,01,19,23,08,03,28,,,,1.8,0.9,1.6*39
$GPRMC,021608.000,A,3353.7428,N,09832.0284,W,0.10,267.13,020412,,,A*75
$GPGGA,021609.000,3353.7428,N,09832.0283,W,1,09,0.9,317.0,M,-23.7,M,18.8,0000*75
$GPGSA,A,3,13,11,07,01,19,23,08,03,28,,,,1.8,0.9,1.6*39
$GPRMC,021609.000,A,3353.7428,N,09832.0283,W,0.35,106.49,020412,,,A*7F
$GPGGA,021610.000,3353.7427,N,09832.0282,W,1,09,0.9,317.4,M,-23.7,M,18.8,0000*77
$GPGSA,A,3,13,11,07,01,19,23,08,03,28,,,,1.8,0.9,1.6*39
$GPRMC,021610.000,A,3353.7427,N,09832.0282,W,0.63,100.19,020412,,,A*79
$GPGGA,021611.000,3353.7426,N,09832.0281,W,1,09,0.9,318.0,M,-23.7,M,18.8,0000*7F
$GPGSA,A,3,13,11,07,01,19,23,08,03,28,,,,1.8,0.9,1.6*39
$GPRMC,021611.000,A,3353.7426,N,09832.0281,W,0.54,124.16,020412,,,A*77
$GPGGA,021612.000,3353.7425,N,09832.0281,W,1,09,0.9,318.5,M,-23.7,M,18.8,0000*7A
$GPGSA,A,3,13,11,07,01,19,23,08,03,28,,,,1.8,0.9,1.6*39
$GPGSV,3,1,12,07,72,033,33,19,49,059,35,08,45,323,28,13,43,184,38*77
$GPGSV,3,2,12,28,31,268,20,11,31,125,28,03,16,043,22,23,15,168,35*7C
$GPGSV,3,3,12,01,13,138,17,17,08,207,,26,07,324,,06,05,040,19*77
$GPRMC,021612.000,A,3353.7425,N,09832.0281,W,0.35,182.33,020412,,,A*7B
$GPGGA,021613.000,3353.7424,N,09832.0281,W,1,09,0.9,319.1,M,-23.7,M,18.8,0000*7F
$GPGSA,A,3,13,11,07,01,19,23,08,03,28,,,,1.8,0.9,1.6*39
$GPRMC,021613.000,A,3353.7424,N,09832.0281,W,0.14,193.14,020412,,,A*7D
$GPGGA,021614.000,3353.7424,N,09832.0281,W,1,09,0.9,319.5,M,-23.7,M,18.8,0000*7C
$GPGSA,A,3,13,11,07,01,19,23,08,03,28,,,,1.8,0.9,1.6*39
$GPRMC,021614.000,A,3353.7424,N,09832.0281,W,0.30,104.24,020412,,,A*71
$GPGGA,021615.000,3353.7424,N,09832.0279,W,1,09,0.9,319.9,M,-23.7,M,18.8,0000*76
$GPGSA,A,3,13,11,07,01,19,23,08,03,28,,,,1.8,0.9,1.6*39
$GPRMC,021615.000,A,3353.7424,N,09832.0279,W,0.46,95.45,020412,,,A*48
$GPGGA,021616.000,3353.7423,N,09832.0279,W,1,09,0.9,320.2,M,-23.7,M,18.8,0000*73
$GPGSA,A,3,13,11,07,01,19,23,08,03,28,,,,1.8,0.9,1.6*39
$GPRMC,021616.000,A,3353.7423,N,09832.0279,W,0.23,91.58,020412,,,A*47
$GPGGA,021617.000,3353.7423,N,09832.0278,W,1,09,0.9,320.5,M,-23.7,M,18.8,0000*74
$GPGSA,A,3,13,11,07,01,19,23,08,03,28,,,,1.8,0.9,1.6*39
$GPGSV,3,1,12,07,72,033,33,19,49,059,34,08,45,323,28,13,43,184,38*76
$GPGSV,3,2,12,28,31,268,20,11,31,125,28,03,16,043,20,23,15,168,35*7E
$GPGSV,3,3,12,01,13,138,18,17,08,207,,26,07,324,,06,05,040,19*78
$GPRMC,021617.000,A,3353.7423,N,09832.0278,W,0.23,126.86,020412,,,A*79
$GPGGA,021618.000,3353.7422,N,09832.0278,W,1,09,0.9,320.8,M,-23.7,M,18.8,0000*77
$GPGSA,A,3,13,11,07,01,19,23,08,03,28,,,,1.8,0.9,1.6*39
$GPRMC,021618.000,A,3353.7422,N,09832.0278,W,0.06,224.32,020412,,,A*7E
$GPGGA,021619.000,3353.7422,N,09832.0278,W,1,09,0.9,321.0,M,-23.7,M,18.8,0000*7F
$GPGSA,A,3,13,11,07,01,19,23,08,03,28,,,,1.8,0.9,1.6*39
$GPRMC,021619.000,A,3353.7422,N,09832.0278,W,0.17,229.42,020412,,,A*75
$GPGGA,021620.000,3353.7421,N,09832.0278,W,1,09,0.9,321.2,M,-23.7,M,18.8,0000*74
$GPGSA,A,3,13,11,07,01,19,23,08,03,28,,,,1.8,0.9,1.6*39
$GPRMC,021620.000,A,3353.7421,N,09832.0278,W,0.32,230.26,020412,,,A*71
$GPGGA,021621.000,3353.7420,N,09832.0278,W,1,09,0.9,321.4,M,-23.7,M,18.8,0000*72
$GPGSA,A,3,13,11,07,01,19,23,08,03,28,,,,1.8,0.9,1.6*39
$GPRMC,021621.000,A,3353.7420,N,09832.0278,W,0.15,228.43,020412,,,A*7E
$GPGGA,021622.000,3353.7420,N,09832.0278,W,1,09,0.9,321.6,M,-23.7,M,18.8,0000*73
$GPGSA,A,3,13,11,07,01,19,23,08,03,28,,,,1.8,0.9,1.6*39
$GPGSV,3,1,12,07,72,033,33,19,49,059,34,08,45,323,28,13,43,184,38*76
$GPGSV,3,2,12,28,31,268,20,11,31,125,25,03,16,043,21,23,15,168,35*72
$GPGSV,3,3,12,01,13,138,18,17,08,207,,26,07,324,,06,05,040,20*72
$GPRMC,021622.000,A,3353.7420,N,09832.0278,W,0.15,283.62,020412,,,A*7F
$GPGGA,021623.000,3353.7420,N,09832.0277,W,1,08,1.2,321.7,M,-23.7,M,18.8,0000*77
$GPGSA,A,3,13,11,07,01,19,23,08,03,,,,,2.1,1.2,1.7*32
$GPRMC,021623.000,A,3353.7420,N,09832.0277,W,0.04,27.25,020412,,,A*4E
$GPGGA,021624.000,3353.7420,N,09832.0275,W,1,09,0.9,321.8,M,-23.7,M,18.8,0000*76
$GPGSA,A,3,13,11,07,01,19,23,08,03,28,,,,1.8,0.9,1.6*39
$GPRMC,021624.000,A,3353.7420,N,09832.0275,W,0.22,102.86,020412,,,A*70
$GPGGA,021625.000,3353.7419,N,09832.0275,W,1,09,0.9,321.9,M,-23.7,M,18.8,0000*7C
$GPGSA,A,3,13,11,07,01,19,23,08,03,28,,,,1.8,0.9,1.6*39
$GPRMC,021625.000,A,3353.7419,N,09832.0275,W,0.13,233.55,020412,,,A*76
$GPGGA,021626.000,3353.7419,N,09832.0274,W,1,09,0.9,322.0,M,-23.7,M,18.8,0000*74
$GPGSA,A,3,13,11,07,01,19,23,08,03,28,,,,1.8,0.9,1.6*39
$GPRMC,021626.000,A,3353.7419,N,09832.0274,W,0.13,99.62,020412,,,A*42
$GPGGA,021627.000,3353.7418,N,09832.0272,W,1,08,1.0,322.2,M,-23.7,M,18.8,0000*79
$GPGSA,A,3,13,11,07,19,23,08,03,28,,,,,1.9,1.0,1.7*30
$GPGSV,3,1,12,07,72,033,33,19,49,059,34,08,45,323,28,13,43,184,38*76
$GPGSV,3,2,12,28,31,268,17,11,31,125,25,03,16,043,22,23,15,168,35*75
$GPGSV,3,3,12,01,13,138,11,17,08,207,,26,07,324,,06,05,040,20*7B
$GPRMC,021627.000,A,3353.7418,N,09832.0272,W,0.40,110.52,020412,,,A*71
$GPGGA,021628.000,3353.7418,N,09832.0269,W,1,08,1.0,322.3,M,-23.7,M,18.8,0000*7D
$GPGSA,A,3,13,11,07,19,23,08,03,28,,,,,1.9,1.0,1.7*30
$GPRMC,021628.000,A,3353.7418,N,09832.0269,W,0.52,99.76,020412,,,A*41
$GPGGA,021629.000,3353.7417,N,09832.0268,W,1,08,1.0,322.3,M,-23.7,M,18.8,0000*72
$GPGSA,A,3,13,11,07,19,23,08,03,28,,,,,1.9,1.0,1.7*30
$GPRMC,021629.000,A,3353.7417,N,09832.0268,W,0.13,118.41,020412,,,A*77
$GPGGA,021630.000,3353.7417,N,09832.0267,W,1,08,1.0,322.4,M,-23.7,M,18.8,0000*72
$GPGSA,A,3,13,11,07,19,23,08,03,28,,,,,1.9,1.0,1.7*30
$GPRMC,021630.000,A,3353.7417,N,09832.0267,W,0.14,144.42,020412,,,A*7D
$GPGGA,021631.000,3353.7416,N,09832.0265,W,1,08,1.0,322.4,M,-23.7,M,18.8,0000*70
$GPGSA,A,3,13,11,07,19,23,08,03,28,,,,,1.9,1.0,1.7*30
$GPRMC,021631.000,A,3353.7416,N,09832.0265,W,0.31,118.94,020412,,,A*7A
$GPGGA,021632.000,3353.7416,N,09832.0263,W,1,08,1.0,322.4,M,-23.7,M,18.8,0000*75
$GPGSA,A,3,13,11,07,19,23,08,03,28,,,,,1.9,1.0,1.7*30
$GPGSV,3,1,12,07,72,033,33,19,49,059,33,08,45,323,27,13,43,184,38*7E
$GPGSV,3,2,12,28,31,268,15,11,31,125,24,03,16,043,23,23,15,168,34*76
$GPGSV,3,3,12,01,13,138,,17,08,207,,26,07,324,,06,05,040,20*7B
$GPRMC,021632.000,A,3353.7416,N,09832.0263,W,0.23,101.66,020412,,,A*79
$GPGGA,021633.000,3353.7415,N,09832.0262,W,1,08,1.0,322.4,M,-23.7,M,18.8,0000*76
$GPGSA,A,3,13,11,07,19,23,08,03,28,,,,,1.9,1.0,1.7*30
$GPRMC,021633.000,A,3353.7415,N,09832.0262,W,0.19,110.08,020412,,,A*7B
$GPGGA,021634.000,3353.7415,N,09832.0260,W,1,08,1.0,322.4,M,-23.7,M,18.8,0000*73
$GPGSA,A,3,13,11,07,19,23,08,03,28,,,,,1.9,1.0,1.7*30
$GPRMC,021634.000,A,3353.7415,N,09832.0260,W,0.33,113.34,020412,,,A*7A
$GPGGA,021635.000,3353.7414,N,09832.0258,W,1,08,1.0,322.3,M,-23.7,M,18.8,0000*7F
$GPGSA,A,3,13,11,07,19,23,08,03,28,,,,,1.9,1.0,1.7*30
$GPRMC,021635.000,A,3353.7414,N,09832.0258,W,0.48,95.00,020412,,,A*45
$GPGGA,021636.000,3353.7414,N,09832.0255,W,1,08,1.0,322.2,M,-23.7,M,18.8,0000*70
$GPGSA,A,3,13,11,07,19,23,08,03,28,,,,,1.9,1.0,1.7*30
$GPRMC,021636.000,A,3353.7414,N,09832.0255,W,0.55,90.28,020412,,,A*48
$GPGGA,021637.000,3353.7414,N,09832.0253,W,1,08,1.0,322.2,M,-23.7,M,18.8,0000*77
$GPGSA,A,3,13,11,07,19,23,08,03,28,,,,,1.9,1.0,1.7*30
$GPGSV,3,1,12,07,72,033,33,19,49,059,33,08,45,323,27,13,43,184,38*7E
$GPGSV,3,2,12,28,31,268,14,11,31,125,24,03,16,043,24,23,15,168,34*70
$GPGSV,3,3,12,01,13,138,,17,08,207,,26,07,324,,06,05,040,20*7B
$GPRMC,021637.000,A,3353.7414,N,09832.0253,W,0.47,107.61,020412,,,A*7E
$GPGGA,021638.000,3353.7414,N,09832.0251,W,1,08,1.0,322.1,M,-23.7,M,18.8,0000*79
$GPGSA,A,3,13,11,07,19,23,08,03,28,,,,,1.9,1.0,1.7*30
$GPRMC,021638.000,A,3353.7414,N,09832.0251,W,0.43,97.96,020412,,,A*47
$GPGGA,021639.000,3353.7413,N,09832.0250,W,1,08,1.0,322.0,M,-23.7,M,18.8,0000*7F
$GPGSA,A,3,13,11,07,19,23,08,03,28,,,,,1.9,1.0,1.7*30
$GPRMC,021639.000,A,3353.7413,N,09832.0250,W,0.09,110.03,020412,,,A*7C
$GPGGA,021640.000,3353.7413,N,09832.0251,W,1,08,1.0,321.8,M,-23.7,M,18.8,0000*7B
$GPGSA,A,3,13,11,07,19,23,08,03,28,,,,,1.9,1.0,1.7*30
$GPRMC,021640.000,A,3353.7413,N,09832.0251,W,0.18,272.62,020412,,,A*73
$GPGGA,021641.000,3353.7414,N,09832.0251,W,1,08,1.0,321.7,M,-23.7,M,18.8,0000*72
$GPGSA,A,3,13,11,07,19,23,08,03,28,,,,,1.9,1.0,1.7*30
$GPRMC,021641.000,A,3353.7414,N,09832.0251,W,0.16,273.13,020412,,,A*7C
$GPGGA,021642.000,3353.7413,N,09832.0249,W,1,08,1.0,321.5,M,-23.7,M,18.8,0000*7D
$GPGSA,A,3,13,11,07,19,23,08,03,28,,,,,1.9,1.0,1.7*30
$GPGSV,3,1,12,07,72,033,33,19,49,059,32,08,45,323,26,13,43,184,38*7E
$GPGSV,3,2,12,28,31,268,14,11,31,125,24,03,16,043,25,23,15,168,34*71
$GPGSV,3,3,12,01,13,138,,17,08,207,19,26,07,324,,06,05,040,20*73
$GPRMC,021642.000,A,3353.7413,N,09832.0249,W,0.26,116.72,020412,,,A*75
$GPGGA,021643.000,3353.7413,N,09832.0249,W,1,08,1.0,321.4,M,-23.7,M,18.8,0000*7D
$GPGSA,A,3,13,11,07,19,23,08,03,28,,,,,1.9,1.0,1.7*30
$GPRMC,021643.000,A,3353.7413,N,09832.0249,W,0.09,97.72,020412,,,A*41
$GPGGA,021644.000,3353.7413,N,09832.0248,W,1,08,1.0,321.3,M,-23.7,M,18.8,0000*7C
$GPGSA,A,3,13,11,07,19,23,08,03,28,,,,,1.9,1.0,1.7*30
$GPRMC,021644.000,A,3353.7413,N,09832.0248,W,0.18,103.39,020412,,,A*74
$GPGGA,021645.000,3353.7413,N,09832.0248,W,1,08,1.0,321.1,M,-23.7,M,18.8,0000*7F
$GPGSA,A,3,13,11,07,19,23,08,03,28,,,,,1.9,1.0,1.7*30
$GPRMC,021645.000,A,3353.7413,N,09832.0248,W,0.04,272.39,020412,,,A*7D
$GPGGA,021646.000,3353.7413,N,09832.0248,W,1,08,1.0,321.0,M,-23.7,M,18.8,0000*7D
$GPGSA,A,3,13,11,07,19,23,08,03,28,,,,,1.9,1.0,1.7*30
$GPRMC,021646.000,A,3353.7413,N,09832.0248,W,0.20,274.15,020412,,,A*70
$GPGGA,021647.000,3353.7414,N,09832.0249,W,1,09,0.9,320.8,M,-23.7,M,18.8,0000*7A
$GPGSA,A,3,13,11,07,01,19,23,08,03,28,,,,1.8,0.9,1.6*39
$GPGSV,3,1,12,07,72,033,34,19,49,059,32,08,45,323,25,13,43,184,38*7A
$GPGSV,3,2,12,28,31,268,14,11,31,125,25,03,16,043,26,23,15,168,35*72
$GPGSV,3,3,12,01,13,138,14,17,08,207,18,26,07,324,,06,05,040,20*77
$GPRMC,021647.000,A,3353.7414,N,09832.0249,W,0.27,275.29,020412,,,A*7E
$GPGGA,021648.000,3353.7414,N,09832.0250,W,1,09,0.9,320.6,M,-23.7,M,18.8,0000*73
$GPGSA,A,3,13,11,07,01,19,23,08,03,28,,,,1.8,0.9,1.6*39
$GPRMC,021648.000,A,3353.7414,N,09832.0250,W,0.34,276.02,020412,,,A*71
$GPGGA,021649.000,3353.7414,N,09832.0252,W,1,09,0.9,320.3,M,-23.7,M,18.8,0000*75
$GPGSA,A,3,13,11,07,01,19,23,08,03,28,,,,1.8,0.9,1.6*39
$GPRMC,021649.000,A,3353.7414,N,09832.0252,W,0.37,277.70,020412,,,A*75
$GPGGA,021650.000,3353.7415,N,09832.0253,W,1,09,0.9,320.2,M,-23.7,M,18.8,0000*7C
$GPGSA,A,3,13,11,07,01,19,23,08,03,28,,,,1.8,0.9,1.6*39
$GPRMC,021650.000,A,3353.7415,N,09832.0253,W,0.34,285.27,020412,,,A*71
$GPGGA,021651.000,3353.7415,N,09832.0255,W,1,09,0.9,320.0,M,-23.7,M,18.8,0000*79
$GPGSA,A,3,13,11,07,01,19,23,08,03,28,,,,1.8,0.9,1.6*39
$GPRMC,021651.000,A,3353.7415,N,09832.0255,W,0.36,279.03,020412,,,A*71
$GPGGA,021652.000,3353.7416,N,09832.0257,W,1,09,0.9,319.9,M,-23.7,M,18.8,0000*78
$GPGSA,A,3,13,11,07,01,19,23,08,03,28,,,,1.8,0.9,1.6*39
$GPGSV,3,1,12,07,72,033,34,19,49,059,31,08,45,323,25,13,43,184,38*79
$GPGSV,3,2,12,28,31,268,14,11,31,125,25,03,16,043,26,23,15,168,35*72
$GPGSV,3,3,12,01,13,138,12,17,08,207,18,26,07,324,,06,05,040,20*71
$GPRMC,021652.000,A,3353.7416,N,09832.0257,W,0.32,280.83,020412,,,A*79
$GPGGA,021653.000,3353.7416,N,09832.0259,W,1,08,1.0,319.7,M,-23.7,M,18.8,0000*70
$GPGSA,A,3,13,11,07,19,23,08,03,28,,,,,1.9,1.0,1.7*30
$GPRMC,021653.000,A,3353.7416,N,09832.0259,W,0.42,282.69,020412,,,A*77
$GPGGA,021654.000,3353.7417,N,09832.0261,W,1,08,1.0,319.6,M,-23.7,M,18.8,0000*7C
$GPGSA,A,3,13,11,07,19,23,08,03,28,,,,,1.9,1.0,1.7*30
$GPRMC,021654.000,A,3353.7417,N,09832.0261,W,0.18,287.69,020412,,,A*70
$GPGGA,021655.000,3353.7418,N,09832.0263,W,1,08,1.0,319.4,M,-23.7,M,18.8,0000*72
$GPGSA,A,3,13,11,07,19,23,08,03,28,,,,,1.9,1.0,1.7*30
$GPRMC,021655.000,A,3353.7418,N,09832.0263,W,0.15,276.91,020412,,,A*78
$GPGGA,021656.000,3353.7419,N,09832.0265,W,1,08,1.0,319.1,M,-23.7,M,18.8,0000*73
$GPGSA,A,3,13,11,07,19,23,08,03,28,,,,,1.9,1.0,1.7*30
$GPRMC,021656.000,A,3353.7419,N,09832.0265,W,0.44,285.61,020412,,,A*7B
$GPGGA,021657.000,3353.7420,N,09832.0268,W,1,08,1.0,318.9,M,-23.7,M,18.8,0000*7C
$GPGSA,A,3,13,11,07,19,23,08,03,28,,,,,1.9,1.0,1.7*30
$GPGSV,3,1,12,07,72,033,34,19,49,059,31,08,45,323,25,13,43,184,38*79
$GPGSV,3,2,12,28,31,268,12,11,31,125,17,03,16,043,28,23,15,168,35*7B
$GPGSV,3,3,12,01,13,138,,17,08,207,14,26,07,324,,06,05,040,20*7E
$GPRMC,021657.000,A,3353.7420,N,09832.0268,W,0.48,287.17,020412,,,A*72
$GPGGA,021658.000,3353.7420,N,09832.0269,W,1,08,1.0,318.6,M,-23.7,M,18.8,0000*7D
$GPGSA,A,3,13,11,07,19,23,08,03,28,,,,,1.9,1.0,1.7*30
$GPRMC,021658.000,A,3353.7420,N,09832.0269,W,0.08,303.39,020412,,,A*79
$GPGGA,021659.000,3353.7421,N,09832.0271,W,1,08,1.0,318.4,M,-23.7,M,18.8,0000*76
$GPGSA,A,3,13,11,07,19,23,08,03,28,,,,,1.9,1.0,1.7*30
$GPRMC,021659.000,A,3353.7421,N,09832.0271,W,0.22,289.23,020412,,,A*70
$GPGGA,021700.000,3353.7422,N,09832.0273,W,1,08,1.0,318.2,M,-23.7,M,18.8,0000*7C
$GPGSA,A,3,13,11,07,19,23,08,03,28,,,,,1.9,1.0,1.7*30
$GPRMC,021700.000,A,3353.7422,N,09832.0273,W,0.23,292.31,020412,,,A*74
$GPGGA,021701.000,3353.7423,N,09832.0275,W,1,08,1.0,318.0,M,-23.7,M,18.8,0000*78
$GPGSA,A,3,13,11,07,19,23,08,03,28,,,,,1.9,1.0,1.7*30
$GPRMC,021701.000,A,3353.7423,N,09832.0275,W,0.23,290.20,020412,,,A*70
$GPGGA,021702.000,3353.7423,N,09832.0276,W,1,08,1.0,317.8,M,-23.7,M,18.8,0000*7F
$GPGSA,A,3,13,11,07,19,23,08,03,28,,,,,1.9,1.0,1.7*30
$GPGSV,3,1,12,07,72,033,34,19,49,059,31,08,45,323,24,13,43,184,38*78
$GPGSV,3,2,12,28,31,268,13,11,31,125,19,03,16,043,28,23,15,168,35*74
$GPGSV,3,3,12,01,13,138,,17,08,207,15,26,07,324,,06,05,040,19*75
$GPRMC,021702.000,A,3353.7423,N,09832.0276,W,0.05,253.26,020412,,,A*7D
$GPGGA,021703.000,3353.7423,N,09832.0277,W,1,08,1.0,317.6,M,-23.7,M,18.8,0000*71
$GPGSA,A,3,13,11,07,19,23,08,03,28,,,,,1.9,1.0,1.7*30
$GPRMC,021703.000,A,3353.7423,N,09832.0277,W,0.11,254.79,020412,,,A*75
$GPGGA,021704.000,3353.7424,N,09832.0279,W,1,08,1.0,317.5,M,-23.7,M,18.8,0000*7C
$GPGSA,A,3,13,11,07,19,23,08,03,28,,,,,1.9,1.0,1.7*30
$GPRMC,021704.000,A,3353.7424,N,09832.0279,W,0.56,289.35,020412,,,A*70
$GPGGA,021705.000,3353.7425,N,09832.0281,W,1,08,1.0,317.3,M,-23.7,M,18.8,0000*7D
$GPGSA,A,3,13,11,07,19,23,08,03,28,,,,,1.9,1.0,1.7*30
$GPRMC,021705.000,A,3353.7425,N,09832.0281,W,0.58,284.36,020412,,,A*77
$GPGGA,021706.000,3353.7425,N,09832.0282,W,1,08,1.0,317.3,M,-23.7,M,18.8,0000*7D
$GPGSA,A,3,13,11,07,19,23,08,03,28,,,,,1.9,1.0,1.7*30
$GPRMC,021706.000,A,3353.7425,N,09832.0282,W,0.43,284.05,020412,,,A*7D
$GPGGA,021707.000,3353.7425,N,09832.0283,W,1,08,1.0,317.2,M,-23.7,M,18.8,0000*7C
$GPGSA,A,3,13,11,07,19,23,08,03,28,,,,,1.9,1.0,1.7*30
$GPGSV,3,1,12,07,72,033,34,19,49,059,31,08,45,323,24,13,43,184,38*78
$GPGSV,3,2,12,28,31,268,15,11,31,125,21,03,16,043,29,23,15,168,35*78
$GPGSV,3,3,12,01,13,138,,17,08,207,17,26,07,324,,06,05,040,19*77
$GPRMC,021707.000,A,3353.7425,N,09832.0283,W,0.30,285.36,020412,,,A*78
$GPGGA,021708.000,3353.7425,N,09832.0283,W,1,08,1.0,317.2,M,-23.7,M,18.8,0000*73
$GPGSA,A,3,13,11,07,19,23,08,03,28,,,,,1.9,1.0,1.7*30
$GPRMC,021708.000,A,3353.7425,N,09832.0283,W,0.04,308.95,020412,,,A*7D
$GPGGA,021709.000,3353.7425,N,09832.0281,W,1,08,1.0,317.2,M,-23.7,M,18.8,0000*70
$GPGSA,A,3,13,11,07,19,23,08,03,28,,,,,1.9,1.0,1.7*30
$GPRMC,021709.000,A,3353.7425,N,09832.0281,W,0.58,108.98,020412,,,A*78
$GPGGA,021710.000,3353.7424,N,09832.0278,W,1,08,1.0,317.3,M,-23.7,M,18.8,0000*7E
$GPGSA,A,3,13,11,07,19,23,08,03,28,,,,,1.9,1.0,1.7*30
$GPRMC,021710.000,A,3353.7424,N,09832.0278,W,0.66,104.54,020412,,,A*76
$GPGGA,021711.000,3353.7424,N,09832.0276,W,1,08,1.0,317.4,M,-23.7,M,18.8,0000*76
$GPGSA,A,3,13,11,07,19,23,08,03,28,,,,,1.9,1.0,1.7*30
$GPRMC,021711.000,A,3353.7424,N,09832.0276,W,0.51,109.48,020412,,,A*7D
$GPGGA,021712.000,3353.7424,N,09832.0276,W,1,08,1.0,317.4,M,-23.7,M,18.8,0000*75
$GPGSA,A,3,13,11,07,19,23,08,03,28,,,,,1.9,1.0,1.7*30
$GPGSV,3,1,12,07,72,033,33,19,49,059,30,08,45,323,24,13,43,184,38*7E
$GPGSV,3,2,12,28,31,268,15,11,31,125,21,03,16,043,30,23,15,168,35*70
$GPGSV,3,3,12,01,13,138,,17,08,207,16,26,07,324,,06,05,040,19*76
$GPRMC,021712.000,A,3353.7424,N,09832.0276,W,0.05,83.46,020412,,,A*42
$GPGGA,021713.000,3353.7424,N,09832.0278,W,1,08,1.0,317.5,M,-23.7,M,18.8,0000*7B
$GPGSA,A,3,13,11,07,19,23,08,03,28,,,,,1.9,1.0,1.7*30
$GPRMC,021713.000,A,3353.7424,N,09832.0278,W,0.46,293.35,020412,,,A*7D
$GPGGA,021714.000,3353.7425,N,09832.0279,W,1,08,1.0,317.5,M,-23.7,M,18.8,0000*7C
$GPGSA,A,3,13,11,07,19,23,08,03,28,,,,,1.9,1.0,1.7*30
$GPRMC,021714.000,A,3353.7425,N,09832.0279,W,0.49,299.90,020412,,,A*70
$GPGGA,021715.000,3353.7426,N,09832.0280,W,1,09,0.9,317.4,M,-23.7,M,18.8,0000*70
$GPGSA,A,3,13,11,07,01,19,23,08,03,28,,,,1.8,0.9,1.6*39
$GPRMC,021715.000,A,3353.7426,N,09832.0280,W,0.17,303.41,020412,,,A*71
$GPGGA,021716.000,3353.7426,N,09832.0281,W,1,09,0.9,317.4,M,-23.7,M,18.8,0000*72
$GPGSA,A,3,13,11,07,01,19,23,08,03,28,,,,1.8,0.9,1.6*39
$GPRMC,021716.000,A,3353.7426,N,09832.0281,W,0.07,335.65,020412,,,A*71
$GPGGA,021717.000,3353.7427,N,09832.0281,W,1,09,0.9,317.4,M,-23.7,M,18.8,0000*72
$GPGSA,A,3,13,11,07,01,19,23,08,03,28,,,,1.8,0.9,1.6*39
$GPGSV,3,1,12,07,73,038,33,19,49,057,30,08,46,324,22,13,42,184,38*79
$GPGSV,3,2,12,28,32,269,15,11,31,124,17,03,15,043,30,01,14,137,17*7E
$GPGSV,3,3,12,23,14,168,34,17,09,208,11,26,08,323,,06,04,040,19*73
$GPRMC,021717.000,A,3353.7427,N,09832.0281,W,0.08,57.57,020412,,,A*48
$GPGGA,021718.000,3353.7427,N,09832.0280,W,1,09,0.9,317.4,M,-23.7,M,18.8,0000*7C
$GPGSA,A,3,13,11,07,01,19,23,08,03,28,,,,1.8,0.9,1.6*39
$GPRMC,021718.000,A,3353.7427,N,09832.0280,W,0.25,95.23,020412,,,A*44
$GPGGA,021719.000,3353.7427,N,09832.0280,W,1,09,0.9,317.4,M,-23.7,M,18.8,0000*7D
$GPGSA,A,3,13,11,07,01,19,23,08,03,28,,,,1.8,0.9,1.6*39
$GPRMC,021719.000,A,3353.7427,N,09832.0280,W,0.18,70.56,020412,,,A*42
$GPGGA,021720.000,3353.7428,N,09832.0281,W,1,09,0.9,317.4,M,-23.7,M,18.8,0000*79
$GPGSA,A,3,13,11,07,01,19,23,08,03,28,,,,1.8,0.9,1.6*39
$GPRMC,021720.000,A,3353.7428,N,09832.0281,W,0.04,310.36,020412,,,A*78
$GPGGA,021721.000,3353.7428,N,09832.0281,W,1,09,0.9,317.4,M,-23.7,M,18.8,0000*78
$GPGSA,A,3,13,11,07,01,19,23,08,03,28,,,,1.8,0.9,1.6*39
$GPRMC,021721.000,A,3353.7428,N,09832.0281,W,0.16,142.23,020412,,,A*7B
$GPGGA,021722.000,3353.7427,N,09832.0280,W,1,09,0.9,317.3,M,-23.7,M,18.8,0000*72
$GPGSA,A,3,13,11,07,01,19,23,08,03,28,,,,1.8,0.9,1.6*39
$GPGSV,3,1,12,07,73,038,33,19,49,057,29,08,46,324,22,13,42,184,38*71
$GPGSV,3,2,12,28,32,269,15,11,31,124,18,03,15,043,31,01,14,137,15*72
$GPGSV,3,3,12,23,14,168,34,17,09,208,,26,08,323,,06,04,040,19*73
$GPRMC,021722.000,A,3353.7427,N,09832.0280,W,0.40,125.01,020412,,,A*74
$GPGGA,021723.000,3353.7427,N,09832.0279,W,1,09,0.9,317.3,M,-23.7,M,18.8,0000*75
$GPGSA,A,3,13,11,07,01,19,23,08,03,28,,,,1.8,0.9,1.6*39
$GPRMC,021723.000,A,3353.7427,N,09832.0279,W,0.50,109.12,020412,,,A*7E
$GPGGA,021724.000,3353.7426,N,09832.0276,W,1,09,0.9,317.3,M,-23.7,M,18.8,0000*7C
$GPGSA,A,3,13,11,07,01,19,23,08,03,28,,,,1.8,0.9,1.6*39
$GPRMC,021724.000,A,3353.7426,N,09832.0276,W,0.85,108.06,020412,,,A*7B
$GPGGA,021725.000,3353.7426,N,09832.0274,W,1,09,0.9,317.3,M,-23.7,M,18.8,0000*7F
$GPGSA,A,3,13,11,07,01,19,23,08,03,28,,,,1.8,0.9,1.6*39
$GPRMC,021725.000,A,3353.7426,N,09832.0274,W,0.83,108.87,020412,,,A*77
$GPGGA,021726.000,3353.7426,N,09832.0273,W,1,09,0.9,317.4,M,-23.7,M,18.8,0000*7C
$GPGSA,A,3,13,11,07,01,19,23,08,03,28,,,,1.8,0.9,1.6*39
$GPRMC,021726.000,A,3353.7426,N,09832.0273,W,0.33,98.70,020412,,,A*48
$GPGGA,021727.000,3353.7426,N,09832.0272,W,1,09,0.9,317.6,M,-23.7,M,18.8,0000*7E
$GPGSA,A,3,13,11,07,01,19,23,08,03,28,,,,1.8,0.9,1.6*39
