$GPGGA,010423.000,3353.7534,N,09832.0288,W,1,07,2.6,324.5,M,-23.7,M,18.8,0000*7C
$GPGSA,A,3,16,11,23,06,03,13,19,,,,,,3.4,2.6,2.2*38
$GPGSV,3,1,12,13,74,205,35,07,56,333,,19,55,110,40,23,44,167,25*75
$GPGSV,3,2,12,03,39,056,40,06,27,048,33,08,24,303,,10,17,264,*73
$GPGSV,3,3,12,16,14,050,35,28,13,244,,11,12,147,27,05,02,314,*74
$GPRMC,010423.000,A,3353.7534,N,09832.0288,W,0.12,327.30,040412,,,A*7C
$GPGGA,010424.000,3353.7532,N,09832.0289,W,2,07,2.6,322.8,M,-23.7,M,0.8,0000*4D
$GPGSA,A,3,16,11,23,06,03,13,19,,,,,,3.4,2.6,2.2*38
$GPRMC,010424.000,A,3353.7532,N,09832.0289,W,0.09,306.27,040412,,,D*76
$GPGGA,010425.000,3353.7530,N,09832.0290,W,2,07,2.6,321.9,M,-23.7,M,0.8,0000*44
$GPGSA,A,3,16,11,23,06,03,13,19,,,,,,3.4,2.6,2.2*38
$GPRMC,010425.000,A,3353.7530,N,09832.0290,W,0.12,301.29,040412,,,D*7E
$GPGGA,010426.000,3353.7528,N,09832.0290,W,2,08,1.6,321.2,M,-23.7,M,0.8,0000*49
$GPGSA,A,3,16,11,23,06,07,03,13,19,,,,,2.5,1.6,2.0*3E
$GPRMC,010426.000,A,3353.7528,N,09832.0290,W,0.11,112.96,040412,,,D*73
$GPGGA,010427.000,3353.7525,N,09832.0288,W,2,08,1.6,320.5,M,-23.7,M,0.8,0000*4A
$GPGSA,A,3,16,11,23,06,07,03,13,19,,,,,2.5,1.6,2.0*3E
$GPRMC,010427.000,A,3353.7525,N,09832.0288,W,0.31,113.88,040412,,,D*7A
$GPGGA,010428.000,3353.7523,N,09832.0287,W,2,08,1.6,320.0,M,-23.7,M,0.8,0000*49
$GPGSA,A,3,16,11,23,06,07,03,13,19,,,,,2.5,1.6,2.0*3E
$GPGSV,3,1,12,13,74,205,35,07,56,333,19,19,55,110,40,23,44,167,25*7D
$GPGSV,3,2,12,03,39,056,40,06,27,048,33,08,24,303,19,10,17,264,*7B
$GPGSV,3,3,12,16,14,050,34,28,13,244,,11,12,147,27,05,02,314,*75
$GPRMC,010428.000,A,3353.7523,N,09832.0287,W,0.39,111.04,040412,,,D*72
$GPGGA,010429.000,3353.7522,N,09832.0287,W,2,08,1.6,319.4,M,-23.7,M,1.8,0000*46
$GPGSA,A,3,16,11,23,06,07,03,13,19,,,,,2.5,1.6,2.0*3E
$GPRMC,010429.000,A,3353.7522,N,09832.0287,W,0.22,292.70,040412,,,D*73
$GPGGA,010430.000,3353.7521,N,09832.0288,W,2,08,1.6,319.0,M,-23.7,M,0.8,0000*47
$GPGSA,A,3,16,11,23,06,07,03,13,19,,,,,2.5,1.6,2.0*3E
$GPRMC,010430.000,A,3353.7521,N,09832.0288,W,0.29,289.09,040412,,,D*78
$GPGGA,010431.000,3353.7519,N,09832.0288,W,2,08,1.6,318.6,M,-23.7,M,0.8,0000*4A
$GPGSA,A,3,16,11,23,06,07,03,13,19,,,,,2.5,1.6,2.0*3E
$GPRMC,010431.000,A,3353.7519,N,09832.0288,W,0.03,249.60,040412,,,D*79
$GPGGA,010432.000,3353.7518,N,09832.0287,W,2,08,1.6,318.3,M,-23.7,M,0.8,0000*42
$GPGSA,A,3,16,11,23,06,07,03,13,19,,,,,2.5,1.6,2.0*3E
$GPRMC,010432.000,A,3353.7518,N,09832.0287,W,0.08,121.79,040412,,,D*7A
$GPGGA,010433.000,3353.7517,N,09832.0287,W,2,08,1.6,318.0,M,-23.7,M,1.8,0000*4E
$GPGSA,A,3,16,11,23,06,07,03,13,19,,,,,2.5,1.6,2.0*3E
$GPGSV,3,1,12,13,74,205,35,07,56,333,21,19,55,110,40,23,44,167,25*76
$GPGSV,3,2,12,03,39,056,40,06,27,048,33,08,24,303,19,10,17,264,*7B
$GPGSV,3,3,12,16,14,050,34,28,13,244,,11,12,147,27,05,02,314,*75
$GPRMC,010433.000,A,3353.7517,N,09832.0287,W,0.06,108.61,040412,,,D*78
$GPGGA,010434.000,3353.7516,N,09832.0286,W,2,08,1.6,317.7,M,-23.7,M,0.8,0000*40
$GPGSA,A,3,16,11,23,06,07,03,13,19,,,,,2.5,1.6,2.0*3E
$GPRMC,010434.000,A,3353.7516,N,09832.0286,W,0.05,135.08,040412,,,D*7D
$GPGGA,010435.000,3353.7514,N,09832.0286,W,2,08,1.6,317.5,M,-23.7,M,1.8,0000*40
$GPGSA,A,3,16,11,23,06,07,03,13,19,,,,,2.5,1.6,2.0*3E
$GPRMC,010435.000,A,3353.7514,N,09832.0286,W,0.17,97.01,040412,,,D*4D
$GPGGA,010436.000,3353.7513,N,09832.0286,W,2,08,1.6,317.1,M,-23.7,M,0.8,0000*41
$GPGSA,A,3,16,11,23,06,07,03,13,19,,,,,2.5,1.6,2.0*3E
$GPRMC,010436.000,A,3353.7513,N,09832.0286,W,0.20,32.68,040412,,,D*4D
$GPGGA,010437.000,3353.7512,N,09832.0285,W,2,08,1.6,316.8,M,-23.7,M,0.8,0000*4A
$GPGSA,A,3,16,11,23,06,07,03,13,19,,,,,2.5,1.6,2.0*3E
$GPRMC,010437.000,A,3353.7512,N,09832.0285,W,0.14,118.58,040412,,,D*73
$GPGGA,010438.000,3353.7511,N,09832.0285,W,2,08,1.6,316.4,M,-23.7,M,0.8,0000*4A
$GPGSA,A,3,16,11,23,06,07,03,13,19,,,,,2.5,1.6,2.0*3E
$GPGSV,3,1,12,13,74,205,35,07,56,333,23,19,55,110,40,23,44,167,24*75
$GPGSV,3,2,12,03,39,056,40,06,27,048,33,08,24,303,19,10,17,264,*7B
$GPGSV,3,3,12,16,14,050,34,28,13,244,,11,12,147,26,05,02,314,*74
$GPRMC,010438.000,A,3353.7511,N,09832.0285,W,0.19,141.62,040412,,,D*77
$GPGGA,010439.000,3353.7510,N,09832.0286,W,2,08,1.6,316.0,M,-23.7,M,1.8,0000*4C
$GPGSA,A,3,16,11,23,06,07,03,13,19,,,,,2.5,1.6,2.0*3E
$GPRMC,010439.000,A,3353.7510,N,09832.0286,W,0.19,268.13,040412,,,D*7A
$GPGGA,010440.000,3353.7509,N,09832.0287,W,2,08,1.6,315.7,M,-23.7,M,2.8,0000*4C
$GPGSA,A,3,16,11,23,06,07,03,13,19,,,,,2.5,1.6,2.0*3E
$GPRMC,010440.000,A,3353.7509,N,09832.0287,W,0.04,241.38,040412,,,D*73
$GPGGA,010441.000,3353.7508,N,09832.0288,W,2,08,1.6,315.3,M,-23.7,M,3.8,0000*46
$GPGSA,A,3,16,11,23,06,07,03,13,19,,,,,2.5,1.6,2.0*3E
$GPRMC,010441.000,A,3353.7508,N,09832.0288,W,0.22,281.94,040412,,,D*72
$GPGGA,010442.000,3353.7507,N,09832.0288,W,2,08,1.6,315.0,M,-23.7,M,0.8,0000*4A
$GPGSA,A,3,16,11,23,06,07,03,13,19,,,,,2.5,1.6,2.0*3E
$GPRMC,010442.000,A,3353.7507,N,09832.0288,W,0.13,253.52,040412,,,D*79
$GPGGA,010443.000,3353.7505,N,09832.0289,W,2,08,1.6,314.8,M,-23.7,M,0.8,0000*41
$GPGSA,A,3,16,11,23,06,07,03,13,19,,,,,2.5,1.6,2.0*3E
$GPGSV,3,1,12,13,74,205,35,07,56,333,25,19,55,110,40,23,44,167,23*74
$GPGSV,3,2,12,03,39,056,40,06,27,048,33,08,24,303,18,10,17,264,*7A
$GPGSV,3,3,12,16,14,050,34,28,13,244,21,11,12,147,26,05,02,314,*77
$GPRMC,010443.000,A,3353.7505,N,09832.0289,W,0.11,205.60,040412,,,D*7B
$GPGGA,010444.000,3353.7505,N,09832.0288,W,2,08,1.6,314.6,M,-23.7,M,0.8,0000*49
$GPGSA,A,3,16,11,23,06,07,03,13,19,,,,,2.5,1.6,2.0*3E
$GPRMC,010444.000,A,3353.7505,N,09832.0288,W,0.06,26.70,040412,,,D*49
$GPGGA,010445.000,3353.7504,N,09832.0288,W,2,08,1.6,314.4,M,-23.7,M,1.8,0000*4A
$GPGSA,A,3,16,11,23,06,07,03,13,19,,,,,2.5,1.6,2.0*3E
$GPRMC,010445.000,A,3353.7504,N,09832.0288,W,0.04,185.69,040412,,,D*7B
$GPGGA,010446.000,3353.7503,N,09832.0288,W,2,08,1.6,314.1,M,-23.7,M,2.8,0000*48
$GPGSA,A,3,16,11,23,06,07,03,13,19,,,,,2.5,1.6,2.0*3E
$GPRMC,010446.000,A,3353.7503,N,09832.0288,W,0.10,28.39,040412,,,D*49
$GPGGA,010447.000,3353.7500,N,09832.0279,W,2,08,1.6,314.7,M,-23.7,M,3.8,0000*43
$GPGSA,A,3,16,11,23,06,07,03,13,19,,,,,2.5,1.6,2.0*3E
$GPRMC,010447.000,A,3353.7500,N,09832.0279,W,0.13,97.49,040412,,,D*45
$GPGGA,010448.000,3353.7497,N,09832.0273,W,2,08,1.6,315.0,M,-23.7,M,0.8,0000*4C
$GPGSA,A,3,16,11,23,06,07,03,13,19,,,,,2.5,1.6,2.0*3E
$GPGSV,3,1,12,13,74,205,36,07,56,333,26,19,55,110,40,23,44,167,23*74
$GPGSV,3,2,12,03,39,056,40,06,27,048,33,08,24,303,17,10,17,264,*75
$GPGSV,3,3,12,16,14,050,34,28,13,244,21,11,12,147,26,05,02,314,*77
$GPRMC,010448.000,A,3353.7497,N,09832.0273,W,0.05,139.33,040412,,,D*70
$GPGGA,010449.000,3353.7495,N,09832.0269,W,2,08,1.6,315.3,M,-23.7,M,0.8,0000*47
$GPGSA,A,3,16,11,23,06,07,03,13,19,,,,,2.5,1.6,2.0*3E
$GPRMC,010449.000,A,3353.7495,N,09832.0269,W,0.05,128.73,040412,,,D*7C
$GPGGA,010450.000,3353.7494,N,09832.0265,W,2,08,1.6,315.6,M,-23.7,M,0.8,0000*47
$GPGSA,A,3,16,11,23,06,07,03,13,19,,,,,2.5,1.6,2.0*3E
$GPRMC,010450.000,A,3353.7494,N,09832.0265,W,0.06,133.88,040412,,,D*74
$GPGGA,010451.000,3353.7492,N,09832.0261,W,2,08,1.6,315.9,M,-23.7,M,0.8,0000*4B
$GPGSA,A,3,16,11,23,06,07,03,13,19,,,,,2.5,1.6,2.0*3E
$GPRMC,010451.000,A,3353.7492,N,09832.0261,W,0.03,30.11,040412,,,D*40
$GPGGA,010452.000,3353.7491,N,09832.0258,W,2,08,1.6,316.0,M,-23.7,M,1.8,0000*4A
$GPGSA,A,3,16,11,23,06,07,03,13,19,,,,,2.5,1.6,2.0*3E
$GPRMC,010452.000,A,3353.7491,N,09832.0258,W,0.07,90.43,040412,,,D*43
$GPGGA,010453.000,3353.7490,N,09832.0257,W,2,08,1.6,316.1,M,-23.7,M,2.8,0000*47
$GPGSA,A,3,16,11,23,06,07,03,13,19,,,,,2.5,1.6,2.0*3E
$GPGSV,3,1,12,13,74,205,36,07,56,333,28,19,55,110,40,23,44,167,24*7D
$GPGSV,3,2,12,03,39,056,40,06,27,048,33,08,24,303,16,10,17,264,*74
$GPGSV,3,3,12,16,14,050,35,28,13,244,20,11,12,147,25,05,02,314,*74
$GPRMC,010453.000,A,3353.7490,N,09832.0257,W,0.08,147.49,040412,,,D*72
$GPGGA,010454.000,3353.7489,N,09832.0255,W,2,08,1.6,316.2,M,-23.7,M,0.8,0000*4B
$GPGSA,A,3,16,11,23,06,07,03,13,19,,,,,2.5,1.6,2.0*3E
$GPRMC,010454.000,A,3353.7489,N,09832.0255,W,0.15,60.02,040412,,,D*48
$GPGGA,010455.000,3353.7488,N,09832.0253,W,2,08,1.6,316.4,M,-23.7,M,0.8,0000*4B
$GPGSA,A,3,16,11,23,06,07,03,13,19,,,,,2.5,1.6,2.0*3E
$GPRMC,010455.000,A,3353.7488,N,09832.0253,W,0.20,74.98,040412,,,D*4E
$GPGGA,010456.000,3353.7488,N,09832.0252,W,2,08,1.6,316.4,M,-23.7,M,0.8,0000*49
$GPGSA,A,3,16,11,23,06,07,03,13,19,,,,,2.5,1.6,2.0*3E
$GPRMC,010456.000,A,3353.7488,N,09832.0252,W,0.13,67.89,040412,,,D*4E
$GPGGA,010457.000,3353.7487,N,09832.0251,W,2,08,1.6,316.5,M,-23.7,M,1.8,0000*44
$GPGSA,A,3,16,11,23,06,07,03,13,19,,,,,2.5,1.6,2.0*3E
$GPRMC,010457.000,A,3353.7487,N,09832.0251,W,0.13,74.93,040412,,,D*4A
$GPGGA,010458.000,3353.7487,N,09832.0250,W,2,08,1.6,316.5,M,-23.7,M,2.8,0000*49
$GPGSA,A,3,16,11,23,06,07,03,13,19,,,,,2.5,1.6,2.0*3E
$GPGSV,3,1,12,13,74,205,36,07,56,333,28,19,55,110,39,23,44,167,25*72
$GPGSV,3,2,12,03,39,056,40,06,27,048,33,08,24,303,14,10,17,264,*76
$GPGSV,3,3,12,16,14,050,35,28,13,244,18,11,12,147,25,05,02,314,*7F
$GPRMC,010458.000,A,3353.7487,N,09832.0250,W,0.16,69.22,040412,,,D*47
$GPGGA,010459.000,3353.7486,N,09832.0250,W,2,08,1.6,316.4,M,-23.7,M,0.8,0000*4A
$GPGSA,A,3,16,11,23,06,07,03,13,19,,,,,2.5,1.6,2.0*3E
$GPRMC,010459.000,A,3353.7486,N,09832.0250,W,0.23,122.07,040412,,,D*78
$GPGGA,010500.000,3353.7486,N,09832.0249,W,2,08,1.6,316.5,M,-23.7,M,0.8,0000*4E
$GPGSA,A,3,16,11,23,06,07,03,13,19,,,,,2.5,1.6,2.0*3E
$GPRMC,010500.000,A,3353.7486,N,09832.0249,W,0.14,6.51,040412,,,D*7D
$GPGGA,010501.000,3353.7486,N,09832.0249,W,2,08,1.6,316.6,M,-23.7,M,0.8,0000*4C
$GPGSA,A,3,16,11,23,06,07,03,13,19,,,,,2.5,1.6,2.0*3E
$GPRMC,010501.000,A,3353.7486,N,09832.0249,W,0.16,13.58,040412,,,D*43
$GPGGA,010502.000,3353.7486,N,09832.0249,W,2,08,1.6,316.5,M,-23.7,M,0.8,0000*4C
$GPGSA,A,3,16,11,23,06,07,03,13,19,,,,,2.5,1.6,2.0*3E
$GPRMC,010502.000,A,3353.7486,N,09832.0249,W,0.12,103.68,040412,,,D*77
$GPGGA,010503.000,3353.7486,N,09832.0249,W,2,08,1.6,316.5,M,-23.7,M,1.8,0000*4C
$GPGSA,A,3,16,11,23,06,07,03,13,19,,,,,2.5,1.6,2.0*3E
$GPGSV,3,1,12,13,74,205,36,07,56,333,29,19,55,110,39,23,44,167,25*73
$GPGSV,3,2,12,03,39,056,39,06,27,048,33,08,24,303,14,10,17,264,*78
$GPGSV,3,3,12,16,14,050,35,28,13,244,18,11,12,147,25,05,02,314,*7F
$GPRMC,010503.000,A,3353.7486,N,09832.0249,W,0.11,135.46,040412,,,D*7C
$GPGGA,010504.000,3353.7486,N,09832.0248,W,2,08,1.6,316.7,M,-23.7,M,2.8,0000*4B
$GPGSA,A,3,16,11,23,06,07,03,13,19,,,,,2.5,1.6,2.0*3E
$GPRMC,010504.000,A,3353.7486,N,09832.0248,W,0.21,23.12,040412,,,D*4E
$GPGGA,010505.000,3353.7486,N,09832.0249,W,2,08,1.6,316.6,M,-23.7,M,3.8,0000*4B
$GPGSA,A,3,16,11,23,06,07,03,13,19,,,,,2.5,1.6,2.0*3E
$GPRMC,010505.000,A,3353.7486,N,09832.0249,W,0.10,104.38,040412,,,D*70
$GPGGA,010506.000,3353.7485,N,09832.0249,W,2,08,1.6,316.6,M,-23.7,M,0.8,0000*48
$GPGSA,A,3,16,11,23,06,07,03,13,19,,,,,2.5,1.6,2.0*3E
$GPRMC,010506.000,A,3353.7485,N,09832.0249,W,0.15,113.78,040412,,,D*77
$GPGGA,010507.000,3353.7485,N,09832.0249,W,2,08,1.6,316.6,M,-23.7,M,0.8,0000*49
$GPGSA,A,3,16,11,23,06,07,03,13,19,,,,,2.5,1.6,2.0*3E
$GPRMC,010507.000,A,3353.7485,N,09832.0249,W,0.13,79.54,040412,,,D*43
$GPGGA,010508.000,3353.7485,N,09832.0249,W,2,08,1.6,316.6,M,-23.7,M,0.8,0000*46
$GPGSA,A,3,16,11,23,06,07,03,13,19,,,,,2.5,1.6,2.0*3E
$GPGSV,3,1,12,13,74,205,37,07,56,333,28,19,55,110,39,23,44,167,26*70
$GPGSV,3,2,12,03,39,056,39,06,27,048,33,08,24,303,14,10,17,264,*78
$GPGSV,3,3,12,16,14,050,35,28,13,244,19,11,12,147,25,05,02,314,*7E
$GPRMC,010508.000,A,3353.7485,N,09832.0249,W,0.10,63.38,040412,,,D*4E
$GPGGA,010509.000,3353.7485,N,09832.0250,W,2,08,1.6,316.6,M,-23.7,M,1.8,0000*4E
$GPGSA,A,3,16,11,23,06,07,03,13,19,,,,,2.5,1.6,2.0*3E
$GPRMC,010509.000,A,3353.7485,N,09832.0250,W,0.12,60.80,040412,,,D*45
$GPGGA,010510.000,3353.7485,N,09832.0250,W,2,08,1.6,316.6,M,-23.7,M,2.8,0000*45
$GPGSA,A,3,16,11,23,06,07,03,13,19,,,,,2.6,1.6,2.0*3D
$GPRMC,010510.000,A,3353.7485,N,09832.0250,W,0.13,74.52,040412,,,D*46
$GPGGA,010511.000,3353.7486,N,09832.0251,W,2,08,1.6,316.6,M,-23.7,M,3.8,0000*47
$GPGSA,A,3,16,11,23,06,07,03,13,19,,,,,2.6,1.6,2.0*3D
$GPRMC,010511.000,A,3353.7486,N,09832.0251,W,0.12,90.99,040412,,,D*49
$GPGGA,010512.000,3353.7486,N,09832.0251,W,2,08,1.6,316.5,M,-23.7,M,0.8,0000*44
$GPGSA,A,3,16,11,23,06,07,03,13,19,,,,,2.6,1.6,2.0*3D
$GPRMC,010512.000,A,3353.7486,N,09832.0251,W,0.10,35.20,040412,,,D*45
$GPGGA,010513.000,3353.7486,N,09832.0252,W,2,08,1.6,316.5,M,-23.7,M,1.8,0000*47
$GPGSA,A,3,16,11,23,06,07,03,13,19,,,,,2.6,1.6,2.0*3D
$GPGSV,3,1,12,13,74,205,37,07,56,333,28,19,55,110,39,23,44,167,27*71
$GPGSV,3,2,12,03,39,056,39,06,27,048,33,08,24,303,14,10,17,264,*78
$GPGSV,3,3,12,16,14,050,35,28,13,244,21,11,12,147,25,05,02,314,*75
$GPRMC,010513.000,A,3353.7486,N,09832.0252,W,0.09,13.79,040412,,,D*47
$GPGGA,010514.000,3353.7486,N,09832.0253,W,2,08,1.6,316.5,M,-23.7,M,0.8,0000*40
$GPGSA,A,3,16,11,23,06,07,03,13,19,,,,,2.6,1.6,2.0*3D
$GPRMC,010514.000,A,3353.7486,N,09832.0253,W,0.10,24.78,040412,,,D*4C
$GPGGA,010515.000,3353.7491,N,09832.0251,W,2,08,1.6,317.8,M,-23.7,M,0.8,0000*49
$GPGSA,A,3,16,11,23,06,07,03,13,19,,,,,2.6,1.6,2.0*3D
$GPRMC,010515.000,A,3353.7491,N,09832.0251,W,0.07,46.72,040412,,,D*41
$GPGGA,010516.000,3353.7495,N,09832.0249,W,2,08,1.6,319.2,M,-23.7,M,0.8,0000*43
$GPGSA,A,3,16,11,23,06,07,03,13,19,,,,,2.6,1.6,2.0*3D
$GPRMC,010516.000,A,3353.7495,N,09832.0249,W,0.28,3.41,040412,,,D*73
$GPGGA,010517.000,3353.7498,N,09832.0248,W,2,08,1.6,320.1,M,-23.7,M,0.8,0000*47
$GPGSA,A,3,16,11,23,06,07,03,13,19,,,,,2.6,1.6,2.0*3D
$GPRMC,010517.000,A,3353.7498,N,09832.0248,W,0.13,47.46,040412,,,D*41
$GPGGA,010518.000,3353.7501,N,09832.0246,W,2,08,1.6,321.1,M,-23.7,M,0.8,0000*46
$GPGSA,A,3,16,11,23,06,07,03,13,19,,,,,2.6,1.6,2.0*3D
$GPGSV,3,1,12,13,74,205,37,07,56,333,28,19,55,110,39,23,44,167,28*7E
$GPGSV,3,2,12,03,39,056,38,06,27,048,34,08,24,303,15,10,17,264,*7F
$GPGSV,3,3,12,16,14,050,35,28,13,244,22,11,12,147,24,05,02,314,*77
$GPRMC,010518.000,A,3353.7501,N,09832.0246,W,0.16,57.07,040412,,,D*40
$GPGGA,010519.000,3353.7504,N,09832.0245,W,2,08,1.6,322.0,M,-23.7,M,0.8,0000*43
$GPGSA,A,3,16,11,23,06,07,03,13,19,,,,,2.6,1.6,2.0*3D
$GPRMC,010519.000,A,3353.7504,N,09832.0245,W,0.17,84.17,040412,,,D*49
$GPGGA,010520.000,3353.7506,N,09832.0244,W,2,08,1.6,322.7,M,-23.7,M,0.8,0000*4D
$GPGSA,A,3,16,11,23,06,07,03,13,19,,,,,2.6,1.6,2.0*3D
$GPRMC,010520.000,A,3353.7506,N,09832.0244,W,0.26,111.65,040412,,,D*7A
$GPGGA,010521.000,3353.7508,N,09832.0242,W,2,08,1.6,323.5,M,-23.7,M,1.8,0000*46
$GPGSA,A,3,16,11,23,06,07,03,13,19,,,,,2.6,1.6,2.0*3D
$GPRMC,010521.000,A,3353.7508,N,09832.0242,W,0.17,60.62,040412,,,D*41
$GPGGA,010522.000,3353.7509,N,09832.0242,W,2,08,1.6,324.1,M,-23.7,M,0.8,0000*46
$GPGSA,A,3,16,11,23,06,07,03,13,19,,,,,2.6,1.6,2.0*3D
$GPRMC,010522.000,A,3353.7509,N,09832.0242,W,0.20,89.16,040412,,,D*43
$GPGGA,010523.000,3353.7511,N,09832.0241,W,2,08,1.6,324.7,M,-23.7,M,0.8,0000*4B
$GPGSA,A,3,16,11,23,06,07,03,13,19,,,,,2.6,1.6,2.0*3D
$GPGSV,3,1,12,13,74,205,38,07,56,333,27,19,55,110,38,23,44,167,29*7E
$GPGSV,3,2,12,03,39,056,38,06,27,048,34,08,24,303,16,10,17,264,*7C
$GPGSV,3,3,12,16,14,050,35,28,13,244,09,11,12,147,23,05,02,314,*79
$GPRMC,010523.000,A,3353.7511,N,09832.0241,W,0.19,109.37,040412,,,D*78
$GPGGA,010524.000,3353.7513,N,09832.0240,W,2,08,1.6,325.4,M,-23.7,M,0.8,0000*4D
$GPGSA,A,3,16,11,23,06,07,03,13,19,,,,,2.6,1.6,2.0*3D
$GPRMC,010524.000,A,3353.7513,N,09832.0240,W,0.19,16.29,040412,,,D*4C
$GPGGA,010525.000,3353.7515,N,09832.0240,W,2,08,1.6,326.1,M,-23.7,M,0.8,0000*4C
$GPGSA,A,3,16,11,23,06,07,03,13,19,,,,,2.6,1.6,2.0*3D
$GPRMC,010525.000,A,3353.7515,N,09832.0240,W,0.28,359.81,040412,,,D*73
$GPGGA,010526.000,3353.7517,N,09832.0240,W,2,08,1.6,326.6,M,-23.7,M,0.8,0000*4A
$GPGSA,A,3,16,11,23,06,07,03,13,19,,,,,2.6,1.6,2.0*3D
$GPRMC,010526.000,A,3353.7517,N,09832.0240,W,0.14,79.65,040412,,,D*46
$GPGGA,010527.000,3353.7519,N,09832.0240,W,2,08,1.6,327.2,M,-23.7,M,1.8,0000*41
$GPGSA,A,3,16,11,23,06,07,03,13,19,,,,,2.6,1.6,2.0*3D
$GPRMC,010527.000,A,3353.7519,N,09832.0240,W,0.11,35.72,040412,,,D*42
$GPGGA,010528.000,3353.7521,N,09832.0240,W,2,08,1.6,327.6,M,-23.7,M,2.8,0000*42
$GPGSA,A,3,16,11,23,06,07,03,13,19,,,,,2.6,1.6,2.0*3D
$GPGSV,3,1,12,13,74,205,38,07,56,333,27,19,55,110,38,23,44,167,29*7E
$GPGSV,3,2,12,03,39,056,38,06,27,048,33,08,24,303,16,10,17,264,*7B
$GPGSV,3,3,12,16,14,050,35,28,13,244,,11,12,147,23,05,02,314,*70
$GPRMC,010528.000,A,3353.7521,N,09832.0240,W,0.12,52.73,040412,,,D*45
$GPGGA,010529.000,3353.7522,N,09832.0240,W,2,08,1.6,328.2,M,-23.7,M,0.8,0000*49
$GPGSA,A,3,16,11,23,06,07,03,13,19,,,,,2.6,1.6,2.0*3D
$GPRMC,010529.000,A,3353.7522,N,09832.0240,W,0.18,8.29,040412,,,D*7D
$GPGGA,010530.000,3353.7524,N,09832.0240,W,2,08,1.6,328.8,M,-23.7,M,0.8,0000*4D
$GPGSA,A,3,16,11,23,06,07,03,13,19,,,,,2.6,1.6,2.0*3D
$GPRMC,010530.000,A,3353.7524,N,09832.0240,W,0.17,39.67,040412,,,D*44
$GPGGA,010531.000,3353.7525,N,09832.0239,W,2,08,1.6,329.3,M,-23.7,M,0.8,0000*49
$GPGSA,A,3,16,11,23,06,07,03,13,19,,,,,2.6,1.6,2.0*3D
$GPRMC,010531.000,A,3353.7525,N,09832.0239,W,0.21,36.42,040412,,,D*47
$GPGGA,010532.000,3353.7526,N,09832.0239,W,2,08,1.6,329.7,M,-23.7,M,0.8,0000*4D
$GPGSA,A,3,16,11,23,06,07,03,13,19,,,,,2.6,1.6,2.0*3D
$GPRMC,010532.000,A,3353.7526,N,09832.0239,W,0.19,60.26,040412,,,D*4D
$GPGGA,010533.000,3353.7528,N,09832.0239,W,2,08,1.6,330.2,M,-23.7,M,1.8,0000*4E
$GPGSA,A,3,16,11,23,06,07,03,13,19,,,,,2.6,1.6,2.0*3D
$GPGSV,3,1,12,13,74,205,38,07,56,333,27,19,55,110,38,23,44,167,30*76
$GPGSV,3,2,12,03,39,056,38,06,27,048,33,08,24,303,17,10,17,264,*7A
$GPGSV,3,3,12,16,14,050,35,28,13,244,,11,12,147,24,05,02,314,*77
$GPRMC,010533.000,A,3353.7528,N,09832.0239,W,0.24,29.85,040412,,,D*48
$GPGGA,010534.000,3353.7529,N,09832.0239,W,2,08,1.6,330.5,M,-23.7,M,2.8,0000*4C
$GPGSA,A,3,16,11,23,06,07,03,13,19,,,,,2.6,1.6,2.0*3D
$GPRMC,010534.000,A,3353.7529,N,09832.0239,W,0.23,68.85,040412,,,D*4C
$GPGGA,010535.000,3353.7530,N,09832.0239,W,2,08,1.6,330.8,M,-23.7,M,3.8,0000*49
$GPGSA,A,3,16,11,23,06,07,03,13,19,,,,,2.6,1.6,2.0*3D
$GPRMC,010535.000,A,3353.7530,N,09832.0239,W,0.19,63.73,040412,,,D*4E
$GPGGA,010536.000,3353.7531,N,09832.0239,W,2,08,1.6,331.1,M,-23.7,M,0.8,0000*40
$GPGSA,A,3,16,11,23,06,07,03,13,19,,,,,2.6,1.6,2.0*3D
$GPRMC,010536.000,A,3353.7531,N,09832.0239,W,0.15,49.62,040412,,,D*48
$GPGGA,010537.000,3353.7532,N,09832.0239,W,2,08,1.6,331.3,M,-23.7,M,0.8,0000*40
$GPGSA,A,3,16,11,23,06,07,03,13,19,,,,,2.6,1.6,2.0*3D
$GPRMC,010537.000,A,3353.7532,N,09832.0239,W,0.13,37.82,040412,,,D*4B
$GPGGA,010538.000,3353.7532,N,09832.0239,W,2,08,1.6,331.6,M,-23.7,M,0.8,0000*4A
$GPGSA,A,3,16,11,23,06,07,03,13,19,,,,,2.6,1.6,2.0*3D
$GPGSV,3,1,12,13,74,205,38,07,56,333,27,19,55,110,38,23,44,167,29*7E
$GPGSV,3,2,12,03,39,056,37,06,27,048,33,08,24,303,18,10,17,264,*7A
$GPGSV,3,3,12,16,14,050,35,28,13,244,,11,12,147,25,05,02,314,*76
$GPRMC,010538.000,A,3353.7532,N,09832.0239,W,0.09,50.04,040412,,,D*40
$GPGGA,010539.000,3353.7533,N,09832.0239,W,2,08,1.6,331.8,M,-23.7,M,0.8,0000*44
$GPGSA,A,3,16,11,23,06,07,03,13,19,,,,,2.6,1.6,2.0*3D
$GPRMC,010539.000,A,3353.7533,N,09832.0239,W,0.08,29.33,040412,,,D*4B
$GPGGA,010540.000,3353.7534,N,09832.0239,W,2,08,1.6,332.1,M,-23.7,M,1.8,0000*46
$GPGSA,A,3,16,11,23,06,07,03,13,19,,,,,2.6,1.6,2.0*3D
$GPRMC,010540.000,A,3353.7534,N,09832.0239,W,0.07,20.61,040412,,,D*43
$GPGGA,010541.000,3353.7534,N,09832.0240,W,2,08,1.6,332.3,M,-23.7,M,2.8,0000*48
$GPGSA,A,3,16,11,23,06,07,03,13,19,,,,,2.6,1.6,2.0*3D
$GPRMC,010541.000,A,3353.7534,N,09832.0240,W,0.05,19.83,040412,,,D*48
$GPGGA,010542.000,3353.7535,N,09832.0240,W,2,08,1.6,332.5,M,-23.7,M,0.8,0000*4E
$GPGSA,A,3,16,11,23,06,07,03,13,19,,,,,2.6,1.6,2.0*3D
$GPRMC,010542.000,A,3353.7535,N,09832.0240,W,0.10,74.07,040412,,,D*49
$GPGGA,010543.000,3353.7535,N,09832.0240,W,2,08,1.6,332.7,M,-23.7,M,0.8,0000*4D
$GPGSA,A,3,16,11,23,06,07,03,13,19,,,,,2.6,1.6,2.0*3D
$GPGSV,3,1,12,13,74,205,39,07,56,333,27,19,55,110,38,23,44,167,29*7F
$GPGSV,3,2,12,03,39,056,37,06,27,048,33,08,24,303,19,10,17,264,*7B
$GPGSV,3,3,12,16,14,050,35,28,13,244,,11,12,147,26,05,02,314,*75
$GPRMC,010543.000,A,3353.7535,N,09832.0240,W,0.11,78.56,040412,,,D*41
$GPGGA,010544.000,3353.7536,N,09832.0240,W,2,08,1.6,332.8,M,-23.7,M,0.8,0000*46
$GPGSA,A,3,16,11,23,06,07,03,13,19,,,,,2.6,1.6,2.0*3D
$GPRMC,010544.000,A,3353.7536,N,09832.0240,W,0.13,67.22,040412,,,D*4A
$GPGGA,010545.000,3353.7536,N,09832.0240,W,2,08,1.6,332.9,M,-23.7,M,1.8,0000*47
$GPGSA,A,3,16,11,23,06,07,03,13,19,,,,,2.6,1.6,2.0*3D
$GPRMC,010545.000,A,3353.7536,N,09832.0240,W,0.12,70.59,040412,,,D*40
$GPGGA,010546.000,3353.7536,N,09832.0240,W,2,08,1.6,333.0,M,-23.7,M,2.8,0000*4F
$GPGSA,A,3,16,11,23,06,07,03,13,19,,,,,2.6,1.6,2.0*3D
$GPRMC,010546.000,A,3353.7536,N,09832.0240,W,0.14,62.73,040412,,,D*4E
$GPGGA,010547.000,3353.7537,N,09832.0240,W,2,08,1.6,333.2,M,-23.7,M,3.8,0000*4C
$GPGSA,A,3,16,11,23,06,07,03,13,19,,,,,2.6,1.6,2.0*3D
$GPRMC,010547.000,A,3353.7537,N,09832.0240,W,0.13,74.74,040412,,,D*49
$GPGGA,010548.000,3353.7537,N,09832.0240,W,2,08,1.6,333.2,M,-23.7,M,0.8,0000*40
$GPGSA,A,3,16,11,23,06,07,03,13,19,,,,,2.6,1.6,2.0*3D
$GPGSV,3,1,12,13,74,205,39,07,56,333,28,19,55,110,38,23,44,167,29*70
$GPGSV,3,2,12,03,39,056,37,06,27,048,33,08,24,303,20,10,17,264,*71
$GPGSV,3,3,12,16,14,050,35,28,13,244,,11,12,147,27,05,02,314,*74
$GPRMC,010548.000,A,3353.7537,N,09832.0240,W,0.09,32.41,040412,,,D*49
$GPGGA,010549.000,3353.7538,N,09832.0240,W,2,08,1.6,333.3,M,-23.7,M,0.8,0000*4F
$GPGSA,A,3,16,11,23,06,07,03,13,19,,,,,2.6,1.6,2.0*3D
$GPRMC,010549.000,A,3353.7538,N,09832.0240,W,0.08,7.76,040412,,,D*74
$GPGGA,010550.000,3353.7539,N,09832.0240,W,2,08,1.6,333.5,M,-23.7,M,0.8,0000*40
$GPGSA,A,3,16,11,23,06,07,03,13,19,,,,,2.6,1.6,2.0*3D
$GPRMC,010550.000,A,3353.7539,N,09832.0240,W,0.05,352.38,040412,,,D*79
$GPGGA,010551.000,3353.7539,N,09832.0241,W,2,08,1.6,333.6,M,-23.7,M,1.8,0000*42
$GPGSA,A,3,16,11,23,06,07,03,13,19,,,,,2.6,1.6,2.0*3D
$GPRMC,010551.000,A,3353.7539,N,09832.0241,W,0.06,342.26,040412,,,D*74
$GPGGA,010552.000,3353.7540,N,09832.0241,W,2,08,1.6,333.7,M,-23.7,M,2.8,0000*4D
$GPGSA,A,3,16,11,23,06,07,03,13,19,,,,,2.6,1.6,2.0*3D
$GPRMC,010552.000,A,3353.7540,N,09832.0241,W,0.03,27.30,040412,,,D*4B
$GPGGA,010553.000,3353.7540,N,09832.0241,W,2,08,1.6,333.9,M,-23.7,M,3.8,0000*43
$GPGSA,A,3,16,11,23,06,07,03,13,19,,,,,2.6,1.6,2.0*3D
$GPGSV,3,1,12,13,74,205,40,07,56,333,28,19,55,110,38,23,44,167,29*7E
$GPGSV,3,2,12,03,39,056,37,06,27,048,32,08,24,303,21,10,17,264,*71
$GPGSV,3,3,12,16,14,050,35,28,13,244,,11,12,147,27,05,02,314,*74
$GPRMC,010553.000,A,3353.7540,N,09832.0241,W,0.03,23.05,040412,,,D*48
$GPGGA,010554.000,3353.7540,N,09832.0241,W,2,08,1.6,334.0,M,-23.7,M,0.8,0000*49
$GPGSA,A,3,16,11,23,06,07,03,13,19,,,,,2.6,1.6,2.0*3D
$GPRMC,010554.000,A,3353.7540,N,09832.0241,W,0.07,81.26,040412,,,D*42
$GPGGA,010555.000,3353.7541,N,09832.0241,W,2,08,1.6,334.1,M,-23.7,M,0.8,0000*48
$GPGSA,A,3,16,11,23,06,07,03,13,19,,,,,2.6,1.6,2.0*3D
$GPRMC,010555.000,A,3353.7541,N,09832.0241,W,0.09,95.09,040412,,,D*44
$GPGGA,010556.000,3353.7541,N,09832.0241,W,2,08,1.6,334.2,M,-23.7,M,0.8,0000*48
$GPGSA,A,3,16,11,23,06,07,03,13,19,,,,,2.6,1.6,2.0*3D
$GPRMC,010556.000,A,3353.7541,N,09832.0241,W,0.11,72.80,040412,,,D*46
$GPGGA,010557.000,3353.7541,N,09832.0241,W,2,08,1.6,334.2,M,-23.7,M,0.8,0000*49
$GPGSA,A,3,16,11,23,06,07,03,13,19,,,,,2.6,1.6,2.0*3D
$GPRMC,010557.000,A,3353.7541,N,09832.0241,W,0.11,65.34,040412,,,D*4E
$GPGGA,010558.000,3353.7541,N,09832.0241,W,2,08,1.6,334.2,M,-23.7,M,1.8,0000*47
$GPGSA,A,3,16,11,23,06,07,03,13,19,,,,,2.6,1.6,2.0*3D
$GPGSV,3,1,12,13,74,205,40,07,56,333,28,19,55,110,38,23,44,167,29*7E
$GPGSV,3,2,12,03,39,056,37,06,27,048,32,08,24,303,22,10,17,264,*72
$GPGSV,3,3,12,16,14,050,35,28,13,244,,11,12,147,27,05,02,314,*74
$GPRMC,010558.000,A,3353.7541,N,09832.0241,W,0.12,77.69,040412,,,D*49
$GPGGA,010559.000,3353.7541,N,09832.0241,W,2,08,1.6,334.2,M,-23.7,M,2.8,0000*45
$GPGSA,A,3,16,11,23,06,07,03,13,19,,,,,2.6,1.6,2.0*3D
$GPRMC,010559.000,A,3353.7541,N,09832.0241,W,0.10,75.28,040412,,,D*4D
$GPGGA,010600.000,3353.7541,N,09832.0242,W,2,08,1.6,334.2,M,-23.7,M,0.8,0000*4B
$GPGSA,A,3,16,11,23,06,07,03,13,19,,,,,2.6,1.6,2.0*3D
$GPRMC,010600.000,A,3353.7541,N,09832.0242,W,0.06,34.78,040412,,,D*46
$GPGGA,010601.000,3353.7542,N,09832.0242,W,2,08,1.6,334.1,M,-23.7,M,0.8,0000*4A
$GPGSA,A,3,16,11,23,06,07,03,13,19,,,,,2.6,1.6,2.0*3D
$GPRMC,010601.000,A,3353.7542,N,09832.0242,W,0.07,359.26,040412,,,D*76
$GPGGA,010602.000,3353.7542,N,09832.0242,W,2,08,1.6,334.1,M,-23.7,M,0.8,0000*49
$GPGSA,A,3,16,11,23,06,07,03,13,19,,,,,2.6,1.6,2.0*3D
$GPRMC,010602.000,A,3353.7542,N,09832.0242,W,0.04,347.14,040412,,,D*78
$GPGGA,010603.000,3353.7542,N,09832.0243,W,2,08,1.6,334.1,M,-23.7,M,1.8,0000*48
$GPGSA,A,3,16,11,23,06,07,03,13,19,,,,,2.6,1.6,2.0*3D
$GPGSV,3,1,12,13,74,205,40,07,56,333,28,19,55,110,37,23,44,167,28*70
$GPGSV,3,2,12,03,39,056,36,06,27,048,32,08,24,303,21,10,17,264,*70
$GPGSV,3,3,12,16,14,050,35,28,13,244,,11,12,147,28,05,02,314,*7B
$GPRMC,010603.000,A,3353.7542,N,09832.0243,W,0.00,359.19,040412,,,D*7E
$GPGGA,010604.000,3353.7542,N,09832.0243,W,2,08,1.6,334.1,M,-23.7,M,0.8,0000*4E
$GPGSA,A,3,16,11,23,06,07,03,13,19,,,,,2.6,1.6,2.0*3D
$GPRMC,010604.000,A,3353.7542,N,09832.0243,W,0.04,324.78,040412,,,D*70
$GPGGA,010605.000,3353.7542,N,09832.0243,W,2,08,1.6,334.1,M,-23.7,M,1.8,0000*4E
$GPGSA,A,3,16,11,23,06,07,03,13,19,,,,,2.6,1.6,2.0*3D
$GPRMC,010605.000,A,3353.7542,N,09832.0243,W,0.01,13.48,040412,,,D*40
$GPGGA,010606.000,3353.7542,N,09832.0244,W,2,08,1.6,334.1,M,-23.7,M,0.8,0000*4B
$GPGSA,A,3,16,11,23,06,07,03,13,19,,,,,2.6,1.6,2.0*3D
$GPRMC,010606.000,A,3353.7542,N,09832.0244,W,0.04,103.60,040412,,,D*7B
$GPGGA,010607.000,3353.7541,N,09832.0244,W,2,08,1.6,334.1,M,-23.7,M,0.8,0000*49
$GPGSA,A,3,16,11,23,06,07,03,13,19,,,,,2.6,1.6,2.0*3D
$GPRMC,010607.000,A,3353.7541,N,09832.0244,W,0.04,108.57,040412,,,D*76
$GPGGA,010608.000,3353.7541,N,09832.0244,W,2,08,1.6,334.0,M,-23.7,M,0.8,0000*47
$GPGSA,A,3,16,11,23,06,07,03,13,19,,,,,2.6,1.6,2.0*3D
$GPGSV,3,1,12,13,74,205,40,07,56,333,27,19,55,110,37,23,44,167,28*7F
$GPGSV,3,2,12,03,39,056,36,06,27,048,32,08,24,303,21,10,17,264,*70
$GPGSV,3,3,12,16,14,050,35,28,13,244,,11,12,147,28,05,02,314,*7B
$GPRMC,010608.000,A,3353.7541,N,09832.0244,W,0.09,57.60,040412,,,D*4B
$GPGGA,010609.000,3353.7541,N,09832.0243,W,2,08,1.6,334.0,M,-23.7,M,1.8,0000*40
$GPGSA,A,3,16,11,23,06,07,03,13,19,,,,,2.6,1.6,2.0*3D
$GPRMC,010609.000,A,3353.7541,N,09832.0243,W,0.08,71.69,040412,,,D*41
$GPGGA,010610.000,3353.7541,N,09832.0243,W,2,08,1.6,333.9,M,-23.7,M,2.8,0000*45
$GPGSA,A,3,16,11,23,06,07,03,13,19,,,,,2.6,1.6,2.0*3D
$GPRMC,010610.000,A,3353.7541,N,09832.0243,W,0.07,53.87,040412,,,D*46
$GPGGA,010611.000,3353.7541,N,09832.0243,W,2,08,1.6,333.8,M,-23.7,M,3.8,0000*44
$GPGSA,A,3,16,11,23,06,07,03,13,19,,,,,2.6,1.6,2.0*3D
$GPRMC,010611.000,A,3353.7541,N,09832.0243,W,0.09,67.88,040412,,,D*41
$GPGGA,010612.000,3353.7541,N,09832.0243,W,2,08,1.6,333.8,M,-23.7,M,0.8,0000*44
$GPGSA,A,3,16,11,23,06,07,03,13,19,,,,,2.6,1.6,2.0*3D
$GPRMC,010612.000,A,3353.7541,N,09832.0243,W,0.06,354.63,040412,,,D*7B
$GPGGA,010613.000,3353.7540,N,09832.0243,W,2,08,1.6,333.7,M,-23.7,M,0.8,0000*4B
$GPGSA,A,3,16,11,23,06,07,03,13,19,,,,,2.6,1.6,2.0*3D
$GPGSV,3,1,12,13,74,205,40,07,56,333,27,19,55,110,37,23,44,167,28*7F
$GPGSV,3,2,12,03,39,056,36,06,27,048,32,08,24,303,21,10,17,264,18*79
$GPGSV,3,3,12,16,14,050,35,28,13,244,,11,12,147,28,05,02,314,*7B
$GPRMC,010613.000,A,3353.7540,N,09832.0243,W,0.04,1.80,040412,,,D*77
$GPGGA,010614.000,3353.7540,N,09832.0244,W,2,08,1.6,333.7,M,-23.7,M,0.8,0000*4B
$GPGSA,A,3,16,11,23,06,07,03,13,19,,,,,2.6,1.6,2.0*3D
$GPRMC,010614.000,A,3353.7540,N,09832.0244,W,0.04,274.42,040412,,,D*79
$GPGGA,010615.000,3353.7540,N,09832.0244,W,2,08,1.6,333.6,M,-23.7,M,1.8,0000*4A
$GPGSA,A,3,16,11,23,06,07,03,13,19,,,,,2.6,1.6,2.0*3D
$GPRMC,010615.000,A,3353.7540,N,09832.0244,W,0.02,287.52,040412,,,D*73
$GPGGA,010616.000,3353.7540,N,09832.0244,W,2,08,1.6,333.6,M,-23.7,M,2.8,0000*4A
$GPGSA,A,3,16,11,23,06,07,03,13,19,,,,,2.6,1.6,2.0*3D
$GPRMC,010616.000,A,3353.7540,N,09832.0244,W,0.06,304.50,040412,,,D*7C
$GPGGA,010617.000,3353.7540,N,09832.0244,W,2,08,1.6,333.6,M,-23.7,M,3.8,0000*4A
$GPGSA,A,3,16,11,23,06,07,03,13,19,,,,,2.6,1.6,2.0*3D
$GPRMC,010617.000,A,3353.7540,N,09832.0244,W,0.05,271.47,040412,,,D*7B
$GPGGA,010618.000,3353.7539,N,09832.0244,W,2,08,1.6,333.6,M,-23.7,M,0.8,0000*48
$GPGSA,A,3,16,11,23,06,07,03,13,19,,,,,2.6,1.6,2.0*3D
$GPGSV,3,1,12,13,74,205,40,07,56,333,26,19,55,110,37,23,44,167,29*7F
$GPGSV,3,2,12,03,39,056,36,06,27,048,31,08,24,303,22,10,17,264,18*79
$GPGSV,3,3,12,16,14,050,35,28,13,244,,11,12,147,27,05,02,314,*74
$GPRMC,010618.000,A,3353.7539,N,09832.0244,W,0.01,350.92,040412,,,D*74
$GPGGA,010619.000,3353.7539,N,09832.0244,W,2,08,1.6,333.5,M,-23.7,M,0.8,0000*4A
$GPGSA,A,3,16,11,23,06,07,03,13,19,,,,,2.6,1.6,2.0*3D
$GPRMC,010619.000,A,3353.7539,N,09832.0244,W,0.05,139.75,040412,,,D*75
$GPGGA,010620.000,3353.7539,N,09832.0244,W,2,08,1.6,333.4,M,-23.7,M,0.8,0000*41
$GPGSA,A,3,16,11,23,06,07,03,13,19,,,,,2.6,1.6,2.0*3D
$GPRMC,010620.000,A,3353.7539,N,09832.0244,W,0.07,61.47,040412,,,D*40
$GPGGA,010621.000,3353.7538,N,09832.0244,W,2,08,1.6,333.3,M,-23.7,M,0.8,0000*46
$GPGSA,A,3,16,11,23,06,07,03,13,19,,,,,2.6,1.6,2.0*3D
$GPRMC,010621.000,A,3353.7538,N,09832.0244,W,0.05,66.31,040412,,,D*44
$GPGGA,010622.000,3353.7538,N,09832.0244,W,2,08,1.6,333.1,M,-23.7,M,1.8,0000*46
$GPGSA,A,3,16,11,23,06,07,03,13,19,,,,,2.6,1.6,2.0*3D
$GPRMC,010622.000,A,3353.7538,N,09832.0244,W,0.05,72.40,040412,,,D*44
$GPGGA,010623.000,3353.7538,N,09832.0244,W,2,08,1.6,333.0,M,-23.7,M,2.8,0000*45
$GPGSA,A,3,16,11,23,06,07,03,13,19,,,,,2.6,1.6,2.0*3D
$GPGSV,3,1,12,13,74,203,40,07,56,334,26,19,55,108,37,23,43,167,29*70
$GPGSV,3,2,12,03,39,055,35,06,26,048,31,08,25,304,23,10,16,263,17*76
$GPGSV,3,3,12,28,14,245,,16,13,051,35,11,13,147,27,05,02,314,*75
$GPRMC,010623.000,A,3353.7538,N,09832.0244,W,0.07,48.89,040412,,,D*4B
$GPGGA,010624.000,3353.7538,N,09832.0245,W,2,08,1.6,332.8,M,-23.7,M,0.8,0000*48
$GPGSA,A,3,16,11,23,06,07,03,13,19,,,,,2.6,1.6,2.0*3D
$GPRMC,010624.000,A,3353.7538,N,09832.0245,W,0.06,332.73,040412,,,D*77
$GPGGA,010625.000,3353.7538,N,09832.0245,W,2,08,1.6,332.7,M,-23.7,M,0.8,0000*46
$GPGSA,A,3,16,11,23,06,07,03,13,19,,,,,2.6,1.6,2.0*3D
$GPRMC,010625.000,A,3353.7538,N,09832.0245,W,0.06,318.06,040412,,,D*7C
$GPGGA,010626.000,3353.7537,N,09832.0246,W,2,08,1.6,332.5,M,-23.7,M,0.8,0000*4B
$GPGSA,A,3,16,11,23,06,07,03,13,19,,,,,2.6,1.6,2.0*3D
$GPRMC,010626.000,A,3353.7537,N,09832.0246,W,0.05,278.29,040412,,,D*7A
$GPGGA,010627.000,3353.7537,N,09832.0246,W,2,08,1.6,332.4,M,-23.7,M,0.8,0000*4B
$GPGSA,A,3,16,11,23,06,07,03,13,19,,,,,2.6,1.6,2.0*3D
$GPRMC,010627.000,A,3353.7537,N,09832.0246,W,0.07,274.35,040412,,,D*78
$GPGGA,010628.000,3353.7537,N,09832.0246,W,2,08,1.6,332.3,M,-23.7,M,1.8,0000*42
$GPGSA,A,3,16,11,23,06,07,03,13,19,,,,,2.6,1.6,2.0*3D
$GPGSV,3,1,12,13,74,203,40,07,56,334,27,19,55,108,37,23,43,167,30*79
$GPGSV,3,2,12,03,39,055,35,06,26,048,31,08,25,304,24,10,16,263,16*70
$GPGSV,3,3,12,28,14,245,,16,13,051,35,11,13,147,26,05,02,314,*74
$GPRMC,010628.000,A,3353.7537,N,09832.0246,W,0.04,272.35,040412,,,D*72
$GPGGA,010629.000,3353.7537,N,09832.0246,W,2,08,1.6,332.2,M,-23.7,M,2.8,0000*41
$GPGSA,A,3,16,11,23,06,07,03,13,19,,,,,2.6,1.6,2.0*3D
$GPRMC,010629.000,A,3353.7537,N,09832.0246,W,0.06,290.74,040412,,,D*78
$GPGGA,010630.000,3353.7536,N,09832.0246,W,2,08,1.6,332.1,M,-23.7,M,0.8,0000*49
$GPGSA,A,3,16,11,23,06,07,03,13,19,,,,,2.6,1.6,2.0*3D
$GPRMC,010630.000,A,3353.7536,N,09832.0246,W,0.09,317.59,040412,,,D*7F
$GPGGA,010631.000,3353.7536,N,09832.0247,W,2,08,1.6,332.1,M,-23.7,M,0.8,0000*49
$GPGSA,A,3,16,11,23,06,07,03,13,19,,,,,2.6,1.6,2.0*3D
$GPRMC,010631.000,A,3353.7536,N,09832.0247,W,0.02,52.64,040412,,,D*48
$GPGGA,010632.000,3353.7536,N,09832.0247,W,2,08,1.6,332.0,M,-23.7,M,0.8,0000*4B
$GPGSA,A,3,16,11,23,06,07,03,13,19,,,,,2.6,1.6,2.0*3D
$GPRMC,010632.000,A,3353.7536,N,09832.0247,W,0.07,338.85,040412,,,D*7E
$GPGGA,010633.000,3353.7536,N,09832.0247,W,2,08,1.6,331.8,M,-23.7,M,0.8,0000*41
$GPGSA,A,3,16,11,23,06,07,03,13,19,,,,,2.6,1.6,2.0*3D
$GPGSV,3,1,12,13,74,203,40,07,56,334,28,19,55,108,38,23,43,167,30*79
$GPGSV,3,2,12,03,39,055,34,06,26,048,30,08,25,304,25,10,16,263,15*72
$GPGSV,3,3,12,28,14,245,,16,13,051,35,11,13,147,26,05,02,314,*74
$GPRMC,010633.000,A,3353.7536,N,09832.0247,W,0.06,122.86,040412,,,D*74
$GPGGA,010634.000,3353.7535,N,09832.0247,W,2,08,1.6,331.7,M,-23.7,M,1.8,0000*4B
$GPGSA,A,3,16,11,23,06,07,03,13,19,,,,,2.6,1.6,2.0*3D
$GPRMC,010634.000,A,3353.7535,N,09832.0247,W,0.08,338.31,040412,,,D*7B
$GPGGA,010635.000,3353.7535,N,09832.0247,W,2,08,1.6,331.4,M,-23.7,M,2.8,0000*4A
$GPGSA,A,3,16,11,23,06,07,03,13,19,,,,,2.6,1.6,2.0*3D
$GPRMC,010635.000,A,3353.7535,N,09832.0247,W,0.15,140.10,040412,,,D*78
$GPGGA,010636.000,3353.7535,N,09832.0247,W,2,08,1.6,331.4,M,-23.7,M,0.8,0000*4B
$GPGSA,A,3,16,11,23,06,07,03,13,19,,,,,2.6,1.6,2.0*3D
$GPRMC,010636.000,A,3353.7535,N,09832.0247,W,0.15,311.38,040412,,,D*77
$GPGGA,010637.000,3353.7535,N,09832.0247,W,2,08,1.6,331.3,M,-23.7,M,0.8,0000*4D
$GPGSA,A,3,16,11,23,06,07,03,13,19,,,,,2.6,1.6,2.0*3D
$GPRMC,010637.000,A,3353.7535,N,09832.0247,W,0.14,306.11,040412,,,D*7A
$GPGGA,010638.000,3353.7535,N,09832.0247,W,2,08,1.6,331.2,M,-23.7,M,0.8,0000*43
$GPGSA,A,3,16,11,23,06,07,03,13,19,,,,,2.6,1.6,2.0*3D
$GPGSV,3,1,12,13,74,203,40,07,56,334,29,19,55,108,38,23,43,167,31*79
$GPGSV,3,2,12,03,39,055,34,06,26,048,30,08,25,304,25,10,16,263,14*73
$GPGSV,3,3,12,28,14,245,,16,13,051,35,11,13,147,25,05,02,314,*77
$GPRMC,010638.000,A,3353.7535,N,09832.0247,W,0.09,338.92,040412,,,D*7F
$GPGGA,010639.000,3353.7535,N,09832.0247,W,2,08,1.6,331.2,M,-23.7,M,0.8,0000*42
$GPGSA,A,3,16,11,23,06,07,03,13,19,,,,,2.6,1.6,2.0*3D
$GPRMC,010639.000,A,3353.7535,N,09832.0247,W,0.06,348.71,040412,,,D*7B
$GPGGA,010640.000,3353.7534,N,09832.0246,W,2,08,1.6,331.3,M,-23.7,M,1.8,0000*4C
$GPGSA,A,3,16,11,23,06,07,03,13,19,,,,,2.6,1.6,2.0*3D
$GPRMC,010640.000,A,3353.7534,N,09832.0246,W,0.12,351.57,040412,,,D*7C
$GPGGA,010641.000,3353.7534,N,09832.0245,W,2,08,1.6,331.3,M,-23.7,M,2.8,0000*4D
$GPGSA,A,3,16,11,23,06,07,03,13,19,,,,,2.6,1.6,2.0*3D
$GPRMC,010641.000,A,3353.7534,N,09832.0245,W,0.15,355.17,040412,,,D*79
$GPGGA,010642.000,3353.7533,N,09832.0244,W,2,08,1.6,331.1,M,-23.7,M,0.8,0000*48
$GPGSA,A,3,16,11,23,06,07,03,13,19,,,,,2.6,1.6,2.0*3D
$GPRMC,010642.000,A,3353.7533,N,09832.0244,W,0.33,121.55,040412,,,D*7F
$GPGGA,010643.000,3353.7532,N,09832.0242,W,2,08,1.6,331.1,M,-23.7,M,0.8,0000*4E
$GPGSA,A,3,16,11,23,06,07,03,13,19,,,,,2.6,1.6,2.0*3D
$GPGSV,3,1,12,13,74,203,40,07,56,334,30,19,55,108,38,23,43,167,31*71
$GPGSV,3,2,12,03,39,055,34,06,26,048,29,08,25,304,25,10,16,263,16*79
$GPGSV,3,3,12,28,14,245,20,16,13,051,36,11,13,147,23,05,02,314,*70
$GPRMC,010643.000,A,3353.7532,N,09832.0242,W,0.17,101.30,040412,,,D*7E
$GPGGA,010644.000,3353.7531,N,09832.0242,W,2,08,1.6,331.0,M,-23.7,M,0.8,0000*4B
$GPGSA,A,3,16,11,23,06,07,03,13,19,,,,,2.6,1.6,2.0*3D
$GPRMC,010644.000,A,3353.7531,N,09832.0242,W,0.05,345.40,040412,,,D*7C
$GPGGA,010645.000,3353.7531,N,09832.0242,W,2,08,1.6,330.9,M,-23.7,M,1.8,0000*43
$GPGSA,A,3,16,11,23,06,07,03,13,19,,,,,2.6,1.6,2.0*3D
$GPRMC,010645.000,A,3353.7531,N,09832.0242,W,0.06,348.69,040412,,,D*78
$GPGGA,010646.000,3353.7530,N,09832.0241,W,2,08,1.6,330.8,M,-23.7,M,2.8,0000*40
$GPGSA,A,3,16,11,23,06,07,03,13,19,,,,,2.6,1.6,2.0*3D
$GPRMC,010646.000,A,3353.7530,N,09832.0241,W,0.06,335.45,040412,,,D*7D
$GPGGA,010647.000,3353.7530,N,09832.0241,W,2,08,1.6,330.5,M,-23.7,M,3.8,0000*4D
$GPGSA,A,3,16,11,23,06,07,03,13,19,,,,,2.6,1.6,2.0*3D
$GPRMC,010647.000,A,3353.7530,N,09832.0241,W,0.23,134.23,040412,,,D*78
$GPGGA,010648.000,3353.7529,N,09832.0241,W,2,08,1.6,330.3,M,-23.7,M,0.8,0000*4F
$GPGSA,A,3,16,11,23,06,07,03,13,19,,,,,2.6,1.6,2.0*3D
$GPGSV,3,1,12,13,74,203,40,07,56,334,31,19,55,108,38,23,43,167,32*73
$GPGSV,3,2,12,03,39,055,34,06,26,048,28,08,25,304,25,10,16,263,18*76
$GPGSV,3,3,12,28,14,245,20,16,13,051,36,11,13,147,17,05,02,314,*77
$GPRMC,010648.000,A,3353.7529,N,09832.0241,W,0.13,163.52,040412,,,D*78
$GPGGA,010649.000,3353.7528,N,09832.0241,W,2,08,1.6,330.1,M,-23.7,M,1.8,0000*4C
$GPGSA,A,3,16,11,23,06,07,03,13,19,,,,,2.6,1.6,2.0*3D
$GPRMC,010649.000,A,3353.7528,N,09832.0241,W,0.13,184.85,040412,,,D*7B
$GPGGA,010650.000,3353.7527,N,09832.0241,W,2,08,1.6,329.9,M,-23.7,M,0.8,0000*4A
$GPGSA,A,3,16,11,23,06,07,03,13,19,,,,,2.6,1.6,2.0*3D
$GPRMC,010650.000,A,3353.7527,N,09832.0241,W,0.17,153.45,040412,,,D*7E
$GPGGA,010651.000,3353.7526,N,09832.0240,W,2,08,1.6,329.6,M,-23.7,M,0.8,0000*44
$GPGSA,A,3,16,11,23,06,07,03,13,19,,,,,2.6,1.6,2.0*3D
$GPRMC,010651.000,A,3353.7526,N,09832.0240,W,0.23,147.12,040412,,,D*7F
$GPGGA,010652.000,3353.7526,N,09832.0240,W,2,08,1.6,329.4,M,-23.7,M,0.8,0000*45
$GPGSA,A,3,16,11,23,06,07,03,13,19,,,,,2.6,1.6,2.0*3D
$GPRMC,010652.000,A,3353.7526,N,09832.0240,W,0.22,162.29,040412,,,D*72
$GPGGA,010653.000,3353.7525,N,09832.0240,W,2,08,1.6,329.1,M,-23.7,M,1.8,0000*43
$GPGSA,A,3,16,11,23,06,07,03,13,19,,,,,2.6,1.6,2.0*3D
$GPGSV,3,1,12,13,74,203,40,07,56,334,31,19,55,108,38,23,43,167,32*73
$GPGSV,3,2,12,03,39,055,34,06,26,048,28,08,25,304,25,10,16,263,19*77
$GPGSV,3,3,12,28,14,245,18,16,13,051,36,11,13,147,15,05,02,314,*7E
$GPRMC,010653.000,A,3353.7525,N,09832.0240,W,0.26,158.29,040412,,,D*7D
$GPGGA,010654.000,3353.7523,N,09832.0239,W,2,08,1.6,328.7,M,-23.7,M,0.8,0000*4A
$GPGSA,A,3,16,11,23,06,07,03,13,19,,,,,2.6,1.6,2.0*3D
$GPRMC,010654.000,A,3353.7523,N,09832.0239,W,0.36,147.79,040412,,,D*78
$GPGGA,010655.000,3353.7522,N,09832.0238,W,2,08,1.6,328.3,M,-23.7,M,0.8,0000*4F
$GPGSA,A,3,16,11,23,06,07,03,13,19,,,,,2.6,1.6,2.0*3D
$GPRMC,010655.000,A,3353.7522,N,09832.0238,W,0.40,155.09,040412,,,D*7C
$GPGGA,010656.000,3353.7521,N,09832.0238,W,2,08,1.6,328.1,M,-23.7,M,0.8,0000*4D
$GPGSA,A,3,16,11,23,06,07,03,13,19,,,,,2.6,1.6,2.0*3D
$GPRMC,010656.000,A,3353.7521,N,09832.0238,W,0.19,202.16,040412,,,D*7F
$GPGGA,010657.000,3353.7521,N,09832.0238,W,2,08,1.6,328.0,M,-23.7,M,1.8,0000*4C
$GPGSA,A,3,16,11,23,06,07,03,13,19,,,,,2.6,1.6,2.0*3D
$GPRMC,010657.000,A,3353.7521,N,09832.0238,W,0.20,264.59,040412,,,D*7F
$GPGGA,010658.000,3353.7521,N,09832.0238,W,2,08,1.6,328.0,M,-23.7,M,2.8,0000*40
$GPGSA,A,3,16,11,23,06,07,03,13,19,,,,,2.6,1.6,2.0*3D
$GPGSV,3,1,12,13,74,203,40,07,56,334,31,19,55,108,37,23,43,167,33*7D
$GPGSV,3,2,12,03,39,055,34,06,26,048,28,08,25,304,26,10,16,263,19*74
$GPGSV,3,3,12,28,14,245,18,16,13,051,36,11,13,147,15,05,02,314,*7E
$GPRMC,010658.000,A,3353.7521,N,09832.0238,W,0.21,281.21,040412,,,D*75
$GPGGA,010659.000,3353.7521,N,09832.0238,W,2,08,1.6,327.9,M,-23.7,M,0.8,0000*45
$GPGSA,A,3,16,11,23,06,07,03,13,19,,,,,2.6,1.6,2.0*3D
$GPRMC,010659.000,A,3353.7521,N,09832.0238,W,0.15,282.87,040412,,,D*7C
$GPGGA,010700.000,3353.7521,N,09832.0238,W,2,08,1.6,327.9,M,-23.7,M,0.8,0000*48
$GPGSA,A,3,16,11,23,06,07,03,13,19,,,,,2.6,1.6,2.0*3D
$GPRMC,010700.000,A,3353.7521,N,09832.0238,W,0.22,279.44,040412,,,D*7E
$GPGGA,010701.000,3353.7521,N,09832.0238,W,2,08,1.6,327.9,M,-23.7,M,0.8,0000*49
$GPGSA,A,3,16,11,23,06,07,03,13,19,,,,,2.6,1.6,2.0*3D
$GPRMC,010701.000,A,3353.7521,N,09832.0238,W,0.23,297.03,040412,,,D*7D
$GPGGA,010702.000,3353.7521,N,09832.0238,W,2,08,1.6,327.8,M,-23.7,M,0.8,0000*4B
$GPGSA,A,3,16,11,23,06,07,03,13,19,,,,,2.6,1.6,2.0*3D
$GPRMC,010702.000,A,3353.7521,N,09832.0238,W,0.02,325.07,040412,,,D*71
$GPGGA,010703.000,3353.7521,N,09832.0238,W,2,08,1.6,327.6,M,-23.7,M,1.8,0000*45
$GPGSA,A,3,16,11,23,06,07,03,13,19,,,,,2.6,1.6,2.0*3D
$GPGSV,3,1,12,13,74,203,41,07,56,334,31,19,55,108,37,23,43,167,33*7C
$GPGSV,3,2,12,03,39,055,34,06,26,048,28,08,25,304,26,10,16,263,20*7E
$GPGSV,3,3,12,28,14,245,18,16,13,051,35,11,13,147,17,05,02,314,*7F
$GPRMC,010703.000,A,3353.7521,N,09832.0238,W,0.19,143.49,040412,,,D*72
$GPGGA,010704.000,3353.7520,N,09832.0237,W,2,08,1.6,327.6,M,-23.7,M,2.8,0000*4F
$GPGSA,A,3,16,11,23,06,07,03,13,19,,,,,2.6,1.6,2.0*3D
$GPRMC,010704.000,A,3353.7520,N,09832.0237,W,0.10,152.05,040412,,,D*7A
$GPGGA,010705.000,3353.7520,N,09832.0237,W,2,08,1.6,327.4,M,-23.7,M,0.8,0000*4E
$GPGSA,A,3,16,11,23,06,07,03,13,19,,,,,2.6,1.6,2.0*3D
$GPRMC,010705.000,A,3353.7520,N,09832.0237,W,0.16,145.57,040412,,,D*7C
$GPGGA,010706.000,3353.7519,N,09832.0236,W,2,08,1.6,327.2,M,-23.7,M,0.8,0000*40
$GPGSA,A,3,16,11,23,06,07,03,13,19,,,,,2.6,1.6,2.0*3D
$GPRMC,010706.000,A,3353.7519,N,09832.0236,W,0.25,135.45,040412,,,D*70
$GPGGA,010707.000,3353.7519,N,09832.0236,W,2,08,1.6,327.0,M,-23.7,M,0.8,0000*43
$GPGSA,A,3,16,11,23,06,07,03,13,19,,,,,2.6,1.6,2.0*3D
$GPRMC,010707.000,A,3353.7519,N,09832.0236,W,0.25,139.63,040412,,,D*79
$GPGGA,010708.000,3353.7518,N,09832.0236,W,2,08,1.6,326.9,M,-23.7,M,0.8,0000*45
$GPGSA,A,3,16,11,23,06,07,03,13,19,,,,,2.6,1.6,2.0*3D
$GPGSV,3,1,12,13,74,203,40,07,56,334,31,19,55,108,37,23,43,167,33*7D
$GPGSV,3,2,12,03,39,055,34,06,26,048,28,08,25,304,27,10,16,263,20*7F
$GPGSV,3,3,12,28,14,245,19,16,13,051,35,11,13,147,19,05,02,314,*70
$GPRMC,010708.000,A,3353.7518,N,09832.0236,W,0.10,189.63,040412,,,D*7A
$GPGGA,010709.000,3353.7518,N,09832.0236,W,2,08,1.6,326.8,M,-23.7,M,1.8,0000*44
$GPGSA,A,3,16,11,23,06,07,03,13,19,,,,,2.6,1.6,2.0*3D
$GPRMC,010709.000,A,3353.7518,N,09832.0236,W,0.15,294.45,040412,,,D*75
$GPGGA,010710.000,3353.7518,N,09832.0236,W,2,08,1.6,326.8,M,-23.7,M,2.8,0000*4F
$GPGSA,A,3,16,11,23,06,07,03,13,19,,,,,2.6,1.6,2.0*3D
$GPRMC,010710.000,A,3353.7518,N,09832.0236,W,0.20,302.03,040412,,,D*77
$GPGGA,010711.000,3353.7518,N,09832.0236,W,2,08,1.6,326.9,M,-23.7,M,0.8,0000*4D
$GPGSA,A,3,16,11,23,06,07,03,13,19,,,,,2.6,1.6,2.0*3D
$GPRMC,010711.000,A,3353.7518,N,09832.0236,W,0.15,304.70,040412,,,D*72
$GPGGA,010712.000,3353.7519,N,09832.0237,W,2,08,1.6,326.8,M,-23.7,M,0.8,0000*4F
$GPGSA,A,3,16,11,23,06,07,03,13,19,,,,,2.6,1.6,2.0*3D
$GPRMC,010712.000,A,3353.7519,N,09832.0237,W,0.16,302.90,040412,,,D*7A
$GPGGA,010713.000,3353.7519,N,09832.0237,W,2,08,1.6,326.9,M,-23.7,M,0.8,0000*4F
$GPGSA,A,3,16,11,23,06,07,03,13,19,,,,,2.6,1.6,2.0*3D
$GPGSV,3,1,12,13,74,203,40,07,56,334,30,19,55,108,37,23,43,167,34*7B
$GPGSV,3,2,12,03,39,055,34,06,26,048,28,08,25,304,27,10,16,263,20*7F
$GPGSV,3,3,12,28,14,245,19,16,13,051,35,11,13,147,21,05,02,314,*7B
$GPRMC,010713.000,A,3353.7519,N,09832.0237,W,0.26,310.87,040412,,,D*7D
$GPGGA,010714.000,3353.7519,N,09832.0237,W,2,08,1.6,326.8,M,-23.7,M,0.8,0000*49
$GPGSA,A,3,16,11,23,06,07,03,13,19,,,,,2.6,1.6,2.0*3D
$GPRMC,010714.000,A,3353.7519,N,09832.0237,W,0.06,27.92,040412,,,D*4B
$GPGGA,010715.000,3353.7519,N,09832.0237,W,2,08,1.6,326.7,M,-23.7,M,1.8,0000*46
$GPGSA,A,3,16,11,23,06,07,03,13,19,,,,,2.6,1.6,2.0*3D
$GPRMC,010715.000,A,3353.7519,N,09832.0237,W,0.14,123.15,040412,,,D*73
$GPGGA,010716.000,3353.7519,N,09832.0237,W,2,08,1.6,326.7,M,-23.7,M,2.8,0000*46
$GPGSA,A,3,16,11,23,06,07,03,13,19,,,,,2.6,1.6,2.0*3D
$GPRMC,010716.000,A,3353.7519,N,09832.0237,W,0.06,60.66,040412,,,D*41
$GPGGA,010717.000,3353.7519,N,09832.0237,W,2,08,1.6,326.6,M,-23.7,M,3.8,0000*47
$GPGSA,A,3,16,11,23,06,07,03,13,19,,,,,2.6,1.6,2.0*3D
$GPRMC,010717.000,A,3353.7519,N,09832.0237,W,0.06,79.59,040412,,,D*44
$GPGGA,010718.000,3353.7518,N,09832.0237,W,2,08,1.6,326.3,M,-23.7,M,0.8,0000*4F
$GPGSA,A,3,16,11,23,06,07,03,13,19,,,,,2.6,1.6,2.0*3D
$GPGSV,3,1,12,13,74,203,40,07,56,334,30,19,55,108,38,23,43,167,34*74
$GPGSV,3,2,12,03,39,055,35,06,26,048,28,08,25,304,27,10,16,263,20*7E
$GPGSV,3,3,12,28,14,245,18,16,13,051,35,11,13,147,23,05,02,314,*78
$GPRMC,010718.000,A,3353.7518,N,09832.0237,W,0.33,129.26,040412,,,D*70
$GPGGA,010719.000,3353.7518,N,09832.0236,W,2,08,1.6,326.3,M,-23.7,M,0.8,0000*4F
$GPGSA,A,3,16,11,23,06,07,03,13,19,,,,,2.6,1.6,2.0*3D
$GPRMC,010719.000,A,3353.7518,N,09832.0236,W,0.12,100.50,040412,,,D*79
$GPGGA,010720.000,3353.7517,N,09832.0236,W,2,08,1.6,326.1,M,-23.7,M,0.8,0000*48
$GPGSA,A,3,16,11,23,06,07,03,13,19,,,,,2.6,1.6,2.0*3D
$GPRMC,010720.000,A,3353.7517,N,09832.0236,W,0.13,149.56,040412,,,D*76
$GPGGA,010721.000,3353.7517,N,09832.0236,W,2,08,1.6,325.9,M,-23.7,M,1.8,0000*43
$GPGSA,A,3,16,11,23,06,07,03,13,19,,,,,2.6,1.6,2.0*3D
$GPRMC,010721.000,A,3353.7517,N,09832.0236,W,0.07,173.68,040412,,,D*76
$GPGGA,010722.000,3353.7516,N,09832.0236,W,2,08,1.6,325.7,M,-23.7,M,2.8,0000*4C
$GPGSA,A,3,16,11,23,06,07,03,13,19,,,,,2.6,1.6,2.0*3D
$GPRMC,010722.000,A,3353.7516,N,09832.0236,W,0.21,153.04,040412,,,D*78
$GPGGA,010723.000,3353.7516,N,09832.0236,W,2,08,1.6,325.6,M,-23.7,M,3.8,0000*4D
$GPGSA,A,3,16,11,23,06,07,03,13,19,,,,,2.6,1.6,2.0*3D
$GPGSV,3,1,12,13,74,203,40,07,56,334,30,19,55,108,38,23,43,167,34*74
$GPGSV,3,2,12,03,39,055,35,06,26,048,28,08,25,304,26,10,16,263,19*75
$GPGSV,3,3,12,28,14,245,,16,13,051,35,11,13,147,24,05,02,314,*76
$GPRMC,010723.000,A,3353.7516,N,09832.0236,W,0.07,280.59,040412,,,D*78
$GPGGA,010724.000,3353.7516,N,09832.0237,W,2,08,1.7,325.4,M,-23.7,M,0.8,0000*4B
$GPGSA,A,3,16,11,23,06,07,03,13,19,,,,,2.6,1.7,2.0*3C
$GPRMC,010724.000,A,3353.7516,N,09832.0237,W,0.10,257.69,040412,,,D*71
$GPGGA,010725.000,3353.7516,N,09832.0238,W,2,08,1.7,325.3,M,-23.7,M,0.8,0000*42
$GPGSA,A,3,16,11,23,06,07,03,13,19,,,,,2.6,1.7,2.0*3C
$GPRMC,010725.000,A,3353.7516,N,09832.0238,W,0.10,267.68,040412,,,D*7D
$GPGGA,010726.000,3353.7516,N,09832.0238,W,2,08,1.7,325.1,M,-23.7,M,0.8,0000*43
$GPGSA,A,3,16,11,23,06,07,03,13,19,,,,,2.6,1.7,2.0*3C
$GPRMC,010726.000,A,3353.7516,N,09832.0238,W,0.10,141.23,040412,,,D*76
$GPGGA,010727.000,3353.7515,N,09832.0238,W,2,08,1.7,325.0,M,-23.7,M,1.8,0000*41
$GPGSA,A,3,16,11,23,06,07,03,13,19,,,,,2.6,1.7,2.0*3C
$GPRMC,010727.000,A,3353.7515,N,09832.0238,W,0.03,317.70,040412,,,D*71
$GPGGA,010728.000,3353.7515,N,09832.0238,W,2,08,1.7,324.9,M,-23.7,M,2.8,0000*45
$GPGSA,A,3,16,11,23,06,07,03,13,19,,,,,2.6,1.7,2.0*3C
$GPGSV,3,1,12,13,74,203,40,07,56,334,30,19,55,108,37,23,43,167,34*7B
$GPGSV,3,2,12,03,39,055,35,06,26,048,28,08,25,304,26,10,16,263,16*7A
$GPGSV,3,3,12,28,14,245,,16,13,051,34,11,13,147,24,05,02,314,*77
$GPRMC,010728.000,A,3353.7515,N,09832.0238,W,0.00,36.57,040412,,,D*48
$GPGGA,010729.000,3353.7515,N,09832.0238,W,2,08,1.7,324.8,M,-23.7,M,3.8,0000*44
$GPGSA,A,3,16,11,23,06,07,03,13,19,,,,,2.6,1.7,2.0*3C
$GPRMC,010729.000,A,3353.7515,N,09832.0238,W,0.01,299.08,040412,,,D*75
$GPGGA,010730.000,3353.7515,N,09832.0238,W,2,08,1.7,324.7,M,-23.7,M,0.8,0000*40
$GPGSA,A,3,16,11,23,06,07,03,13,19,,,,,2.6,1.7,2.0*3C
$GPRMC,010730.000,A,3353.7515,N,09832.0238,W,0.09,106.99,040412,,,D*78
$GPGGA,010731.000,3353.7515,N,09832.0238,W,2,08,1.7,324.4,M,-23.7,M,0.8,0000*42
$GPGSA,A,3,16,11,23,06,07,03,13,19,,,,,2.6,1.7,2.0*3C
$GPRMC,010731.000,A,3353.7515,N,09832.0238,W,0.24,130.28,040412,,,D*79
$GPGGA,010732.000,3353.7514,N,09832.0238,W,2,08,1.7,324.4,M,-23.7,M,0.8,0000*40
$GPGSA,A,3,16,11,23,06,07,03,13,19,,,,,2.6,1.7,2.0*3C
$GPRMC,010732.000,A,3353.7514,N,09832.0238,W,0.04,277.95,040412,,,D*7F
$GPGGA,010733.000,3353.7514,N,09832.0238,W,2,08,1.7,324.3,M,-23.7,M,1.8,0000*47
$GPGSA,A,3,16,11,23,06,07,03,13,19,,,,,2.6,1.7,2.0*3C
$GPGSV,3,1,12,13,74,203,40,07,56,334,30,19,55,108,37,23,43,167,34*7B
$GPGSV,3,2,12,03,39,055,35,06,26,048,28,08,25,304,26,10,16,263,14*78
$GPGSV,3,3,12,28,14,245,,16,13,051,34,11,13,147,24,05,02,314,*77
$GPRMC,010733.000,A,3353.7514,N,09832.0238,W,0.10,310.62,040412,,,D*73
$GPGGA,010734.000,3353.7514,N,09832.0238,W,2,08,1.7,324.1,M,-23.7,M,2.8,0000*41
$GPGSA,A,3,16,11,23,06,07,03,13,19,,,,,2.6,1.7,2.0*3C
$GPRMC,010734.000,A,3353.7514,N,09832.0238,W,0.17,153.23,040412,,,D*73
$GPGGA,010735.000,3353.7513,N,09832.0238,W,2,08,1.7,324.0,M,-23.7,M,3.8,0000*47
$GPGSA,A,3,16,11,23,06,07,03,13,19,,,,,2.6,1.7,2.0*3C
$GPRMC,010735.000,A,3353.7513,N,09832.0238,W,0.02,252.21,040412,,,D*71
$GPGGA,010736.000,3353.7513,N,09832.0239,W,2,08,1.7,323.7,M,-23.7,M,0.8,0000*46
$GPGSA,A,3,16,11,23,06,07,03,13,19,,,,,2.6,1.7,2.0*3C
$GPRMC,010736.000,A,3353.7513,N,09832.0239,W,0.18,159.95,040412,,,D*7F
$GPGGA,010737.000,3353.7513,N,09832.0239,W,2,08,1.7,323.7,M,-23.7,M,0.8,0000*47
$GPGSA,A,3,16,11,23,06,07,03,13,19,,,,,2.6,1.7,2.0*3C
$GPRMC,010737.000,A,3353.7513,N,09832.0239,W,0.15,293.06,040412,,,D*7C
$GPGGA,010738.000,3353.7513,N,09832.0239,W,2,08,1.7,323.7,M,-23.7,M,0.8,0000*48
$GPGSA,A,3,16,11,23,06,07,03,13,19,,,,,2.6,1.7,2.0*3C
$GPGSV,3,1,12,13,74,203,41,07,56,334,31,19,55,108,37,23,43,167,34*7B
$GPGSV,3,2,12,03,39,055,36,06,26,048,29,08,25,304,26,10,16,263,17*79
$GPGSV,3,3,12,28,14,245,,16,13,051,34,11,13,147,23,05,02,314,*70
$GPRMC,010738.000,A,3353.7513,N,09832.0239,W,0.13,330.96,040412,,,D*74
$GPGGA,010739.000,3353.7513,N,09832.0239,W,2,08,1.7,323.4,M,-23.7,M,0.8,0000*4A
$GPGSA,A,3,16,11,23,06,07,03,13,19,,,,,2.6,1.7,2.0*3C
$GPRMC,010739.000,A,3353.7513,N,09832.0239,W,0.20,131.06,040412,,,D*7F
$GPGGA,010740.000,3353.7512,N,09832.0239,W,2,08,1.7,323.2,M,-23.7,M,1.8,0000*42
$GPGSA,A,3,16,11,23,06,07,03,13,19,,,,,2.6,1.7,2.0*3C
$GPRMC,010740.000,A,3353.7512,N,09832.0239,W,0.23,137.08,040412,,,D*7B
$GPGGA,010741.000,3353.7511,N,09832.0239,W,2,08,1.7,323.0,M,-23.7,M,2.8,0000*41
$GPGSA,A,3,16,11,23,06,07,03,13,19,,,,,2.6,1.7,2.0*3C
$GPRMC,010741.000,A,3353.7511,N,09832.0239,W,0.22,138.74,040412,,,D*7C
$GPGGA,010742.000,3353.7511,N,09832.0239,W,2,08,1.7,322.9,M,-23.7,M,0.8,0000*48
$GPGSA,A,3,16,11,23,06,07,03,13,19,,,,,2.6,1.7,2.0*3C
$GPRMC,010742.000,A,3353.7511,N,09832.0239,W,0.05,3.28,040412,,,D*7A
$GPGGA,010743.000,3353.7511,N,09832.0239,W,2,08,1.7,322.9,M,-23.7,M,0.8,0000*49
$GPGSA,A,3,16,11,23,06,07,03,13,19,,,,,2.6,1.7,2.0*3C
$GPGSV,3,1,12,13,74,203,41,07,56,334,31,19,55,108,37,23,43,167,34*7B
$GPGSV,3,2,12,03,39,055,36,06,26,048,29,08,25,304,26,10,16,263,19*77
$GPGSV,3,3,12,28,14,245,,16,13,051,34,11,13,147,22,05,02,314,*71
$GPRMC,010743.000,A,3353.7511,N,09832.0239,W,0.06,358.32,040412,,,D*7E
$GPGGA,010744.000,3353.7511,N,09832.0239,W,2,08,1.7,322.6,M,-23.7,M,0.8,0000*41
$GPGSA,A,3,16,11,23,06,07,03,13,19,,,,,2.6,1.7,2.0*3C
$GPRMC,010744.000,A,3353.7511,N,09832.0239,W,0.09,168.88,040412,,,D*76
$GPGGA,010745.000,3353.7510,N,09832.0239,W,2,08,1.7,322.4,M,-23.7,M,1.8,0000*42
$GPGSA,A,3,16,11,23,06,07,03,13,19,,,,,2.6,1.7,2.0*3C
$GPRMC,010745.000,A,3353.7510,N,09832.0239,W,0.11,170.35,040412,,,D*70
$GPGGA,010746.000,3353.7510,N,09832.0240,W,2,08,1.7,322.3,M,-23.7,M,2.8,0000*4B
$GPGSA,A,3,16,11,23,06,07,03,13,19,,,,,2.6,1.7,2.0*3C
$GPRMC,010746.000,A,3353.7510,N,09832.0240,W,0.16,292.58,040412,,,D*7E
$GPGGA,010747.000,3353.7510,N,09832.0240,W,2,08,1.7,322.1,M,-23.7,M,3.8,0000*49
$GPGSA,A,3,16,11,23,06,07,03,13,19,,,,,2.6,1.7,2.0*3C
$GPRMC,010747.000,A,3353.7510,N,09832.0240,W,0.06,261.11,040412,,,D*7F
$GPGGA,010748.000,3353.7509,N,09832.0241,W,2,08,1.7,321.9,M,-23.7,M,0.8,0000*47
$GPGSA,A,3,16,11,23,06,07,03,13,19,,,,,2.6,1.7,2.0*3C
$GPGSV,3,1,12,13,73,201,41,07,57,335,31,19,55,107,37,23,43,167,34*71
$GPGSV,3,2,12,03,38,054,35,06,26,047,30,08,25,304,26,10,16,262,19*72
$GPGSV,3,3,12,28,14,245,,11,13,146,22,16,13,051,34,05,02,313,*77
$GPRMC,010748.000,A,3353.7509,N,09832.0241,W,0.21,159.95,040412,,,D*78
$GPGGA,010749.000,3353.7508,N,09832.0241,W,2,08,1.7,321.6,M,-23.7,M,0.8,0000*48
$GPGSA,A,3,16,11,23,06,07,03,13,19,,,,,2.6,1.7,2.0*3C
$GPRMC,010749.000,A,3353.7508,N,09832.0241,W,0.26,167.82,040412,,,D*74
$GPGGA,010750.000,3353.7508,N,09832.0241,W,2,08,1.7,321.5,M,-23.7,M,0.8,0000*43
$GPGSA,A,3,16,11,23,06,07,03,13,19,,,,,2.6,1.7,2.0*3C
$GPRMC,010750.000,A,3353.7508,N,09832.0241,W,0.08,159.52,040412,,,D*70
$GPGGA,010751.000,3353.7508,N,09832.0241,W,2,08,1.7,321.3,M,-23.7,M,1.8,0000*45
$GPGSA,A,3,16,11,23,06,07,03,13,19,,,,,2.6,1.7,2.0*3C
$GPRMC,010751.000,A,3353.7508,N,09832.0241,W,0.12,141.85,040412,,,D*79
$GPGGA,010752.000,3353.7507,N,09832.0240,W,2,08,1.7,321.3,M,-23.7,M,2.8,0000*4B
$GPGSA,A,3,16,11,23,06,07,03,13,19,,,,,2.6,1.7,2.0*3C
$GPRMC,010752.000,A,3353.7507,N,09832.0240,W,0.13,148.58,040412,,,D*7C
$GPGGA,010753.000,3353.7507,N,09832.0240,W,2,08,1.7,321.0,M,-23.7,M,3.8,0000*48
$GPGSA,A,3,16,11,23,06,07,03,13,19,,,,,2.6,1.7,2.0*3C
$GPGSV,3,1,12,13,73,201,41,07,57,335,32,19,55,107,37,23,43,167,35*73
$GPGSV,3,2,12,03,38,054,35,06,26,047,30,08,25,304,26,10,16,262,20*78
$GPGSV,3,3,12,28,14,245,,11,13,146,21,16,13,051,34,05,02,313,*74
$GPRMC,010753.000,A,3353.7507,N,09832.0240,W,0.29,141.62,040412,,,D*74
$GPGGA,010754.000,3353.7506,N,09832.0239,W,2,08,1.7,321.0,M,-23.7,M,0.8,0000*43
$GPGSA,A,3,16,11,23,06,07,03,13,19,,,,,2.6,1.7,2.0*3C
$GPRMC,010754.000,A,3353.7506,N,09832.0239,W,0.03,117.16,040412,,,D*74
$GPGGA,010755.000,3353.7506,N,09832.0239,W,2,08,1.7,320.9,M,-23.7,M,0.8,0000*4A
$GPGSA,A,3,16,11,23,06,07,03,13,19,,,,,2.6,1.7,2.0*3C
$GPRMC,010755.000,A,3353.7506,N,09832.0239,W,0.06,125.54,040412,,,D*77
$GPGGA,010756.000,3353.7506,N,09832.0239,W,2,08,1.7,320.8,M,-23.7,M,0.8,0000*48
$GPGSA,A,3,16,11,23,06,07,03,13,19,,,,,2.6,1.7,2.0*3C
$GPRMC,010756.000,A,3353.7506,N,09832.0239,W,0.06,194.75,040412,,,D*7D
$GPGGA,010757.000,3353.7506,N,09832.0240,W,2,08,1.7,320.8,M,-23.7,M,1.8,0000*46
$GPGSA,A,3,16,11,23,06,07,03,13,19,,,,,2.6,1.7,2.0*3C
$GPRMC,010757.000,A,3353.7506,N,09832.0240,W,0.13,290.21,040412,,,D*70
$GPGGA,010758.000,3353.7506,N,09832.0240,W,2,08,1.7,320.7,M,-23.7,M,2.8,0000*45
$GPGSA,A,3,16,11,23,06,07,03,13,19,,,,,2.6,1.7,2.0*3C
$GPGSV,3,1,12,13,73,201,41,07,57,335,32,19,55,107,37,23,43,167,35*73
$GPGSV,3,2,12,03,38,054,35,06,26,047,30,08,25,304,25,10,16,262,21*7A
$GPGSV,3,3,12,28,14,245,,11,13,146,22,16,13,051,34,05,02,313,*77
$GPRMC,010758.000,A,3353.7506,N,09832.0240,W,0.06,196.61,040412,,,D*7A
$GPGGA,010759.000,3353.7505,N,09832.0240,W,2,08,1.7,320.6,M,-23.7,M,3.8,0000*47
$GPGSA,A,3,16,11,23,06,07,03,13,19,,,,,2.6,1.7,2.0*3C
$GPRMC,010759.000,A,3353.7505,N,09832.0240,W,0.05,202.24,040412,,,D*74
$GPGGA,010800.000,3353.7505,N,09832.0241,W,2,08,1.7,320.3,M,-23.7,M,0.8,0000*43
$GPGSA,A,3,16,11,23,06,07,03,13,19,,,,,2.6,1.7,2.0*3C
$GPRMC,010800.000,A,3353.7505,N,09832.0241,W,0.19,163.06,040412,,,D*7F
$GPGGA,010801.000,3353.7505,N,09832.0241,W,2,08,1.7,320.2,M,-23.7,M,0.8,0000*43
$GPGSA,A,3,16,11,23,06,07,03,13,19,,,,,2.6,1.7,2.0*3C
$GPRMC,010801.000,A,3353.7505,N,09832.0241,W,0.12,246.54,040412,,,D*76
$GPGGA,010802.000,3353.7504,N,09832.0242,W,2,08,1.7,320.0,M,-23.7,M,0.8,0000*40
$GPGSA,A,3,16,11,23,06,07,03,13,19,,,,,2.6,1.7,2.0*3C
$GPRMC,010802.000,A,3353.7504,N,09832.0242,W,0.23,143.17,040412,,,D*74
$GPGGA,010803.000,3353.7504,N,09832.0241,W,2,08,1.7,320.0,M,-23.7,M,0.8,0000*42
$GPGSA,A,3,16,11,23,06,07,03,13,19,,,,,2.6,1.7,2.0*3C
$GPGSV,3,1,12,13,73,201,42,07,57,335,31,19,55,107,38,23,43,167,35*7C
$GPGSV,3,2,12,03,38,054,35,06,26,047,30,08,25,304,24,10,16,262,21*7B
$GPGSV,3,3,12,28,14,245,,11,13,146,22,16,13,051,34,05,02,313,*77
$GPRMC,010803.000,A,3353.7504,N,09832.0241,W,0.06,308.81,040412,,,D*73
$GPGGA,010804.000,3353.7504,N,09832.0242,W,2,08,1.7,319.8,M,-23.7,M,1.8,0000*45
$GPGSA,A,3,16,11,23,06,07,03,13,19,,,,,2.6,1.7,2.0*3C
$GPRMC,010804.000,A,3353.7504,N,09832.0242,W,0.09,136.69,040412,,,D*71
$GPGGA,010805.000,3353.7504,N,09832.0242,W,2,08,1.7,319.6,M,-23.7,M,2.8,0000*49
$GPGSA,A,3,16,11,23,06,07,03,13,19,,,,,2.6,1.7,2.0*3C
$GPRMC,010805.000,A,3353.7504,N,09832.0242,W,0.17,148.84,040412,,,D*75
$GPGGA,010806.000,3353.7503,N,09832.0241,W,2,08,1.7,319.6,M,-23.7,M,0.8,0000*4C
$GPGSA,A,3,16,11,23,06,07,03,13,19,,,,,2.6,1.7,2.0*3C
$GPRMC,010806.000,A,3353.7503,N,09832.0241,W,0.03,71.54,040412,,,D*41
$GPGGA,010807.000,3353.7503,N,09832.0241,W,2,08,1.7,319.3,M,-23.7,M,0.8,0000*48
$GPGSA,A,3,16,11,23,06,07,03,13,19,,,,,2.6,1.7,2.0*3C
$GPRMC,010807.000,A,3353.7503,N,09832.0241,W,0.30,135.03,040412,,,D*73
$GPGGA,010808.000,3353.7503,N,09832.0241,W,2,08,1.7,319.3,M,-23.7,M,0.8,0000*47
$GPGSA,A,3,16,11,23,06,07,03,13,19,,,,,2.6,1.7,2.0*3C
$GPGSV,3,1,12,13,73,201,42,07,57,335,31,19,55,107,38,23,43,167,34*7D
$GPGSV,3,2,12,03,38,054,35,06,26,047,29,08,25,304,20,10,16,262,21*77
$GPGSV,3,3,12,28,14,245,,11,13,146,23,16,13,051,34,05,02,313,*76
$GPRMC,010808.000,A,3353.7503,N,09832.0241,W,0.08,265.48,040412,,,D*7E
$GPGGA,010809.000,3353.7503,N,09832.0242,W,2,08,1.7,319.2,M,-23.7,M,0.8,0000*44
$GPGSA,A,3,16,11,23,06,07,03,13,19,,,,,2.6,1.7,2.0*3C
$GPRMC,010809.000,A,3353.7503,N,09832.0242,W,0.16,299.11,040412,,,D*7C
$GPGGA,010810.000,3353.7503,N,09832.0242,W,2,08,1.7,319.2,M,-23.7,M,1.8,0000*4D
$GPGSA,A,3,16,11,23,06,07,03,13,19,,,,,2.6,1.7,2.0*3C
$GPRMC,010810.000,A,3353.7503,N,09832.0242,W,0.17,308.20,040412,,,D*7E
$GPGGA,010811.000,3353.7503,N,09832.0243,W,2,08,1.7,319.1,M,-23.7,M,0.8,0000*4F
$GPGSA,A,3,16,11,23,06,07,03,13,19,,,,,2.6,1.7,2.0*3C
$GPRMC,010811.000,A,3353.7503,N,09832.0243,W,0.04,281.14,040412,,,D*7B
$GPGGA,010812.000,3353.7502,N,09832.0243,W,2,08,1.7,319.0,M,-23.7,M,0.8,0000*4C
$GPGSA,A,3,16,11,23,06,07,03,13,19,,,,,2.6,1.7,2.0*3C
$GPRMC,010812.000,A,3353.7502,N,09832.0243,W,0.07,215.03,040412,,,D*71
$GPGGA,010813.000,3353.7502,N,09832.0244,W,2,08,1.7,318.8,M,-23.7,M,0.8,0000*43
$GPGSA,A,3,16,11,23,06,07,03,13,19,,,,,2.6,1.7,2.0*3C
$GPGSV,3,1,12,13,73,201,42,07,57,335,31,19,55,107,37,23,43,167,35*73
$GPGSV,3,2,12,03,38,054,35,08,26,304,19,06,25,047,29,10,16,262,21*7D
$GPGSV,3,3,12,28,14,245,,11,14,146,24,16,13,051,34,05,02,313,*76
$GPRMC,010813.000,A,3353.7502,N,09832.0244,W,0.08,198.62,040412,,,D*79
$GPGGA,010814.000,3353.7502,N,09832.0244,W,2,08,1.7,318.7,M,-23.7,M,0.8,0000*4B
$GPGSA,A,3,16,11,23,06,07,03,13,19,,,,,2.6,1.7,2.0*3C
$GPRMC,010814.000,A,3353.7502,N,09832.0244,W,0.02,78.54,040412,,,D*4E
$GPGGA,010815.000,3353.7502,N,09832.0244,W,2,08,1.7,318.7,M,-23.7,M,0.8,0000*4A
$GPGSA,A,3,16,11,23,06,07,03,13,19,,,,,2.6,1.7,2.0*3C
$GPRMC,010815.000,A,3353.7502,N,09832.0244,W,0.05,112.69,040412,,,D*7B
$GPGGA,010816.000,3353.7502,N,09832.0244,W,2,08,1.7,318.5,M,-23.7,M,1.8,0000*4A
$GPGSA,A,3,16,11,23,06,07,03,13,19,,,,,2.6,1.7,2.0*3C
$GPRMC,010816.000,A,3353.7502,N,09832.0244,W,0.26,137.14,040412,,,D*74
$GPGGA,010817.000,3353.7501,N,09832.0244,W,2,08,1.7,318.4,M,-23.7,M,2.8,0000*4A
$GPGSA,A,3,16,11,23,06,07,03,13,19,,,,,2.6,1.7,2.0*3C
$GPRMC,010817.000,A,3353.7501,N,09832.0244,W,0.06,119.08,040412,,,D*75
$GPGGA,010818.000,3353.7501,N,09832.0244,W,2,08,1.7,318.3,M,-23.7,M,0.8,0000*40
$GPGSA,A,3,16,11,23,06,07,03,13,19,,,,,2.6,1.7,2.0*3C
$GPGSV,3,1,12,13,73,201,42,07,57,336,30,19,55,107,37,23,42,167,35*70
$GPGSV,3,2,12,03,38,054,35,08,26,304,18,06,25,047,29,10,16,262,21*7C
$GPGSV,3,3,12,28,14,245,,11,14,146,24,16,13,051,34,05,02,313,*76
$GPRMC,010818.000,A,3353.7501,N,09832.0244,W,0.11,113.83,040412,,,D*75
$GPGGA,010819.000,3353.7501,N,09832.0243,W,2,08,1.7,318.3,M,-23.7,M,0.8,0000*46
$GPGSA,A,3,16,11,23,06,07,03,13,19,,,,,2.6,1.7,2.0*3C
$GPRMC,010819.000,A,3353.7501,N,09832.0243,W,0.06,61.54,040412,,,D*4B
$GPGGA,010820.000,3353.7501,N,09832.0244,W,2,08,1.7,318.2,M,-23.7,M,0.8,0000*4A
$GPGSA,A,3,16,11,23,06,07,03,13,19,,,,,2.6,1.7,2.0*3C
$GPRMC,010820.000,A,3353.7501,N,09832.0244,W,0.11,143.24,040412,,,D*76
$GPGGA,010821.000,3353.7501,N,09832.0244,W,2,08,1.7,318.2,M,-23.7,M,0.8,0000*4B
$GPGSA,A,3,16,11,23,06,07,03,13,19,,,,,2.6,1.7,2.0*3C
$GPRMC,010821.000,A,3353.7501,N,09832.0244,W,0.07,301.10,040412,,,D*73
$GPGGA,010822.000,3353.7501,N,09832.0244,W,2,08,1.7,318.2,M,-23.7,M,1.8,0000*49
$GPGSA,A,3,16,11,23,06,07,03,13,19,,,,,2.6,1.7,2.0*3C
$GPRMC,010822.000,A,3353.7501,N,09832.0244,W,0.07,303.30,040412,,,D*70
$GPGGA,010823.000,3353.7501,N,09832.0245,W,2,08,1.7,318.1,M,-23.7,M,2.8,0000*49
$GPGSA,A,3,16,11,23,06,07,03,13,19,,,,,2.6,1.7,2.0*3C
$GPGSV,3,1,12,13,73,201,42,07,57,336,30,19,55,107,37,23,42,167,36*73
$GPGSV,3,2,12,03,38,054,35,08,26,304,16,06,25,047,29,10,16,262,20*73
