$GPGGA,182137.000,3353.7544,N,09832.0232,W,2,06,2.1,323.3,M,-23.7,M,2.8,0000*4F
$GPGSA,A,3,14,12,31,18,25,22,,,,,,,3.4,2.1,2.7*39
$GPGSV,3,1,11,22,63,092,28,14,62,007,34,31,53,192,36,11,25,294,*7D
$GPGSV,3,2,11,18,22,114,34,25,21,098,28,01,18,316,,32,14,306,*70
$GPGSV,3,3,11,12,11,058,33,19,06,255,,51,49,195,38*44
$GPRMC,182137.000,A,3353.7544,N,09832.0232,W,0.28,84.14,010412,,,D*45
$GPGGA,182138.000,3353.7544,N,09832.0232,W,2,06,2.1,323.4,M,-23.7,M,0.8,0000*45
$GPGSA,A,3,14,12,31,18,25,22,,,,,,,3.4,2.1,2.7*39
$GPRMC,182138.000,A,3353.7544,N,09832.0232,W,0.20,81.78,010412,,,D*4D
$GPGGA,182139.000,3353.7544,N,09832.0233,W,2,06,2.1,323.3,M,-23.7,M,0.8,0000*42
$GPGSA,A,3,14,12,31,18,25,22,,,,,,,3.4,2.1,2.7*39
$GPRMC,182139.000,A,3353.7544,N,09832.0233,W,0.16,81.56,010412,,,D*44
$GPGGA,182140.000,3353.7544,N,09832.0234,W,2,06,2.1,323.0,M,-23.7,M,0.8,0000*48
$GPGSA,A,3,14,12,31,18,25,22,,,,,,,3.4,2.1,2.7*39
$GPRMC,182140.000,A,3353.7544,N,09832.0234,W,0.09,125.43,010412,,,D*78
$GPGGA,182141.000,3353.7544,N,09832.0236,W,2,06,2.1,322.8,M,-23.7,M,0.8,0000*42
$GPGSA,A,3,14,12,31,18,25,22,,,,,,,3.4,2.1,2.7*39
$GPRMC,182141.000,A,3353.7544,N,09832.0236,W,0.08,134.41,010412,,,D*78
$GPGGA,182142.000,3353.7544,N,09832.0237,W,2,06,2.1,322.6,M,-23.7,M,1.8,0000*4F
$GPGSA,A,3,14,12,31,18,25,22,,,,,,,3.4,2.1,2.7*39
$GPGSV,3,1,11,22,63,092,31,14,62,007,36,31,53,192,38,11,25,294,*79
$GPGSV,3,2,11,18,22,114,35,25,21,098,28,01,18,316,,32,14,306,*71
$GPGSV,3,3,11,12,11,058,34,19,06,255,,51,49,195,39*42
$GPRMC,182142.000,A,3353.7544,N,09832.0237,W,0.07,162.38,010412,,,D*78
$GPGGA,182143.000,3353.7544,N,09832.0239,W,2,06,2.1,322.3,M,-23.7,M,2.8,0000*46
$GPGSA,A,3,14,12,31,18,25,22,,,,,,,3.4,2.1,2.7*39
$GPRMC,182143.000,A,3353.7544,N,09832.0239,W,0.06,193.61,010412,,,D*74
$GPGGA,182144.000,3353.7544,N,09832.0240,W,2,06,2.1,322.1,M,-23.7,M,3.8,0000*4C
$GPGSA,A,3,14,12,31,18,25,22,,,,,,,3.4,2.1,2.7*39
$GPRMC,182144.000,A,3353.7544,N,09832.0240,W,0.06,216.18,010412,,,D*7D
$GPGGA,182145.000,3353.7544,N,09832.0241,W,2,06,2.1,322.0,M,-23.7,M,0.8,0000*4E
$GPGSA,A,3,14,12,31,18,25,22,,,,,,,3.4,2.1,2.7*39
$GPRMC,182145.000,A,3353.7544,N,09832.0241,W,0.06,280.63,010412,,,D*7E
$GPGGA,182146.000,3353.7544,N,09832.0242,W,2,06,2.1,321.9,M,-23.7,M,0.8,0000*44
$GPGSA,A,3,14,12,31,18,25,22,,,,,,,3.4,2.1,2.7*39
$GPRMC,182146.000,A,3353.7544,N,09832.0242,W,0.05,10.89,010412,,,D*42
$GPGGA,182147.000,3353.7544,N,09832.0242,W,2,06,2.1,321.7,M,-23.7,M,0.8,0000*4B
$GPGSA,A,3,14,12,31,18,25,22,,,,,,,3.4,2.1,2.7*39
$GPGSV,3,1,11,22,63,092,31,14,62,007,36,31,53,192,39,11,25,294,*78
$GPGSV,3,2,11,18,22,114,36,25,21,098,27,01,18,316,,32,14,306,*7D
$GPGSV,3,3,11,12,11,058,34,19,06,255,,51,49,195,39*42
$GPRMC,182147.000,A,3353.7544,N,09832.0242,W,0.09,0.46,010412,,,D*7D
$GPGGA,182148.000,3353.7544,N,09832.0242,W,2,06,2.1,321.6,M,-23.7,M,0.8,0000*45
$GPGSA,A,3,14,12,31,18,25,22,,,,,,,3.4,2.1,2.7*39
$GPRMC,182148.000,A,3353.7544,N,09832.0242,W,0.08,19.24,010412,,,D*4F
$GPGGA,182149.000,3353.7545,N,09832.0242,W,2,06,2.1,321.6,M,-23.7,M,0.8,0000*45
$GPGSA,A,3,14,12,31,18,25,22,,,,,,,3.4,2.1,2.7*39
$GPRMC,182149.000,A,3353.7545,N,09832.0242,W,0.09,21.49,010412,,,D*4E
$GPGGA,182150.000,3353.7545,N,09832.0243,W,2,06,2.1,321.5,M,-23.7,M,1.8,0000*4E
$GPGSA,A,3,14,12,31,18,25,22,,,,,,,3.4,2.1,2.7*39
$GPRMC,182150.000,A,3353.7545,N,09832.0243,W,0.09,10.96,010412,,,D*47
$GPGGA,182151.000,3353.7545,N,09832.0243,W,2,06,2.1,321.3,M,-23.7,M,0.8,0000*48
$GPGSA,A,3,14,12,31,18,25,22,,,,,,,3.4,2.1,2.7*39
$GPRMC,182151.000,A,3353.7545,N,09832.0243,W,0.03,24.88,010412,,,D*44
$GPGGA,182152.000,3353.7545,N,09832.0243,W,2,06,2.1,321.1,M,-23.7,M,0.8,0000*49
$GPGSA,A,3,14,12,31,18,25,22,,,,,,,3.4,2.1,2.7*39
$GPGSV,3,1,11,22,63,092,31,14,62,007,36,31,53,192,39,11,25,294,*78
$GPGSV,3,2,11,18,22,114,36,25,21,098,27,01,18,316,,32,14,306,*7D
$GPGSV,3,3,11,12,11,058,34,19,06,255,,51,49,195,39*42
$GPRMC,182152.000,A,3353.7545,N,09832.0243,W,0.07,273.21,010412,,,D*70
$GPGGA,182153.000,3353.7545,N,09832.0244,W,2,06,2.1,321.0,M,-23.7,M,0.8,0000*4E
$GPGSA,A,3,14,12,31,18,25,22,,,,,,,3.4,2.1,2.7*39
$GPRMC,182153.000,A,3353.7545,N,09832.0244,W,0.09,236.35,010412,,,D*7C
$GPGGA,182154.000,3353.7545,N,09832.0244,W,2,06,2.1,320.8,M,-23.7,M,1.8,0000*41
$GPGSA,A,3,14,12,31,18,25,22,,,,,,,3.4,2.1,2.7*39
$GPRMC,182154.000,A,3353.7545,N,09832.0244,W,0.10,250.36,010412,,,D*70
$GPGGA,182155.000,3353.7545,N,09832.0245,W,2,06,2.1,320.6,M,-23.7,M,0.8,0000*4E
$GPGSA,A,3,14,12,31,18,25,22,,,,,,,3.4,2.1,2.7*39
$GPRMC,182155.000,A,3353.7545,N,09832.0245,W,0.10,240.37,010412,,,D*70
$GPGGA,182156.000,3353.7545,N,09832.0245,W,2,06,2.1,320.5,M,-23.7,M,1.8,0000*4F
$GPGSA,A,3,14,12,31,18,25,22,,,,,,,3.4,2.1,2.7*39
$GPRMC,182156.000,A,3353.7545,N,09832.0245,W,0.09,244.61,010412,,,D*7C
$GPGGA,182157.000,3353.7545,N,09832.0246,W,2,06,2.1,320.4,M,-23.7,M,0.8,0000*4D
$GPGSA,A,3,14,12,31,18,25,22,,,,,,,3.4,2.1,2.7*39
$GPGSV,3,1,11,22,63,092,30,14,62,007,36,31,53,192,39,11,25,294,*79
$GPGSV,3,2,11,18,22,114,36,25,21,098,27,01,18,316,,32,14,306,*7D
$GPGSV,3,3,11,12,11,058,34,19,06,255,,51,49,195,39*42
$GPRMC,182157.000,A,3353.7545,N,09832.0246,W,0.11,271.90,010412,,,D*7F
$GPGGA,182158.000,3353.7545,N,09832.0246,W,2,06,2.1,320.4,M,-23.7,M,0.8,0000*42
$GPGSA,A,3,14,12,31,18,25,22,,,,,,,3.4,2.1,2.7*39
$GPRMC,182158.000,A,3353.7545,N,09832.0246,W,0.09,334.21,010412,,,D*73
$GPGGA,182159.000,3353.7545,N,09832.0246,W,2,06,2.1,320.3,M,-23.7,M,0.8,0000*44
$GPGSA,A,3,14,12,31,18,25,22,,,,,,,3.4,2.1,2.7*39
$GPRMC,182159.000,A,3353.7545,N,09832.0246,W,0.10,352.10,010412,,,D*78
$GPGGA,182200.000,3353.7545,N,09832.0246,W,2,06,2.1,320.3,M,-23.7,M,1.8,0000*4A
$GPGSA,A,3,14,12,31,18,25,22,,,,,,,3.4,2.1,2.7*39
$GPRMC,182200.000,A,3353.7545,N,09832.0246,W,0.08,349.78,010412,,,D*7A
$GPGGA,182201.000,3353.7546,N,09832.0245,W,2,06,2.1,320.3,M,-23.7,M,0.8,0000*4A
$GPGSA,A,3,14,12,31,18,25,22,,,,,,,3.4,2.1,2.7*39
$GPRMC,182201.000,A,3353.7546,N,09832.0245,W,0.09,345.49,010412,,,D*74
$GPGGA,182202.000,3353.7546,N,09832.0245,W,2,06,2.1,320.3,M,-23.7,M,1.8,0000*48
$GPGSA,A,3,14,12,31,18,25,22,,,,,,,3.4,2.1,2.7*39
$GPGSV,3,1,11,22,63,092,30,14,62,007,37,31,53,192,39,11,25,294,*78
$GPGSV,3,2,11,18,22,114,36,25,21,098,28,01,18,316,,32,14,306,*72
$GPGSV,3,3,11,12,11,058,34,19,06,255,,51,49,195,39*42
$GPRMC,182202.000,A,3353.7546,N,09832.0245,W,0.11,343.61,010412,,,D*72
$GPGGA,182203.000,3353.7546,N,09832.0246,W,2,06,2.1,320.3,M,-23.7,M,0.8,0000*4B
$GPGSA,A,3,14,12,31,18,25,22,,,,,,,3.4,2.1,2.7*39
$GPRMC,182203.000,A,3353.7546,N,09832.0246,W,0.04,18.57,010412,,,D*4C
$GPGGA,182204.000,3353.7546,N,09832.0246,W,2,06,2.1,320.2,M,-23.7,M,0.8,0000*4D
$GPGSA,A,3,14,12,31,18,25,22,,,,,,,3.4,2.1,2.7*39
$GPRMC,182204.000,A,3353.7546,N,09832.0246,W,0.06,266.09,010412,,,D*79
$GPGGA,182205.000,3353.7546,N,09832.0246,W,2,06,2.1,320.1,M,-23.7,M,0.8,0000*4F
$GPGSA,A,3,14,12,31,18,25,22,,,,,,,3.4,2.1,2.7*39
$GPRMC,182205.000,A,3353.7546,N,09832.0246,W,0.12,239.91,010412,,,D*76
$GPGGA,182206.000,3353.7545,N,09832.0246,W,2,06,2.1,320.1,M,-23.7,M,1.8,0000*4E
$GPGSA,A,3,14,12,31,18,25,22,,,,,,,3.4,2.1,2.7*39
$GPRMC,182206.000,A,3353.7545,N,09832.0246,W,0.07,254.41,010412,,,D*74
$GPGGA,182207.000,3353.7545,N,09832.0247,W,2,06,2.1,320.0,M,-23.7,M,2.8,0000*4C
$GPGSA,A,3,14,12,31,18,25,22,,,,,,,3.4,2.1,2.7*39
$GPGSV,3,1,11,22,63,092,30,14,62,007,37,31,53,192,39,11,25,294,23*79
$GPGSV,3,2,11,18,22,114,36,25,21,098,28,01,18,316,,32,14,306,*72
$GPGSV,3,3,11,12,11,058,34,19,06,255,,51,49,195,39*42
$GPRMC,182207.000,A,3353.7545,N,09832.0247,W,0.12,240.14,010412,,,D*75
$GPGGA,182208.000,3353.7545,N,09832.0247,W,2,06,2.1,319.9,M,-23.7,M,3.8,0000*41
$GPGSA,A,3,14,12,31,18,25,22,,,,,,,3.4,2.1,2.7*39
$GPRMC,182208.000,A,3353.7545,N,09832.0247,W,0.10,248.03,010412,,,D*76
$GPGGA,182209.000,3353.7545,N,09832.0246,W,2,06,2.1,320.0,M,-23.7,M,0.8,0000*41
$GPGSA,A,3,14,12,31,18,25,22,,,,,,,3.4,2.1,2.7*39
$GPRMC,182209.000,A,3353.7545,N,09832.0246,W,0.07,275.96,010412,,,D*72
$GPGGA,182210.000,3353.7545,N,09832.0246,W,2,06,2.1,320.0,M,-23.7,M,0.8,0000*49
$GPGSA,A,3,14,12,31,18,25,22,,,,,,,3.4,2.1,2.7*39
$GPRMC,182210.000,A,3353.7545,N,09832.0246,W,0.07,304.79,010412,,,D*7C
$GPGGA,182211.000,3353.7545,N,09832.0246,W,2,06,2.1,320.0,M,-23.7,M,0.8,0000*48
$GPGSA,A,3,14,12,31,18,25,22,,,,,,,3.4,2.1,2.7*39
$GPRMC,182211.000,A,3353.7545,N,09832.0246,W,0.07,341.26,010412,,,D*76
$GPGGA,182212.000,3353.7545,N,09832.0246,W,2,06,2.1,320.1,M,-23.7,M,1.8,0000*4B
$GPGSA,A,3,14,12,31,18,25,22,,,,,,,3.4,2.1,2.7*39
$GPGSV,3,1,11,22,63,092,31,14,62,007,37,31,53,192,39,11,25,294,23*78
$GPGSV,3,2,11,18,22,114,36,25,21,098,28,01,18,316,,32,14,306,*72
$GPGSV,3,3,11,12,11,058,33,19,06,255,,51,49,195,39*45
$GPRMC,182212.000,A,3353.7545,N,09832.0246,W,0.07,323.52,010412,,,D*72
$GPGGA,182213.000,3353.7545,N,09832.0245,W,2,06,2.1,320.1,M,-23.7,M,2.8,0000*4A
$GPGSA,A,3,14,12,31,18,25,22,,,,,,,3.4,2.1,2.7*39
$GPRMC,182213.000,A,3353.7545,N,09832.0245,W,0.05,357.29,010412,,,D*7D
$GPGGA,182214.000,3353.7545,N,09832.0245,W,2,06,2.1,320.2,M,-23.7,M,3.8,0000*4F
$GPGSA,A,3,14,12,31,18,25,22,,,,,,,3.4,2.1,2.7*39
$GPRMC,182214.000,A,3353.7545,N,09832.0245,W,0.06,356.26,010412,,,D*77
$GPGGA,182215.000,3353.7545,N,09832.0245,W,2,06,2.1,320.1,M,-23.7,M,0.8,0000*4E
$GPGSA,A,3,14,12,31,18,25,22,,,,,,,3.4,2.1,2.7*39
$GPRMC,182215.000,A,3353.7545,N,09832.0245,W,0.01,319.31,010412,,,D*7C
$GPGGA,182216.000,3353.7545,N,09832.0245,W,2,06,2.1,320.1,M,-23.7,M,0.8,0000*4D
$GPGSA,A,3,14,12,31,18,25,22,,,,,,,3.4,2.1,2.7*39
$GPRMC,182216.000,A,3353.7545,N,09832.0245,W,0.02,295.58,010412,,,D*76
$GPGGA,182217.000,3353.7545,N,09832.0245,W,2,06,2.1,320.1,M,-23.7,M,0.8,0000*4C
$GPGSA,A,3,14,12,31,18,25,22,,,,,,,3.4,2.1,2.7*39
$GPGSV,3,1,11,22,63,092,31,14,62,007,37,31,53,192,39,11,25,294,23*78
$GPGSV,3,2,11,18,22,114,36,25,21,098,28,01,18,316,,32,14,306,*72
$GPGSV,3,3,11,12,11,058,33,19,06,255,,51,49,195,39*45
$GPRMC,182217.000,A,3353.7545,N,09832.0245,W,0.03,258.25,010412,,,D*7D
$GPGGA,182218.000,3353.7545,N,09832.0245,W,2,06,2.1,320.1,M,-23.7,M,1.8,0000*42
$GPGSA,A,3,14,12,31,18,25,22,,,,,,,3.4,2.1,2.7*39
$GPRMC,182218.000,A,3353.7545,N,09832.0245,W,0.05,227.33,010412,,,D*7B
$GPGGA,182219.000,3353.7545,N,09832.0245,W,2,06,2.1,320.1,M,-23.7,M,2.8,0000*40
$GPGSA,A,3,14,12,31,18,25,22,,,,,,,3.4,2.1,2.7*39
$GPRMC,182219.000,A,3353.7545,N,09832.0245,W,0.05,226.76,010412,,,D*7A
$GPGGA,182220.000,3353.7544,N,09832.0245,W,2,06,2.1,320.0,M,-23.7,M,3.8,0000*4B
$GPGSA,A,3,14,12,31,18,25,22,,,,,,,3.4,2.1,2.7*39
$GPRMC,182220.000,A,3353.7544,N,09832.0245,W,0.03,225.64,010412,,,D*77
$GPGGA,182221.000,3353.7544,N,09832.0245,W,2,06,2.1,320.1,M,-23.7,M,0.8,0000*48
$GPGSA,A,3,14,12,31,18,25,22,,,,,,,3.4,2.1,2.7*39
$GPRMC,182221.000,A,3353.7544,N,09832.0245,W,0.01,251.60,010412,,,D*73
$GPGGA,182222.000,3353.7544,N,09832.0245,W,2,06,2.1,320.2,M,-23.7,M,0.8,0000*48
$GPGSA,A,3,14,12,31,18,25,22,,,,,,,3.4,2.1,2.7*39
$GPGSV,3,1,11,22,63,092,31,14,62,007,37,31,53,192,39,11,25,294,23*78
$GPGSV,3,2,11,18,22,114,36,25,21,098,28,01,18,316,,32,14,306,*72
$GPGSV,3,3,11,12,11,058,34,19,06,255,,51,49,195,39*42
$GPRMC,182222.000,A,3353.7544,N,09832.0245,W,0.04,246.42,010412,,,D*73
$GPGGA,182223.000,3353.7544,N,09832.0245,W,2,06,2.1,320.2,M,-23.7,M,0.8,0000*49
$GPGSA,A,3,14,12,31,18,25,22,,,,,,,3.4,2.1,2.7*39
$GPRMC,182223.000,A,3353.7544,N,09832.0245,W,0.03,242.34,010412,,,D*70
$GPGGA,182224.000,3353.7544,N,09832.0244,W,2,06,2.1,320.3,M,-23.7,M,1.8,0000*4F
$GPGSA,A,3,14,12,31,18,25,22,,,,,,,3.4,2.1,2.7*39
$GPRMC,182224.000,A,3353.7544,N,09832.0244,W,0.03,313.76,010412,,,D*75
$GPGGA,182225.000,3353.7544,N,09832.0244,W,2,06,2.1,320.3,M,-23.7,M,2.8,0000*4D
$GPGSA,A,3,14,12,31,18,25,22,,,,,,,3.4,2.1,2.7*39
$GPRMC,182225.000,A,3353.7544,N,09832.0244,W,0.03,253.44,010412,,,D*70
$GPGGA,182226.000,3353.7544,N,09832.0244,W,2,06,2.1,320.4,M,-23.7,M,0.8,0000*4B
$GPGSA,A,3,14,12,31,18,25,22,,,,,,,3.4,2.1,2.7*39
$GPRMC,182226.000,A,3353.7544,N,09832.0244,W,0.02,255.62,010412,,,D*70
$GPGGA,182227.000,3353.7544,N,09832.0245,W,2,06,2.1,320.3,M,-23.7,M,0.8,0000*4C
$GPGSA,A,3,14,12,31,18,25,22,,,,,,,3.4,2.1,2.7*39
$GPGSV,3,1,11,22,63,092,31,14,62,007,37,31,53,192,39,11,25,294,23*78
$GPGSV,3,2,11,18,22,114,36,25,21,098,29,01,18,316,,32,14,306,*73
$GPGSV,3,3,11,12,11,058,34,19,06,255,,51,49,195,39*42
$GPRMC,182227.000,A,3353.7544,N,09832.0245,W,0.05,238.85,010412,,,D*75
$GPGGA,182228.000,3353.7544,N,09832.0245,W,2,06,2.1,320.3,M,-23.7,M,0.8,0000*43
$GPGSA,A,3,14,12,31,18,25,22,,,,,,,3.4,2.1,2.7*39
$GPRMC,182228.000,A,3353.7544,N,09832.0245,W,0.03,9.82,010412,,,D*7B
$GPGGA,182229.000,3353.7544,N,09832.0245,W,2,06,2.1,320.3,M,-23.7,M,0.8,0000*42
$GPGSA,A,3,14,12,31,18,25,22,,,,,,,3.4,2.1,2.7*39
$GPRMC,182229.000,A,3353.7544,N,09832.0245,W,0.02,306.70,010412,,,D*7A
$GPGGA,182230.000,3353.7544,N,09832.0245,W,2,06,2.1,320.3,M,-23.7,M,1.8,0000*4B
$GPGSA,A,3,14,12,31,18,25,22,,,,,,,3.4,2.1,2.7*39
$GPRMC,182230.000,A,3353.7544,N,09832.0245,W,0.02,257.98,010412,,,D*71
$GPGGA,182231.000,3353.7544,N,09832.0245,W,2,06,2.1,320.3,M,-23.7,M,2.8,0000*49
$GPGSA,A,3,14,12,31,18,25,22,,,,,,,3.4,2.1,2.7*39
$GPRMC,182231.000,A,3353.7544,N,09832.0245,W,0.01,48.17,010412,,,D*48
$GPGGA,182232.000,3353.7544,N,09832.0245,W,2,06,2.1,320.3,M,-23.7,M,3.8,0000*4B
$GPGSA,A,3,14,12,31,18,25,22,,,,,,,3.4,2.1,2.7*39
$GPGSV,3,1,11,22,63,092,32,14,62,007,37,31,53,192,38,11,25,294,22*7B
$GPGSV,3,2,11,18,22,114,36,25,21,098,29,01,18,316,,32,14,306,*73
$GPGSV,3,3,11,12,11,058,33,19,06,255,,51,49,195,39*45
$GPRMC,182232.000,A,3353.7544,N,09832.0245,W,0.01,318.72,010412,,,D*7E
$GPGGA,182233.000,3353.7544,N,09832.0245,W,2,06,2.1,320.4,M,-23.7,M,0.8,0000*4E
$GPGSA,A,3,14,12,31,18,25,22,,,,,,,3.4,2.1,2.7*39
$GPRMC,182233.000,A,3353.7544,N,09832.0245,W,0.03,337.24,010412,,,D*73
$GPGGA,182234.000,3353.7544,N,09832.0245,W,2,06,2.1,320.5,M,-23.7,M,0.8,0000*48
$GPGSA,A,3,14,12,31,18,25,22,,,,,,,3.4,2.1,2.7*39
$GPRMC,182234.000,A,3353.7544,N,09832.0245,W,0.02,327.28,010412,,,D*78
$GPGGA,182235.000,3353.7544,N,09832.0245,W,2,06,2.1,320.5,M,-23.7,M,0.8,0000*49
$GPGSA,A,3,14,12,31,18,25,22,,,,,,,3.4,2.1,2.7*39
$GPRMC,182235.000,A,3353.7544,N,09832.0245,W,0.06,348.04,010412,,,D*7A
$GPGGA,182236.000,3353.7544,N,09832.0245,W,2,06,2.1,320.5,M,-23.7,M,0.8,0000*4A
$GPGSA,A,3,14,12,31,18,25,22,,,,,,,3.4,2.1,2.7*39
$GPRMC,182236.000,A,3353.7544,N,09832.0245,W,0.04,353.76,010412,,,D*74
$GPGGA,182237.000,3353.7544,N,09832.0245,W,2,06,2.1,320.5,M,-23.7,M,0.8,0000*4B
$GPGSA,A,3,14,12,31,18,25,22,,,,,,,3.4,2.1,2.7*39
$GPGSV,3,1,11,22,63,092,32,14,62,007,38,31,53,192,38,11,25,294,22*74
$GPGSV,3,2,11,18,22,114,36,25,21,098,29,01,18,316,,32,14,306,*73
$GPGSV,3,3,11,12,11,058,33,19,06,255,,51,49,195,39*45
$GPRMC,182237.000,A,3353.7544,N,09832.0245,W,0.07,333.30,010412,,,D*72
$GPGGA,182238.000,3353.7544,N,09832.0246,W,2,06,2.1,320.5,M,-23.7,M,0.8,0000*47
$GPGSA,A,3,14,12,31,18,25,22,,,,,,,3.4,2.1,2.7*39
$GPRMC,182238.000,A,3353.7544,N,09832.0246,W,0.06,15.57,010412,,,D*49
$GPGGA,182239.000,3353.7544,N,09832.0246,W,2,06,2.1,320.5,M,-23.7,M,0.8,0000*46
$GPGSA,A,3,14,12,31,18,25,22,,,,,,,3.4,2.1,2.7*39
$GPRMC,182239.000,A,3353.7544,N,09832.0246,W,0.02,297.68,010412,,,D*78
$GPGGA,182240.000,3353.7544,N,09832.0246,W,2,06,2.1,320.4,M,-23.7,M,0.8,0000*49
$GPGSA,A,3,14,12,31,18,25,22,,,,,,,3.4,2.1,2.7*39
$GPRMC,182240.000,A,3353.7544,N,09832.0246,W,0.04,276.96,010412,,,D*7E
$GPGGA,182241.000,3353.7544,N,09832.0247,W,2,06,2.1,320.3,M,-23.7,M,0.8,0000*4E
$GPGSA,A,3,14,12,31,18,25,22,,,,,,,3.4,2.1,2.7*39
$GPRMC,182241.000,A,3353.7544,N,09832.0247,W,0.05,251.26,010412,,,D*71
$GPGGA,182242.000,3353.7544,N,09832.0247,W,2,06,2.1,320.3,M,-23.7,M,1.8,0000*4C
$GPGSA,A,3,14,12,31,18,25,22,,,,,,,3.4,2.1,2.7*39
$GPGSV,3,1,11,22,63,092,32,14,62,007,38,31,53,192,38,11,25,294,22*74
$GPGSV,3,2,11,18,22,114,35,25,21,098,29,01,18,316,,32,14,306,*70
$GPGSV,3,3,11,12,11,058,33,19,06,255,,51,49,195,39*45
$GPRMC,182242.000,A,3353.7544,N,09832.0247,W,0.05,258.67,010412,,,D*7E
$GPGGA,182243.000,3353.7544,N,09832.0248,W,2,06,2.1,320.2,M,-23.7,M,2.8,0000*40
$GPGSA,A,3,14,12,31,18,25,22,,,,,,,3.4,2.1,2.7*39
$GPRMC,182243.000,A,3353.7544,N,09832.0248,W,0.05,261.32,010412,,,D*7A
$GPGGA,182244.000,3353.7544,N,09832.0248,W,2,06,2.1,320.2,M,-23.7,M,3.8,0000*46
$GPGSA,A,3,14,12,31,18,25,22,,,,,,,3.4,2.1,2.7*39
$GPRMC,182244.000,A,3353.7544,N,09832.0248,W,0.08,252.29,010412,,,D*7A
$GPGGA,182245.000,3353.7544,N,09832.0248,W,2,06,2.1,320.2,M,-23.7,M,0.8,0000*44
$GPGSA,A,3,14,12,31,18,25,22,,,,,,,3.4,2.1,2.7*39
$GPRMC,182245.000,A,3353.7544,N,09832.0248,W,0.05,296.89,010412,,,D*74
$GPGGA,182246.000,3353.7544,N,09832.0248,W,2,06,2.1,320.3,M,-23.7,M,0.8,0000*46
$GPGSA,A,3,14,12,31,18,25,22,,,,,,,3.4,2.1,2.7*39
$GPRMC,182246.000,A,3353.7544,N,09832.0248,W,0.06,281.22,010412,,,D*73
$GPGGA,182247.000,3353.7544,N,09832.0248,W,2,06,2.1,320.3,M,-23.7,M,0.8,0000*47
$GPGSA,A,3,14,12,31,18,25,22,,,,,,,3.4,2.1,2.7*39
$GPGSV,3,1,11,22,63,092,33,14,62,007,38,31,53,192,38,11,25,294,16*72
$GPGSV,3,2,11,18,22,114,35,25,21,098,29,01,18,316,,32,14,306,*70
$GPGSV,3,3,11,12,11,058,33,19,06,255,,51,49,195,40*4B
$GPRMC,182247.000,A,3353.7544,N,09832.0248,W,0.06,334.32,010412,,,D*7C
$GPGGA,182248.000,3353.7544,N,09832.0248,W,2,06,2.1,320.3,M,-23.7,M,1.8,0000*49
$GPGSA,A,3,14,12,31,18,25,22,,,,,,,3.4,2.1,2.7*39
$GPRMC,182248.000,A,3353.7544,N,09832.0248,W,0.08,328.35,010412,,,D*77
$GPGGA,182249.000,3353.7544,N,09832.0248,W,2,06,2.1,320.4,M,-23.7,M,0.8,0000*4E
$GPGSA,A,3,14,12,31,18,25,22,,,,,,,3.4,2.1,2.7*39
$GPRMC,182249.000,A,3353.7544,N,09832.0248,W,0.07,326.41,010412,,,D*74
$GPGGA,182250.000,3353.7545,N,09832.0248,W,2,06,2.1,320.4,M,-23.7,M,1.8,0000*46
$GPGSA,A,3,14,12,31,18,25,22,,,,,,,3.4,2.1,2.7*39
$GPRMC,182250.000,A,3353.7545,N,09832.0248,W,0.06,323.67,010412,,,D*7D
$GPGGA,182251.000,3353.7545,N,09832.0249,W,2,06,2.1,320.3,M,-23.7,M,0.8,0000*40
$GPGSA,A,3,14,12,31,18,25,22,,,,,,,3.4,2.1,2.7*39
$GPRMC,182251.000,A,3353.7545,N,09832.0249,W,0.03,306.74,010412,,,D*7D
$GPGGA,182252.000,3353.7545,N,09832.0249,W,2,06,2.1,320.2,M,-23.7,M,0.8,0000*42
$GPGSA,A,3,14,12,31,18,25,22,,,,,,,3.4,2.1,2.7*39
$GPGSV,3,1,11,22,63,092,33,14,62,007,38,31,53,192,38,11,25,294,19*7D
$GPGSV,3,2,11,18,22,114,35,25,21,098,24,01,18,316,,32,14,306,*7D
$GPGSV,3,3,11,12,11,058,33,19,06,255,,51,49,195,40*4B
$GPRMC,182252.000,A,3353.7545,N,09832.0249,W,0.08,123.45,010412,,,D*72
$GPGGA,182253.000,3353.7544,N,09832.0248,W,2,06,2.1,320.1,M,-23.7,M,0.8,0000*40
$GPGSA,A,3,14,12,31,18,25,22,,,,,,,3.4,2.1,2.7*39
$GPRMC,182253.000,A,3353.7544,N,09832.0248,W,0.17,125.33,010412,,,D*7A
$GPGGA,182254.000,3353.7544,N,09832.0247,W,2,06,2.1,319.8,M,-23.7,M,0.8,0000*4B
$GPGSA,A,3,14,12,31,18,25,22,,,,,,,3.4,2.1,2.7*39
$GPRMC,182254.000,A,3353.7544,N,09832.0247,W,0.07,256.42,010412,,,D*72
$GPGGA,182255.000,3353.7543,N,09832.0246,W,2,06,2.1,319.6,M,-23.7,M,1.8,0000*43
$GPGSA,A,3,14,12,31,18,25,22,,,,,,,3.4,2.1,2.7*39
$GPRMC,182255.000,A,3353.7543,N,09832.0246,W,0.06,211.76,010412,,,D*70
$GPGGA,182256.000,3353.7543,N,09832.0246,W,2,06,2.1,319.4,M,-23.7,M,2.8,0000*41
$GPGSA,A,3,14,12,31,18,25,22,,,,,,,3.4,2.1,2.7*39
$GPRMC,182256.000,A,3353.7543,N,09832.0246,W,0.06,226.02,010412,,,D*74
$GPGGA,182257.000,3353.7543,N,09832.0245,W,2,06,2.1,319.4,M,-23.7,M,0.8,0000*41
$GPGSA,A,3,14,12,31,18,25,22,,,,,,,3.4,2.1,2.7*39
$GPGSV,3,1,11,22,63,092,33,14,62,007,38,31,53,192,38,11,25,294,19*7D
$GPGSV,3,2,11,18,22,114,35,25,21,098,26,01,18,316,,32,14,306,*7F
$GPGSV,3,3,11,12,11,058,33,19,06,255,,51,49,195,39*45
$GPRMC,182257.000,A,3353.7543,N,09832.0245,W,0.07,274.54,010412,,,D*73
$GPGGA,182258.000,3353.7543,N,09832.0244,W,2,06,2.1,319.4,M,-23.7,M,0.8,0000*4F
$GPGSA,A,3,14,12,31,18,25,22,,,,,,,3.4,2.1,2.7*39
$GPRMC,182258.000,A,3353.7543,N,09832.0244,W,0.07,19.83,010412,,,D*4E
$GPGGA,182259.000,3353.7543,N,09832.0244,W,2,06,2.1,319.4,M,-23.7,M,0.8,0000*4E
$GPGSA,A,3,14,12,31,18,25,22,,,,,,,3.4,2.1,2.7*39
$GPRMC,182259.000,A,3353.7543,N,09832.0244,W,0.07,347.68,010412,,,D*72
$GPGGA,182300.000,3353.7543,N,09832.0243,W,2,06,2.1,319.4,M,-23.7,M,0.8,0000*44
$GPGSA,A,3,14,12,31,18,25,22,,,,,,,3.4,2.1,2.7*39
$GPRMC,182300.000,A,3353.7543,N,09832.0243,W,0.05,16.87,010412,,,D*4C
$GPGGA,182301.000,3353.7543,N,09832.0243,W,2,06,2.1,319.4,M,-23.7,M,1.8,0000*44
$GPGSA,A,3,14,12,31,18,25,22,,,,,,,3.4,2.1,2.7*39
$GPRMC,182301.000,A,3353.7543,N,09832.0243,W,0.11,331.99,010412,,,D*71
$GPGGA,182302.000,3353.7544,N,09832.0243,W,2,06,2.1,319.5,M,-23.7,M,2.8,0000*42
$GPGSA,A,3,14,12,31,18,25,22,,,,,,,3.4,2.1,2.7*39
$GPGSV,3,1,11,22,63,092,33,14,62,007,38,31,53,192,37,11,25,294,19*72
$GPGSV,3,2,11,18,22,114,34,25,21,098,26,01,18,316,,32,14,306,*7E
$GPGSV,3,3,11,12,11,058,32,19,06,255,,51,49,195,39*44
$GPRMC,182302.000,A,3353.7544,N,09832.0243,W,0.07,347.45,010412,,,D*72
$GPGGA,182303.000,3353.7544,N,09832.0243,W,2,06,2.1,319.4,M,-23.7,M,0.8,0000*40
$GPGSA,A,3,14,12,31,18,25,22,,,,,,,3.4,2.1,2.7*39
$GPRMC,182303.000,A,3353.7544,N,09832.0243,W,0.02,26.78,010412,,,D*4C
$GPGGA,182304.000,3353.7543,N,09832.0243,W,2,06,2.1,319.3,M,-23.7,M,0.8,0000*47
$GPGSA,A,3,14,12,31,18,25,22,,,,,,,3.4,2.1,2.7*39
$GPRMC,182304.000,A,3353.7543,N,09832.0243,W,0.04,232.84,010412,,,D*7E
$GPGGA,182305.000,3353.7543,N,09832.0244,W,2,06,2.1,319.2,M,-23.7,M,0.8,0000*40
$GPGSA,A,3,14,12,31,18,25,22,,,,,,,3.4,2.1,2.7*39
$GPRMC,182305.000,A,3353.7543,N,09832.0244,W,0.07,205.86,010412,,,D*7D
$GPGGA,182306.000,3353.7543,N,09832.0244,W,2,06,2.1,319.1,M,-23.7,M,1.8,0000*41
$GPGSA,A,3,14,12,31,18,25,22,,,,,,,3.4,2.1,2.7*39
$GPRMC,182306.000,A,3353.7543,N,09832.0244,W,0.06,219.36,010412,,,D*79
$GPGGA,182307.000,3353.7543,N,09832.0245,W,2,06,2.1,319.0,M,-23.7,M,2.8,0000*43
$GPGSA,A,3,14,12,31,18,25,22,,,,,,,3.4,2.1,2.7*39
$GPGSV,3,1,11,22,63,092,33,14,62,007,38,31,53,192,37,11,25,294,20*78
$GPGSV,3,2,11,18,22,114,34,25,21,098,27,01,18,316,,32,14,306,*7F
$GPGSV,3,3,11,12,11,058,32,19,06,255,,51,49,195,40*4A
$GPRMC,182307.000,A,3353.7543,N,09832.0245,W,0.08,230.74,010412,,,D*7A
$GPGGA,182308.000,3353.7543,N,09832.0246,W,2,06,2.1,318.8,M,-23.7,M,3.8,0000*47
$GPGSA,A,3,14,12,31,18,25,22,,,,,,,3.4,2.1,2.7*39
$GPRMC,182308.000,A,3353.7543,N,09832.0246,W,0.08,248.74,010412,,,D*79
$GPGGA,182309.000,3353.7543,N,09832.0246,W,2,06,2.1,318.8,M,-23.7,M,0.8,0000*45
$GPGSA,A,3,14,12,31,18,25,22,,,,,,,3.4,2.1,2.7*39
$GPRMC,182309.000,A,3353.7543,N,09832.0246,W,0.13,284.40,010412,,,D*75
$GPGGA,182310.000,3353.7543,N,09832.0246,W,2,06,2.1,318.8,M,-23.7,M,0.8,0000*4D
$GPGSA,A,3,14,12,31,18,25,22,,,,,,,3.4,2.1,2.7*39
$GPRMC,182310.000,A,3353.7543,N,09832.0246,W,0.12,311.95,010412,,,D*79
$GPGGA,182311.000,3353.7543,N,09832.0247,W,2,06,2.1,318.9,M,-23.7,M,0.8,0000*4C
$GPGSA,A,3,14,12,31,18,25,22,,,,,,,3.4,2.1,2.7*39
$GPRMC,182311.000,A,3353.7543,N,09832.0247,W,0.09,332.63,010412,,,D*7B
$GPGGA,182312.000,3353.7543,N,09832.0247,W,2,06,2.1,318.9,M,-23.7,M,1.8,0000*4E
$GPGSA,A,3,14,12,31,18,25,22,,,,,,,3.4,2.1,2.7*39
$GPGSV,3,1,11,22,63,092,33,14,62,007,38,31,53,192,37,11,25,294,21*79
$GPGSV,3,2,11,18,22,114,34,25,21,098,27,01,18,316,,32,14,306,*7F
$GPGSV,3,3,11,12,11,058,32,19,06,255,,51,49,195,40*4A
$GPRMC,182312.000,A,3353.7543,N,09832.0247,W,0.09,322.96,010412,,,D*73
$GPGGA,182313.000,3353.7544,N,09832.0246,W,2,06,2.1,318.9,M,-23.7,M,2.8,0000*4A
$GPGSA,A,3,14,12,31,18,25,22,,,,,,,3.4,2.1,2.7*39
$GPRMC,182313.000,A,3353.7544,N,09832.0246,W,0.07,341.35,010412,,,D*76
$GPGGA,182314.000,3353.7544,N,09832.0246,W,2,06,2.1,318.9,M,-23.7,M,0.8,0000*4F
$GPGSA,A,3,14,12,31,18,25,22,,,,,,,3.4,2.1,2.7*39
$GPRMC,182314.000,A,3353.7544,N,09832.0246,W,0.09,326.90,010412,,,D*71
$GPGGA,182315.000,3353.7544,N,09832.0246,W,2,06,2.1,318.9,M,-23.7,M,0.8,0000*4E
$GPGSA,A,3,14,12,31,18,25,22,,,,,,,3.4,2.1,2.7*39
$GPRMC,182315.000,A,3353.7544,N,09832.0246,W,0.04,58.19,010412,,,D*46
$GPGGA,182316.000,3353.7544,N,09832.0246,W,2,06,2.1,318.8,M,-23.7,M,0.8,0000*4C
$GPGSA,A,3,14,12,31,18,25,22,,,,,,,3.4,2.1,2.7*39
$GPRMC,182316.000,A,3353.7544,N,09832.0246,W,0.04,184.77,010412,,,D*7D
$GPGGA,182317.000,3353.7544,N,09832.0246,W,2,06,2.1,318.7,M,-23.7,M,0.8,0000*42
$GPGSA,A,3,14,12,31,18,25,22,,,,,,,3.4,2.1,2.7*39
$GPGSV,3,1,11,22,63,092,34,14,62,007,39,31,53,192,37,11,25,294,21*7F
$GPGSV,3,2,11,18,22,114,34,25,21,098,27,01,18,316,,32,14,306,*7F
$GPGSV,3,3,11,12,11,058,32,19,06,255,,51,49,195,40*4A
$GPRMC,182317.000,A,3353.7544,N,09832.0246,W,0.02,108.99,010412,,,D*7E
$GPGGA,182318.000,3353.7543,N,09832.0246,W,2,06,2.1,318.6,M,-23.7,M,1.8,0000*4A
$GPGSA,A,3,14,12,31,18,25,22,,,,,,,3.4,2.1,2.7*39
$GPRMC,182318.000,A,3353.7543,N,09832.0246,W,0.03,272.54,010412,,,D*78
$GPGGA,182319.000,3353.7543,N,09832.0246,W,2,06,2.1,318.5,M,-23.7,M,2.8,0000*4B
$GPGSA,A,3,14,12,31,18,25,22,,,,,,,3.5,2.1,2.7*38
$GPRMC,182319.000,A,3353.7543,N,09832.0246,W,0.03,218.52,010412,,,D*73
$GPGGA,182320.000,3353.7543,N,09832.0246,W,2,06,2.1,318.4,M,-23.7,M,3.8,0000*41
$GPGSA,A,3,14,12,31,18,25,22,,,,,,,3.5,2.1,2.7*38
$GPRMC,182320.000,A,3353.7543,N,09832.0246,W,0.03,154.25,010412,,,D*72
$GPGGA,182321.000,3353.7543,N,09832.0246,W,2,06,2.1,318.3,M,-23.7,M,0.8,0000*44
$GPGSA,A,3,14,12,31,18,25,22,,,,,,,3.5,2.1,2.7*38
$GPRMC,182321.000,A,3353.7543,N,09832.0246,W,0.11,302.24,010412,,,D*70
$GPGGA,182322.000,3353.7543,N,09832.0246,W,2,06,2.1,318.3,M,-23.7,M,0.8,0000*47
$GPGSA,A,3,14,12,31,18,25,22,,,,,,,3.5,2.1,2.7*38
$GPGSV,3,1,11,22,63,092,34,14,62,007,39,31,53,192,37,11,25,294,21*7F
$GPGSV,3,2,11,18,22,114,35,25,21,098,27,01,18,316,,32,14,306,*7E
$GPGSV,3,3,11,12,11,058,33,19,06,255,,51,49,195,40*4B
$GPRMC,182322.000,A,3353.7543,N,09832.0246,W,0.08,272.60,010412,,,D*7D
$GPGGA,182323.000,3353.7543,N,09832.0246,W,2,06,2.1,318.3,M,-23.7,M,0.8,0000*46
$GPGSA,A,3,14,12,31,18,25,22,,,,,,,3.5,2.1,2.7*38
$GPRMC,182323.000,A,3353.7543,N,09832.0246,W,0.11,286.70,010412,,,D*7E
$GPGGA,182324.000,3353.7543,N,09832.0246,W,2,06,2.1,318.3,M,-23.7,M,0.8,0000*41
$GPGSA,A,3,14,12,31,18,25,22,,,,,,,3.5,2.1,2.7*38
$GPRMC,182324.000,A,3353.7543,N,09832.0246,W,0.09,283.11,010412,,,D*72
$GPGGA,182325.000,3353.7543,N,09832.0247,W,2,06,2.1,318.2,M,-23.7,M,0.8,0000*40
$GPGSA,A,3,14,12,31,18,25,22,,,,,,,3.5,2.1,2.7*38
$GPRMC,182325.000,A,3353.7543,N,09832.0247,W,0.10,283.72,010412,,,D*7F
$GPGGA,182326.000,3353.7543,N,09832.0247,W,2,06,2.1,318.2,M,-23.7,M,0.8,0000*43
$GPGSA,A,3,14,12,31,18,25,22,,,,,,,3.5,2.1,2.7*38
$GPRMC,182326.000,A,3353.7543,N,09832.0247,W,0.11,279.86,010412,,,D*73
$GPGGA,182327.000,3353.7543,N,09832.0248,W,2,06,2.1,318.1,M,-23.7,M,0.8,0000*4E
$GPGSA,A,3,14,12,31,18,25,22,,,,,,,3.5,2.1,2.7*38
$GPGSV,3,1,11,22,63,092,34,14,62,007,39,31,53,192,36,11,25,294,21*7E
$GPGSV,3,2,11,18,22,114,35,25,21,098,29,01,18,316,,32,14,306,*70
$GPGSV,3,3,11,12,11,058,33,19,06,255,,51,49,195,40*4B
$GPRMC,182327.000,A,3353.7543,N,09832.0248,W,0.07,217.04,010412,,,D*78
$GPGGA,182328.000,3353.7543,N,09832.0248,W,2,06,2.1,318.1,M,-23.7,M,0.8,0000*41
$GPGSA,A,3,14,12,31,18,25,22,,,,,,,3.5,2.1,2.7*38
$GPRMC,182328.000,A,3353.7543,N,09832.0248,W,0.01,61.62,010412,,,D*42
$GPGGA,182329.000,3353.7543,N,09832.0248,W,2,06,2.1,318.0,M,-23.7,M,0.8,0000*41
$GPGSA,A,3,14,12,31,18,25,22,,,,,,,3.5,2.1,2.7*38
$GPRMC,182329.000,A,3353.7543,N,09832.0248,W,0.01,39.77,010412,,,D*4A
$GPGGA,182330.000,3353.7543,N,09832.0248,W,2,06,2.1,318.0,M,-23.7,M,1.8,0000*48
$GPGSA,A,3,14,12,31,18,25,22,,,,,,,3.5,2.1,2.7*38
$GPRMC,182330.000,A,3353.7543,N,09832.0248,W,0.02,328.63,010412,,,D*77
$GPGGA,182331.000,3353.7543,N,09832.0248,W,2,06,2.1,317.9,M,-23.7,M,2.8,0000*4C
$GPGSA,A,3,14,12,31,18,25,22,,,,,,,3.5,2.1,2.7*38
$GPRMC,182331.000,A,3353.7543,N,09832.0248,W,0.03,108.46,010412,,,D*70
$GPGGA,182332.000,3353.7543,N,09832.0248,W,2,06,2.1,317.8,M,-23.7,M,3.8,0000*4F
$GPGSA,A,3,14,12,31,18,25,22,,,,,,,3.5,2.1,2.7*38
$GPGSV,3,1,11,22,63,092,34,14,62,007,39,31,53,192,36,11,25,294,20*7F
$GPGSV,3,2,11,18,22,114,36,25,21,098,29,01,18,316,,32,14,306,*73
$GPGSV,3,3,11,12,11,058,33,19,06,255,,51,49,195,39*45
$GPRMC,182332.000,A,3353.7543,N,09832.0248,W,0.00,344.15,010412,,,D*7C
$GPGGA,182333.000,3353.7543,N,09832.0248,W,2,06,2.1,317.9,M,-23.7,M,0.8,0000*4C
$GPGSA,A,3,14,12,31,18,25,22,,,,,,,3.5,2.1,2.7*38
$GPRMC,182333.000,A,3353.7543,N,09832.0248,W,0.09,328.11,010412,,,D*7A
$GPGGA,182334.000,3353.7543,N,09832.0248,W,2,06,2.1,317.9,M,-23.7,M,0.8,0000*4B
$GPGSA,A,3,14,12,31,18,25,22,,,,,,,3.5,2.1,2.7*38
$GPRMC,182334.000,A,3353.7543,N,09832.0248,W,0.08,282.87,010412,,,D*72
$GPGGA,182335.000,3353.7543,N,09832.0248,W,2,06,2.1,317.9,M,-23.7,M,0.8,0000*4A
$GPGSA,A,3,14,12,31,18,25,22,,,,,,,3.5,2.1,2.7*38
$GPRMC,182335.000,A,3353.7543,N,09832.0248,W,0.10,285.83,010412,,,D*79
$GPGGA,182336.000,3353.7543,N,09832.0249,W,2,06,2.2,317.9,M,-23.7,M,1.8,0000*4A
$GPGSA,A,3,14,12,31,18,25,22,,,,,,,3.5,2.2,2.7*3B
$GPRMC,182336.000,A,3353.7543,N,09832.0249,W,0.10,273.11,010412,,,D*79
$GPGGA,182337.000,3353.7543,N,09832.0249,W,2,06,2.2,317.9,M,-23.7,M,2.8,0000*48
$GPGSA,A,3,14,12,31,18,25,22,,,,,,,3.5,2.2,2.7*3B
$GPGSV,3,1,11,22,63,092,34,14,62,007,39,31,53,192,35,11,25,294,15*7A
$GPGSV,3,2,11,18,22,114,36,25,21,098,29,01,18,316,,32,14,306,*73
$GPGSV,3,3,11,12,11,058,33,19,06,255,,51,49,195,40*4B
$GPRMC,182337.000,A,3353.7543,N,09832.0249,W,0.07,290.07,010412,,,D*74
$GPGGA,182338.000,3353.7543,N,09832.0249,W,2,06,2.2,317.9,M,-23.7,M,3.8,0000*46
$GPGSA,A,3,14,12,31,18,25,22,,,,,,,3.5,2.2,2.7*3B
$GPRMC,182338.000,A,3353.7543,N,09832.0249,W,0.09,280.46,010412,,,D*71
$GPGGA,182339.000,3353.7543,N,09832.0250,W,2,06,2.2,317.8,M,-23.7,M,0.8,0000*4D
$GPGSA,A,3,14,12,31,18,25,22,,,,,,,3.5,2.2,2.7*3B
$GPRMC,182339.000,A,3353.7543,N,09832.0250,W,0.07,237.74,010412,,,D*7B
$GPGGA,182340.000,3353.7543,N,09832.0250,W,2,06,2.2,317.7,M,-23.7,M,0.8,0000*4C
$GPGSA,A,3,14,12,31,18,25,22,,,,,,,3.5,2.2,2.7*3B
$GPRMC,182340.000,A,3353.7543,N,09832.0250,W,0.03,105.66,010412,,,D*70
$GPGGA,182341.000,3353.7543,N,09832.0250,W,2,06,2.2,317.7,M,-23.7,M,0.8,0000*4D
$GPGSA,A,3,14,12,31,18,25,22,,,,,,,3.5,2.2,2.7*3B
$GPRMC,182341.000,A,3353.7543,N,09832.0250,W,0.02,107.19,010412,,,D*7A
$GPGGA,182342.000,3353.7543,N,09832.0250,W,2,06,2.2,317.6,M,-23.7,M,1.8,0000*4E
$GPGSA,A,3,14,12,31,18,25,22,,,,,,,3.5,2.2,2.7*3B
$GPGSV,3,1,11,22,63,092,34,14,62,007,39,31,53,192,35,11,25,294,16*79
$GPGSV,3,2,11,18,22,114,36,25,21,098,30,01,18,316,,32,14,306,*7B
$GPGSV,3,3,11,12,11,058,32,19,06,255,,51,49,195,40*4A
$GPRMC,182342.000,A,3353.7543,N,09832.0250,W,0.01,1.43,010412,,,D*72
$GPGGA,182343.000,3353.7543,N,09832.0250,W,2,06,2.2,317.6,M,-23.7,M,2.8,0000*4C
$GPGSA,A,3,14,12,31,18,25,22,,,,,,,3.5,2.2,2.7*3B
$GPRMC,182343.000,A,3353.7543,N,09832.0250,W,0.03,17.75,010412,,,D*43
$GPGGA,182344.000,3353.7543,N,09832.0250,W,2,06,2.2,317.5,M,-23.7,M,3.8,0000*49
$GPGSA,A,3,14,12,31,18,25,22,,,,,,,3.5,2.2,2.7*3B
$GPRMC,182344.000,A,3353.7543,N,09832.0250,W,0.02,138.66,010412,,,D*7B
$GPGGA,182345.000,3353.7543,N,09832.0250,W,2,06,2.2,317.6,M,-23.7,M,0.8,0000*48
$GPGSA,A,3,14,12,31,18,25,22,,,,,,,3.5,2.2,2.7*3B
$GPRMC,182345.000,A,3353.7543,N,09832.0250,W,0.08,306.14,010412,,,D*7A
$GPGGA,182346.000,3353.7544,N,09832.0251,W,2,06,2.2,317.6,M,-23.7,M,0.8,0000*4D
$GPGSA,A,3,14,12,31,18,25,22,,,,,,,3.5,2.2,2.7*3B
$GPRMC,182346.000,A,3353.7544,N,09832.0251,W,0.10,293.43,010412,,,D*79
$GPGGA,182347.000,3353.7544,N,09832.0251,W,2,06,2.2,317.6,M,-23.7,M,0.8,0000*4C
$GPGSA,A,3,14,12,31,18,25,22,,,,,,,3.5,2.2,2.7*3B
$GPGSV,3,1,11,22,63,092,34,14,62,007,39,31,53,192,34,11,25,294,22*7F
$GPGSV,3,2,11,18,22,114,36,25,21,098,30,01,18,316,,32,14,306,*7B
$GPGSV,3,3,11,12,11,058,32,19,06,255,15,51,49,195,39*40
$GPRMC,182347.000,A,3353.7544,N,09832.0251,W,0.11,264.99,010412,,,D*76
$GPGGA,182348.000,3353.7544,N,09832.0252,W,2,06,2.2,317.6,M,-23.7,M,1.8,0000*41
$GPGSA,A,3,14,12,31,18,25,22,,,,,,,3.5,2.2,2.7*3B
$GPRMC,182348.000,A,3353.7544,N,09832.0252,W,0.09,281.40,010412,,,D*7C
$GPGGA,182349.000,3353.7544,N,09832.0252,W,2,06,2.2,317.6,M,-23.7,M,2.8,0000*43
$GPGSA,A,3,14,12,31,18,25,22,,,,,,,3.5,2.2,2.7*3B
$GPRMC,182349.000,A,3353.7544,N,09832.0252,W,0.09,282.53,010412,,,D*7C
$GPGGA,182350.000,3353.7544,N,09832.0252,W,2,06,2.2,317.6,M,-23.7,M,3.8,0000*4A
$GPGSA,A,3,14,12,31,18,25,22,,,,,,,3.5,2.2,2.7*3B
$GPRMC,182350.000,A,3353.7544,N,09832.0252,W,0.11,284.93,010412,,,D*77
$GPGGA,182351.000,3353.7544,N,09832.0253,W,2,06,2.2,317.4,M,-23.7,M,0.8,0000*4B
$GPGSA,A,3,14,12,31,18,25,22,,,,,,,3.5,2.2,2.7*3B
$GPRMC,182351.000,A,3353.7544,N,09832.0253,W,0.05,227.72,010412,,,D*74
$GPGGA,182352.000,3353.7544,N,09832.0253,W,2,06,2.2,317.4,M,-23.7,M,0.8,0000*48
$GPGSA,A,3,14,12,31,18,25,22,,,,,,,3.5,2.2,2.7*3B
$GPGSV,3,1,11,22,63,092,34,14,62,007,39,31,53,192,34,11,25,294,23*7E
$GPGSV,3,2,11,18,22,114,37,25,21,098,29,01,18,316,,32,14,306,*72
$GPGSV,3,3,11,12,11,058,32,19,06,255,15,51,49,195,39*40
$GPRMC,182352.000,A,3353.7544,N,09832.0253,W,0.01,132.06,010412,,,D*77
$GPGGA,182353.000,3353.7544,N,09832.0253,W,2,06,2.2,317.3,M,-23.7,M,0.8,0000*4E
$GPGSA,A,3,14,12,31,18,25,22,,,,,,,3.5,2.2,2.7*3B
$GPRMC,182353.000,A,3353.7544,N,09832.0253,W,0.02,1.74,010412,,,D*71
$GPGGA,182354.000,3353.7544,N,09832.0253,W,2,06,2.2,317.2,M,-23.7,M,0.8,0000*48
$GPGSA,A,3,14,12,31,18,25,22,,,,,,,3.5,2.2,2.7*3B
$GPRMC,182354.000,A,3353.7544,N,09832.0253,W,0.02,313.60,010412,,,D*73
$GPGGA,182355.000,3353.7544,N,09832.0253,W,2,06,2.2,317.2,M,-23.7,M,1.8,0000*48
$GPGSA,A,3,14,12,31,18,25,22,,,,,,,3.5,2.2,2.7*3B
$GPRMC,182355.000,A,3353.7544,N,09832.0253,W,0.00,133.28,010412,,,D*7C
$GPGGA,182356.000,3353.7544,N,09832.0252,W,2,06,2.2,317.2,M,-23.7,M,0.8,0000*4B
$GPGSA,A,3,14,12,31,18,25,22,,,,,,,3.5,2.2,2.7*3B
$GPRMC,182356.000,A,3353.7544,N,09832.0252,W,0.01,105.16,010412,,,D*77
$GPGGA,182357.000,3353.7545,N,09832.0252,W,2,06,2.2,317.2,M,-23.7,M,0.8,0000*4B
$GPGSA,A,3,14,12,31,18,25,22,,,,,,,3.5,2.2,2.7*3B
$GPGSV,3,1,11,22,63,092,34,14,62,007,39,31,53,192,34,11,25,294,23*7E
$GPGSV,3,2,11,18,22,114,37,25,21,098,29,01,18,316,,32,14,306,*72
$GPGSV,3,3,11,12,11,058,31,19,06,255,14,51,49,195,39*42
$GPRMC,182357.000,A,3353.7545,N,09832.0252,W,0.08,332.28,010412,,,D*75
$GPGGA,182358.000,3353.7545,N,09832.0252,W,2,06,2.2,317.2,M,-23.7,M,0.8,0000*44
$GPGSA,A,3,14,12,31,18,25,22,,,,,,,3.5,2.2,2.7*3B
$GPRMC,182358.000,A,3353.7545,N,09832.0252,W,0.13,282.72,010412,,,D*75
$GPGGA,182359.000,3353.7545,N,09832.0253,W,2,06,2.2,317.2,M,-23.7,M,0.8,0000*44
$GPGSA,A,3,14,12,31,18,25,22,,,,,,,3.5,2.2,2.7*3B
$GPRMC,182359.000,A,3353.7545,N,09832.0253,W,0.09,282.44,010412,,,D*7B
$GPGGA,182400.000,3353.7545,N,09832.0253,W,2,06,2.2,317.2,M,-23.7,M,1.8,0000*4E
$GPGSA,A,3,14,12,31,18,25,22,,,,,,,3.5,2.2,2.7*3B
$GPRMC,182400.000,A,3353.7545,N,09832.0253,W,0.09,293.70,010412,,,D*77
$GPGGA,182401.000,3353.7545,N,09832.0253,W,2,06,2.2,317.1,M,-23.7,M,2.8,0000*4F
$GPGSA,A,3,14,12,31,18,25,22,,,,,,,3.5,2.2,2.7*3B
$GPRMC,182401.000,A,3353.7545,N,09832.0253,W,0.12,284.12,010412,,,D*7E
$GPGGA,182402.000,3353.7546,N,09832.0253,W,2,06,2.2,317.1,M,-23.7,M,0.8,0000*4D
$GPGSA,A,3,14,12,31,18,25,22,,,,,,,3.5,2.2,2.7*3B
$GPGSV,3,1,11,22,63,092,35,14,62,007,39,31,53,192,33,11,25,294,22*79
$GPGSV,3,2,11,18,22,114,37,25,21,098,29,01,18,316,,32,14,306,*72
$GPGSV,3,3,11,12,11,058,31,19,06,255,,51,49,195,39*47
$GPRMC,182402.000,A,3353.7546,N,09832.0253,W,0.09,286.70,010412,,,D*72
$GPGGA,182403.000,3353.7546,N,09832.0254,W,2,06,2.2,317.0,M,-23.7,M,0.8,0000*4A
$GPGSA,A,3,14,12,31,18,25,22,,,,,,,3.5,2.2,2.7*3B
$GPRMC,182403.000,A,3353.7546,N,09832.0254,W,0.03,234.77,010412,,,D*70
$GPGGA,182404.000,3353.7546,N,09832.0254,W,2,06,2.2,316.9,M,-23.7,M,0.8,0000*45
$GPGSA,A,3,14,12,31,18,25,22,,,,,,,3.5,2.2,2.7*3B
$GPRMC,182404.000,A,3353.7546,N,09832.0254,W,0.02,343.28,010412,,,D*7D
$GPGGA,182405.000,3353.7546,N,09832.0254,W,2,06,2.2,316.8,M,-23.7,M,0.8,0000*45
$GPGSA,A,3,14,12,31,18,25,22,,,,,,,3.5,2.2,2.7*3B
$GPRMC,182405.000,A,3353.7546,N,09832.0254,W,0.03,229.63,010412,,,D*7F
$GPGGA,182406.000,3353.7546,N,09832.0253,W,2,06,2.2,316.8,M,-23.7,M,1.8,0000*40
$GPGSA,A,3,14,12,31,18,25,22,,,,,,,3.5,2.2,2.7*3B
$GPRMC,182406.000,A,3353.7546,N,09832.0253,W,0.01,244.30,010412,,,D*74
$GPGGA,182407.000,3353.7546,N,09832.0253,W,2,06,2.2,316.7,M,-23.7,M,2.8,0000*4D
$GPGSA,A,3,14,12,31,18,25,22,,,,,,,3.5,2.2,2.7*3B
$GPGSV,3,1,11,22,63,092,35,14,62,007,40,31,53,192,32,11,25,294,21*75
$GPGSV,3,2,11,18,22,114,37,25,21,098,29,01,18,316,,32,14,306,*72
$GPGSV,3,3,11,12,11,058,31,19,06,255,,51,49,195,39*47
$GPRMC,182407.000,A,3353.7546,N,09832.0253,W,0.03,251.90,010412,,,D*79
$GPGGA,182408.000,3353.7546,N,09832.0253,W,2,06,2.2,316.7,M,-23.7,M,3.8,0000*43
$GPGSA,A,3,14,12,31,18,25,22,,,,,,,3.5,2.2,2.7*3B
$GPRMC,182408.000,A,3353.7546,N,09832.0253,W,0.04,227.57,010412,,,D*7B
$GPGGA,182409.000,3353.7546,N,09832.0253,W,2,06,2.2,316.7,M,-23.7,M,0.8,0000*41
$GPGSA,A,3,14,12,31,18,25,22,,,,,,,3.5,2.2,2.7*3B
$GPRMC,182409.000,A,3353.7546,N,09832.0253,W,0.08,306.33,010412,,,D*76
$GPGGA,182410.000,3353.7546,N,09832.0253,W,2,06,2.2,316.7,M,-23.7,M,0.8,0000*49
$GPGSA,A,3,14,12,31,18,25,22,,,,,,,3.5,2.2,2.7*3B
$GPRMC,182410.000,A,3353.7546,N,09832.0253,W,0.07,268.23,010412,,,D*79
$GPGGA,182411.000,3353.7547,N,09832.0253,W,2,06,2.2,316.7,M,-23.7,M,0.8,0000*49
$GPGSA,A,3,14,12,31,18,25,22,,,,,,,3.5,2.2,2.7*3B
$GPRMC,182411.000,A,3353.7547,N,09832.0253,W,0.09,289.43,010412,,,D*7E
$GPGGA,182412.000,3353.7547,N,09832.0253,W,2,06,2.2,316.7,M,-23.7,M,1.8,0000*4B
$GPGSA,A,3,14,12,31,18,25,22,,,,,,,3.5,2.2,2.7*3B
$GPGSV,3,1,11,22,63,092,35,14,62,007,40,31,53,192,32,11,25,294,22*76
$GPGSV,3,2,11,18,22,114,37,25,21,098,29,01,18,316,,32,14,306,*72
$GPGSV,3,3,11,12,11,058,31,19,06,255,,51,49,195,39*47
$GPRMC,182412.000,A,3353.7547,N,09832.0253,W,0.08,295.14,010412,,,D*73
$GPGGA,182413.000,3353.7547,N,09832.0254,W,2,06,2.2,316.7,M,-23.7,M,2.8,0000*4E
$GPGSA,A,3,14,12,31,18,25,22,,,,,,,3.5,2.2,2.7*3B
$GPRMC,182413.000,A,3353.7547,N,09832.0254,W,0.07,282.20,010412,,,D*7B
$GPGGA,182414.000,3353.7547,N,09832.0254,W,2,06,2.2,316.7,M,-23.7,M,0.8,0000*4B
$GPGSA,A,3,14,12,31,18,25,22,,,,,,,3.5,2.2,2.7*3B
$GPRMC,182414.000,A,3353.7547,N,09832.0254,W,0.09,298.56,010412,,,D*78
$GPGGA,182415.000,3353.7547,N,09832.0254,W,2,06,2.2,316.6,M,-23.7,M,0.8,0000*4B
$GPGSA,A,3,14,12,31,18,25,22,,,,,,,3.5,2.2,2.7*3B
$GPRMC,182415.000,A,3353.7547,N,09832.0254,W,0.03,165.95,010412,,,D*7D
$GPGGA,182416.000,3353.7548,N,09832.0254,W,2,06,2.2,316.5,M,-23.7,M,0.8,0000*44
$GPGSA,A,3,14,12,31,18,25,22,,,,,,,3.5,2.2,2.7*3B
$GPRMC,182416.000,A,3353.7548,N,09832.0254,W,0.03,58.71,010412,,,D*44
$GPGGA,182417.000,3353.7548,N,09832.0254,W,2,06,2.2,316.4,M,-23.7,M,0.8,0000*44
$GPGSA,A,3,14,12,31,18,25,22,,,,,,,3.5,2.2,2.7*3B
$GPGSV,3,1,11,22,63,092,36,14,62,007,40,31,53,192,31,11,25,294,21*75
$GPGSV,3,2,11,18,22,114,37,25,21,098,30,01,18,316,,32,14,306,*7A
$GPGSV,3,3,11,12,11,058,31,19,06,255,,51,49,195,40*49
$GPRMC,182417.000,A,3353.7548,N,09832.0254,W,0.02,173.74,010412,,,D*79
$GPGGA,182418.000,3353.7548,N,09832.0253,W,2,06,2.2,316.4,M,-23.7,M,0.8,0000*4C
$GPGSA,A,3,14,12,31,18,25,22,,,,,,,3.5,2.2,2.7*3B
$GPRMC,182418.000,A,3353.7548,N,09832.0253,W,0.02,176.44,010412,,,D*77
$GPGGA,182419.000,3353.7548,N,09832.0253,W,2,06,2.2,316.4,M,-23.7,M,1.8,0000*4C
$GPGSA,A,3,14,12,31,18,25,22,,,,,,,3.5,2.2,2.7*3B
$GPRMC,182419.000,A,3353.7548,N,09832.0253,W,0.03,105.14,010412,,,D*76
$GPGGA,182420.000,3353.7548,N,09832.0253,W,2,06,2.2,316.3,M,-23.7,M,2.8,0000*42
$GPGSA,A,3,14,12,31,18,25,22,,,,,,,3.5,2.2,2.7*3B
$GPRMC,182420.000,A,3353.7548,N,09832.0253,W,0.03,144.30,010412,,,D*7F
$GPGGA,182421.000,3353.7548,N,09832.0253,W,2,06,2.2,316.3,M,-23.7,M,0.8,0000*41
$GPGSA,A,3,14,12,31,18,25,22,,,,,,,3.5,2.2,2.7*3B
$GPRMC,182421.000,A,3353.7548,N,09832.0253,W,0.09,290.78,010412,,,D*72
$GPGGA,182422.000,3353.7548,N,09832.0253,W,2,06,2.2,316.3,M,-23.7,M,0.8,0000*42
$GPGSA,A,3,14,12,31,18,25,22,,,,,,,3.5,2.2,2.7*3B
$GPGSV,3,1,11,22,63,092,36,14,62,007,40,31,53,192,27,11,25,294,21*72
$GPGSV,3,2,11,18,22,114,37,25,21,098,30,01,18,316,,32,14,306,*7A
$GPGSV,3,3,11,12,11,058,31,19,06,255,,51,49,195,40*49
$GPRMC,182422.000,A,3353.7548,N,09832.0253,W,0.10,259.14,010412,,,D*76
$GPGGA,182423.000,3353.7548,N,09832.0254,W,2,06,2.2,316.2,M,-23.7,M,0.8,0000*45
$GPGSA,A,3,14,12,31,18,25,22,,,,,,,3.5,2.2,2.7*3B
$GPRMC,182423.000,A,3353.7548,N,09832.0254,W,0.10,271.05,010412,,,D*7A
$GPGGA,182424.000,3353.7548,N,09832.0254,W,2,06,2.2,316.1,M,-23.7,M,1.8,0000*40
$GPGSA,A,3,14,12,31,18,25,22,,,,,,,3.5,2.2,2.7*3B
$GPRMC,182424.000,A,3353.7548,N,09832.0254,W,0.10,273.97,010412,,,D*74
$GPGGA,182425.000,3353.7548,N,09832.0255,W,2,06,2.2,316.1,M,-23.7,M,0.8,0000*41
$GPGSA,A,3,14,12,31,18,25,22,,,,,,,3.5,2.2,2.7*3B
$GPRMC,182425.000,A,3353.7548,N,09832.0255,W,0.12,268.06,010412,,,D*74
$GPGGA,182426.000,3353.7549,N,09832.0255,W,2,06,2.2,316.0,M,-23.7,M,0.8,0000*42
$GPGSA,A,3,14,12,31,18,25,22,,,,,,,3.5,2.2,2.7*3B
$GPRMC,182426.000,A,3353.7549,N,09832.0255,W,0.12,279.28,010412,,,D*7A
$GPGGA,182427.000,3353.7549,N,09832.0255,W,2,06,2.2,316.0,M,-23.7,M,0.8,0000*43
$GPGSA,A,3,14,12,31,18,25,22,,,,,,,3.5,2.2,2.7*3B
$GPGSV,3,1,11,22,63,092,36,14,62,007,40,31,53,192,28,11,25,294,20*7C
$GPGSV,3,2,11,18,22,114,37,25,21,098,30,01,18,316,,32,14,306,*7A
$GPGSV,3,3,11,12,11,058,31,19,06,255,,51,49,195,40*49
$GPRMC,182427.000,A,3353.7549,N,09832.0255,W,0.08,208.53,010412,,,D*7A
$GPGGA,182428.000,3353.7549,N,09832.0255,W,2,06,2.2,316.0,M,-23.7,M,0.8,0000*4C
$GPGSA,A,3,14,12,31,18,25,22,,,,,,,3.5,2.2,2.7*3B
$GPRMC,182428.000,A,3353.7549,N,09832.0255,W,0.05,129.22,010412,,,D*7E
$GPGGA,182429.000,3353.7549,N,09832.0254,W,2,06,2.2,316.0,M,-23.7,M,0.8,0000*4C
$GPGSA,A,3,14,12,31,18,25,22,,,,,,,3.5,2.2,2.7*3B
$GPRMC,182429.000,A,3353.7549,N,09832.0254,W,0.07,95.39,010412,,,D*40
$GPGGA,182430.000,3353.7549,N,09832.0254,W,2,06,2.2,316.1,M,-23.7,M,1.8,0000*44
$GPGSA,A,3,14,12,31,18,25,22,,,,,,,3.5,2.2,2.7*3B
$GPRMC,182430.000,A,3353.7549,N,09832.0254,W,0.05,84.87,010412,,,D*4F
$GPGGA,182431.000,3353.7549,N,09832.0253,W,2,06,2.2,316.1,M,-23.7,M,0.8,0000*43
$GPGSA,A,3,14,12,31,18,25,22,,,,,,,3.5,2.2,2.7*3B
$GPRMC,182431.000,A,3353.7549,N,09832.0253,W,0.08,100.72,010412,,,D*73
$GPGGA,182432.000,3353.7549,N,09832.0252,W,2,06,2.2,316.2,M,-23.7,M,1.8,0000*43
$GPGSA,A,3,14,12,31,18,25,22,,,,,,,3.5,2.2,2.7*3B
$GPGSV,3,1,11,22,63,092,36,14,62,007,40,31,53,192,27,11,25,294,18*78
$GPGSV,3,2,11,18,22,114,37,25,21,098,31,01,18,316,,32,14,306,*7B
$GPGSV,3,3,11,12,11,058,30,19,06,255,,51,49,195,40*48
$GPRMC,182432.000,A,3353.7549,N,09832.0252,W,0.07,109.94,010412,,,D*7F
$GPGGA,182433.000,3353.7549,N,09832.0253,W,2,06,2.2,316.1,M,-23.7,M,0.8,0000*41
$GPGSA,A,3,14,12,31,18,25,22,,,,,,,3.5,2.2,2.7*3B
$GPRMC,182433.000,A,3353.7549,N,09832.0253,W,0.05,336.95,010412,,,D*72
$GPGGA,182434.000,3353.7549,N,09832.0254,W,2,06,2.2,315.9,M,-23.7,M,0.8,0000*4A
$GPGSA,A,3,14,12,31,18,25,22,,,,,,,3.5,2.2,2.7*3B
$GPRMC,182434.000,A,3353.7549,N,09832.0254,W,0.22,27.40,010412,,,D*4C
$GPGGA,182435.000,3353.7547,N,09832.0259,W,2,06,2.2,315.2,M,-23.7,M,0.8,0000*43
$GPGSA,A,3,14,12,31,18,25,22,,,,,,,3.5,2.2,2.7*3B
$GPRMC,182435.000,A,3353.7547,N,09832.0259,W,0.36,237.54,010412,,,D*7D
$GPGGA,182436.000,3353.7547,N,09832.0261,W,2,06,2.2,315.0,M,-23.7,M,1.8,0000*48
$GPGSA,A,3,14,12,31,18,25,22,,,,,,,3.5,2.2,2.7*3B
$GPRMC,182436.000,A,3353.7547,N,09832.0261,W,0.56,239.87,010412,,,D*73
$GPGGA,182437.000,3353.7546,N,09832.0262,W,2,06,2.2,314.8,M,-23.7,M,2.8,0000*41
$GPGSA,A,3,14,12,31,18,25,22,,,,,,,3.5,2.2,2.7*3B
$GPGSV,3,1,11,22,63,095,36,14,61,009,40,31,54,192,24,11,25,293,15*7C
$GPGSV,3,2,11,25,21,097,31,18,21,115,36,01,19,315,,32,15,307,*75
$GPGSV,3,3,11,12,11,057,30,19,05,254,,51,49,195,40*45
$GPRMC,182437.000,A,3353.7546,N,09832.0262,W,0.74,236.17,010412,,,D*76
$GPGGA,182438.000,3353.7541,N,09832.0275,W,2,06,2.2,313.4,M,-23.7,M,3.8,0000*45
$GPGSA,A,3,14,12,31,18,25,22,,,,,,,3.5,2.2,2.7*3B
$GPRMC,182438.000,A,3353.7541,N,09832.0275,W,0.84,241.60,010412,,,D*77
$GPGGA,182439.000,3353.7538,N,09832.0281,W,2,06,2.2,312.5,M,-23.7,M,0.8,0000*42
$GPGSA,A,3,14,12,31,18,25,22,,,,,,,3.5,2.2,2.7*3B
$GPRMC,182439.000,A,3353.7538,N,09832.0281,W,0.56,247.67,010412,,,D*7D
$GPGGA,182440.000,3353.7536,N,09832.0285,W,2,06,2.2,311.9,M,-23.7,M,0.8,0000*49
$GPGSA,A,3,14,12,31,18,25,22,,,,,,,3.5,2.2,2.7*3B
$GPRMC,182440.000,A,3353.7536,N,09832.0285,W,0.31,263.10,010412,,,D*7E
$GPGGA,182441.000,3353.7534,N,09832.0291,W,2,06,2.2,311.1,M,-23.7,M,0.8,0000*47
$GPGSA,A,3,14,12,31,18,25,22,,,,,,,3.5,2.2,2.7*3B
$GPRMC,182441.000,A,3353.7534,N,09832.0291,W,0.86,239.54,010412,,,D*7B
$GPGGA,182442.000,3353.7536,N,09832.0287,W,2,06,2.2,311.5,M,-23.7,M,1.8,0000*44
$GPGSA,A,3,14,12,31,18,25,22,,,,,,,3.5,2.2,2.7*3B
$GPGSV,3,1,11,22,63,095,36,14,61,009,40,31,54,192,16,11,25,293,*79
$GPGSV,3,2,11,25,21,097,32,18,21,115,36,01,19,315,,32,15,307,*76
$GPGSV,3,3,11,12,11,057,30,19,05,254,,51,49,195,40*45
$GPRMC,182442.000,A,3353.7536,N,09832.0287,W,0.81,238.30,010412,,,D*79
$GPGGA,182443.000,3353.7537,N,09832.0284,W,2,06,2.2,311.8,M,-23.7,M,2.8,0000*49
$GPGSA,A,3,14,12,31,18,25,22,,,,,,,3.5,2.2,2.7*3B
$GPRMC,182443.000,A,3353.7537,N,09832.0284,W,0.75,235.82,010412,,,D*75
$GPGGA,182444.000,3353.7538,N,09832.0283,W,2,06,2.2,311.9,M,-23.7,M,0.8,0000*45
$GPGSA,A,3,14,12,31,18,25,22,,,,,,,3.5,2.2,2.7*3B
$GPRMC,182444.000,A,3353.7538,N,09832.0283,W,0.49,240.21,010412,,,D*7E
$GPGGA,182445.000,3353.7538,N,09832.0281,W,2,06,2.2,312.0,M,-23.7,M,0.8,0000*4C
$GPGSA,A,3,14,12,31,18,25,22,,,,,,,3.5,2.2,2.7*3B
$GPRMC,182445.000,A,3353.7538,N,09832.0281,W,0.19,303.43,010412,,,D*7A
$GPGGA,182446.000,3353.7541,N,09832.0278,W,2,06,2.2,312.4,M,-23.7,M,0.8,0000*43
$GPGSA,A,3,14,12,31,18,25,22,,,,,,,3.5,2.2,2.7*3B
$GPRMC,182446.000,A,3353.7541,N,09832.0278,W,0.28,12.92,010412,,,D*4C
$GPGGA,182447.000,3353.7543,N,09832.0273,W,2,06,2.2,312.9,M,-23.7,M,0.8,0000*46
$GPGSA,A,3,14,12,31,18,25,22,,,,,,,3.5,2.2,2.7*3B
$GPGSV,3,1,11,22,63,095,37,14,61,009,40,31,54,192,21,11,25,293,*7C
$GPGSV,3,2,11,25,21,097,33,18,21,115,36,01,19,315,,32,15,307,*77
$GPGSV,3,3,11,12,11,057,29,19,05,254,,51,49,195,40*4D
$GPRMC,182447.000,A,3353.7543,N,09832.0273,W,0.37,33.83,010412,,,D*49
$GPGGA,182448.000,3353.7546,N,09832.0268,W,2,06,2.2,313.4,M,-23.7,M,1.8,0000*4B
$GPGSA,A,3,14,12,31,18,25,22,,,,,,,3.5,2.2,2.7*3B
$GPRMC,182448.000,A,3353.7546,N,09832.0268,W,0.07,245.84,010412,,,D*7E
$GPGGA,182449.000,3353.7547,N,09832.0265,W,2,06,2.2,313.8,M,-23.7,M,2.8,0000*49
$GPGSA,A,3,14,12,31,18,25,22,,,,,,,3.5,2.2,2.7*3B
$GPRMC,182449.000,A,3353.7547,N,09832.0265,W,0.16,35.75,010412,,,D*48
$GPGGA,182450.000,3353.7543,N,09832.0275,W,2,06,2.2,312.7,M,-23.7,M,0.8,0000*48
$GPGSA,A,3,14,12,31,18,25,22,,,,,,,3.5,2.2,2.7*3B
$GPRMC,182450.000,A,3353.7543,N,09832.0275,W,0.11,4.18,010412,,,D*7B
$GPGGA,182451.000,3353.7541,N,09832.0280,W,2,06,2.2,312.1,M,-23.7,M,0.8,0000*47
$GPGSA,A,3,14,12,31,18,25,22,,,,,,,3.5,2.2,2.7*3B
$GPRMC,182451.000,A,3353.7541,N,09832.0280,W,0.04,29.72,010412,,,D*45
$GPGGA,182452.000,3353.7541,N,09832.0281,W,2,06,2.2,311.9,M,-23.7,M,0.8,0000*4E
$GPGSA,A,3,14,12,31,18,25,22,,,,,,,3.5,2.2,2.7*3B
$GPGSV,3,1,11,22,63,095,37,14,61,009,40,31,54,192,20,11,25,293,*7D
$GPGSV,3,2,11,25,21,097,33,18,21,115,35,01,19,315,,32,15,307,*74
$GPGSV,3,3,11,12,11,057,29,19,05,254,,51,49,195,39*43
$GPRMC,182452.000,A,3353.7541,N,09832.0281,W,0.25,45.62,010412,,,D*4F
$GPGGA,182453.000,3353.7544,N,09832.0274,W,2,06,2.2,312.5,M,-23.7,M,0.8,0000*4F
$GPGSA,A,3,14,12,31,18,25,22,,,,,,,3.5,2.2,2.7*3B
$GPRMC,182453.000,A,3353.7544,N,09832.0274,W,0.25,63.05,010412,,,D*44
$GPGGA,182454.000,3353.7544,N,09832.0273,W,2,06,2.2,312.6,M,-23.7,M,1.8,0000*4D
$GPGSA,A,3,14,12,31,18,25,22,,,,,,,3.5,2.2,2.7*3B
$GPRMC,182454.000,A,3353.7544,N,09832.0273,W,0.18,203.52,010412,,,D*7C
$GPGGA,182455.000,3353.7545,N,09832.0271,W,2,06,2.2,312.7,M,-23.7,M,2.8,0000*4D
$GPGSA,A,3,14,12,31,18,25,22,,,,,,,3.5,2.2,2.7*3B
$GPRMC,182455.000,A,3353.7545,N,09832.0271,W,0.23,206.39,010412,,,D*7E
$GPGGA,182456.000,3353.7546,N,09832.0268,W,2,06,2.2,313.1,M,-23.7,M,3.8,0000*43
$GPGSA,A,3,14,12,31,18,25,22,,,,,,,3.5,2.2,2.7*3B
$GPRMC,182456.000,A,3353.7546,N,09832.0268,W,0.28,69.33,010412,,,D*4C
$GPGGA,182457.000,3353.7552,N,09832.0257,W,2,06,2.2,314.3,M,-23.7,M,0.8,0000*4D
$GPGSA,A,3,14,12,31,18,25,22,,,,,,,3.5,2.2,2.7*3B
$GPGSV,3,1,11,22,63,095,37,14,61,009,40,31,54,192,21,11,25,293,*7C
$GPGSV,3,2,11,25,21,097,33,18,21,115,35,01,19,315,,32,15,307,*74
$GPGSV,3,3,11,12,11,057,29,19,05,254,,51,49,195,40*4D
$GPRMC,182457.000,A,3353.7552,N,09832.0257,W,0.13,77.05,010412,,,D*46
$GPGGA,182458.000,3353.7552,N,09832.0257,W,2,06,2.2,314.3,M,-23.7,M,0.8,0000*42
$GPGSA,A,3,14,12,31,18,25,22,,,,,,,3.5,2.2,2.7*3B
$GPRMC,182458.000,A,3353.7552,N,09832.0257,W,0.34,50.37,010412,,,D*48
$GPGGA,182459.000,3353.7554,N,09832.0253,W,2,06,2.2,314.8,M,-23.7,M,0.8,0000*4A
$GPGSA,A,3,14,12,31,18,25,22,,,,,,,3.5,2.2,2.7*3B
$GPRMC,182459.000,A,3353.7554,N,09832.0253,W,0.07,126.69,010412,,,D*70
$GPGGA,182500.000,3353.7556,N,09832.0248,W,2,06,2.2,315.4,M,-23.7,M,0.8,0000*42
$GPGSA,A,3,14,12,31,18,25,22,,,,,,,3.5,2.2,2.7*3B
$GPRMC,182500.000,A,3353.7556,N,09832.0248,W,0.57,51.49,010412,,,D*43
$GPGGA,182501.000,3353.7558,N,09832.0244,W,2,06,2.2,315.9,M,-23.7,M,1.8,0000*4D
$GPGSA,A,3,14,12,31,18,25,22,,,,,,,3.5,2.2,2.7*3B
$GPRMC,182501.000,A,3353.7558,N,09832.0244,W,0.79,52.31,010412,,,D*40
$GPGGA,182502.000,3353.7560,N,09832.0243,W,2,06,2.2,315.9,M,-23.7,M,2.8,0000*41
$GPGSA,A,3,14,12,31,18,25,22,,,,,,,3.5,2.2,2.7*3B
$GPGSV,3,1,11,22,63,095,37,14,61,009,40,31,54,192,21,11,25,293,*7C
$GPGSV,3,2,11,25,21,097,33,18,21,115,35,01,19,315,,32,15,307,*74
$GPGSV,3,3,11,12,11,057,29,19,05,254,,51,49,195,40*4D
$GPRMC,182502.000,A,3353.7560,N,09832.0243,W,0.22,73.57,010412,,,D*42
$GPGGA,182503.000,3353.7562,N,09832.0240,W,2,06,2.2,316.0,M,-23.7,M,0.8,0000*49
$GPGSA,A,3,14,12,31,18,25,22,,,,,,,3.5,2.2,2.7*3B
$GPRMC,182503.000,A,3353.7562,N,09832.0240,W,0.25,105.54,010412,,,D*76
$GPGGA,182504.000,3353.7564,N,09832.0236,W,2,06,2.2,316.5,M,-23.7,M,0.8,0000*4C
$GPGSA,A,3,14,12,31,18,25,22,,,,,,,3.5,2.2,2.7*3B
$GPRMC,182504.000,A,3353.7564,N,09832.0236,W,0.65,62.42,010412,,,D*45
$GPGGA,182505.000,3353.7566,N,09832.0231,W,2,06,2.2,316.9,M,-23.7,M,0.8,0000*44
$GPGSA,A,3,14,12,31,18,25,22,,,,,,,3.5,2.2,2.7*3B
$GPRMC,182505.000,A,3353.7566,N,09832.0231,W,0.97,56.82,010412,,,D*47
$GPGGA,182506.000,3353.7568,N,09832.0227,W,2,06,2.2,317.2,M,-23.7,M,1.8,0000*45
$GPGSA,A,3,14,12,31,18,25,22,,,,,,,3.5,2.2,2.7*3B
$GPRMC,182506.000,A,3353.7568,N,09832.0227,W,0.82,62.33,010412,,,D*44
$GPGGA,182507.000,3353.7571,N,09832.0222,W,2,06,2.2,317.6,M,-23.7,M,0.8,0000*4C
$GPGSA,A,3,14,12,31,18,25,22,,,,,,,3.5,2.2,2.7*3B
$GPGSV,3,1,11,22,63,095,37,14,61,009,40,31,54,192,20,11,25,293,*7D
$GPGSV,3,2,11,25,21,097,33,18,21,115,35,01,19,315,,32,15,307,*74
$GPGSV,3,3,11,12,11,057,29,19,05,254,14,51,49,195,40*48
$GPRMC,182507.000,A,3353.7571,N,09832.0222,W,0.62,68.57,010412,,,D*4E
$GPGGA,182508.000,3353.7572,N,09832.0220,W,2,06,2.2,317.7,M,-23.7,M,1.8,0000*42
$GPGSA,A,3,14,12,31,18,25,22,,,,,,,3.5,2.2,2.7*3B
$GPRMC,182508.000,A,3353.7572,N,09832.0220,W,0.53,71.61,010412,,,D*4F
$GPGGA,182509.000,3353.7574,N,09832.0216,W,2,06,2.2,318.2,M,-23.7,M,0.8,0000*4B
$GPGSA,A,3,14,12,31,18,25,22,,,,,,,3.5,2.2,2.7*3B
$GPRMC,182509.000,A,3353.7574,N,09832.0216,W,0.77,56.49,010412,,,D*44
$GPGGA,182510.000,3353.7577,N,09832.0211,W,2,06,2.2,318.7,M,-23.7,M,0.8,0000*42
$GPGSA,A,3,14,12,31,18,25,22,,,,,,,3.5,2.2,2.7*3B
$GPRMC,182510.000,A,3353.7577,N,09832.0211,W,1.08,52.98,010412,,,D*49
$GPGGA,182511.000,3353.7579,N,09832.0207,W,2,06,2.2,319.1,M,-23.7,M,0.8,0000*4D
$GPGSA,A,3,14,12,31,18,25,22,,,,,,,3.5,2.2,2.7*3B
$GPRMC,182511.000,A,3353.7579,N,09832.0207,W,0.52,66.93,010412,,,D*43
$GPGGA,182512.000,3353.7583,N,09832.0200,W,2,06,2.2,320.1,M,-23.7,M,1.8,0000*47
$GPGSA,A,3,14,12,31,18,25,22,,,,,,,3.5,2.2,2.7*3B
$GPGSV,3,1,11,22,63,095,37,14,61,009,40,31,54,192,21,11,25,293,*7C
$GPGSV,3,2,11,25,21,097,33,18,21,115,35,01,19,315,,32,15,307,*74
$GPGSV,3,3,11,12,11,057,29,19,05,254,14,51,49,195,40*48
$GPRMC,182512.000,A,3353.7583,N,09832.0200,W,0.75,58.16,010412,,,D*47
$GPGGA,182513.000,3353.7586,N,09832.0193,W,2,06,2.2,321.0,M,-23.7,M,0.8,0000*4B
$GPGSA,A,3,14,12,31,18,25,22,,,,,,,3.5,2.2,2.7*3B
$GPRMC,182513.000,A,3353.7586,N,09832.0193,W,1.06,56.53,010412,,,D*40
$GPGGA,182514.000,3353.7590,N,09832.0185,W,2,06,2.2,321.9,M,-23.7,M,1.8,0000*44
$GPGSA,A,3,14,12,31,18,25,22,,,,,,,3.5,2.2,2.7*3B
$GPRMC,182514.000,A,3353.7590,N,09832.0185,W,1.12,55.55,010412,,,D*47
$GPGGA,182515.000,3353.7593,N,09832.0178,W,2,06,2.2,322.7,M,-23.7,M,0.8,0000*48
$GPGSA,A,3,14,12,31,18,25,22,,,,,,,3.5,2.2,2.7*3B
$GPRMC,182515.000,A,3353.7593,N,09832.0178,W,1.27,59.95,010412,,,D*41
$GPGGA,182516.000,3353.7598,N,09832.0169,W,2,06,2.2,323.7,M,-23.7,M,0.8,0000*41
$GPGSA,A,3,14,12,31,18,25,22,,,,,,,3.5,2.2,2.7*3B
$GPRMC,182516.000,A,3353.7598,N,09832.0169,W,1.56,57.66,010412,,,D*4D
$GPGGA,182517.000,3353.7606,N,09832.0153,W,2,06,2.2,325.6,M,-23.7,M,0.8,0000*4A
$GPGSA,A,3,14,12,31,18,25,22,,,,,,,3.5,2.2,2.7*3B
$GPGSV,3,1,11,22,63,095,37,14,61,009,40,31,54,192,21,11,25,293,18*75
$GPGSV,3,2,11,25,21,097,34,18,21,115,35,01,19,315,,32,15,307,*73
$GPGSV,3,3,11,12,11,057,28,19,05,254,13,51,49,195,40*4E
$GPRMC,182517.000,A,3353.7606,N,09832.0153,W,1.26,66.69,010412,,,D*4B
$GPGGA,182518.000,3353.7611,N,09832.0142,W,2,06,2.2,326.9,M,-23.7,M,0.8,0000*4F
$GPGSA,A,3,14,12,31,18,25,22,,,,,,,3.5,2.2,2.7*3B
$GPRMC,182518.000,A,3353.7611,N,09832.0142,W,1.07,74.16,010412,,,D*4A
$GPGGA,182519.000,3353.7613,N,09832.0137,W,2,06,2.2,327.5,M,-23.7,M,1.8,0000*42
$GPGSA,A,3,14,12,31,18,25,22,,,,,,,3.5,2.2,2.7*3B
$GPRMC,182519.000,A,3353.7613,N,09832.0137,W,1.02,74.80,010412,,,D*41
$GPGGA,182520.000,3353.7618,N,09832.0125,W,2,06,2.2,328.9,M,-23.7,M,2.8,0000*40
$GPGSA,A,3,14,12,31,18,25,22,,,,,,,3.5,2.2,2.7*3B
$GPRMC,182520.000,A,3353.7618,N,09832.0125,W,1.66,61.78,010412,,,D*42
$GPGGA,182521.000,3353.7620,N,09832.0122,W,2,06,2.2,329.2,M,-23.7,M,0.8,0000*45
$GPGSA,A,3,14,12,31,18,25,22,,,,,,,3.5,2.2,2.7*3B
$GPRMC,182521.000,A,3353.7620,N,09832.0122,W,1.73,56.45,010412,,,D*41
$GPGGA,182522.000,3353.7619,N,09832.0124,W,2,06,2.2,328.9,M,-23.7,M,0.8,0000*40
$GPGSA,A,3,14,12,31,18,25,22,,,,,,,3.5,2.2,2.7*3B
$GPGSV,3,1,11,22,63,095,37,14,61,009,41,31,54,192,20,11,25,293,17*7A
$GPGSV,3,2,11,25,21,097,34,18,21,115,35,01,19,315,,32,15,307,*73
$GPGSV,3,3,11,12,11,057,28,19,05,254,14,51,49,195,40*49
$GPRMC,182522.000,A,3353.7619,N,09832.0124,W,1.24,60.25,010412,,,D*4F
$GPGGA,182523.000,3353.7617,N,09832.0131,W,2,06,2.2,328.0,M,-23.7,M,0.8,0000*42
$GPGSA,A,3,14,12,31,18,25,22,,,,,,,3.5,2.2,2.7*3B
$GPRMC,182523.000,A,3353.7617,N,09832.0131,W,0.46,86.56,010412,,,D*4D
$GPGGA,182524.000,3353.7614,N,09832.0138,W,2,06,2.2,327.3,M,-23.7,M,1.8,0000*42
$GPGSA,A,3,14,12,31,18,25,22,,,,,,,3.5,2.2,2.7*3B
$GPRMC,182524.000,A,3353.7614,N,09832.0138,W,0.34,184.34,010412,,,D*72
$GPGGA,182525.000,3353.7613,N,09832.0139,W,2,06,2.2,327.2,M,-23.7,M,2.8,0000*47
$GPGSA,A,3,14,12,31,18,25,22,,,,,,,3.5,2.2,2.7*3B
$GPRMC,182525.000,A,3353.7613,N,09832.0139,W,0.47,200.22,010412,,,D*79
$GPGGA,182526.000,3353.7609,N,09832.0146,W,2,06,2.2,326.4,M,-23.7,M,3.8,0000*41
$GPGSA,A,3,14,12,31,18,25,22,,,,,,,3.5,2.2,2.7*3B
$GPRMC,182526.000,A,3353.7609,N,09832.0146,W,0.43,212.19,010412,,,D*76
$GPGGA,182527.000,3353.7612,N,09832.0142,W,2,06,2.2,326.6,M,-23.7,M,0.8,0000*4F
$GPGSA,A,3,14,12,31,18,25,22,,,,,,,3.5,2.2,2.7*3B
$GPGSV,3,1,11,22,63,095,37,14,61,009,41,31,54,192,21,11,25,293,17*7B
$GPGSV,3,2,11,25,21,097,34,18,21,115,35,01,19,315,,32,15,307,*73
$GPGSV,3,3,11,12,11,057,27,19,05,254,14,51,49,195,40*46
$GPRMC,182527.000,A,3353.7612,N,09832.0142,W,0.32,76.23,010412,,,D*46
$GPGGA,182528.000,3353.7610,N,09832.0148,W,2,06,2.2,325.7,M,-23.7,M,0.8,0000*4A
$GPGSA,A,3,14,12,31,18,25,22,,,,,,,3.5,2.2,2.7*3B
$GPRMC,182528.000,A,3353.7610,N,09832.0148,W,0.29,63.03,010412,,,D*4D
$GPGGA,182529.000,3353.7614,N,09832.0142,W,2,06,2.2,326.0,M,-23.7,M,0.8,0000*41
$GPGSA,A,3,14,12,31,18,25,22,,,,,,,3.5,2.2,2.7*3B
$GPRMC,182529.000,A,3353.7614,N,09832.0142,W,0.68,53.33,010412,,,D*47
$GPGGA,182530.000,3353.7615,N,09832.0141,W,2,06,2.2,325.9,M,-23.7,M,1.8,0000*40
$GPGSA,A,3,14,12,31,18,25,22,,,,,,,3.5,2.2,2.7*3B
$GPRMC,182530.000,A,3353.7615,N,09832.0141,W,0.34,70.05,010412,,,D*40
$GPGGA,182531.000,3353.7618,N,09832.0136,W,2,06,2.2,326.2,M,-23.7,M,2.8,0000*47
$GPGSA,A,3,14,12,31,18,25,22,,,,,,,3.5,2.2,2.7*3B
$GPRMC,182531.000,A,3353.7618,N,09832.0136,W,0.78,54.37,010412,,,D*43
$GPGGA,182532.000,3353.7622,N,09832.0130,W,2,06,2.2,326.6,M,-23.7,M,3.8,0000*4E
$GPGSA,A,3,14,12,31,18,25,22,,,,,,,3.5,2.2,2.7*3B
$GPGSV,3,1,11,22,63,095,37,14,61,009,41,31,54,192,21,11,25,293,17*7B
$GPGSV,3,2,11,25,21,097,34,18,21,115,35,01,19,315,,32,15,307,*73
$GPGSV,3,3,11,12,11,057,26,19,05,254,13,51,49,195,40*40
$GPRMC,182532.000,A,3353.7622,N,09832.0130,W,0.43,71.62,010412,,,D*40
$GPGGA,182533.000,3353.7625,N,09832.0125,W,2,06,2.2,326.9,M,-23.7,M,0.8,0000*40
$GPGSA,A,3,14,12,31,18,25,22,,,,,,,3.5,2.2,2.7*3B
$GPRMC,182533.000,A,3353.7625,N,09832.0125,W,0.16,102.21,010412,,,D*70
$GPGGA,182534.000,3353.7626,N,09832.0122,W,2,06,2.2,327.1,M,-23.7,M,0.8,0000*4A
$GPGSA,A,3,14,12,31,18,25,22,,,,,,,3.5,2.2,2.7*3B
$GPRMC,182534.000,A,3353.7626,N,09832.0122,W,0.12,98.61,010412,,,D*41
$GPGGA,182535.000,3353.7629,N,09832.0117,W,2,06,2.2,327.6,M,-23.7,M,0.8,0000*45
$GPGSA,A,3,14,12,31,18,25,22,,,,,,,3.5,2.2,2.7*3B
$GPRMC,182535.000,A,3353.7629,N,09832.0117,W,0.67,52.09,010412,,,D*43
$GPGGA,182536.000,3353.7632,N,09832.0114,W,2,06,2.2,327.8,M,-23.7,M,1.8,0000*40
$GPGSA,A,3,14,12,31,18,25,22,,,,,,,3.5,2.2,2.7*3B
$GPRMC,182536.000,A,3353.7632,N,09832.0114,W,0.95,48.79,010412,,,D*48
$GPGGA,182537.000,3353.7636,N,09832.0108,W,2,06,2.2,328.3,M,-23.7,M,2.8,0000*4F
$GPGSA,A,3,14,12,31,18,25,22,,,,,,,3.5,2.2,2.7*3B
$GPGSV,3,1,11,22,63,095,37,14,61,009,41,31,54,192,21,11,25,293,16*7A
$GPGSV,3,2,11,25,21,097,33,18,21,115,34,01,19,315,,32,15,307,*75
$GPGSV,3,3,11,12,11,057,25,19,05,254,13,51,49,195,40*43
$GPRMC,182537.000,A,3353.7636,N,09832.0108,W,0.40,67.67,010412,,,D*4A
$GPGGA,182538.000,3353.7634,N,09832.0114,W,2,06,2.2,327.3,M,-23.7,M,0.8,0000*42
$GPGSA,A,3,14,12,31,18,25,22,,,,,,,3.5,2.2,2.7*3B
$GPRMC,182538.000,A,3353.7634,N,09832.0114,W,0.73,53.25,010412,,,D*4B
$GPGGA,182539.000,3353.7639,N,09832.0107,W,2,06,2.2,327.7,M,-23.7,M,0.8,0000*48
$GPGSA,A,3,14,12,31,18,25,22,,,,,,,3.5,2.2,2.7*3B
$GPRMC,182539.000,A,3353.7639,N,09832.0107,W,1.09,58.42,010412,,,D*43
$GPGGA,182540.000,3353.7641,N,09832.0102,W,2,06,2.2,328.0,M,-23.7,M,0.8,0000*44
$GPGSA,A,3,14,12,31,18,25,22,,,,,,,3.5,2.2,2.7*3B
$GPRMC,182540.000,A,3353.7641,N,09832.0102,W,0.98,56.08,010412,,,D*4E
$GPGGA,182541.000,3353.7643,N,09832.0099,W,2,06,2.2,328.0,M,-23.7,M,0.8,0000*44
$GPGSA,A,3,14,12,31,18,25,22,,,,,,,3.5,2.2,2.7*3B
$GPRMC,182541.000,A,3353.7643,N,09832.0099,W,0.48,69.31,010412,,,D*45
$GPGGA,182542.000,3353.7645,N,09832.0096,W,2,06,2.2,328.2,M,-23.7,M,1.8,0000*4D
$GPGSA,A,3,14,12,31,18,25,22,,,,,,,3.5,2.2,2.7*3B
$GPGSV,3,1,11,22,63,095,38,14,61,009,42,31,54,192,20,11,25,293,16*77
$GPGSV,3,2,11,25,21,097,34,18,21,115,34,01,19,315,,32,15,307,*72
$GPGSV,3,3,11,12,11,057,25,19,05,254,,51,49,195,40*41
$GPRMC,182542.000,A,3353.7645,N,09832.0096,W,0.80,56.46,010412,,,D*47
$GPGGA,182543.000,3353.7644,N,09832.0099,W,2,06,2.2,327.7,M,-23.7,M,2.8,0000*4B
$GPGSA,A,3,14,12,31,18,25,22,,,,,,,3.5,2.2,2.7*3B
$GPRMC,182543.000,A,3353.7644,N,09832.0099,W,0.55,58.89,010412,,,D*4D
$GPGGA,182544.000,3353.7644,N,09832.0101,W,2,06,2.2,327.3,M,-23.7,M,0.8,0000*4A
$GPGSA,A,3,14,12,31,18,25,22,,,,,,,3.5,2.2,2.7*3B
