$GPGGA,194826.000,3352.3974,N,09831.1839,W,2,08,1.1,296.9,M,-23.7,M,1.8,0000*43
$GPGSA,A,3,22,31,01,30,14,20,32,11,,,,,2.2,1.1,1.9*3C
$GPRMC,194826.000,A,3352.3974,N,09831.1839,W,0.03,55.39,290312,,,D*45
$GPGGA,194827.000,3352.3974,N,09831.1839,W,2,08,1.1,296.8,M,-23.7,M,0.8,0000*42
$GPGSA,A,3,22,31,01,30,14,20,32,11,,,,,2.2,1.1,1.9*3C
$GPRMC,194827.000,A,3352.3974,N,09831.1839,W,0.08,144.03,290312,,,D*77
$GPGGA,194828.000,3352.3974,N,09831.1839,W,2,08,1.1,296.9,M,-23.7,M,0.8,0000*4C
$GPGSA,A,3,22,31,01,30,14,20,32,11,,,,,2.2,1.1,1.9*3C
$GPGSV,3,1,12,31,87,003,43,14,43,052,40,32,42,316,32,22,36,132,39*7D
$GPGSV,3,2,12,01,31,285,33,25,25,062,,30,23,167,28,11,23,260,36*7B
$GPGSV,3,3,12,20,15,314,25,16,01,181,,12,01,031,,51,49,195,35*71
$GPRMC,194828.000,A,3352.3974,N,09831.1839,W,0.09,163.54,290312,,,D*7E
$GPGGA,194829.000,3352.3973,N,09831.1839,W,2,08,1.1,296.9,M,-23.7,M,0.8,0000*4A
$GPGSA,A,3,22,31,01,30,14,20,32,11,,,,,2.2,1.1,1.9*3C
$GPRMC,194829.000,A,3352.3973,N,09831.1839,W,0.09,186.87,290312,,,D*7D
$GPGGA,194830.000,3352.3973,N,09831.1839,W,2,08,1.1,297.0,M,-23.7,M,1.8,0000*4B
$GPGSA,A,3,22,31,01,30,14,20,32,11,,,,,2.2,1.1,1.9*3C
$GPRMC,194830.000,A,3352.3973,N,09831.1839,W,0.07,199.75,290312,,,D*78
$GPGGA,194831.000,3352.3973,N,09831.1839,W,2,08,1.1,296.9,M,-23.7,M,2.8,0000*41
$GPGSA,A,3,22,31,01,30,14,20,32,11,,,,,2.2,1.1,1.9*3C
$GPRMC,194831.000,A,3352.3973,N,09831.1839,W,0.06,221.67,290312,,,D*7B
$GPGGA,194832.000,3352.3973,N,09831.1839,W,2,08,1.1,297.0,M,-23.7,M,3.8,0000*4B
$GPGSA,A,3,22,31,01,30,14,20,32,11,,,,,2.2,1.1,1.9*3C
$GPRMC,194832.000,A,3352.3973,N,09831.1839,W,0.08,188.76,290312,,,D*76
$GPGGA,194833.000,3352.3973,N,09831.1839,W,2,08,1.1,297.0,M,-23.7,M,0.8,0000*49
$GPGSA,A,3,22,31,01,30,14,20,32,11,,,,,2.2,1.1,1.9*3C
$GPGSV,3,1,12,31,87,003,43,14,43,052,40,32,42,316,32,22,36,132,39*7D
$GPGSV,3,2,12,01,31,285,33,25,25,062,,30,23,167,28,11,23,260,36*7B
$GPGSV,3,3,12,20,15,314,25,16,01,181,,12,01,031,,51,49,195,35*71
$GPRMC,194833.000,A,3352.3973,N,09831.1839,W,0.05,230.14,290312,,,D*7E
$GPGGA,194834.000,3352.3974,N,09831.1840,W,2,09,0.9,297.0,M,-23.7,M,0.8,0000*4F
$GPGSA,A,3,22,31,01,30,25,14,20,32,11,,,,1.9,0.9,1.7*34
$GPRMC,194834.000,A,3352.3974,N,09831.1840,W,0.09,239.67,290312,,,D*71
$GPGGA,194835.000,3352.3974,N,09831.1840,W,2,09,0.9,296.9,M,-23.7,M,0.8,0000*46
$GPGSA,A,3,22,31,01,30,25,14,20,32,11,,,,1.9,0.9,1.7*34
$GPRMC,194835.000,A,3352.3974,N,09831.1840,W,0.09,215.21,290312,,,D*7C
$GPGGA,194836.000,3352.3974,N,09831.1840,W,2,09,0.9,296.9,M,-23.7,M,1.8,0000*44
$GPGSA,A,3,22,31,01,30,25,14,20,32,11,,,,1.9,0.9,1.7*34
$GPRMC,194836.000,A,3352.3974,N,09831.1840,W,0.05,62.03,290312,,,D*41
$GPGGA,194837.000,3352.3974,N,09831.1840,W,2,09,0.9,296.7,M,-23.7,M,2.8,0000*48
$GPGSA,A,3,22,31,01,30,25,14,20,32,11,,,,1.9,0.9,1.7*34
$GPRMC,194837.000,A,3352.3974,N,09831.1840,W,0.05,23.37,290312,,,D*42
$GPGGA,194838.000,3352.3974,N,09831.1840,W,2,09,0.9,296.7,M,-23.7,M,3.8,0000*46
$GPGSA,A,3,22,31,01,30,25,14,20,32,11,,,,1.9,0.9,1.7*34
$GPGSV,3,1,12,31,87,003,43,14,43,052,40,32,42,316,32,22,36,132,39*7D
$GPGSV,3,2,12,01,31,285,33,25,25,062,21,30,23,167,29,11,23,260,36*79
$GPGSV,3,3,12,20,15,314,25,16,01,181,,12,01,031,,51,49,195,35*71
$GPRMC,194838.000,A,3352.3974,N,09831.1840,W,0.04,176.29,290312,,,D*72
$GPGGA,194839.000,3352.3974,N,09831.1840,W,2,09,0.9,296.7,M,-23.7,M,0.8,0000*44
$GPGSA,A,3,22,31,01,30,25,14,20,32,11,,,,1.9,0.9,1.7*34
$GPRMC,194839.000,A,3352.3974,N,09831.1840,W,0.04,120.53,290312,,,D*7D
$GPGGA,194840.000,3352.3974,N,09831.1839,W,2,09,0.9,296.7,M,-23.7,M,0.8,0000*44
$GPGSA,A,3,22,31,01,30,25,14,20,32,11,,,,1.9,0.9,1.7*34
$GPRMC,194840.000,A,3352.3974,N,09831.1839,W,0.04,114.37,290312,,,D*78
$GPGGA,194841.000,3352.3974,N,09831.1839,W,2,09,0.9,296.7,M,-23.7,M,0.8,0000*45
$GPGSA,A,3,22,31,01,30,25,14,20,32,11,,,,1.9,0.9,1.7*34
$GPRMC,194841.000,A,3352.3974,N,09831.1839,W,0.05,201.39,290312,,,D*71
$GPGGA,194842.000,3352.3975,N,09831.1839,W,2,09,0.9,296.7,M,-23.7,M,1.8,0000*46
$GPGSA,A,3,22,31,01,30,25,14,20,32,11,,,,1.9,0.9,1.7*34
$GPRMC,194842.000,A,3352.3975,N,09831.1839,W,0.03,285.32,290312,,,D*72
$GPGGA,194843.000,3352.3975,N,09831.1840,W,2,09,0.9,296.8,M,-23.7,M,2.8,0000*45
$GPGSA,A,3,22,31,01,30,25,14,20,32,11,,,,1.9,0.9,1.7*34
$GPGSV,3,1,12,31,87,003,43,14,43,052,40,32,42,316,32,22,36,132,39*7D
$GPGSV,3,2,12,01,31,285,33,25,25,062,23,30,23,167,29,11,23,260,36*7B
$GPGSV,3,3,12,20,15,314,25,16,01,181,,12,01,031,,51,49,195,35*71
$GPRMC,194843.000,A,3352.3975,N,09831.1840,W,0.12,192.09,290312,,,D*70
$GPGGA,194844.000,3352.3974,N,09831.1840,W,2,09,0.9,296.8,M,-23.7,M,3.8,0000*42
$GPGSA,A,3,22,31,01,30,25,14,20,32,11,,,,1.9,0.9,1.7*34
$GPRMC,194844.000,A,3352.3974,N,09831.1840,W,0.06,161.17,290312,,,D*70
$GPGGA,194845.000,3352.3974,N,09831.1840,W,2,09,0.9,296.9,M,-23.7,M,0.8,0000*41
$GPGSA,A,3,22,31,01,30,25,14,20,32,11,,,,1.9,0.9,1.7*34
$GPRMC,194845.000,A,3352.3974,N,09831.1840,W,0.16,198.63,290312,,,D*75
$GPGGA,194846.000,3352.3974,N,09831.1840,W,2,09,0.9,296.9,M,-23.7,M,0.8,0000*42
$GPGSA,A,3,22,31,01,30,25,14,20,32,11,,,,1.9,0.9,1.7*34
$GPRMC,194846.000,A,3352.3974,N,09831.1840,W,0.08,225.92,290312,,,D*72
$GPGGA,194847.000,3352.3974,N,09831.1840,W,2,09,0.9,296.8,M,-23.7,M,1.8,0000*43
$GPGSA,A,3,22,31,01,30,25,14,20,32,11,,,,1.9,0.9,1.7*34
$GPRMC,194847.000,A,3352.3974,N,09831.1840,W,0.03,200.83,290312,,,D*7F
$GPGGA,194848.000,3352.3974,N,09831.1840,W,2,09,0.9,296.7,M,-23.7,M,2.8,0000*40
$GPGSA,A,3,22,31,01,30,25,14,20,32,11,,,,1.9,0.9,1.7*34
$GPGSV,3,1,12,31,87,003,43,14,43,052,40,32,42,316,32,22,36,132,39*7D
$GPGSV,3,2,12,01,31,285,33,25,25,062,24,30,23,167,29,11,23,260,37*7D
$GPGSV,3,3,12,20,15,314,25,16,01,181,,12,01,031,,51,49,195,35*71
$GPRMC,194848.000,A,3352.3974,N,09831.1840,W,0.03,144.77,290312,,,D*78
$GPGGA,194849.000,3352.3974,N,09831.1840,W,2,09,0.9,296.7,M,-23.7,M,3.8,0000*40
$GPGSA,A,3,22,31,01,30,25,14,20,32,11,,,,1.9,0.9,1.7*34
$GPRMC,194849.000,A,3352.3974,N,09831.1840,W,0.04,202.38,290312,,,D*74
$GPGGA,194850.000,3352.3974,N,09831.1840,W,2,09,0.9,296.6,M,-23.7,M,4.8,0000*4E
$GPGSA,A,3,22,31,01,30,25,14,20,32,11,,,,1.9,0.9,1.7*34
$GPRMC,194850.000,A,3352.3974,N,09831.1840,W,0.06,188.51,290312,,,D*70
$GPGGA,194851.000,3352.3975,N,09831.1840,W,2,09,0.9,296.5,M,-23.7,M,0.8,0000*49
$GPGSA,A,3,22,31,01,30,25,14,20,32,11,,,,1.9,0.9,1.7*34
$GPRMC,194851.000,A,3352.3975,N,09831.1840,W,0.07,8.78,290312,,,D*73
$GPGGA,194852.000,3352.3975,N,09831.1840,W,2,09,0.9,296.5,M,-23.7,M,0.8,0000*4A
$GPGSA,A,3,22,31,01,30,25,14,20,32,11,,,,1.9,0.9,1.7*34
$GPRMC,194852.000,A,3352.3975,N,09831.1840,W,0.03,95.18,290312,,,D*46
$GPGGA,194853.000,3352.3975,N,09831.1840,W,2,09,0.9,296.5,M,-23.7,M,0.8,0000*4B
$GPGSA,A,3,22,31,01,30,25,14,20,32,11,,,,1.9,0.9,1.7*34
$GPGSV,3,1,12,31,87,003,43,14,43,052,40,32,42,316,32,22,36,132,39*7D
$GPGSV,3,2,12,01,31,285,32,25,25,062,25,30,23,167,28,11,23,260,37*7C
$GPGSV,3,3,12,20,15,314,25,16,01,181,,12,01,031,,51,49,195,35*71
$GPRMC,194853.000,A,3352.3975,N,09831.1840,W,0.07,144.94,290312,,,D*7A
$GPGGA,194854.000,3352.3975,N,09831.1840,W,2,09,0.9,296.4,M,-23.7,M,1.8,0000*4C
$GPGSA,A,3,22,31,01,30,25,14,20,32,11,,,,1.9,0.9,1.7*34
$GPRMC,194854.000,A,3352.3975,N,09831.1840,W,0.02,121.76,290312,,,D*77
$GPGGA,194855.000,3352.3975,N,09831.1840,W,2,09,0.9,296.4,M,-23.7,M,2.8,0000*4E
$GPGSA,A,3,22,31,01,30,25,14,20,32,11,,,,1.9,0.9,1.7*34
$GPRMC,194855.000,A,3352.3975,N,09831.1840,W,0.05,140.85,290312,,,D*7A
$GPGGA,194856.000,3352.3975,N,09831.1840,W,2,09,0.9,296.4,M,-23.7,M,3.8,0000*4C
$GPGSA,A,3,22,31,01,30,25,14,20,32,11,,,,1.9,0.9,1.7*34
$GPRMC,194856.000,A,3352.3975,N,09831.1840,W,0.02,146.04,290312,,,D*71
$GPGGA,194857.000,3352.3975,N,09831.1840,W,2,09,0.9,296.5,M,-23.7,M,0.8,0000*4F
$GPGSA,A,3,22,31,01,30,25,14,20,32,11,,,,1.9,0.9,1.7*34
$GPRMC,194857.000,A,3352.3975,N,09831.1840,W,0.09,191.27,290312,,,D*70
$GPGGA,194858.000,3352.3975,N,09831.1840,W,2,09,0.9,296.4,M,-23.7,M,0.8,0000*41
$GPGSA,A,3,22,31,01,30,25,14,20,32,11,,,,1.9,0.9,1.7*34
$GPGSV,3,1,12,31,87,003,43,14,43,052,40,32,42,316,33,22,36,132,39*7C
$GPGSV,3,2,12,01,31,285,32,25,25,062,26,30,23,167,27,11,23,260,37*70
$GPGSV,3,3,12,20,15,314,25,16,01,181,,12,01,031,,51,49,195,35*71
$GPRMC,194858.000,A,3352.3975,N,09831.1840,W,0.07,190.96,290312,,,D*7A
$GPGGA,194859.000,3352.3975,N,09831.1840,W,2,09,0.9,296.4,M,-23.7,M,0.8,0000*40
$GPGSA,A,3,22,31,01,30,25,14,20,32,11,,,,1.9,0.9,1.7*34
$GPRMC,194859.000,A,3352.3975,N,09831.1840,W,0.08,171.45,290312,,,D*75
$GPGGA,194900.000,3352.3975,N,09831.1840,W,2,09,0.9,296.4,M,-23.7,M,0.8,0000*4D
$GPGSA,A,3,22,31,01,30,25,14,20,32,11,,,,1.9,0.9,1.7*34
$GPRMC,194900.000,A,3352.3975,N,09831.1840,W,0.04,206.00,290312,,,D*76
$GPGGA,194901.000,3352.3975,N,09831.1840,W,2,09,0.9,296.4,M,-23.7,M,0.8,0000*4C
$GPGSA,A,3,22,31,01,30,25,14,20,32,11,,,,1.9,0.9,1.7*34
$GPRMC,194901.000,A,3352.3975,N,09831.1840,W,0.07,173.60,290312,,,D*73
$GPGGA,194902.000,3352.3975,N,09831.1840,W,2,09,0.9,296.3,M,-23.7,M,1.8,0000*49
$GPGSA,A,3,22,31,01,30,25,14,20,32,11,,,,1.9,0.9,1.7*34
$GPRMC,194902.000,A,3352.3975,N,09831.1840,W,0.04,213.53,290312,,,D*76
$GPGGA,194903.000,3352.3975,N,09831.1839,W,2,09,0.9,296.3,M,-23.7,M,0.8,0000*47
$GPGSA,A,3,22,31,01,30,25,14,20,32,11,,,,1.9,0.9,1.7*34
$GPGSV,3,1,12,31,87,003,43,14,43,052,40,32,42,316,33,22,36,132,39*7C
$GPGSV,3,2,12,01,31,285,32,25,25,062,27,30,23,167,27,11,23,260,37*71
$GPGSV,3,3,12,20,15,314,25,16,01,181,,12,01,031,,51,49,195,35*71
$GPRMC,194903.000,A,3352.3975,N,09831.1839,W,0.06,112.99,290312,,,D*7F
$GPGGA,194904.000,3352.3975,N,09831.1839,W,2,09,0.9,296.3,M,-23.7,M,0.8,0000*40
$GPGSA,A,3,22,31,01,30,25,14,20,32,11,,,,1.9,0.9,1.7*34
$GPRMC,194904.000,A,3352.3975,N,09831.1839,W,0.02,105.16,290312,,,D*7D
$GPGGA,194905.000,3352.3975,N,09831.1839,W,2,09,0.9,296.3,M,-23.7,M,0.8,0000*41
$GPGSA,A,3,22,31,01,30,25,14,20,32,11,,,,1.9,0.9,1.7*34
$GPRMC,194905.000,A,3352.3975,N,09831.1839,W,0.08,144.44,290312,,,D*74
$GPGGA,194906.000,3352.3975,N,09831.1839,W,2,09,0.9,296.3,M,-23.7,M,1.8,0000*43
$GPGSA,A,3,22,31,01,30,25,14,20,32,11,,,,1.9,0.9,1.7*34
$GPRMC,194906.000,A,3352.3975,N,09831.1839,W,0.04,170.38,290312,,,D*77
$GPGGA,194907.000,3352.3975,N,09831.1839,W,2,09,0.9,296.4,M,-23.7,M,0.8,0000*44
$GPGSA,A,3,22,31,01,30,25,14,20,32,11,,,,1.9,0.9,1.7*34
$GPRMC,194907.000,A,3352.3975,N,09831.1839,W,0.05,161.61,290312,,,D*7B
$GPGGA,194908.000,3352.3975,N,09831.1839,W,2,09,0.9,296.4,M,-23.7,M,1.8,0000*4A
$GPGSA,A,3,22,31,01,30,25,14,20,32,11,,,,1.9,0.9,1.7*34
$GPGSV,3,1,12,31,87,003,43,14,43,052,40,32,42,316,33,22,36,132,39*7C
$GPGSV,3,2,12,01,31,285,32,25,25,062,28,30,23,167,26,11,23,260,37*7F
$GPGSV,3,3,12,20,15,314,25,16,01,181,,12,01,031,,51,49,195,35*71
$GPRMC,194908.000,A,3352.3975,N,09831.1839,W,0.07,155.11,290312,,,D*76
$GPGGA,194909.000,3352.3975,N,09831.1839,W,2,09,0.9,296.5,M,-23.7,M,0.8,0000*4B
$GPGSA,A,3,22,31,01,30,25,14,20,32,11,,,,1.9,0.9,1.7*34
$GPRMC,194909.000,A,3352.3975,N,09831.1839,W,0.10,204.09,290312,,,D*7F
$GPGGA,194910.000,3352.3975,N,09831.1839,W,2,09,0.9,296.4,M,-23.7,M,0.8,0000*42
$GPGSA,A,3,22,31,01,30,25,14,20,32,11,,,,1.9,0.9,1.7*34
$GPRMC,194910.000,A,3352.3975,N,09831.1839,W,0.06,221.06,290312,,,D*78
$GPGGA,194911.000,3352.3975,N,09831.1840,W,2,09,0.9,296.4,M,-23.7,M,0.8,0000*4D
$GPGSA,A,3,22,31,01,30,25,14,20,32,11,,,,1.9,0.9,1.7*34
$GPRMC,194911.000,A,3352.3975,N,09831.1840,W,0.03,262.80,290312,,,D*7B
$GPGGA,194912.000,3352.3975,N,09831.1840,W,2,09,0.9,296.4,M,-23.7,M,1.8,0000*4F
$GPGSA,A,3,22,31,01,30,25,14,20,32,11,,,,1.9,0.9,1.7*34
$GPRMC,194912.000,A,3352.3975,N,09831.1840,W,0.04,209.99,290312,,,D*7A
$GPGGA,194913.000,3352.3975,N,09831.1840,W,2,09,0.9,296.4,M,-23.7,M,0.8,0000*4F
$GPGSA,A,3,22,31,01,30,25,14,20,32,11,,,,1.9,0.9,1.7*34
$GPGSV,3,1,12,31,87,003,43,14,43,052,40,32,42,316,33,22,36,132,39*7C
$GPGSV,3,2,12,01,31,285,32,25,25,062,28,30,23,167,27,11,23,260,37*7E
$GPGSV,3,3,12,20,15,314,26,16,01,181,,12,01,031,,51,49,195,35*72
$GPRMC,194913.000,A,3352.3975,N,09831.1840,W,0.03,239.13,290312,,,D*7D
$GPGGA,194914.000,3352.3975,N,09831.1840,W,2,09,0.9,296.4,M,-23.7,M,0.8,0000*48
$GPGSA,A,3,22,31,01,30,25,14,20,32,11,,,,1.9,0.9,1.7*34
$GPRMC,194914.000,A,3352.3975,N,09831.1840,W,0.03,196.05,290312,,,D*7B
$GPGGA,194915.000,3352.3975,N,09831.1840,W,2,09,0.9,296.3,M,-23.7,M,0.8,0000*4E
$GPGSA,A,3,22,31,01,30,25,14,20,32,11,,,,1.9,0.9,1.7*34
$GPRMC,194915.000,A,3352.3975,N,09831.1840,W,0.06,115.77,290312,,,D*71
$GPGGA,194916.000,3352.3975,N,09831.1840,W,2,09,0.9,296.3,M,-23.7,M,0.8,0000*4D
$GPGSA,A,3,22,31,01,30,25,14,20,32,11,,,,1.9,0.9,1.7*34
$GPRMC,194916.000,A,3352.3975,N,09831.1840,W,0.06,133.76,290312,,,D*77
$GPGGA,194917.000,3352.3976,N,09831.1840,W,2,09,0.9,296.3,M,-23.7,M,0.8,0000*4F
$GPGSA,A,3,22,31,01,30,25,14,20,32,11,,,,1.9,0.9,1.7*34
$GPRMC,194917.000,A,3352.3976,N,09831.1840,W,0.04,169.58,290312,,,D*74
$GPGGA,194918.000,3352.3976,N,09831.1840,W,2,09,0.9,296.3,M,-23.7,M,1.8,0000*41
$GPGSA,A,3,22,31,01,30,25,14,20,32,11,,,,1.9,0.9,1.7*34
$GPGSV,3,1,12,31,87,003,43,14,43,052,40,32,42,316,33,22,36,132,39*7C
$GPGSV,3,2,12,01,31,285,32,25,25,062,28,30,23,167,28,11,23,260,37*71
$GPGSV,3,3,12,20,15,314,26,16,01,181,,12,01,031,,51,49,195,35*72
$GPRMC,194918.000,A,3352.3976,N,09831.1840,W,0.06,160.19,290312,,,D*75
$GPGGA,194919.000,3352.3976,N,09831.1840,W,2,09,0.9,296.3,M,-23.7,M,2.8,0000*43
$GPGSA,A,3,22,31,01,30,25,14,20,32,11,,,,1.9,0.9,1.7*34
$GPRMC,194919.000,A,3352.3976,N,09831.1840,W,0.05,149.24,290312,,,D*72
$GPGGA,194920.000,3352.3976,N,09831.1840,W,2,09,0.9,296.3,M,-23.7,M,3.8,0000*48
$GPGSA,A,3,22,31,01,30,25,14,20,32,11,,,,1.9,0.9,1.7*34
$GPRMC,194920.000,A,3352.3976,N,09831.1840,W,0.01,250.15,290312,,,D*75
$GPGGA,194921.000,3352.3976,N,09831.1840,W,2,09,0.9,296.3,M,-23.7,M,0.8,0000*4A
$GPGSA,A,3,22,31,01,30,25,14,20,32,11,,,,1.9,0.9,1.7*34
$GPRMC,194921.000,A,3352.3976,N,09831.1840,W,0.08,212.09,290312,,,D*76
$GPGGA,194922.000,3352.3976,N,09831.1840,W,2,09,0.9,296.3,M,-23.7,M,0.8,0000*49
$GPGSA,A,3,22,31,01,30,25,14,20,32,11,,,,1.9,0.9,1.7*34
$GPRMC,194922.000,A,3352.3976,N,09831.1840,W,0.06,217.67,290312,,,D*76
$GPGGA,194923.000,3352.3976,N,09831.1840,W,2,09,0.9,296.3,M,-23.7,M,0.8,0000*48
$GPGSA,A,3,22,31,01,30,25,14,20,32,11,,,,1.9,0.9,1.7*34
$GPGSV,3,1,12,31,87,003,43,14,43,052,40,32,42,316,32,22,36,132,39*7D
$GPGSV,3,2,12,01,31,285,31,25,25,062,28,30,23,167,28,11,23,260,37*72
$GPGSV,3,3,12,20,15,314,26,16,01,181,,12,01,031,,51,49,195,35*72
$GPRMC,194923.000,A,3352.3976,N,09831.1840,W,0.02,209.93,290312,,,D*77
$GPGGA,194924.000,3352.3976,N,09831.1841,W,2,09,0.9,296.3,M,-23.7,M,1.8,0000*4F
$GPGSA,A,3,22,31,01,30,25,14,20,32,11,,,,1.9,0.9,1.7*34
$GPRMC,194924.000,A,3352.3976,N,09831.1841,W,0.05,199.53,290312,,,D*70
$GPGGA,194925.000,3352.3976,N,09831.1841,W,2,09,0.9,296.2,M,-23.7,M,2.8,0000*4C
$GPGSA,A,3,22,31,01,30,25,14,20,32,11,,,,1.9,0.9,1.7*34
$GPRMC,194925.000,A,3352.3976,N,09831.1841,W,0.03,256.31,290312,,,D*73
$GPGGA,194926.000,3352.3977,N,09831.1841,W,2,09,0.9,296.2,M,-23.7,M,3.8,0000*4F
$GPGSA,A,3,22,31,01,30,25,14,20,32,11,,,,1.9,0.9,1.7*34
$GPRMC,194926.000,A,3352.3977,N,09831.1841,W,0.03,231.91,290312,,,D*7A
$GPGGA,194927.000,3352.3977,N,09831.1841,W,2,09,0.9,296.1,M,-23.7,M,0.8,0000*4E
$GPGSA,A,3,22,31,01,30,25,14,20,32,11,,,,1.9,0.9,1.7*34
$GPRMC,194927.000,A,3352.3977,N,09831.1841,W,0.04,88.88,290312,,,D*44
$GPGGA,194928.000,3352.3977,N,09831.1841,W,2,09,0.9,296.2,M,-23.7,M,0.8,0000*42
$GPGSA,A,3,22,31,01,30,25,14,20,32,11,,,,1.9,0.9,1.7*34
$GPGSV,3,1,12,31,87,003,43,14,43,052,40,32,42,316,32,22,36,132,39*7D
$GPGSV,3,2,12,01,31,285,32,25,25,062,28,30,23,167,28,11,23,260,37*71
$GPGSV,3,3,12,20,15,314,26,16,01,181,,12,01,031,,51,49,195,35*72
$GPRMC,194928.000,A,3352.3977,N,09831.1841,W,0.07,141.17,290312,,,D*7A
$GPGGA,194929.000,3352.3977,N,09831.1841,W,2,09,0.9,296.2,M,-23.7,M,0.8,0000*43
$GPGSA,A,3,22,31,01,30,25,14,20,32,11,,,,1.9,0.9,1.7*34
$GPRMC,194929.000,A,3352.3977,N,09831.1841,W,0.07,164.90,290312,,,D*73
$GPGGA,194930.000,3352.3977,N,09831.1841,W,2,09,0.9,296.2,M,-23.7,M,1.8,0000*4A
$GPGSA,A,3,22,31,01,30,25,14,20,32,11,,,,1.9,0.9,1.7*34
$GPRMC,194930.000,A,3352.3977,N,09831.1841,W,0.11,152.51,290312,,,D*74
$GPGGA,194931.000,3352.3977,N,09831.1841,W,2,09,0.9,296.2,M,-23.7,M,2.8,0000*48
$GPGSA,A,3,22,31,01,30,25,14,20,32,11,,,,1.9,0.9,1.7*34
$GPRMC,194931.000,A,3352.3977,N,09831.1841,W,0.08,166.40,290312,,,D*7A
$GPGGA,194932.000,3352.3976,N,09831.1840,W,2,09,0.9,296.3,M,-23.7,M,3.8,0000*4B
$GPGSA,A,3,22,31,01,30,25,14,20,32,11,,,,1.9,0.9,1.7*34
$GPRMC,194932.000,A,3352.3976,N,09831.1840,W,0.14,153.85,290312,,,D*7B
$GPGGA,194933.000,3352.3976,N,09831.1840,W,2,09,0.9,296.3,M,-23.7,M,4.8,0000*4D
$GPGSA,A,3,22,31,01,30,25,14,20,32,11,,,,1.9,0.9,1.7*34
$GPGSV,3,1,12,31,87,003,43,14,43,052,40,32,42,316,32,22,36,132,38*7C
$GPGSV,3,2,12,01,31,285,32,25,25,062,27,30,23,167,28,11,23,260,37*7E
$GPGSV,3,3,12,20,15,314,26,16,01,181,,12,01,031,,51,49,195,35*72
$GPRMC,194933.000,A,3352.3976,N,09831.1840,W,0.07,165.39,290312,,,D*7A
$GPGGA,194934.000,3352.3976,N,09831.1840,W,2,09,0.9,296.3,M,-23.7,M,5.8,0000*4B
$GPGSA,A,3,22,31,01,30,25,14,20,32,11,,,,1.9,0.9,1.7*34
$GPRMC,194934.000,A,3352.3976,N,09831.1840,W,0.07,161.00,290312,,,D*73
$GPGGA,194935.000,3352.3976,N,09831.1840,W,2,09,0.9,296.4,M,-23.7,M,6.8,0000*4E
$GPGSA,A,3,22,31,01,30,25,14,20,32,11,,,,1.9,0.9,1.7*34
$GPRMC,194935.000,A,3352.3976,N,09831.1840,W,0.08,159.09,290312,,,D*7F
$GPGGA,194936.000,3352.3976,N,09831.1840,W,2,09,0.9,296.4,M,-23.7,M,7.8,0000*4C
$GPGSA,A,3,22,31,01,30,25,14,20,32,11,,,,1.9,0.9,1.7*34
$GPRMC,194936.000,A,3352.3976,N,09831.1840,W,0.03,248.64,290312,,,D*7F
$GPGGA,194937.000,3352.3977,N,09831.1840,W,2,09,0.9,296.3,M,-23.7,M,8.8,0000*44
$GPGSA,A,3,22,31,01,30,25,14,20,32,11,,,,1.9,0.9,1.7*34
$GPRMC,194937.000,A,3352.3977,N,09831.1840,W,0.01,110.86,290312,,,D*7F
$GPGGA,194938.000,3352.3977,N,09831.1840,W,2,09,0.9,296.3,M,-23.7,M,9.8,0000*4A
$GPGSA,A,3,22,31,01,30,25,14,20,32,11,,,,1.9,0.9,1.7*34
$GPGSV,3,1,12,31,87,003,42,14,43,052,40,32,42,316,32,22,36,132,38*7D
$GPGSV,3,2,12,01,31,285,32,25,25,062,22,30,23,167,27,11,23,260,37*74
$GPGSV,3,3,12,20,15,314,26,16,01,181,,12,01,031,,51,49,195,35*72
$GPRMC,194938.000,A,3352.3977,N,09831.1840,W,0.06,95.45,290312,,,D*44
$GPGGA,194939.000,3352.3977,N,09831.1840,W,2,09,0.9,296.3,M,-23.7,M,10.8,0000*73
$GPGSA,A,3,22,31,01,30,25,14,20,32,11,,,,1.9,0.9,1.7*34
$GPRMC,194939.000,A,3352.3977,N,09831.1840,W,0.07,157.30,290312,,,D*79
$GPGGA,194940.000,3352.3977,N,09831.1840,W,2,09,0.9,296.4,M,-23.7,M,11.8,0000*7B
$GPGSA,A,3,22,31,01,30,25,14,20,32,11,,,,1.9,0.9,1.7*34
$GPRMC,194940.000,A,3352.3977,N,09831.1840,W,0.12,188.57,290312,,,D*70
$GPGGA,194941.000,3352.3976,N,09831.1840,W,2,09,0.9,296.4,M,-23.7,M,12.8,0000*78
$GPGSA,A,3,22,31,01,30,25,14,20,32,11,,,,1.9,0.9,1.7*34
$GPRMC,194941.000,A,3352.3976,N,09831.1840,W,0.12,187.80,290312,,,D*75
$GPGGA,194942.000,3352.3976,N,09831.1840,W,2,09,0.9,296.4,M,-23.7,M,13.8,0000*7A
$GPGSA,A,3,22,31,01,30,25,14,20,32,11,,,,1.9,0.9,1.7*34
$GPRMC,194942.000,A,3352.3976,N,09831.1840,W,0.10,154.24,290312,,,D*74
$GPGGA,194943.000,3352.3976,N,09831.1840,W,2,09,0.9,296.5,M,-23.7,M,14.8,0000*7D
$GPGSA,A,3,22,31,01,30,25,14,20,32,11,,,,1.9,0.9,1.7*34
$GPGSV,3,1,12,31,87,003,42,14,43,052,40,32,42,316,31,22,36,132,38*7E
$GPGSV,3,2,12,01,31,285,32,25,25,062,21,30,23,167,27,11,23,260,38*78
$GPGSV,3,3,12,20,15,314,26,16,01,181,,12,01,031,,51,49,195,35*72
$GPRMC,194943.000,A,3352.3976,N,09831.1840,W,0.15,166.72,290312,,,D*72
$GPGGA,194944.000,3352.3976,N,09831.1840,W,2,09,0.9,296.6,M,-23.7,M,15.8,0000*78
$GPGSA,A,3,22,31,01,30,25,14,20,32,11,,,,1.9,0.9,1.7*34
$GPRMC,194944.000,A,3352.3976,N,09831.1840,W,0.13,184.44,290312,,,D*7A
$GPGGA,194945.000,3352.3976,N,09831.1840,W,2,09,0.9,296.7,M,-23.7,M,16.8,0000*7B
$GPGSA,A,3,22,31,01,30,25,14,20,32,11,,,,1.9,0.9,1.7*34
$GPRMC,194945.000,A,3352.3976,N,09831.1840,W,0.14,192.80,290312,,,D*73
$GPGGA,194946.000,3352.3976,N,09831.1840,W,2,09,0.9,296.7,M,-23.7,M,17.8,0000*79
$GPGSA,A,3,22,31,01,30,25,14,20,32,11,,,,1.9,0.9,1.7*34
$GPRMC,194946.000,A,3352.3976,N,09831.1840,W,0.08,187.31,290312,,,D*73
$GPGGA,194947.000,3352.3976,N,09831.1840,W,1,09,0.9,296.8,M,-23.7,M,18.8,0000*7B
$GPGSA,A,3,22,31,01,30,25,14,20,32,11,,,,1.9,0.9,1.7*34
$GPRMC,194947.000,A,3352.3976,N,09831.1840,W,0.09,220.27,290312,,,A*7F
$GPGGA,194948.000,3352.3976,N,09831.1840,W,1,09,0.9,296.9,M,-23.7,M,18.8,0000*75
$GPGSA,A,3,22,31,01,30,25,14,20,32,11,,,,1.9,0.9,1.7*34
$GPGSV,3,1,12,31,87,003,42,14,43,052,40,32,42,316,31,22,36,132,38*7E
$GPGSV,3,2,12,01,31,285,31,25,25,062,21,30,23,167,28,11,23,260,38*74
$GPGSV,3,3,12,20,15,314,26,16,01,181,,12,01,031,,51,49,195,35*72
$GPRMC,194948.000,A,3352.3976,N,09831.1840,W,0.06,199.04,290312,,,A*7F
$GPGGA,194949.000,3352.3976,N,09831.1840,W,1,09,0.9,296.9,M,-23.7,M,18.8,0000*74
$GPGSA,A,3,22,31,01,30,25,14,20,32,11,,,,1.9,0.9,1.7*34
$GPRMC,194949.000,A,3352.3976,N,09831.1840,W,0.03,118.55,290312,,,A*76
$GPGGA,194950.000,3352.3976,N,09831.1841,W,1,09,0.9,297.0,M,-23.7,M,18.8,0000*75
$GPGSA,A,3,22,31,01,30,25,14,20,32,11,,,,1.9,0.9,1.7*34
$GPRMC,194950.000,A,3352.3976,N,09831.1841,W,0.10,206.52,290312,,,A*76
$GPGGA,194951.000,3352.3975,N,09831.1841,W,1,09,0.9,297.1,M,-23.7,M,18.8,0000*76
$GPGSA,A,3,22,31,01,30,25,14,20,32,11,,,,1.9,0.9,1.7*34
$GPRMC,194951.000,A,3352.3975,N,09831.1841,W,0.16,189.73,290312,,,A*75
$GPGGA,194952.000,3352.3975,N,09831.1841,W,1,09,0.9,297.2,M,-23.7,M,18.8,0000*76
$GPGSA,A,3,22,31,01,30,25,14,20,32,11,,,,1.9,0.9,1.7*34
$GPRMC,194952.000,A,3352.3975,N,09831.1841,W,0.15,201.18,290312,,,A*7B
$GPGGA,194953.000,3352.3975,N,09831.1841,W,1,09,0.9,297.3,M,-23.7,M,18.8,0000*76
$GPGSA,A,3,22,31,01,30,25,14,20,32,11,,,,1.9,0.9,1.7*34
$GPGSV,3,1,12,31,87,003,42,14,43,052,40,32,42,316,31,22,36,132,38*7E
$GPGSV,3,2,12,01,31,285,31,25,25,062,20,30,23,167,27,11,23,260,38*7A
$GPGSV,3,3,12,20,15,314,26,16,01,181,,12,01,031,,51,49,195,35*72
$GPRMC,194953.000,A,3352.3975,N,09831.1841,W,0.18,191.41,290312,,,A*71
$GPGGA,194954.000,3352.3975,N,09831.1841,W,1,09,0.9,297.4,M,-23.7,M,18.8,0000*76
$GPGSA,A,3,22,31,01,30,25,14,20,32,11,,,,1.9,0.9,1.7*34
$GPRMC,194954.000,A,3352.3975,N,09831.1841,W,0.10,185.15,290312,,,A*7A
$GPGGA,194955.000,3352.3975,N,09831.1841,W,1,09,0.9,297.5,M,-23.7,M,18.8,0000*76
$GPGSA,A,3,22,31,01,30,25,14,20,32,11,,,,1.9,0.9,1.7*34
$GPRMC,194955.000,A,3352.3975,N,09831.1841,W,0.08,193.20,290312,,,A*73
$GPGGA,194956.000,3352.3975,N,09831.1841,W,1,09,0.9,297.6,M,-23.7,M,18.8,0000*76
$GPGSA,A,3,22,31,01,30,25,14,20,32,11,,,,1.9,0.9,1.7*34
$GPRMC,194956.000,A,3352.3975,N,09831.1841,W,0.05,181.45,290312,,,A*7D
$GPGGA,194957.000,3352.3975,N,09831.1842,W,1,09,0.9,297.7,M,-23.7,M,18.8,0000*75
$GPGSA,A,3,22,31,01,30,25,14,20,32,11,,,,1.9,0.9,1.7*34
$GPRMC,194957.000,A,3352.3975,N,09831.1842,W,0.06,190.45,290312,,,A*7C
$GPGGA,194958.000,3352.3975,N,09831.1842,W,1,09,0.9,297.8,M,-23.7,M,18.8,0000*75
$GPGSA,A,3,22,31,01,30,25,14,20,32,11,,,,1.9,0.9,1.7*34
$GPGSV,3,1,12,31,87,003,42,14,43,052,40,32,42,316,31,22,36,132,38*7E
$GPGSV,3,2,12,01,31,285,30,25,25,062,20,30,23,167,27,11,23,260,37*74
$GPGSV,3,3,12,20,15,314,26,16,01,181,,12,01,031,,51,49,195,35*72
$GPRMC,194958.000,A,3352.3975,N,09831.1842,W,0.07,197.62,290312,,,A*70
$GPGGA,194959.000,3352.3975,N,09831.1842,W,1,09,0.9,297.8,M,-23.7,M,18.8,0000*74
$GPGSA,A,3,22,31,01,30,25,14,20,32,11,,,,1.9,0.9,1.7*34
$GPRMC,194959.000,A,3352.3975,N,09831.1842,W,0.06,161.42,290312,,,A*7B
$GPGGA,195000.000,3352.3975,N,09831.1842,W,1,09,0.9,297.9,M,-23.7,M,18.8,0000*71
$GPGSA,A,3,22,31,01,30,25,14,20,32,11,,,,1.9,0.9,1.7*34
$GPRMC,195000.000,A,3352.3975,N,09831.1842,W,0.06,177.51,290312,,,A*7A
$GPGGA,195001.000,3352.3975,N,09831.1842,W,1,09,0.9,297.9,M,-23.7,M,18.8,0000*70
$GPGSA,A,3,22,31,01,30,25,14,20,32,11,,,,1.9,0.9,1.7*34
$GPRMC,195001.000,A,3352.3975,N,09831.1842,W,0.06,190.77,290312,,,A*76
$GPGGA,195002.000,3352.3975,N,09831.1842,W,1,09,0.9,298.0,M,-23.7,M,18.8,0000*75
$GPGSA,A,3,22,31,01,30,25,14,20,32,11,,,,1.9,0.9,1.7*34
$GPRMC,195002.000,A,3352.3975,N,09831.1842,W,0.05,169.99,290312,,,A*70
$GPGGA,195003.000,3352.3975,N,09831.1842,W,1,09,0.9,298.0,M,-23.7,M,18.8,0000*74
$GPGSA,A,3,22,31,01,30,25,14,20,32,11,,,,1.9,0.9,1.7*34
$GPGSV,3,1,12,31,87,003,42,14,43,052,40,32,42,316,31,22,36,132,38*7E
$GPGSV,3,2,12,01,31,285,30,25,25,062,21,30,23,167,27,11,23,260,37*75
$GPGSV,3,3,12,20,15,314,26,16,01,181,,12,01,031,,51,49,195,35*72
$GPRMC,195003.000,A,3352.3975,N,09831.1842,W,0.04,162.38,290312,,,A*70
$GPGGA,195004.000,3352.3975,N,09831.1842,W,1,09,0.9,298.0,M,-23.7,M,18.8,0000*73
$GPGSA,A,3,22,31,01,30,25,14,20,32,11,,,,1.9,0.9,1.7*34
$GPRMC,195004.000,A,3352.3975,N,09831.1842,W,0.05,179.42,290312,,,A*71
$GPGGA,195005.000,3352.3975,N,09831.1842,W,1,09,0.9,298.1,M,-23.7,M,18.8,0000*73
$GPGSA,A,3,22,31,01,30,25,14,20,32,11,,,,1.9,0.9,1.7*34
$GPRMC,195005.000,A,3352.3975,N,09831.1842,W,0.05,220.49,290312,,,A*74
$GPGGA,195006.000,3352.3976,N,09831.1843,W,1,09,0.9,298.1,M,-23.7,M,18.8,0000*72
$GPGSA,A,3,22,31,01,30,25,14,20,32,11,,,,1.9,0.9,1.7*34
$GPRMC,195006.000,A,3352.3976,N,09831.1843,W,0.05,196.85,290312,,,A*7B
$GPGGA,195007.000,3352.3976,N,09831.1843,W,1,09,0.9,298.2,M,-23.7,M,18.8,0000*70
$GPGSA,A,3,22,31,01,30,25,14,20,32,11,,,,1.9,0.9,1.7*34
$GPRMC,195007.000,A,3352.3976,N,09831.1843,W,0.04,187.21,290312,,,A*75
$GPGGA,195008.000,3352.3976,N,09831.1843,W,1,09,0.9,298.2,M,-23.7,M,18.8,0000*7F
$GPGSA,A,3,22,31,01,30,25,14,20,32,11,,,,1.9,0.9,1.7*34
$GPGSV,3,1,12,31,87,003,42,14,43,052,40,32,42,316,32,22,36,132,38*7D
$GPGSV,3,2,12,01,31,285,29,25,25,062,23,30,23,167,27,11,23,260,37*7F
$GPGSV,3,3,12,20,15,314,26,16,01,181,,12,01,031,,51,49,195,35*72
$GPRMC,195008.000,A,3352.3976,N,09831.1843,W,0.05,196.16,290312,,,A*7F
$GPGGA,195009.000,3352.3976,N,09831.1843,W,1,09,0.9,298.3,M,-23.7,M,18.8,0000*7F
$GPGSA,A,3,22,31,01,30,25,14,20,32,11,,,,1.9,0.9,1.7*34
$GPRMC,195009.000,A,3352.3976,N,09831.1843,W,0.05,178.11,290312,,,A*79
$GPGGA,195010.000,3352.3976,N,09831.1843,W,1,09,0.9,298.3,M,-23.7,M,18.8,0000*77
$GPGSA,A,3,22,31,01,30,25,14,20,32,11,,,,1.9,0.9,1.7*34
$GPRMC,195010.000,A,3352.3976,N,09831.1843,W,0.02,116.04,290312,,,A*7A
$GPGGA,195011.000,3352.3976,N,09831.1843,W,1,09,0.9,298.3,M,-23.7,M,18.8,0000*76
$GPGSA,A,3,22,31,01,30,25,14,20,32,11,,,,1.9,0.9,1.7*34
$GPRMC,195011.000,A,3352.3976,N,09831.1843,W,0.03,179.45,290312,,,A*76
$GPGGA,195012.000,3352.3976,N,09831.1843,W,1,09,0.9,298.4,M,-23.7,M,18.8,0000*72
$GPGSA,A,3,22,31,01,30,25,14,20,32,11,,,,1.9,0.9,1.7*34
$GPRMC,195012.000,A,3352.3976,N,09831.1843,W,0.09,209.90,290312,,,A*73
$GPGGA,195013.000,3352.3976,N,09831.1844,W,1,09,0.9,298.4,M,-23.7,M,18.8,0000*74
$GPGSA,A,3,22,31,01,30,25,14,20,32,11,,,,1.9,0.9,1.7*34
$GPGSV,3,1,12,31,87,003,42,14,43,052,40,32,42,316,32,22,36,132,37*72
$GPGSV,3,2,12,01,31,285,29,25,25,062,23,30,23,167,27,11,23,260,37*7F
$GPGSV,3,3,12,20,15,314,27,16,01,181,,12,01,031,,51,49,195,35*73
$GPRMC,195013.000,A,3352.3976,N,09831.1844,W,0.11,216.96,290312,,,A*74
$GPGGA,195014.000,3352.3976,N,09831.1844,W,1,09,0.9,298.5,M,-23.7,M,18.8,0000*72
$GPGSA,A,3,22,31,01,30,25,14,20,32,11,,,,1.9,0.9,1.7*34
$GPRMC,195014.000,A,3352.3976,N,09831.1844,W,0.03,138.48,290312,,,A*7C
$GPGGA,195015.000,3352.3976,N,09831.1844,W,1,09,0.9,298.5,M,-23.7,M,18.8,0000*73
$GPGSA,A,3,22,31,01,30,25,14,20,32,11,,,,1.9,0.9,1.7*34
$GPRMC,195015.000,A,3352.3976,N,09831.1844,W,0.06,184.48,290312,,,A*7F
$GPGGA,195016.000,3352.3976,N,09831.1844,W,1,09,0.9,298.6,M,-23.7,M,18.8,0000*73
$GPGSA,A,3,22,31,01,30,25,14,20,32,11,,,,1.9,0.9,1.7*34
$GPRMC,195016.000,A,3352.3976,N,09831.1844,W,0.10,210.37,290312,,,A*7D
$GPGGA,195017.000,3352.3977,N,09831.1844,W,1,09,0.9,298.6,M,-23.7,M,18.8,0000*73
$GPGSA,A,3,22,31,01,30,25,14,20,32,11,,,,1.9,0.9,1.7*34
$GPRMC,195017.000,A,3352.3977,N,09831.1844,W,0.05,194.13,290312,,,A*70
$GPGGA,195018.000,3352.3977,N,09831.1845,W,1,09,0.9,298.7,M,-23.7,M,18.8,0000*7C
$GPGSA,A,3,22,31,01,30,25,14,20,32,11,,,,1.9,0.9,1.7*34
$GPGSV,3,1,12,31,87,003,42,14,43,052,40,32,42,316,32,22,36,132,37*72
$GPGSV,3,2,12,01,31,285,29,25,25,062,24,30,23,167,26,11,23,260,37*79
$GPGSV,3,3,12,20,15,314,27,16,01,181,,12,01,031,,51,49,195,35*73
$GPRMC,195018.000,A,3352.3977,N,09831.1845,W,0.05,200.36,290312,,,A*77
$GPGGA,195019.000,3352.3977,N,09831.1845,W,1,09,0.9,298.7,M,-23.7,M,18.8,0000*7D
$GPGSA,A,3,22,31,01,30,25,14,20,32,11,,,,1.9,0.9,1.7*34
$GPRMC,195019.000,A,3352.3977,N,09831.1845,W,0.03,109.28,290312,,,A*75
$GPGGA,195020.000,3352.3977,N,09831.1845,W,1,09,0.9,298.7,M,-23.7,M,18.8,0000*77
$GPGSA,A,3,22,31,01,30,25,14,20,32,11,,,,1.9,0.9,1.7*34
$GPRMC,195020.000,A,3352.3977,N,09831.1845,W,0.02,189.47,290312,,,A*7F
$GPGGA,195021.000,3352.3977,N,09831.1845,W,1,09,0.9,298.7,M,-23.7,M,18.8,0000*76
$GPGSA,A,3,22,31,01,30,25,14,20,32,11,,,,1.9,0.9,1.7*34
$GPRMC,195021.000,A,3352.3977,N,09831.1845,W,0.05,184.27,290312,,,A*72
$GPGGA,195022.000,3352.3977,N,09831.1845,W,1,09,0.9,298.7,M,-23.7,M,18.8,0000*75
$GPGSA,A,3,22,31,01,30,25,14,20,32,11,,,,1.9,0.9,1.7*34
$GPRMC,195022.000,A,3352.3977,N,09831.1845,W,0.03,193.20,290312,,,A*76
$GPGGA,195023.000,3352.3977,N,09831.1845,W,1,09,0.9,298.8,M,-23.7,M,18.8,0000*7B
$GPGSA,A,3,22,31,01,30,25,14,20,32,11,,,,1.9,0.9,1.7*34
$GPGSV,3,1,12,31,86,010,42,32,43,317,33,14,42,054,39,22,35,133,37*7B
$GPGSV,3,2,12,01,31,283,29,25,25,060,25,30,24,166,26,11,22,258,37*70
$GPGSV,3,3,12,20,16,314,27,16,02,180,,12,00,030,,51,49,195,35*72
$GPRMC,195023.000,A,3352.3977,N,09831.1845,W,0.09,178.07,290312,,,A*7D
$GPGGA,195024.000,3352.3977,N,09831.1845,W,1,09,0.9,298.8,M,-23.7,M,18.8,0000*7C
$GPGSA,A,3,22,31,01,30,25,14,20,32,11,,,,1.9,0.9,1.7*34
$GPRMC,195024.000,A,3352.3977,N,09831.1845,W,0.04,183.01,290312,,,A*75
$GPGGA,195025.000,3352.3977,N,09831.1845,W,1,09,0.9,298.8,M,-23.7,M,18.8,0000*7D
$GPGSA,A,3,22,31,01,30,25,14,20,32,11,,,,1.9,0.9,1.7*34
$GPRMC,195025.000,A,3352.3977,N,09831.1845,W,0.03,178.82,290312,,,A*7C
$GPGGA,195026.000,3352.3978,N,09831.1845,W,1,09,0.9,298.8,M,-23.7,M,18.8,0000*71
$GPGSA,A,3,22,31,01,30,25,14,20,32,11,,,,1.9,0.9,1.7*34
$GPRMC,195026.000,A,3352.3978,N,09831.1845,W,0.04,189.06,290312,,,A*75
$GPGGA,195027.000,3352.3978,N,09831.1845,W,1,09,0.9,298.8,M,-23.7,M,18.8,0000*70
$GPGSA,A,3,22,31,01,30,25,14,20,32,11,,,,1.9,0.9,1.7*34
$GPRMC,195027.000,A,3352.3978,N,09831.1845,W,0.02,189.47,290312,,,A*77
$GPGGA,195028.000,3352.3978,N,09831.1845,W,1,09,0.9,298.8,M,-23.7,M,18.8,0000*7F
$GPGSA,A,3,22,31,01,30,25,14,20,32,11,,,,1.9,0.9,1.7*34
$GPGSV,3,1,12,31,86,010,42,32,43,317,33,14,42,054,39,22,35,133,38*74
$GPGSV,3,2,12,01,31,283,29,25,25,060,25,30,24,166,25,11,22,258,37*73
$GPGSV,3,3,12,20,16,314,27,16,02,180,,12,00,030,,51,49,195,35*72
$GPRMC,195028.000,A,3352.3978,N,09831.1845,W,0.04,174.00,290312,,,A*7F
$GPGGA,195029.000,3352.3978,N,09831.1846,W,1,09,0.9,298.8,M,-23.7,M,18.8,0000*7D
$GPGSA,A,3,22,31,01,30,25,14,20,32,11,,,,1.9,0.9,1.7*34
$GPRMC,195029.000,A,3352.3978,N,09831.1846,W,0.03,184.96,290312,,,A*7A
$GPGGA,195030.000,3352.3978,N,09831.1846,W,1,09,0.9,298.8,M,-23.7,M,18.8,0000*75
$GPGSA,A,3,22,31,01,30,25,14,20,32,11,,,,1.9,0.9,1.7*34
$GPRMC,195030.000,A,3352.3978,N,09831.1846,W,0.03,189.86,290312,,,A*7E
$GPGGA,195031.000,3352.3979,N,09831.1846,W,1,09,0.9,298.8,M,-23.7,M,18.8,0000*75
$GPGSA,A,3,22,31,01,30,25,14,20,32,11,,,,1.9,0.9,1.7*34
$GPRMC,195031.000,A,3352.3979,N,09831.1846,W,0.04,345.27,290312,,,A*70
$GPGGA,195032.000,3352.3979,N,09831.1846,W,1,09,0.9,298.8,M,-23.7,M,18.8,0000*76
$GPGSA,A,3,22,31,01,30,25,14,20,32,11,,,,1.9,0.9,1.7*34
$GPRMC,195032.000,A,3352.3979,N,09831.1846,W,0.03,359.85,290312,,,A*71
$GPGGA,195033.000,3352.3979,N,09831.1846,W,1,08,1.1,298.8,M,-23.7,M,18.8,0000*7F
$GPGSA,A,3,22,31,01,25,14,20,32,11,,,,,2.1,1.1,1.8*3A
$GPGSV,3,1,12,31,86,010,43,32,43,317,32,14,42,054,39,22,35,133,38*74
$GPGSV,3,2,12,01,31,283,29,25,25,060,25,30,24,166,20,11,22,258,38*79
$GPGSV,3,3,12,20,16,314,27,16,02,180,,12,00,030,,51,49,195,35*72
$GPRMC,195033.000,A,3352.3979,N,09831.1846,W,0.07,176.17,290312,,,A*70
$GPGGA,195034.000,3352.3979,N,09831.1846,W,1,08,1.1,298.8,M,-23.7,M,18.8,0000*78
$GPGSA,A,3,22,31,01,25,14,20,32,11,,,,,2.1,1.1,1.8*3A
$GPRMC,195034.000,A,3352.3979,N,09831.1846,W,0.09,185.22,290312,,,A*73
$GPGGA,195035.000,3352.3979,N,09831.1846,W,1,08,1.1,298.8,M,-23.7,M,18.8,0000*79
$GPGSA,A,3,22,31,01,25,14,20,32,11,,,,,2.1,1.1,1.8*3A
$GPRMC,195035.000,A,3352.3979,N,09831.1846,W,0.08,174.72,290312,,,A*78
$GPGGA,195036.000,3352.3979,N,09831.1846,W,1,08,1.1,298.8,M,-23.7,M,18.8,0000*7A
$GPGSA,A,3,22,31,01,25,14,20,32,11,,,,,2.1,1.1,1.8*3A
$GPRMC,195036.000,A,3352.3979,N,09831.1846,W,0.13,185.68,290312,,,A*74
$GPGGA,195037.000,3352.3979,N,09831.1846,W,1,08,1.1,298.8,M,-23.7,M,18.8,0000*7B
$GPGSA,A,3,22,31,01,25,14,20,32,11,,,,,2.1,1.1,1.8*3A
$GPRMC,195037.000,A,3352.3979,N,09831.1846,W,0.10,177.57,290312,,,A*77
$GPGGA,195038.000,3352.3979,N,09831.1846,W,1,08,1.1,298.7,M,-23.7,M,18.8,0000*7B
$GPGSA,A,3,22,31,01,25,14,20,32,11,,,,,2.1,1.1,1.8*3A
$GPGSV,3,1,12,31,86,010,42,32,43,317,32,14,42,054,39,22,35,133,37*7A
$GPGSV,3,2,12,01,31,283,28,25,25,060,25,30,24,166,,11,22,258,38*7A
$GPGSV,3,3,12,20,16,314,28,16,02,180,,12,00,030,,51,49,195,35*7D
$GPRMC,195038.000,A,3352.3979,N,09831.1846,W,0.10,176.10,290312,,,A*7A
$GPGGA,195039.000,3352.3979,N,09831.1846,W,1,08,1.1,298.7,M,-23.7,M,18.8,0000*7A
$GPGSA,A,3,22,31,01,25,14,20,32,11,,,,,2.1,1.1,1.8*3A
$GPRMC,195039.000,A,3352.3979,N,09831.1846,W,0.10,170.80,290312,,,A*74
$GPGGA,195040.000,3352.3979,N,09831.1846,W,1,09,0.9,298.7,M,-23.7,M,18.8,0000*7C
$GPGSA,A,3,22,31,01,30,25,14,20,32,11,,,,1.9,0.9,1.7*34
$GPRMC,195040.000,A,3352.3979,N,09831.1846,W,0.09,180.65,290312,,,A*76
$GPGGA,195041.000,3352.3979,N,09831.1846,W,1,09,0.9,298.7,M,-23.7,M,18.8,0000*7D
$GPGSA,A,3,22,31,01,30,25,14,20,32,11,,,,1.9,0.9,1.7*34
$GPRMC,195041.000,A,3352.3979,N,09831.1846,W,0.00,172.84,290312,,,A*7C
$GPGGA,195042.000,3352.3980,N,09831.1846,W,1,09,0.9,298.7,M,-23.7,M,18.8,0000*78
$GPGSA,A,3,22,31,01,30,25,14,20,32,11,,,,1.9,0.9,1.7*34
$GPRMC,195042.000,A,3352.3980,N,09831.1846,W,0.06,359.31,290312,,,A*7A
$GPGGA,195043.000,3352.3979,N,09831.1846,W,1,09,0.9,298.6,M,-23.7,M,18.8,0000*7E
$GPGSA,A,3,22,31,01,30,25,14,20,32,11,,,,1.9,0.9,1.7*34
$GPGSV,3,1,12,31,86,010,42,32,43,317,32,14,42,054,40,22,35,133,37*74
$GPGSV,3,2,12,01,31,283,28,25,25,060,25,30,24,166,21,11,22,258,38*79
$GPGSV,3,3,12,20,16,314,28,16,02,180,,12,00,030,,51,49,195,35*7D
$GPRMC,195043.000,A,3352.3979,N,09831.1846,W,0.18,175.86,290312,,,A*72
$GPGGA,195044.000,3352.3979,N,09831.1846,W,1,09,0.9,298.6,M,-23.7,M,18.8,0000*79
$GPGSA,A,3,22,31,01,30,25,14,20,32,11,,,,1.9,0.9,1.7*34
$GPRMC,195044.000,A,3352.3979,N,09831.1846,W,0.09,176.60,290312,,,A*7E
$GPGGA,195045.000,3352.3979,N,09831.1846,W,1,09,0.9,298.5,M,-23.7,M,18.8,0000*7B
$GPGSA,A,3,22,31,01,30,25,14,20,32,11,,,,1.9,0.9,1.7*34
$GPRMC,195045.000,A,3352.3979,N,09831.1846,W,0.22,175.46,290312,,,A*71
$GPGGA,195046.000,3352.3979,N,09831.1846,W,1,09,0.9,298.5,M,-23.7,M,18.8,0000*78
$GPGSA,A,3,22,31,01,30,25,14,20,32,11,,,,1.9,0.9,1.7*34
$GPRMC,195046.000,A,3352.3979,N,09831.1846,W,0.05,192.36,290312,,,A*79
$GPGGA,195047.000,3352.3979,N,09831.1846,W,1,09,0.9,298.5,M,-23.7,M,18.8,0000*79
$GPGSA,A,3,22,31,01,30,25,14,20,32,11,,,,1.9,0.9,1.7*34
$GPRMC,195047.000,A,3352.3979,N,09831.1846,W,0.00,85.03,290312,,,A*4C
$GPGGA,195048.000,3352.3979,N,09831.1846,W,1,09,0.9,298.5,M,-23.7,M,18.8,0000*76
$GPGSA,A,3,22,31,01,30,25,14,20,32,11,,,,1.9,0.9,1.7*34
$GPGSV,3,1,12,31,86,010,42,32,43,317,32,14,42,054,40,22,35,133,37*74
$GPGSV,3,2,12,01,31,283,28,25,25,060,25,30,24,166,21,11,22,258,38*79
$GPGSV,3,3,12,20,16,314,27,16,02,180,,12,00,030,,51,49,195,35*72
$GPRMC,195048.000,A,3352.3979,N,09831.1846,W,0.19,179.39,290312,,,A*70
$GPGGA,195049.000,3352.3979,N,09831.1846,W,1,09,0.9,298.4,M,-23.7,M,18.8,0000*76
$GPGSA,A,3,22,31,01,30,25,14,20,32,11,,,,1.9,0.9,1.7*34
$GPRMC,195049.000,A,3352.3979,N,09831.1846,W,0.16,189.91,290312,,,A*73
$GPGGA,195050.000,3352.3979,N,09831.1846,W,1,09,0.9,298.4,M,-23.7,M,18.8,0000*7E
$GPGSA,A,3,22,31,01,30,25,14,20,32,11,,,,1.9,0.9,1.7*34
$GPRMC,195050.000,A,3352.3979,N,09831.1846,W,0.00,256.91,290312,,,A*7D
$GPGGA,195051.000,3352.3979,N,09831.1846,W,1,09,0.9,298.4,M,-23.7,M,18.8,0000*7F
$GPGSA,A,3,22,31,01,30,25,14,20,32,11,,,,1.9,0.9,1.7*34
$GPRMC,195051.000,A,3352.3979,N,09831.1846,W,0.06,178.91,290312,,,A*75
$GPGGA,195052.000,3352.3980,N,09831.1846,W,1,09,0.9,298.4,M,-23.7,M,18.8,0000*7A
$GPGSA,A,3,22,31,01,30,25,14,20,32,11,,,,1.9,0.9,1.7*34
$GPRMC,195052.000,A,3352.3980,N,09831.1846,W,0.03,177.58,290312,,,A*7F
$GPGGA,195053.000,3352.3979,N,09831.1846,W,1,09,0.9,298.3,M,-23.7,M,18.8,0000*7A
$GPGSA,A,3,22,31,01,30,25,14,20,32,11,,,,1.9,0.9,1.7*34
$GPGSV,3,1,12,31,86,010,42,32,43,317,32,14,42,054,40,22,35,133,37*74
$GPGSV,3,2,12,01,31,283,29,25,25,060,25,30,24,166,22,11,22,258,38*7B
$GPGSV,3,3,12,20,16,314,27,16,02,180,,12,00,030,,51,49,195,35*72
$GPRMC,195053.000,A,3352.3979,N,09831.1846,W,0.18,173.78,290312,,,A*74
$GPGGA,195054.000,3352.3979,N,09831.1846,W,1,09,0.9,298.3,M,-23.7,M,18.8,0000*7D
$GPGSA,A,3,22,31,01,30,25,14,20,32,11,,,,1.9,0.9,1.7*34
$GPRMC,195054.000,A,3352.3979,N,09831.1846,W,0.06,173.56,290312,,,A*70
$GPGGA,195055.000,3352.3980,N,09831.1846,W,1,09,0.9,298.3,M,-23.7,M,18.8,0000*7A
$GPGSA,A,3,22,31,01,30,25,14,20,32,11,,,,1.9,0.9,1.7*34
$GPRMC,195055.000,A,3352.3980,N,09831.1846,W,0.03,170.42,290312,,,A*74
$GPGGA,195056.000,3352.3980,N,09831.1846,W,1,09,0.9,298.3,M,-23.7,M,18.8,0000*79
$GPGSA,A,3,22,31,01,30,25,14,20,32,11,,,,1.9,0.9,1.7*34
$GPRMC,195056.000,A,3352.3980,N,09831.1846,W,0.02,188.62,290312,,,A*73
$GPGGA,195057.000,3352.3980,N,09831.1846,W,1,09,0.9,298.2,M,-23.7,M,18.8,0000*79
$GPGSA,A,3,22,31,01,30,25,14,20,32,11,,,,1.9,0.9,1.7*34
$GPRMC,195057.000,A,3352.3980,N,09831.1846,W,0.10,174.85,290312,,,A*7B
$GPGGA,195058.000,3352.3979,N,09831.1846,W,1,09,0.9,298.2,M,-23.7,M,18.8,0000*70
$GPGSA,A,3,22,31,01,30,25,14,20,32,11,,,,1.9,0.9,1.7*34
$GPGSV,3,1,12,31,86,010,42,32,43,317,31,14,42,054,40,22,35,133,37*77
$GPGSV,3,2,12,01,31,283,29,25,25,060,25,30,24,166,22,11,22,258,37*74
$GPGSV,3,3,12,20,16,314,27,16,02,180,,12,00,030,,51,49,195,35*72
$GPRMC,195058.000,A,3352.3979,N,09831.1846,W,0.18,174.92,290312,,,A*7C
$GPGGA,195059.000,3352.3979,N,09831.1846,W,1,09,0.9,298.2,M,-23.7,M,18.8,0000*71
$GPGSA,A,3,22,31,01,30,25,14,20,32,11,,,,1.9,0.9,1.7*34
$GPRMC,195059.000,A,3352.3979,N,09831.1846,W,0.06,183.02,290312,,,A*73
$GPGGA,195100.000,3352.3979,N,09831.1846,W,1,09,0.9,298.1,M,-23.7,M,18.8,0000*7F
$GPGSA,A,3,22,31,01,30,25,14,20,32,11,,,,1.9,0.9,1.7*34
$GPRMC,195100.000,A,3352.3979,N,09831.1846,W,0.16,169.40,290312,,,A*7D
$GPGGA,195101.000,3352.3979,N,09831.1846,W,1,09,0.9,298.1,M,-23.7,M,18.8,0000*7E
$GPGSA,A,3,22,31,01,30,25,14,20,32,11,,,,1.9,0.9,1.7*34
$GPRMC,195101.000,A,3352.3979,N,09831.1846,W,0.02,208.26,290312,,,A*7D
$GPGGA,195102.000,3352.3979,N,09831.1846,W,1,09,0.9,298.1,M,-23.7,M,18.8,0000*7D
$GPGSA,A,3,22,31,01,30,25,14,20,32,11,,,,1.9,0.9,1.7*34
$GPRMC,195102.000,A,3352.3979,N,09831.1846,W,0.11,173.97,290312,,,A*79
$GPGGA,195103.000,3352.3979,N,09831.1846,W,1,09,0.9,298.0,M,-23.7,M,18.8,0000*7D
$GPGSA,A,3,22,31,01,30,25,14,20,32,11,,,,1.9,0.9,1.7*34
$GPGSV,3,1,12,31,86,010,42,32,43,317,31,14,42,054,40,22,35,133,38*78
$GPGSV,3,2,12,01,31,283,29,25,25,060,25,30,24,166,23,11,22,258,37*75
$GPGSV,3,3,12,20,16,314,27,16,02,180,,12,00,030,,51,49,195,35*72
$GPRMC,195103.000,A,3352.3979,N,09831.1846,W,0.06,185.35,290312,,,A*7F
$GPGGA,195104.000,3352.3979,N,09831.1846,W,1,09,0.9,298.0,M,-23.7,M,18.8,0000*7A
$GPGSA,A,3,22,31,01,30,25,14,20,32,11,,,,1.9,0.9,1.7*34
$GPRMC,195104.000,A,3352.3979,N,09831.1846,W,0.05,188.24,290312,,,A*76
$GPGGA,195105.000,3352.3979,N,09831.1846,W,1,09,0.9,298.0,M,-23.7,M,18.8,0000*7B
$GPGSA,A,3,22,31,01,30,25,14,20,32,11,,,,1.9,0.9,1.7*34
$GPRMC,195105.000,A,3352.3979,N,09831.1846,W,0.07,176.61,290312,,,A*75
$GPGGA,195106.000,3352.3979,N,09831.1846,W,1,09,0.9,298.0,M,-23.7,M,18.8,0000*78
$GPGSA,A,3,22,31,01,30,25,14,20,32,11,,,,1.9,0.9,1.7*34
$GPRMC,195106.000,A,3352.3979,N,09831.1846,W,0.20,173.36,290312,,,A*74
$GPGGA,195107.000,3352.3979,N,09831.1846,W,1,09,0.9,297.9,M,-23.7,M,18.8,0000*7F
$GPGSA,A,3,22,31,01,30,25,14,20,32,11,,,,1.9,0.9,1.7*34
$GPRMC,195107.000,A,3352.3979,N,09831.1846,W,0.02,200.81,290312,,,A*7E
$GPGGA,195108.000,3352.3980,N,09831.1846,W,1,09,0.9,297.9,M,-23.7,M,18.8,0000*76
$GPGSA,A,3,22,31,01,30,25,14,20,32,11,,,,1.9,0.9,1.7*34
$GPGSV,3,1,12,31,86,010,42,32,43,317,31,14,42,054,41,22,35,133,38*79
$GPGSV,3,2,12,01,31,283,29,25,25,060,24,30,24,166,23,11,22,258,37*74
$GPGSV,3,3,12,20,16,314,27,16,02,180,,12,00,030,,51,49,195,35*72
$GPRMC,195108.000,A,3352.3980,N,09831.1846,W,0.02,244.36,290312,,,A*7B
$GPGGA,195109.000,3352.3979,N,09831.1846,W,1,09,0.9,297.9,M,-23.7,M,18.8,0000*71
$GPGSA,A,3,22,31,01,30,25,14,20,32,11,,,,1.9,0.9,1.7*34
$GPRMC,195109.000,A,3352.3979,N,09831.1846,W,0.17,178.93,290312,,,A*7B
$GPGGA,195110.000,3352.3979,N,09831.1846,W,1,09,0.9,297.9,M,-23.7,M,18.8,0000*79
$GPGSA,A,3,22,31,01,30,25,14,20,32,11,,,,1.9,0.9,1.7*34
$GPRMC,195110.000,A,3352.3979,N,09831.1846,W,0.05,240.64,290312,,,A*70
$GPGGA,195111.000,3352.3980,N,09831.1846,W,1,09,0.9,297.9,M,-23.7,M,18.8,0000*7E
$GPGSA,A,3,22,31,01,30,25,14,20,32,11,,,,1.9,0.9,1.7*34
$GPRMC,195111.000,A,3352.3980,N,09831.1846,W,0.02,356.98,290312,,,A*75
$GPGGA,195112.000,3352.3980,N,09831.1846,W,1,09,0.9,297.8,M,-23.7,M,18.8,0000*7C
$GPGSA,A,3,22,31,01,30,25,14,20,32,11,,,,1.9,0.9,1.7*34
$GPRMC,195112.000,A,3352.3980,N,09831.1846,W,0.02,6.75,290312,,,A*73
$GPGGA,195113.000,3352.3980,N,09831.1846,W,1,09,0.9,297.8,M,-23.7,M,18.8,0000*7D
$GPGSA,A,3,22,31,01,30,25,14,20,32,11,,,,1.9,0.9,1.7*34
$GPGSV,3,1,12,31,86,010,42,32,43,317,31,14,42,054,41,22,35,133,38*79
$GPGSV,3,2,12,01,31,283,28,25,25,060,24,30,24,166,23,11,22,258,37*75
$GPGSV,3,3,12,20,16,314,27,16,02,180,,12,00,030,,51,49,195,35*72
$GPRMC,195113.000,A,3352.3980,N,09831.1846,W,0.12,183.72,290312,,,A*78
$GPGGA,195114.000,3352.3980,N,09831.1846,W,1,09,0.9,297.8,M,-23.7,M,18.8,0000*7A
$GPGSA,A,3,22,31,01,30,25,14,20,32,11,,,,1.9,0.9,1.7*34
$GPRMC,195114.000,A,3352.3980,N,09831.1846,W,0.18,180.22,290312,,,A*73
$GPGGA,195115.000,3352.3980,N,09831.1846,W,1,09,0.9,297.8,M,-23.7,M,18.8,0000*7B
$GPGSA,A,3,22,31,01,30,25,14,20,32,11,,,,1.9,0.9,1.7*34
$GPRMC,195115.000,A,3352.3980,N,09831.1846,W,0.04,181.04,290312,,,A*7A
$GPGGA,195116.000,3352.3980,N,09831.1846,W,1,09,0.9,297.8,M,-23.7,M,18.8,0000*78
$GPGSA,A,3,22,31,01,30,25,14,20,32,11,,,,1.9,0.9,1.7*34
$GPRMC,195116.000,A,3352.3980,N,09831.1846,W,0.11,165.28,290312,,,A*79
$GPGGA,195117.000,3352.3979,N,09831.1846,W,1,09,0.9,297.7,M,-23.7,M,18.8,0000*70
$GPGSA,A,3,22,31,01,30,25,14,20,32,11,,,,1.9,0.9,1.7*34
$GPRMC,195117.000,A,3352.3979,N,09831.1846,W,0.15,178.42,290312,,,A*7A
$GPGGA,195118.000,3352.3979,N,09831.1846,W,1,09,0.9,297.7,M,-23.7,M,18.8,0000*7F
$GPGSA,A,3,22,31,01,30,25,14,20,32,11,,,,1.9,0.9,1.7*34
$GPGSV,3,1,12,31,86,010,42,32,43,317,31,14,42,054,41,22,35,133,37*76
$GPGSV,3,2,12,01,31,283,28,25,25,060,23,30,24,166,24,11,22,258,37*75
$GPGSV,3,3,12,20,16,314,27,16,02,180,,12,00,030,,51,49,195,35*72
$GPRMC,195118.000,A,3352.3979,N,09831.1846,W,0.05,215.60,290312,,,A*7C
$GPGGA,195119.000,3352.3980,N,09831.1846,W,1,09,0.9,297.7,M,-23.7,M,18.8,0000*78
$GPGSA,A,3,22,31,01,30,25,14,20,32,11,,,,1.9,0.9,1.7*34
$GPRMC,195119.000,A,3352.3980,N,09831.1846,W,0.04,277.54,290312,,,A*79
$GPGGA,195120.000,3352.3980,N,09831.1847,W,1,09,0.9,297.8,M,-23.7,M,18.8,0000*7C
$GPGSA,A,3,22,31,01,30,25,14,20,32,11,,,,1.9,0.9,1.7*34
$GPRMC,195120.000,A,3352.3980,N,09831.1847,W,0.04,317.37,290312,,,A*70
$GPGGA,195121.000,3352.3980,N,09831.1847,W,1,09,0.9,297.8,M,-23.7,M,18.8,0000*7D
$GPGSA,A,3,22,31,01,30,25,14,20,32,11,,,,1.9,0.9,1.7*34
$GPRMC,195121.000,A,3352.3980,N,09831.1847,W,0.02,344.43,290312,,,A*72
$GPGGA,195122.000,3352.3980,N,09831.1847,W,1,09,0.9,297.8,M,-23.7,M,18.8,0000*7E
$GPGSA,A,3,22,31,01,30,25,14,20,32,11,,,,1.9,0.9,1.7*34
$GPRMC,195122.000,A,3352.3980,N,09831.1847,W,0.04,356.06,290312,,,A*75
$GPGGA,195123.000,3352.3983,N,09831.1847,W,2,09,0.9,297.1,M,-23.7,M,0.8,0000*4F
$GPGSA,A,3,22,31,01,30,25,14,20,32,11,,,,1.9,0.9,1.7*34
$GPGSV,3,1,12,31,86,010,42,32,43,317,31,14,42,054,41,22,35,133,37*76
$GPGSV,3,2,12,01,31,283,27,25,25,060,24,30,24,166,24,11,22,258,37*7D
$GPGSV,3,3,12,20,16,314,27,16,02,180,,12,00,030,,51,49,195,35*72
$GPRMC,195123.000,A,3352.3983,N,09831.1847,W,0.08,181.14,290312,,,D*75
$GPGGA,195124.000,3352.3982,N,09831.1847,W,2,09,0.9,297.0,M,-23.7,M,1.8,0000*49
$GPGSA,A,3,22,31,01,30,25,14,20,32,11,,,,1.9,0.9,1.7*34
$GPRMC,195124.000,A,3352.3982,N,09831.1847,W,0.20,170.91,290312,,,D*7A
$GPGGA,195125.000,3352.3982,N,09831.1847,W,2,09,0.9,297.0,M,-23.7,M,2.8,0000*4B
$GPGSA,A,3,22,31,01,30,25,14,20,32,11,,,,1.9,0.9,1.7*34
$GPRMC,195125.000,A,3352.3982,N,09831.1847,W,0.10,182.07,290312,,,D*7A
$GPGGA,195126.000,3352.3982,N,09831.1847,W,2,09,0.9,297.0,M,-23.7,M,3.8,0000*49
$GPGSA,A,3,22,31,01,30,25,14,20,32,11,,,,1.9,0.9,1.7*34
$GPRMC,195126.000,A,3352.3982,N,09831.1847,W,0.04,180.80,290312,,,D*71
$GPGGA,195127.000,3352.3982,N,09831.1847,W,2,09,0.9,297.0,M,-23.7,M,4.8,0000*4F
$GPGSA,A,3,22,31,01,30,25,14,20,32,11,,,,1.9,0.9,1.7*34
$GPRMC,195127.000,A,3352.3982,N,09831.1847,W,0.04,182.67,290312,,,D*7B
$GPGGA,195128.000,3352.3982,N,09831.1847,W,2,09,0.9,296.9,M,-23.7,M,5.8,0000*49
$GPGSA,A,3,22,31,01,30,25,14,20,32,11,,,,1.9,0.9,1.7*34
$GPGSV,3,1,12,31,86,010,42,32,43,317,31,14,42,054,41,22,35,133,37*76
$GPGSV,3,2,12,01,31,283,27,25,25,060,25,30,24,166,25,11,22,258,37*7D
$GPGSV,3,3,12,20,16,314,27,16,02,180,,12,00,030,,51,49,195,35*72
$GPRMC,195128.000,A,3352.3982,N,09831.1847,W,0.04,197.61,290312,,,D*76
$GPGGA,195129.000,3352.3982,N,09831.1847,W,2,09,0.9,296.9,M,-23.7,M,6.8,0000*4B
$GPGSA,A,3,22,31,01,30,25,14,20,32,11,,,,1.9,0.9,1.7*34
$GPRMC,195129.000,A,3352.3982,N,09831.1847,W,0.09,181.08,290312,,,D*72
$GPGGA,195130.000,3352.3982,N,09831.1848,W,2,09,0.9,296.9,M,-23.7,M,7.8,0000*4D
$GPGSA,A,3,22,31,01,30,25,14,20,32,11,,,,1.9,0.9,1.7*34
$GPRMC,195130.000,A,3352.3982,N,09831.1848,W,0.03,332.29,290312,,,D*76
$GPGGA,195131.000,3352.3982,N,09831.1848,W,2,09,0.9,296.9,M,-23.7,M,8.8,0000*43
$GPGSA,A,3,22,31,01,30,25,14,20,32,11,,,,1.9,0.9,1.7*34
$GPRMC,195131.000,A,3352.3982,N,09831.1848,W,0.04,319.46,290312,,,D*70
$GPGGA,195132.000,3352.3982,N,09831.1848,W,2,09,0.9,296.9,M,-23.7,M,9.8,0000*41
$GPGSA,A,3,22,31,01,30,25,14,20,32,11,,,,1.9,0.9,1.7*34
$GPRMC,195132.000,A,3352.3982,N,09831.1848,W,0.06,185.77,290312,,,D*74
$GPGGA,195133.000,3352.3982,N,09831.1848,W,2,09,0.9,296.8,M,-23.7,M,10.8,0000*79
$GPGSA,A,3,22,31,01,30,25,14,20,32,11,,,,1.9,0.9,1.7*34
$GPGSV,3,1,12,31,86,010,42,32,43,317,31,14,42,054,40,22,35,133,37*77
$GPGSV,3,2,12,01,31,283,27,25,25,060,26,30,24,166,25,11,22,258,37*7E
$GPGSV,3,3,12,20,16,314,28,16,02,180,,12,00,030,,51,49,195,35*7D
$GPRMC,195133.000,A,3352.3982,N,09831.1848,W,0.12,175.12,290312,,,D*7C
$GPGGA,195134.000,3352.3982,N,09831.1848,W,2,09,0.9,296.8,M,-23.7,M,0.8,0000*4F
$GPGSA,A,3,22,31,01,30,25,14,20,32,11,,,,1.9,0.9,1.7*34
$GPRMC,195134.000,A,3352.3982,N,09831.1848,W,0.05,183.05,290312,,,D*72
$GPGGA,195135.000,3352.3982,N,09831.1848,W,2,09,0.9,296.8,M,-23.7,M,1.8,0000*4F
$GPGSA,A,3,22,31,01,30,25,14,20,32,11,,,,1.9,0.9,1.7*34
$GPRMC,195135.000,A,3352.3982,N,09831.1848,W,0.05,188.46,290312,,,D*7F
$GPGGA,195136.000,3352.3982,N,09831.1848,W,2,09,0.9,296.8,M,-23.7,M,2.8,0000*4F
$GPGSA,A,3,22,31,01,30,25,14,20,32,11,,,,1.9,0.9,1.7*34
$GPRMC,195136.000,A,3352.3982,N,09831.1848,W,0.04,177.38,290312,,,D*74
$GPGGA,195137.000,3352.3982,N,09831.1848,W,2,09,0.9,296.7,M,-23.7,M,0.8,0000*43
$GPGSA,A,3,22,31,01,30,25,14,20,32,11,,,,1.9,0.9,1.7*34
$GPRMC,195137.000,A,3352.3982,N,09831.1848,W,0.04,190.82,290312,,,D*7D
$GPGGA,195138.000,3352.3982,N,09831.1848,W,2,09,0.9,296.7,M,-23.7,M,1.8,0000*4D
$GPGSA,A,3,22,31,01,30,25,14,20,32,11,,,,1.9,0.9,1.7*34
$GPGSV,3,1,12,31,86,010,42,32,43,317,30,14,42,054,40,22,35,133,38*79
$GPGSV,3,2,12,01,31,283,27,25,25,060,27,30,24,166,26,11,22,258,37*7C
$GPGSV,3,3,12,20,16,314,28,16,02,180,,12,00,030,,51,49,195,35*7D
$GPRMC,195138.000,A,3352.3982,N,09831.1848,W,0.04,183.46,290312,,,D*78
$GPGGA,195139.000,3352.3982,N,09831.1848,W,2,09,0.9,296.7,M,-23.7,M,2.8,0000*4F
$GPGSA,A,3,22,31,01,30,25,14,20,32,11,,,,1.9,0.9,1.7*34
$GPRMC,195139.000,A,3352.3982,N,09831.1848,W,0.05,183.93,290312,,,D*70
$GPGGA,195140.000,3352.3982,N,09831.1848,W,2,09,0.9,296.7,M,-23.7,M,3.8,0000*40
$GPGSA,A,3,22,31,01,30,25,14,20,32,11,,,,1.9,0.9,1.7*34
$GPRMC,195140.000,A,3352.3982,N,09831.1848,W,0.05,185.40,290312,,,D*76
$GPGGA,195141.000,3352.3982,N,09831.1848,W,2,09,0.9,296.7,M,-23.7,M,4.8,0000*46
$GPGSA,A,3,22,31,01,30,25,14,20,32,11,,,,1.9,0.9,1.7*34
$GPRMC,195141.000,A,3352.3982,N,09831.1848,W,0.04,188.80,290312,,,D*77
$GPGGA,195142.000,3352.3982,N,09831.1848,W,2,09,0.9,296.6,M,-23.7,M,5.8,0000*45
$GPGSA,A,3,22,31,01,30,25,14,20,32,11,,,,1.9,0.9,1.7*34
$GPRMC,195142.000,A,3352.3982,N,09831.1848,W,0.05,175.02,290312,,,D*7D
$GPGGA,195143.000,3352.3982,N,09831.1848,W,2,09,0.9,296.6,M,-23.7,M,6.8,0000*47
$GPGSA,A,3,22,31,01,30,25,14,20,32,11,,,,1.9,0.9,1.7*34
$GPGSV,3,1,12,31,86,010,42,32,43,317,30,14,42,054,40,22,35,133,38*79
$GPGSV,3,2,12,01,31,283,27,25,25,060,28,30,24,166,27,11,22,258,37*72
$GPGSV,3,3,12,20,16,314,28,16,02,180,,12,00,030,,51,49,195,35*7D
$GPRMC,195143.000,A,3352.3982,N,09831.1848,W,0.05,193.11,290312,,,D*76
$GPGGA,195144.000,3352.3982,N,09831.1848,W,2,09,0.9,296.6,M,-23.7,M,7.8,0000*41
$GPGSA,A,3,22,31,01,30,25,14,20,32,11,,,,1.9,0.9,1.7*34
$GPRMC,195144.000,A,3352.3982,N,09831.1848,W,0.04,174.44,290312,,,D*79
$GPGGA,195145.000,3352.3982,N,09831.1848,W,2,09,0.9,296.6,M,-23.7,M,8.8,0000*4F
$GPGSA,A,3,22,31,01,30,25,14,20,32,11,,,,1.9,0.9,1.7*34
$GPRMC,195145.000,A,3352.3982,N,09831.1848,W,0.03,140.63,290312,,,D*7D
$GPGGA,195146.000,3352.3982,N,09831.1848,W,2,09,0.9,296.5,M,-23.7,M,9.8,0000*4E
$GPGSA,A,3,22,31,01,30,25,14,20,32,11,,,,1.9,0.9,1.7*34
$GPRMC,195146.000,A,3352.3982,N,09831.1848,W,0.04,177.38,290312,,,D*73
$GPGGA,195147.000,3352.3982,N,09831.1848,W,2,09,0.9,296.5,M,-23.7,M,10.8,0000*77
$GPGSA,A,3,22,31,01,30,25,14,20,32,11,,,,1.9,0.9,1.7*34
$GPRMC,195147.000,A,3352.3982,N,09831.1848,W,0.03,177.24,290312,,,D*78
$GPGGA,195148.000,3352.3982,N,09831.1848,W,2,09,0.9,296.5,M,-23.7,M,11.8,0000*79
$GPGSA,A,3,22,31,01,30,25,14,20,32,11,,,,1.9,0.9,1.7*34
$GPGSV,3,1,12,31,86,010,41,32,43,317,30,14,42,054,40,22,35,133,38*7A
$GPGSV,3,2,12,01,31,283,27,25,25,060,29,30,24,166,27,11,22,258,37*73
$GPGSV,3,3,12,20,16,314,28,16,02,180,,12,00,030,,51,49,195,35*7D
$GPRMC,195148.000,A,3352.3982,N,09831.1848,W,0.05,153.50,290312,,,D*74
$GPGGA,195149.000,3352.3982,N,09831.1848,W,2,09,0.9,296.4,M,-23.7,M,12.8,0000*7A
$GPGSA,A,3,22,31,01,30,25,14,20,32,11,,,,1.9,0.9,1.7*34
$GPRMC,195149.000,A,3352.3982,N,09831.1848,W,0.03,162.80,290312,,,D*7C
$GPGGA,195150.000,3352.3982,N,09831.1848,W,2,09,0.9,296.4,M,-23.7,M,13.8,0000*73
$GPGSA,A,3,22,31,01,30,25,14,20,32,11,,,,1.9,0.9,1.7*34
$GPRMC,195150.000,A,3352.3982,N,09831.1848,W,0.03,175.37,290312,,,D*7E
$GPGGA,195151.000,3352.3983,N,09831.1848,W,2,09,0.9,296.4,M,-23.7,M,14.8,0000*74
$GPGSA,A,3,22,31,01,30,25,14,20,32,11,,,,1.9,0.9,1.7*34
$GPRMC,195151.000,A,3352.3983,N,09831.1848,W,0.05,169.73,290312,,,D*75
$GPGGA,195152.000,3352.3983,N,09831.1848,W,2,09,0.9,296.3,M,-23.7,M,15.8,0000*71
$GPGSA,A,3,22,31,01,30,25,14,20,32,11,,,,1.9,0.9,1.7*34
$GPRMC,195152.000,A,3352.3983,N,09831.1848,W,0.02,163.67,290312,,,D*7E
$GPGGA,195153.000,3352.3983,N,09831.1848,W,2,09,0.9,296.3,M,-23.7,M,16.8,0000*73
$GPGSA,A,3,22,31,01,30,25,14,20,32,11,,,,1.9,0.9,1.7*34
$GPGSV,3,1,12,31,86,010,41,32,43,317,30,14,42,054,40,22,35,133,38*7A
$GPGSV,3,2,12,01,31,283,27,25,25,060,29,30,24,166,27,11,22,258,37*73
$GPGSV,3,3,12,20,16,314,28,16,02,180,,12,00,030,,51,49,195,35*7D
$GPRMC,195153.000,A,3352.3983,N,09831.1848,W,0.02,157.54,290312,,,D*78
$GPGGA,195154.000,3352.3983,N,09831.1848,W,2,09,0.9,296.3,M,-23.7,M,17.8,0000*75
$GPGSA,A,3,22,31,01,30,25,14,20,32,11,,,,1.9,0.9,1.7*34
$GPRMC,195154.000,A,3352.3983,N,09831.1848,W,0.05,164.36,290312,,,D*7C
$GPGGA,195155.000,3352.3983,N,09831.1848,W,1,09,0.9,296.3,M,-23.7,M,18.8,0000*78
$GPGSA,A,3,22,31,01,30,25,14,20,32,11,,,,1.9,0.9,1.7*34
$GPRMC,195155.000,A,3352.3983,N,09831.1848,W,0.04,160.80,290312,,,A*70
$GPGGA,195156.000,3352.3983,N,09831.1848,W,1,09,0.9,296.3,M,-23.7,M,18.8,0000*7B
$GPGSA,A,3,22,31,01,30,25,14,20,32,11,,,,1.9,0.9,1.7*34
$GPRMC,195156.000,A,3352.3983,N,09831.1848,W,0.02,164.57,290312,,,A*7B
$GPGGA,195157.000,3352.3983,N,09831.1848,W,1,09,0.9,296.3,M,-23.7,M,18.8,0000*7A
$GPGSA,A,3,22,31,01,30,25,14,20,32,11,,,,1.9,0.9,1.7*34
$GPRMC,195157.000,A,3352.3983,N,09831.1848,W,0.03,156.44,290312,,,A*78
$GPGGA,195158.000,3352.3983,N,09831.1848,W,1,09,0.9,296.4,M,-23.7,M,18.8,0000*72
$GPGSA,A,3,22,31,01,30,25,14,20,32,11,,,,1.9,0.9,1.7*34
$GPGSV,3,1,12,31,86,010,41,32,43,317,30,14,42,054,40,22,35,133,38*7A
$GPGSV,3,2,12,01,31,283,27,25,25,060,30,30,24,166,27,11,22,258,37*7B
$GPGSV,3,3,12,20,16,314,28,16,02,180,,12,00,030,,51,49,195,35*7D
$GPRMC,195158.000,A,3352.3983,N,09831.1848,W,0.04,164.80,290312,,,A*79
$GPGGA,195159.000,3352.3983,N,09831.1848,W,1,09,0.9,296.4,M,-23.7,M,18.8,0000*73
$GPGSA,A,3,22,31,01,30,25,14,20,32,11,,,,1.9,0.9,1.7*34
$GPRMC,195159.000,A,3352.3983,N,09831.1848,W,0.03,161.15,290312,,,A*76
$GPGGA,195200.000,3352.3983,N,09831.1847,W,1,09,0.9,296.4,M,-23.7,M,18.8,0000*73
$GPGSA,A,3,22,31,01,30,25,14,20,32,11,,,,1.9,0.9,1.7*34
$GPRMC,195200.000,A,3352.3983,N,09831.1847,W,0.03,145.65,290312,,,A*77
$GPGGA,195201.000,3352.3983,N,09831.1847,W,1,09,0.9,296.4,M,-23.7,M,18.8,0000*72
$GPGSA,A,3,22,31,01,30,25,14,20,32,11,,,,1.9,0.9,1.7*34
$GPRMC,195201.000,A,3352.3983,N,09831.1847,W,0.05,185.33,290312,,,A*7F
$GPGGA,195202.000,3352.3983,N,09831.1847,W,1,09,0.9,296.4,M,-23.7,M,18.8,0000*71
$GPGSA,A,3,22,31,01,30,25,14,20,32,11,,,,1.9,0.9,1.7*34
$GPRMC,195202.000,A,3352.3983,N,09831.1847,W,0.03,140.50,290312,,,A*76
$GPGGA,195203.000,3352.3983,N,09831.1847,W,1,09,0.9,296.5,M,-23.7,M,18.8,0000*71
$GPGSA,A,3,22,31,01,30,25,14,20,32,11,,,,1.9,0.9,1.7*34
$GPGSV,3,1,12,31,86,010,41,32,43,317,30,14,42,054,40,22,35,133,38*7A
$GPGSV,3,2,12,01,31,283,28,25,25,060,30,30,24,166,27,11,22,258,37*74
$GPGSV,3,3,12,20,16,314,28,16,02,180,,12,00,030,,51,49,195,35*7D
$GPRMC,195203.000,A,3352.3983,N,09831.1847,W,0.03,150.65,290312,,,A*70
$GPGGA,195204.000,3352.3983,N,09831.1847,W,1,09,0.9,296.5,M,-23.7,M,18.8,0000*76
$GPGSA,A,3,22,31,01,30,25,14,20,32,11,,,,1.9,0.9,1.7*34
$GPRMC,195204.000,A,3352.3983,N,09831.1847,W,0.04,170.67,290312,,,A*70
$GPGGA,195205.000,3352.3983,N,09831.1847,W,1,09,0.9,296.5,M,-23.7,M,18.8,0000*77
$GPGSA,A,3,22,31,01,30,25,14,20,32,11,,,,1.9,0.9,1.7*34
$GPRMC,195205.000,A,3352.3983,N,09831.1847,W,0.04,175.36,290312,,,A*70
$GPGGA,195206.000,3352.3983,N,09831.1847,W,1,09,0.9,296.5,M,-23.7,M,18.8,0000*74
$GPGSA,A,3,22,31,01,30,25,14,20,32,11,,,,1.9,0.9,1.7*34
$GPRMC,195206.000,A,3352.3983,N,09831.1847,W,0.04,157.38,290312,,,A*7D
$GPGGA,195207.000,3352.3983,N,09831.1847,W,1,09,0.9,296.5,M,-23.7,M,18.8,0000*75
$GPGSA,A,3,22,31,01,30,25,14,20,32,11,,,,1.9,0.9,1.7*34
$GPRMC,195207.000,A,3352.3983,N,09831.1847,W,0.04,168.18,290312,,,A*72
$GPGGA,195208.000,3352.3983,N,09831.1847,W,1,09,0.9,296.5,M,-23.7,M,18.8,0000*7A
$GPGSA,A,3,22,31,01,30,25,14,20,32,11,,,,1.9,0.9,1.7*34
$GPGSV,3,1,12,31,86,010,41,32,43,317,30,14,42,054,40,22,35,133,38*7A
$GPGSV,3,2,12,01,31,283,28,25,25,060,31,30,24,166,26,11,22,258,38*7B
$GPGSV,3,3,12,20,16,314,28,16,02,180,,12,00,030,,51,49,195,35*7D
$GPRMC,195208.000,A,3352.3983,N,09831.1847,W,0.04,179.53,290312,,,A*72
$GPGGA,195209.000,3352.3983,N,09831.1847,W,1,09,0.9,296.5,M,-23.7,M,18.8,0000*7B
$GPGSA,A,3,22,31,01,30,25,14,20,32,11,,,,1.9,0.9,1.7*34
$GPRMC,195209.000,A,3352.3983,N,09831.1847,W,0.04,171.58,290312,,,A*70
$GPGGA,195210.000,3352.3983,N,09831.1847,W,1,09,0.9,296.5,M,-23.7,M,18.8,0000*73
$GPGSA,A,3,22,31,01,30,25,14,20,32,11,,,,1.9,0.9,1.7*34
$GPRMC,195210.000,A,3352.3983,N,09831.1847,W,0.05,162.03,290312,,,A*75
$GPGGA,195211.000,3352.3983,N,09831.1847,W,1,09,0.9,296.5,M,-23.7,M,18.8,0000*72
$GPGSA,A,3,22,31,01,30,25,14,20,32,11,,,,1.9,0.9,1.7*34
$GPRMC,195211.000,A,3352.3983,N,09831.1847,W,0.05,173.97,290312,,,A*79
$GPGGA,195212.000,3352.3983,N,09831.1847,W,1,09,0.9,296.5,M,-23.7,M,18.8,0000*71
$GPGSA,A,3,22,31,01,30,25,14,20,32,11,,,,1.9,0.9,1.7*34
$GPRMC,195212.000,A,3352.3983,N,09831.1847,W,0.04,159.01,290312,,,A*7C
$GPGGA,195213.000,3352.3983,N,09831.1847,W,1,09,0.9,296.5,M,-23.7,M,18.8,0000*70
$GPGSA,A,3,22,31,01,30,25,14,20,32,11,,,,1.9,0.9,1.7*34
$GPGSV,3,1,12,31,86,010,41,32,43,317,30,14,42,054,40,22,35,133,38*7A
$GPGSV,3,2,12,01,31,283,28,25,25,060,31,30,24,166,26,11,22,258,38*7B
$GPGSV,3,3,12,20,16,314,28,16,02,180,,12,00,030,,51,49,195,35*7D
$GPRMC,195213.000,A,3352.3983,N,09831.1847,W,0.05,171.05,290312,,,A*72
$GPGGA,195214.000,3352.3983,N,09831.1847,W,1,09,0.9,296.4,M,-23.7,M,18.8,0000*76
$GPGSA,A,3,22,31,01,30,25,14,20,32,11,,,,1.9,0.9,1.7*34
$GPRMC,195214.000,A,3352.3983,N,09831.1847,W,0.04,168.21,290312,,,A*7A
$GPGGA,195215.000,3352.3983,N,09831.1847,W,1,09,0.9,296.4,M,-23.7,M,18.8,0000*77
$GPGSA,A,3,22,31,01,30,25,14,20,32,11,,,,1.9,0.9,1.7*34
$GPRMC,195215.000,A,3352.3983,N,09831.1847,W,0.04,173.99,290312,,,A*72
$GPGGA,195216.000,3352.3983,N,09831.1847,W,1,09,0.9,296.4,M,-23.7,M,18.8,0000*74
$GPGSA,A,3,22,31,01,30,25,14,20,32,11,,,,1.9,0.9,1.7*34
$GPRMC,195216.000,A,3352.3983,N,09831.1847,W,0.05,158.95,290312,,,A*75
$GPGGA,195217.000,3352.3983,N,09831.1847,W,1,09,0.9,296.4,M,-23.7,M,18.8,0000*75
$GPGSA,A,3,22,31,01,30,25,14,20,32,11,,,,1.9,0.9,1.7*34
$GPRMC,195217.000,A,3352.3983,N,09831.1847,W,0.04,170.83,290312,,,A*78
$GPGGA,195218.000,3352.3983,N,09831.1847,W,1,09,0.9,296.4,M,-23.7,M,18.8,0000*7A
$GPGSA,A,3,22,31,01,30,25,14,20,32,11,,,,1.9,0.9,1.7*34
$GPGSV,3,1,12,31,86,010,41,32,43,317,31,14,42,054,40,22,35,133,38*7B
$GPGSV,3,2,12,01,31,283,28,25,25,060,31,30,24,166,26,11,22,258,38*7B
$GPGSV,3,3,12,20,16,314,27,16,02,180,,12,00,030,,51,49,195,35*72
$GPRMC,195218.000,A,3352.3983,N,09831.1847,W,0.05,156.80,290312,,,A*71
$GPGGA,195219.000,3352.3983,N,09831.1847,W,1,09,0.9,296.4,M,-23.7,M,18.8,0000*7B
$GPGSA,A,3,22,31,01,30,25,14,20,32,11,,,,1.9,0.9,1.7*34
$GPRMC,195219.000,A,3352.3983,N,09831.1847,W,0.05,171.46,290312,,,A*7F
$GPGGA,195220.000,3352.3983,N,09831.1847,W,1,09,0.9,296.4,M,-23.7,M,18.8,0000*71
$GPGSA,A,3,22,31,01,30,25,14,20,32,11,,,,1.9,0.9,1.7*34
$GPRMC,195220.000,A,3352.3983,N,09831.1847,W,0.05,166.09,290312,,,A*78
$GPGGA,195221.000,3352.3983,N,09831.1847,W,1,09,0.9,296.3,M,-23.7,M,18.8,0000*77
$GPGSA,A,3,22,31,01,30,25,14,20,32,11,,,,1.9,0.9,1.7*34
$GPRMC,195221.000,A,3352.3983,N,09831.1847,W,0.04,173.09,290312,,,A*7C
$GPGGA,195222.000,3352.3983,N,09831.1847,W,1,09,0.9,296.3,M,-23.7,M,18.8,0000*74
$GPGSA,A,3,22,31,01,30,25,14,20,32,11,,,,1.9,0.9,1.7*34
$GPRMC,195222.000,A,3352.3983,N,09831.1847,W,0.04,152.81,290312,,,A*7C
$GPGGA,195223.000,3352.3983,N,09831.1847,W,1,09,0.9,296.3,M,-23.7,M,18.8,0000*75
$GPGSA,A,3,22,31,01,30,25,14,20,32,11,,,,1.9,0.9,1.7*34
$GPGSV,3,1,12,31,86,010,40,32,43,317,31,14,42,054,40,22,35,133,38*7A
$GPGSV,3,2,12,01,31,283,27,25,25,060,30,30,24,166,26,11,22,258,38*75
$GPGSV,3,3,12,20,16,314,27,16,02,180,,12,00,030,,51,49,195,35*72
$GPRMC,195223.000,A,3352.3983,N,09831.1847,W,0.05,177.11,290312,,,A*72
