$GPGGA,193401.000,3351.9981,N,09831.7360,W,2,08,1.0,297.0,M,-23.7,M,0.8,0000*47
$GPGSA,A,3,01,22,31,11,25,20,32,30,,,,,2.0,1.0,1.7*33
$GPGSV,3,1,12,31,87,006,34,14,43,053,,32,42,316,37,22,36,132,33*72
$GPGSV,3,2,12,01,31,285,27,25,25,062,33,30,23,167,24,11,23,259,31*7F
$GPGSV,3,3,12,20,15,314,30,16,01,181,,12,01,031,,51,49,195,32*72
$GPRMC,193401.000,A,3351.9981,N,09831.7360,W,0.11,29.94,020412,,,D*48
$GPGGA,193402.000,3351.9981,N,09831.7360,W,2,08,1.0,297.0,M,-23.7,M,1.8,0000*45
$GPGSA,A,3,01,22,31,11,25,20,32,30,,,,,2.0,1.0,1.7*33
$GPRMC,193402.000,A,3351.9981,N,09831.7360,W,0.10,53.47,020412,,,D*49
$GPGGA,193403.000,3351.9981,N,09831.7360,W,2,08,1.0,297.0,M,-23.7,M,0.8,0000*45
$GPGSA,A,3,01,22,31,11,25,20,32,30,,,,,2.0,1.0,1.7*33
$GPRMC,193403.000,A,3351.9981,N,09831.7360,W,0.05,56.56,020412,,,D*49
$GPGGA,193404.000,3351.9981,N,09831.7360,W,2,08,1.0,297.1,M,-23.7,M,0.8,0000*43
$GPGSA,A,3,01,22,31,11,25,20,32,30,,,,,2.0,1.0,1.7*33
$GPRMC,193404.000,A,3351.9981,N,09831.7360,W,0.05,122.46,020412,,,D*7D
$GPGGA,193405.000,3351.9981,N,09831.7360,W,2,08,1.0,297.1,M,-23.7,M,0.8,0000*42
$GPGSA,A,3,01,22,31,11,25,20,32,30,,,,,2.0,1.0,1.7*33
$GPRMC,193405.000,A,3351.9981,N,09831.7360,W,0.04,180.61,020412,,,D*70
$GPGGA,193406.000,3351.9981,N,09831.7360,W,2,08,1.0,297.2,M,-23.7,M,1.8,0000*43
$GPGSA,A,3,01,22,31,11,25,20,32,30,,,,,2.0,1.0,1.7*33
$GPGSV,3,1,12,31,87,006,34,14,43,053,,32,42,316,37,22,36,132,33*72
$GPGSV,3,2,12,01,31,285,27,25,25,062,33,30,23,167,24,11,23,259,31*7F
$GPGSV,3,3,12,20,15,314,31,16,01,181,,12,01,031,,51,49,195,32*73
$GPRMC,193406.000,A,3351.9981,N,09831.7360,W,0.06,174.25,020412,,,D*7A
$GPGGA,193407.000,3351.9981,N,09831.7360,W,2,08,1.0,297.3,M,-23.7,M,2.8,0000*40
$GPGSA,A,3,01,22,31,11,25,20,32,30,,,,,2.0,1.0,1.7*33
$GPRMC,193407.000,A,3351.9981,N,09831.7360,W,0.06,177.16,020412,,,D*78
$GPGGA,193408.000,3351.9981,N,09831.7360,W,2,08,1.0,297.3,M,-23.7,M,3.8,0000*4E
$GPGSA,A,3,01,22,31,11,25,20,32,30,,,,,2.0,1.0,1.7*33
$GPRMC,193408.000,A,3351.9981,N,09831.7360,W,0.11,198.86,020412,,,D*79
$GPGGA,193409.000,3351.9981,N,09831.7361,W,2,08,1.0,297.3,M,-23.7,M,0.8,0000*4D
$GPGSA,A,3,01,22,31,11,25,20,32,30,,,,,2.0,1.0,1.7*33
$GPRMC,193409.000,A,3351.9981,N,09831.7361,W,0.07,161.87,020412,,,D*79
$GPGGA,193410.000,3351.9980,N,09831.7361,W,2,08,1.0,297.3,M,-23.7,M,0.8,0000*44
$GPGSA,A,3,01,22,31,11,25,20,32,30,,,,,2.0,1.0,1.7*33
$GPRMC,193410.000,A,3351.9980,N,09831.7361,W,0.05,127.71,020412,,,D*79
$GPGGA,193411.000,3351.9980,N,09831.7361,W,2,08,1.0,297.3,M,-23.7,M,0.8,0000*45
$GPGSA,A,3,01,22,31,11,25,20,32,30,,,,,2.0,1.0,1.7*33
$GPGSV,3,1,12,31,87,006,34,14,43,053,,32,42,316,37,22,36,132,33*72
$GPGSV,3,2,12,01,31,285,27,25,25,062,33,30,23,167,24,11,23,259,31*7F
$GPGSV,3,3,12,20,15,314,32,16,01,181,,12,01,031,,51,49,195,32*70
$GPRMC,193411.000,A,3351.9980,N,09831.7361,W,0.09,83.39,020412,,,D*47
$GPGGA,193412.000,3351.9981,N,09831.7360,W,2,08,1.0,297.3,M,-23.7,M,1.8,0000*47
$GPGSA,A,3,01,22,31,11,25,20,32,30,,,,,2.0,1.0,1.7*33
$GPRMC,193412.000,A,3351.9981,N,09831.7360,W,0.09,75.58,020412,,,D*4A
$GPGGA,193413.000,3351.9981,N,09831.7360,W,2,08,1.0,297.3,M,-23.7,M,2.8,0000*45
$GPGSA,A,3,01,22,31,11,25,20,32,30,,,,,2.0,1.0,1.7*33
$GPRMC,193413.000,A,3351.9981,N,09831.7360,W,0.09,84.77,020412,,,D*48
$GPGGA,193414.000,3351.9981,N,09831.7360,W,2,08,1.0,297.3,M,-23.7,M,3.8,0000*43
$GPGSA,A,3,01,22,31,11,25,20,32,30,,,,,2.0,1.0,1.7*33
$GPRMC,193414.000,A,3351.9981,N,09831.7360,W,0.10,67.61,020412,,,D*4D
$GPGGA,193415.000,3351.9981,N,09831.7360,W,2,08,1.0,297.3,M,-23.7,M,0.8,0000*41
$GPGSA,A,3,01,22,31,11,25,20,32,30,,,,,2.0,1.0,1.7*33
$GPRMC,193415.000,A,3351.9981,N,09831.7360,W,0.05,48.75,020412,,,D*40
$GPGGA,193416.000,3351.9981,N,09831.7360,W,2,08,1.0,297.4,M,-23.7,M,0.8,0000*45
$GPGSA,A,3,01,22,31,11,25,20,32,30,,,,,2.0,1.0,1.7*33
$GPGSV,3,1,12,31,87,006,34,14,43,053,,32,42,316,37,22,36,132,33*72
$GPGSV,3,2,12,01,31,285,28,25,25,062,33,30,23,167,24,11,23,259,32*73
$GPGSV,3,3,12,20,15,314,32,16,01,181,,12,01,031,,51,49,195,32*70
$GPRMC,193416.000,A,3351.9981,N,09831.7360,W,0.04,123.39,020412,,,D*76
$GPGGA,193417.000,3351.9981,N,09831.7360,W,2,08,1.0,297.4,M,-23.7,M,0.8,0000*44
$GPGSA,A,3,01,22,31,11,25,20,32,30,,,,,2.0,1.0,1.7*33
$GPRMC,193417.000,A,3351.9981,N,09831.7360,W,0.04,178.62,020412,,,D*77
$GPGGA,193418.000,3351.9981,N,09831.7360,W,2,08,1.0,297.5,M,-23.7,M,1.8,0000*4B
$GPGSA,A,3,01,22,31,11,25,20,32,30,,,,,2.0,1.0,1.7*33
$GPRMC,193418.000,A,3351.9981,N,09831.7360,W,0.05,175.17,020412,,,D*76
$GPGGA,193419.000,3351.9981,N,09831.7360,W,2,08,1.0,297.5,M,-23.7,M,2.8,0000*49
$GPGSA,A,3,01,22,31,11,25,20,32,30,,,,,2.0,1.0,1.7*33
$GPRMC,193419.000,A,3351.9981,N,09831.7360,W,0.04,188.48,020412,,,D*7E
$GPGGA,193420.000,3351.9981,N,09831.7360,W,2,08,1.0,297.6,M,-23.7,M,3.8,0000*41
$GPGSA,A,3,01,22,31,11,25,20,32,30,,,,,2.0,1.0,1.7*33
$GPRMC,193420.000,A,3351.9981,N,09831.7360,W,0.05,166.08,020412,,,D*71
$GPGGA,193421.000,3351.9980,N,09831.7360,W,2,08,1.0,297.6,M,-23.7,M,0.8,0000*42
$GPGSA,A,3,01,22,31,11,25,20,32,30,,,,,2.0,1.0,1.7*33
$GPGSV,3,1,12,31,87,006,34,14,43,053,,32,42,316,37,22,36,132,32*73
$GPGSV,3,2,12,01,31,285,28,25,25,062,33,30,23,167,25,11,23,259,32*72
$GPGSV,3,3,12,20,15,314,32,16,01,181,,12,01,031,,51,49,195,32*70
$GPRMC,193421.000,A,3351.9980,N,09831.7360,W,0.07,126.64,020412,,,D*7D
$GPGGA,193422.000,3351.9980,N,09831.7360,W,2,08,1.0,297.6,M,-23.7,M,0.8,0000*41
$GPGSA,A,3,01,22,31,11,25,20,32,30,,,,,2.0,1.0,1.7*33
$GPRMC,193422.000,A,3351.9980,N,09831.7360,W,0.05,97.11,020412,,,D*45
$GPGGA,193423.000,3351.9981,N,09831.7360,W,2,08,1.0,297.5,M,-23.7,M,0.8,0000*42
$GPGSA,A,3,01,22,31,11,25,20,32,30,,,,,2.0,1.0,1.7*33
$GPRMC,193423.000,A,3351.9981,N,09831.7360,W,0.10,67.00,020412,,,D*4E
$GPGGA,193424.000,3351.9981,N,09831.7360,W,2,08,1.0,297.4,M,-23.7,M,1.8,0000*45
$GPGSA,A,3,01,22,31,11,25,20,32,30,,,,,2.0,1.0,1.7*33
$GPRMC,193424.000,A,3351.9981,N,09831.7360,W,0.07,77.04,020412,,,D*4A
$GPGGA,193425.000,3351.9981,N,09831.7360,W,2,08,1.0,297.3,M,-23.7,M,2.8,0000*40
$GPGSA,A,3,01,22,31,11,25,20,32,30,,,,,2.0,1.0,1.7*33
$GPRMC,193425.000,A,3351.9981,N,09831.7360,W,0.09,72.53,020412,,,D*42
$GPGGA,193426.000,3351.9981,N,09831.7359,W,2,08,1.0,297.2,M,-23.7,M,3.8,0000*49
$GPGSA,A,3,01,22,31,11,25,20,32,30,,,,,2.0,1.0,1.7*33
$GPGSV,3,1,12,31,86,012,34,32,43,317,37,14,42,054,,22,35,133,32*73
$GPGSV,3,2,12,01,31,283,28,25,25,060,32,30,24,166,24,11,22,258,32*70
$GPGSV,3,3,12,20,16,314,32,16,03,180,,12,00,030,,51,49,195,32*70
$GPRMC,193426.000,A,3351.9981,N,09831.7359,W,0.10,70.70,020412,,,D*40
$GPGGA,193427.000,3351.9981,N,09831.7360,W,2,08,1.0,297.1,M,-23.7,M,0.8,0000*42
$GPGSA,A,3,01,22,31,11,25,20,32,30,,,,,2.0,1.0,1.7*33
$GPRMC,193427.000,A,3351.9981,N,09831.7360,W,0.03,57.63,020412,,,D*4E
$GPGGA,193428.000,3351.9981,N,09831.7360,W,2,08,1.0,297.0,M,-23.7,M,0.8,0000*4C
$GPGSA,A,3,01,22,31,11,25,20,32,30,,,,,2.0,1.0,1.7*33
$GPRMC,193428.000,A,3351.9981,N,09831.7360,W,0.05,131.38,020412,,,D*78
$GPGGA,193429.000,3351.9980,N,09831.7360,W,2,08,1.0,297.0,M,-23.7,M,0.8,0000*4C
$GPGSA,A,3,01,22,31,11,25,20,32,30,,,,,2.0,1.0,1.7*33
$GPRMC,193429.000,A,3351.9980,N,09831.7360,W,0.05,174.38,020412,,,D*79
$GPGGA,193430.000,3351.9980,N,09831.7360,W,2,08,1.0,297.0,M,-23.7,M,1.8,0000*45
$GPGSA,A,3,01,22,31,11,25,20,32,30,,,,,2.0,1.0,1.7*33
$GPRMC,193430.000,A,3351.9980,N,09831.7360,W,0.07,177.99,020412,,,D*7B
$GPGGA,193431.000,3351.9980,N,09831.7360,W,2,08,1.0,296.9,M,-23.7,M,2.8,0000*4F
$GPGSA,A,3,01,22,31,11,25,20,32,30,,,,,2.0,1.0,1.7*33
$GPGSV,3,1,12,31,86,012,34,32,43,317,37,14,42,054,,22,35,133,32*73
$GPGSV,3,2,12,01,31,283,28,25,25,060,32,30,24,166,25,11,22,258,32*71
$GPGSV,3,3,12,20,16,314,32,16,03,180,,12,00,030,,51,49,195,32*70
$GPRMC,193431.000,A,3351.9980,N,09831.7360,W,0.07,168.42,020412,,,D*72
$GPGGA,193432.000,3351.9979,N,09831.7360,W,2,08,1.0,296.9,M,-23.7,M,3.8,0000*4B
$GPGSA,A,3,01,22,31,11,25,20,32,30,,,,,2.0,1.0,1.7*33
$GPRMC,193432.000,A,3351.9979,N,09831.7360,W,0.06,186.80,020412,,,D*78
$GPGGA,193433.000,3351.9979,N,09831.7360,W,2,08,1.0,296.8,M,-23.7,M,0.8,0000*48
$GPGSA,A,3,01,22,31,11,25,20,32,30,,,,,2.0,1.0,1.7*33
$GPRMC,193433.000,A,3351.9979,N,09831.7360,W,0.08,149.99,020412,,,D*7C
$GPGGA,193434.000,3351.9979,N,09831.7360,W,2,08,1.0,296.7,M,-23.7,M,0.8,0000*40
$GPGSA,A,3,01,22,31,11,25,20,32,30,,,,,2.0,1.0,1.7*33
$GPRMC,193434.000,A,3351.9979,N,09831.7360,W,0.05,129.42,020412,,,D*76
$GPGGA,193435.000,3351.9979,N,09831.7360,W,2,08,1.0,296.6,M,-23.7,M,0.8,0000*40
$GPGSA,A,3,01,22,31,11,25,20,32,30,,,,,2.0,1.0,1.7*33
$GPRMC,193435.000,A,3351.9979,N,09831.7360,W,0.07,72.18,020412,,,D*45
$GPGGA,193436.000,3351.9979,N,09831.7360,W,2,08,1.0,296.5,M,-23.7,M,0.8,0000*40
$GPGSA,A,3,01,22,31,11,25,20,32,30,,,,,2.0,1.0,1.7*33
$GPGSV,3,1,12,31,86,012,34,32,43,317,37,14,42,054,,22,35,133,31*70
$GPGSV,3,2,12,01,31,283,28,25,25,060,32,30,24,166,24,11,22,258,33*71
$GPGSV,3,3,12,20,16,314,32,16,03,180,,12,00,030,,51,49,195,32*70
$GPRMC,193436.000,A,3351.9979,N,09831.7360,W,0.07,86.83,020412,,,D*4F
$GPGGA,193437.000,3351.9979,N,09831.7360,W,2,08,1.0,296.5,M,-23.7,M,1.8,0000*40
$GPGSA,A,3,01,22,31,11,25,20,32,30,,,,,2.0,1.0,1.7*33
$GPRMC,193437.000,A,3351.9979,N,09831.7360,W,0.07,80.26,020412,,,D*47
$GPGGA,193438.000,3351.9980,N,09831.7360,W,2,08,1.0,296.4,M,-23.7,M,2.8,0000*4B
$GPGSA,A,3,01,22,31,11,25,20,32,30,,,,,2.0,1.0,1.7*33
$GPRMC,193438.000,A,3351.9980,N,09831.7360,W,0.08,79.63,020412,,,D*46
$GPGGA,193439.000,3351.9979,N,09831.7360,W,2,08,1.0,296.3,M,-23.7,M,0.8,0000*49
$GPGSA,A,3,01,22,31,11,25,20,32,30,,,,,2.0,1.0,1.7*33
$GPRMC,193439.000,A,3351.9979,N,09831.7360,W,0.17,175.12,020412,,,D*74
$GPGGA,193440.000,3351.9979,N,09831.7360,W,2,08,1.0,296.3,M,-23.7,M,0.8,0000*47
$GPGSA,A,3,01,22,31,11,25,20,32,30,,,,,2.0,1.0,1.7*33
$GPRMC,193440.000,A,3351.9979,N,09831.7360,W,0.04,62.48,020412,,,D*40
$GPGGA,193441.000,3351.9979,N,09831.7360,W,2,08,1.0,296.3,M,-23.7,M,0.8,0000*46
$GPGSA,A,3,01,22,31,11,25,20,32,30,,,,,2.0,1.0,1.7*33
$GPGSV,3,1,12,31,86,012,34,32,43,317,37,14,42,054,,22,35,133,31*70
$GPGSV,3,2,12,01,31,283,28,25,25,060,32,30,24,166,24,11,22,258,33*71
$GPGSV,3,3,12,20,16,314,32,16,03,180,,12,00,030,,51,49,195,32*70
$GPRMC,193441.000,A,3351.9979,N,09831.7360,W,0.10,173.54,020412,,,D*78
$GPGGA,193442.000,3351.9979,N,09831.7360,W,2,08,1.0,296.3,M,-23.7,M,0.8,0000*45
$GPGSA,A,3,01,22,31,11,25,20,32,30,,,,,2.0,1.0,1.7*33
$GPRMC,193442.000,A,3351.9979,N,09831.7360,W,0.05,179.56,020412,,,D*77
$GPGGA,193443.000,3351.9979,N,09831.7360,W,2,08,1.0,296.3,M,-23.7,M,0.8,0000*44
$GPGSA,A,3,01,22,31,11,25,20,32,30,,,,,2.0,1.0,1.7*33
$GPRMC,193443.000,A,3351.9979,N,09831.7360,W,0.07,171.77,020412,,,D*7F
$GPGGA,193444.000,3351.9978,N,09831.7360,W,2,08,1.0,296.3,M,-23.7,M,1.8,0000*43
$GPGSA,A,3,01,22,31,11,25,20,32,30,,,,,2.0,1.0,1.7*33
$GPRMC,193444.000,A,3351.9978,N,09831.7360,W,0.05,178.10,020412,,,D*73
$GPGGA,193445.000,3351.9978,N,09831.7360,W,2,08,1.0,296.3,M,-23.7,M,0.8,0000*43
$GPGSA,A,3,01,22,31,11,25,20,32,30,,,,,2.0,1.0,1.7*33
$GPRMC,193445.000,A,3351.9978,N,09831.7360,W,0.07,131.07,020412,,,D*7B
$GPGGA,193446.000,3351.9978,N,09831.7360,W,2,08,1.0,296.3,M,-23.7,M,0.8,0000*40
$GPGSA,A,3,01,22,31,11,25,20,32,30,,,,,2.0,1.0,1.7*33
$GPGSV,3,1,12,31,86,012,34,32,43,317,37,14,42,054,,22,35,133,31*70
$GPGSV,3,2,12,01,31,283,29,25,25,060,33,30,24,166,25,11,22,258,33*70
$GPGSV,3,3,12,20,16,314,32,16,03,180,,12,00,030,,51,49,195,32*70
$GPRMC,193446.000,A,3351.9978,N,09831.7360,W,0.05,106.10,020412,,,D*78
$GPGGA,193447.000,3351.9978,N,09831.7360,W,2,08,1.0,296.2,M,-23.7,M,0.8,0000*40
$GPGSA,A,3,01,22,31,11,25,20,32,30,,,,,2.0,1.0,1.7*33
$GPRMC,193447.000,A,3351.9978,N,09831.7360,W,0.06,74.22,020412,,,D*4F
$GPGGA,193448.000,3351.9979,N,09831.7359,W,2,08,1.0,296.2,M,-23.7,M,1.8,0000*45
$GPGSA,A,3,01,22,31,11,25,20,32,30,,,,,2.0,1.0,1.7*33
$GPRMC,193448.000,A,3351.9979,N,09831.7359,W,0.06,91.92,020412,,,D*4B
$GPGGA,193449.000,3351.9979,N,09831.7359,W,2,08,1.0,296.1,M,-23.7,M,2.8,0000*44
$GPGSA,A,3,01,22,31,11,25,20,32,30,,,,,2.0,1.0,1.7*33
$GPRMC,193449.000,A,3351.9979,N,09831.7359,W,0.08,77.14,020412,,,D*42
$GPGGA,193450.000,3351.9979,N,09831.7359,W,2,08,1.0,296.1,M,-23.7,M,3.8,0000*4D
$GPGSA,A,3,01,22,31,11,25,20,32,30,,,,,2.0,1.0,1.7*33
$GPRMC,193450.000,A,3351.9979,N,09831.7359,W,0.07,75.22,020412,,,D*42
$GPGGA,193451.000,3351.9979,N,09831.7359,W,2,08,1.0,296.1,M,-23.7,M,0.8,0000*4F
$GPGSA,A,3,01,22,31,11,25,20,32,30,,,,,2.0,1.0,1.7*33
$GPGSV,3,1,12,31,86,012,34,32,43,317,37,14,42,054,,22,35,133,30*71
$GPGSV,3,2,12,01,31,283,29,25,25,060,33,30,24,166,25,11,22,258,33*70
$GPGSV,3,3,12,20,16,314,32,16,03,180,,12,00,030,,51,49,195,32*70
$GPRMC,193451.000,A,3351.9979,N,09831.7359,W,0.02,79.72,020412,,,D*4F
$GPGGA,193452.000,3351.9979,N,09831.7359,W,2,08,1.0,296.1,M,-23.7,M,0.8,0000*4C
$GPGSA,A,3,01,22,31,11,25,20,32,30,,,,,2.0,1.0,1.7*33
$GPRMC,193452.000,A,3351.9979,N,09831.7359,W,0.04,127.94,020412,,,D*78
$GPGGA,193453.000,3351.9979,N,09831.7359,W,2,08,1.0,296.1,M,-23.7,M,0.8,0000*4D
$GPGSA,A,3,01,22,31,11,25,20,32,30,,,,,2.0,1.0,1.7*33
$GPRMC,193453.000,A,3351.9979,N,09831.7359,W,0.03,164.61,020412,,,D*73
$GPGGA,193454.000,3351.9979,N,09831.7359,W,2,08,1.0,296.2,M,-23.7,M,0.8,0000*49
$GPGSA,A,3,01,22,31,11,25,20,32,30,,,,,2.0,1.0,1.7*33
$GPRMC,193454.000,A,3351.9979,N,09831.7359,W,0.05,168.70,020412,,,D*7E
$GPGGA,193455.000,3351.9978,N,09831.7359,W,2,08,1.0,296.2,M,-23.7,M,1.8,0000*48
$GPGSA,A,3,01,22,31,11,25,20,32,30,,,,,2.0,1.0,1.7*33
$GPRMC,193455.000,A,3351.9978,N,09831.7359,W,0.06,180.23,020412,,,D*7D
$GPGGA,193456.000,3351.9978,N,09831.7359,W,2,08,1.0,296.2,M,-23.7,M,2.8,0000*48
$GPGSA,A,3,01,22,31,11,25,20,32,30,,,,,2.0,1.0,1.7*33
$GPGSV,3,1,12,31,86,012,34,32,43,317,37,14,42,054,,22,35,133,30*71
$GPGSV,3,2,12,01,31,283,29,25,25,060,34,30,24,166,26,11,22,258,33*74
$GPGSV,3,3,12,20,16,314,32,16,03,180,,12,00,030,,51,49,195,32*70
$GPRMC,193456.000,A,3351.9978,N,09831.7359,W,0.05,190.62,020412,,,D*79
$GPGGA,193457.000,3351.9978,N,09831.7359,W,2,08,1.0,296.2,M,-23.7,M,0.8,0000*4B
$GPGSA,A,3,01,22,31,11,25,20,32,30,,,,,2.0,1.0,1.7*33
$GPRMC,193457.000,A,3351.9978,N,09831.7359,W,0.07,135.01,020412,,,D*70
$GPGGA,193458.000,3351.9978,N,09831.7359,W,2,08,1.0,296.2,M,-23.7,M,0.8,0000*44
$GPGSA,A,3,01,22,31,11,25,20,32,30,,,,,2.0,1.0,1.7*33
$GPRMC,193458.000,A,3351.9978,N,09831.7359,W,0.05,100.03,020412,,,D*79
$GPGGA,193459.000,3351.9978,N,09831.7359,W,2,08,1.0,296.2,M,-23.7,M,0.8,0000*45
$GPGSA,A,3,01,22,31,11,25,20,32,30,,,,,2.0,1.0,1.7*33
$GPRMC,193459.000,A,3351.9978,N,09831.7359,W,0.06,75.35,020412,,,D*4D
$GPGGA,193500.000,3351.9978,N,09831.7359,W,2,08,1.0,296.1,M,-23.7,M,0.8,0000*4B
$GPGSA,A,3,01,22,31,11,25,20,32,30,,,,,2.0,1.0,1.7*33
$GPRMC,193500.000,A,3351.9978,N,09831.7359,W,0.06,90.71,020412,,,D*4B
$GPGGA,193501.000,3351.9978,N,09831.7359,W,2,08,1.0,296.1,M,-23.7,M,1.8,0000*4B
$GPGSA,A,3,01,22,31,11,25,20,32,30,,,,,2.0,1.0,1.7*33
$GPGSV,3,1,12,31,86,012,34,32,43,317,37,14,42,054,,22,35,133,29*79
$GPGSV,3,2,12,01,31,283,29,25,25,060,34,30,24,166,26,11,22,258,33*74
$GPGSV,3,3,12,20,16,314,32,16,03,180,,12,00,030,,51,49,195,32*70
$GPRMC,193501.000,A,3351.9978,N,09831.7359,W,0.06,81.71,020412,,,D*4A
$GPGGA,193502.000,3351.9978,N,09831.7359,W,2,08,1.0,296.1,M,-23.7,M,2.8,0000*4B
$GPGSA,A,3,01,22,31,11,25,20,32,30,,,,,2.0,1.0,1.7*33
$GPRMC,193502.000,A,3351.9978,N,09831.7359,W,0.06,74.35,020412,,,D*43
$GPGGA,193503.000,3351.9978,N,09831.7359,W,2,08,1.0,296.1,M,-23.7,M,0.8,0000*48
$GPGSA,A,3,01,22,31,11,25,20,32,30,,,,,2.0,1.0,1.7*33
$GPRMC,193503.000,A,3351.9978,N,09831.7359,W,0.03,92.94,020412,,,D*44
$GPGGA,193504.000,3351.9978,N,09831.7359,W,2,08,1.0,296.1,M,-23.7,M,0.8,0000*4F
$GPGSA,A,3,01,22,31,11,25,20,32,30,,,,,2.0,1.0,1.7*33
$GPRMC,193504.000,A,3351.9978,N,09831.7359,W,0.05,134.54,020412,,,D*74
$GPGGA,193505.000,3351.9978,N,09831.7359,W,2,08,1.0,296.2,M,-23.7,M,0.8,0000*4D
$GPGSA,A,3,01,22,31,11,25,20,32,30,,,,,2.0,1.0,1.7*33
$GPRMC,193505.000,A,3351.9978,N,09831.7359,W,0.04,128.17,020412,,,D*7E
$GPGGA,193506.000,3351.9978,N,09831.7359,W,2,08,1.0,296.3,M,-23.7,M,0.8,0000*4F
$GPGSA,A,3,01,22,31,11,25,20,32,30,,,,,2.0,1.0,1.7*33
$GPGSV,3,1,12,31,86,012,34,32,43,317,37,14,42,054,,22,35,133,29*79
$GPGSV,3,2,12,01,31,283,29,25,25,060,34,30,24,166,26,11,22,258,33*74
$GPGSV,3,3,12,20,16,314,32,16,03,180,,12,00,030,,51,49,195,32*70
$GPRMC,193506.000,A,3351.9978,N,09831.7359,W,0.03,154.52,020412,,,D*70
$GPGGA,193507.000,3351.9978,N,09831.7359,W,2,08,1.0,296.4,M,-23.7,M,1.8,0000*48
$GPGSA,A,3,01,22,31,11,25,20,32,30,,,,,2.0,1.0,1.7*33
$GPRMC,193507.000,A,3351.9978,N,09831.7359,W,0.04,151.57,020412,,,D*76
$GPGGA,193508.000,3351.9978,N,09831.7359,W,2,08,1.0,296.5,M,-23.7,M,2.8,0000*45
$GPGSA,A,3,01,22,31,11,25,20,32,30,,,,,2.0,1.0,1.7*33
$GPRMC,193508.000,A,3351.9978,N,09831.7359,W,0.05,144.38,020412,,,D*75
$GPGGA,193509.000,3351.9977,N,09831.7359,W,2,08,1.0,296.5,M,-23.7,M,0.8,0000*49
$GPGSA,A,3,01,22,31,11,25,20,32,30,,,,,2.0,1.0,1.7*33
$GPRMC,193509.000,A,3351.9977,N,09831.7359,W,0.06,99.05,020412,,,D*47
$GPGGA,193510.000,3351.9977,N,09831.7358,W,2,08,1.0,296.5,M,-23.7,M,0.8,0000*40
$GPGSA,A,3,01,22,31,11,25,20,32,30,,,,,2.0,1.0,1.7*33
$GPRMC,193510.000,A,3351.9977,N,09831.7358,W,0.05,96.08,020412,,,D*4F
$GPGGA,193511.000,3351.9977,N,09831.7358,W,2,08,1.0,296.4,M,-23.7,M,0.8,0000*40
$GPGSA,A,3,01,22,31,11,25,20,32,30,,,,,2.0,1.0,1.7*33
$GPGSV,3,1,12,31,86,012,33,32,43,317,37,14,42,054,,22,35,133,28*7F
$GPGSV,3,2,12,01,31,283,29,25,25,060,34,30,24,166,27,11,22,258,33*75
$GPGSV,3,3,12,20,16,314,32,16,03,180,,12,00,030,,51,49,195,32*70
$GPRMC,193511.000,A,3351.9977,N,09831.7358,W,0.05,118.93,020412,,,D*7B
$GPGGA,193512.000,3351.9977,N,09831.7358,W,2,08,1.0,296.4,M,-23.7,M,1.8,0000*42
$GPGSA,A,3,01,22,31,11,25,20,32,30,,,,,2.0,1.0,1.7*33
$GPRMC,193512.000,A,3351.9977,N,09831.7358,W,0.05,77.17,020412,,,D*4C
$GPGGA,193513.000,3351.9977,N,09831.7358,W,2,08,1.0,296.4,M,-23.7,M,0.8,0000*42
$GPGSA,A,3,01,22,31,11,25,20,32,30,,,,,2.0,1.0,1.7*33
$GPRMC,193513.000,A,3351.9977,N,09831.7358,W,0.04,64.55,020412,,,D*48
$GPGGA,193514.000,3351.9977,N,09831.7358,W,2,08,1.0,296.3,M,-23.7,M,1.8,0000*43
$GPGSA,A,3,01,22,31,11,25,20,32,30,,,,,2.0,1.0,1.7*33
$GPRMC,193514.000,A,3351.9977,N,09831.7358,W,0.04,82.19,020412,,,D*4F
$GPGGA,193515.000,3351.9977,N,09831.7358,W,2,08,1.0,296.3,M,-23.7,M,0.8,0000*43
$GPGSA,A,3,01,22,31,11,25,20,32,30,,,,,2.0,1.0,1.7*33
$GPRMC,193515.000,A,3351.9977,N,09831.7358,W,0.05,166.93,020412,,,D*76
$GPGGA,193516.000,3351.9977,N,09831.7358,W,2,08,1.0,296.4,M,-23.7,M,0.8,0000*47
$GPGSA,A,3,01,22,31,11,25,20,32,30,,,,,2.0,1.0,1.7*33
$GPGSV,3,1,12,31,86,012,33,32,43,317,37,14,42,054,,22,35,133,28*7F
$GPGSV,3,2,12,01,31,283,28,25,25,060,35,30,24,166,28,11,22,258,33*7A
$GPGSV,3,3,12,20,16,314,32,16,03,180,,12,00,030,,51,49,195,32*70
$GPRMC,193516.000,A,3351.9977,N,09831.7358,W,0.05,159.83,020412,,,D*78
$GPGGA,193517.000,3351.9977,N,09831.7358,W,2,08,1.0,296.5,M,-23.7,M,0.8,0000*47
$GPGSA,A,3,01,22,31,11,25,20,32,30,,,,,2.0,1.0,1.7*33
$GPRMC,193517.000,A,3351.9977,N,09831.7358,W,0.05,141.32,020412,,,D*7A
$GPGGA,193518.000,3351.9977,N,09831.7358,W,2,08,1.0,296.5,M,-23.7,M,1.8,0000*49
$GPGSA,A,3,01,22,31,11,25,20,32,30,,,,,2.0,1.0,1.7*33
$GPRMC,193518.000,A,3351.9977,N,09831.7358,W,0.05,142.22,020412,,,D*77
$GPGGA,193519.000,3351.9976,N,09831.7358,W,2,08,1.0,296.6,M,-23.7,M,2.8,0000*49
$GPGSA,A,3,01,22,31,11,25,20,32,30,,,,,2.0,1.0,1.7*33
$GPRMC,193519.000,A,3351.9976,N,09831.7358,W,0.06,142.35,020412,,,D*72
$GPGGA,193520.000,3351.9976,N,09831.7358,W,2,08,1.0,296.7,M,-23.7,M,3.8,0000*43
$GPGSA,A,3,01,22,31,11,25,20,32,30,,,,,2.0,1.0,1.7*33
$GPRMC,193520.000,A,3351.9976,N,09831.7358,W,0.06,130.50,020412,,,D*7E
$GPGGA,193521.000,3351.9976,N,09831.7358,W,2,08,1.0,296.7,M,-23.7,M,0.8,0000*41
$GPGSA,A,3,01,22,31,11,25,20,32,30,,,,,2.0,1.0,1.7*33
$GPGSV,3,1,12,31,86,012,33,32,43,317,37,14,42,054,,22,35,133,27*70
$GPGSV,3,2,12,01,31,283,28,25,25,060,35,30,24,166,28,11,22,258,33*7A
$GPGSV,3,3,12,20,16,314,32,16,03,180,,12,00,030,,51,49,195,32*70
$GPRMC,193521.000,A,3351.9976,N,09831.7358,W,0.05,72.00,020412,,,D*4E
$GPGGA,193522.000,3351.9976,N,09831.7358,W,2,08,1.0,296.7,M,-23.7,M,0.8,0000*42
$GPGSA,A,3,01,22,31,11,25,20,32,30,,,,,2.0,1.0,1.7*33
$GPRMC,193522.000,A,3351.9976,N,09831.7358,W,0.05,79.38,020412,,,D*4D
$GPGGA,193523.000,3351.9976,N,09831.7358,W,2,08,1.0,296.7,M,-23.7,M,0.8,0000*43
$GPGSA,A,3,01,22,31,11,25,20,32,30,,,,,2.0,1.0,1.7*33
$GPRMC,193523.000,A,3351.9976,N,09831.7358,W,0.05,82.42,020412,,,D*45
$GPGGA,193524.000,3351.9976,N,09831.7357,W,2,08,1.0,296.7,M,-23.7,M,0.8,0000*4B
$GPGSA,A,3,01,22,31,11,25,20,32,30,,,,,2.0,1.0,1.7*33
$GPRMC,193524.000,A,3351.9976,N,09831.7357,W,0.03,101.61,020412,,,D*70
$GPGGA,193525.000,3351.9976,N,09831.7357,W,2,08,1.0,296.7,M,-23.7,M,1.8,0000*4B
$GPGSA,A,3,01,22,31,11,25,20,32,30,,,,,2.0,1.0,1.7*33
$GPRMC,193525.000,A,3351.9976,N,09831.7357,W,0.04,94.69,020412,,,D*43
$GPGGA,193526.000,3351.9976,N,09831.7357,W,2,08,1.0,296.6,M,-23.7,M,0.8,0000*48
$GPGSA,A,3,01,22,31,11,25,20,32,30,,,,,2.0,1.0,1.7*33
$GPGSV,3,1,12,31,86,012,33,32,43,317,37,14,42,054,,22,35,133,27*70
$GPGSV,3,2,12,01,31,283,28,25,25,060,35,30,24,166,28,11,22,258,32*7B
$GPGSV,3,3,12,20,16,314,32,16,03,180,,12,00,030,,51,49,195,32*70
$GPRMC,193526.000,A,3351.9976,N,09831.7357,W,0.05,65.79,020412,,,D*4E
$GPGGA,193527.000,3351.9976,N,09831.7357,W,2,08,1.0,296.6,M,-23.7,M,0.8,0000*49
$GPGSA,A,3,01,22,31,11,25,20,32,30,,,,,2.0,1.0,1.7*33
$GPRMC,193527.000,A,3351.9976,N,09831.7357,W,0.07,159.73,020412,,,D*79
$GPGGA,193528.000,3351.9976,N,09831.7358,W,2,08,1.0,296.6,M,-23.7,M,0.8,0000*49
$GPGSA,A,3,01,22,31,11,25,20,32,30,,,,,2.0,1.0,1.7*33
$GPRMC,193528.000,A,3351.9976,N,09831.7358,W,0.07,147.34,020412,,,D*75
$GPGGA,193529.000,3351.9975,N,09831.7357,W,2,08,1.0,296.7,M,-23.7,M,0.8,0000*45
$GPGSA,A,3,01,22,31,11,25,20,32,30,,,,,2.0,1.0,1.7*33
$GPRMC,193529.000,A,3351.9975,N,09831.7357,W,0.08,125.38,020412,,,D*7F
$GPGGA,193530.000,3351.9975,N,09831.7357,W,2,08,1.0,296.8,M,-23.7,M,1.8,0000*43
$GPGSA,A,3,01,22,31,11,25,20,32,30,,,,,2.0,1.0,1.7*33
$GPRMC,193530.000,A,3351.9975,N,09831.7357,W,0.07,106.92,020412,,,D*79
$GPGGA,193531.000,3351.9975,N,09831.7357,W,2,08,1.0,296.8,M,-23.7,M,2.8,0000*41
$GPGSA,A,3,01,22,31,11,25,20,32,30,,,,,2.0,1.0,1.7*33
$GPGSV,3,1,12,31,86,012,33,32,43,317,37,14,42,054,,22,35,133,27*70
$GPGSV,3,2,12,01,31,283,27,25,25,060,35,30,24,166,28,11,22,258,32*74
$GPGSV,3,3,12,20,16,314,32,16,03,180,,12,00,030,,51,49,195,32*70
$GPRMC,193531.000,A,3351.9975,N,09831.7357,W,0.07,116.92,020412,,,D*79
$GPGGA,193532.000,3351.9975,N,09831.7357,W,2,08,1.0,296.9,M,-23.7,M,3.8,0000*42
$GPGSA,A,3,01,22,31,11,25,20,32,30,,,,,2.0,1.0,1.7*33
$GPRMC,193532.000,A,3351.9975,N,09831.7357,W,0.06,124.90,020412,,,D*78
$GPGGA,193533.000,3351.9975,N,09831.7357,W,2,08,1.0,296.9,M,-23.7,M,0.8,0000*40
$GPGSA,A,3,01,22,31,11,25,20,32,30,,,,,2.0,1.0,1.7*33
$GPRMC,193533.000,A,3351.9975,N,09831.7357,W,0.11,70.27,020412,,,D*43
$GPGGA,193534.000,3351.9975,N,09831.7357,W,2,08,1.0,296.9,M,-23.7,M,0.8,0000*47
$GPGSA,A,3,01,22,31,11,25,20,32,30,,,,,2.0,1.0,1.7*33
$GPRMC,193534.000,A,3351.9975,N,09831.7357,W,0.08,70.33,020412,,,D*49
$GPGGA,193535.000,3351.9974,N,09831.7357,W,2,08,1.0,296.8,M,-23.7,M,0.8,0000*46
$GPGSA,A,3,01,22,31,11,25,20,32,30,,,,,2.0,1.0,1.7*33
$GPRMC,193535.000,A,3351.9974,N,09831.7357,W,0.04,58.48,020412,,,D*43
$GPGGA,193536.000,3351.9974,N,09831.7357,W,2,08,1.0,296.8,M,-23.7,M,1.8,0000*44
$GPGSA,A,3,01,22,31,11,25,20,32,30,,,,,2.0,1.0,1.7*33
$GPGSV,3,1,12,31,86,012,33,32,43,317,38,14,42,054,,22,35,133,27*7F
$GPGSV,3,2,12,01,31,283,27,25,25,060,35,30,24,166,27,11,22,258,32*7B
$GPGSV,3,3,12,20,16,314,32,16,03,180,,12,00,030,,51,49,195,32*70
$GPRMC,193536.000,A,3351.9974,N,09831.7357,W,0.05,60.46,020412,,,D*44
$GPGGA,193537.000,3351.9974,N,09831.7357,W,2,08,1.0,296.7,M,-23.7,M,0.8,0000*4B
$GPGSA,A,3,01,22,31,11,25,20,32,30,,,,,2.0,1.0,1.7*33
$GPRMC,193537.000,A,3351.9974,N,09831.7357,W,0.05,74.28,020412,,,D*48
$GPGGA,193538.000,3351.9974,N,09831.7357,W,2,08,1.0,296.7,M,-23.7,M,1.8,0000*45
$GPGSA,A,3,01,22,31,11,25,20,32,30,,,,,2.0,1.0,1.7*33
$GPRMC,193538.000,A,3351.9974,N,09831.7357,W,0.04,81.98,020412,,,D*47
$GPGGA,193539.000,3351.9974,N,09831.7357,W,2,08,1.0,296.6,M,-23.7,M,0.8,0000*44
$GPGSA,A,3,01,22,31,11,25,20,32,30,,,,,2.0,1.0,1.7*33
$GPRMC,193539.000,A,3351.9974,N,09831.7357,W,0.05,157.12,020412,,,D*7F
$GPGGA,193540.000,3351.9973,N,09831.7357,W,2,08,1.0,296.6,M,-23.7,M,0.8,0000*4D
$GPGSA,A,3,01,22,31,11,25,20,32,30,,,,,2.0,1.0,1.7*33
$GPRMC,193540.000,A,3351.9973,N,09831.7357,W,0.06,146.20,020412,,,D*74
$GPGGA,193541.000,3351.9973,N,09831.7357,W,2,08,1.0,296.7,M,-23.7,M,0.8,0000*4D
$GPGSA,A,3,01,22,31,11,25,20,32,30,,,,,2.0,1.0,1.7*33
$GPGSV,3,1,12,31,86,012,34,32,43,317,38,14,42,054,,22,35,133,26*79
$GPGSV,3,2,12,01,31,283,27,25,25,060,35,30,24,166,27,11,22,258,33*7A
$GPGSV,3,3,12,20,16,314,32,16,03,180,,12,00,030,,51,49,195,32*70
$GPRMC,193541.000,A,3351.9973,N,09831.7357,W,0.09,131.32,020412,,,D*79
$GPGGA,193542.000,3351.9973,N,09831.7357,W,2,08,1.0,296.8,M,-23.7,M,1.8,0000*40
$GPGSA,A,3,01,22,31,11,25,20,32,30,,,,,2.0,1.0,1.7*33
$GPRMC,193542.000,A,3351.9973,N,09831.7357,W,0.07,122.09,020412,,,D*7E
$GPGGA,193543.000,3351.9973,N,09831.7357,W,2,08,1.0,296.8,M,-23.7,M,0.8,0000*40
$GPGSA,A,3,01,22,31,11,25,20,32,30,,,,,2.0,1.0,1.7*33
$GPRMC,193543.000,A,3351.9973,N,09831.7357,W,0.07,126.71,020412,,,D*74
$GPGGA,193544.000,3351.9972,N,09831.7357,W,2,08,1.0,296.9,M,-23.7,M,1.8,0000*46
$GPGSA,A,3,01,22,31,11,25,20,32,30,,,,,2.0,1.0,1.7*33
$GPRMC,193544.000,A,3351.9972,N,09831.7357,W,0.08,122.36,020412,,,D*7A
$GPGGA,193545.000,3351.9972,N,09831.7356,W,2,08,1.0,296.9,M,-23.7,M,0.8,0000*47
$GPGSA,A,3,01,22,31,11,25,20,32,30,,,,,2.0,1.0,1.7*33
$GPRMC,193545.000,A,3351.9972,N,09831.7356,W,0.11,66.60,020412,,,D*40
$GPGGA,193546.000,3351.9972,N,09831.7356,W,2,08,1.0,296.9,M,-23.7,M,0.8,0000*44
$GPGSA,A,3,01,22,31,11,25,20,32,30,,,,,2.0,1.0,1.7*33
$GPGSV,3,1,12,31,86,012,34,32,43,317,38,14,42,054,,22,35,133,26*79
$GPGSV,3,2,12,01,31,283,27,25,25,060,35,30,24,166,26,11,22,258,33*7B
$GPGSV,3,3,12,20,16,314,32,16,03,180,,12,00,030,,51,49,195,32*70
$GPRMC,193546.000,A,3351.9972,N,09831.7356,W,0.07,63.20,020412,,,D*45
$GPGGA,193547.000,3351.9972,N,09831.7356,W,2,08,1.0,296.8,M,-23.7,M,0.8,0000*44
$GPGSA,A,3,01,22,31,11,25,20,32,30,,,,,2.0,1.0,1.7*33
$GPRMC,193547.000,A,3351.9972,N,09831.7356,W,0.12,123.95,020412,,,D*7B
$GPGGA,193548.000,3351.9972,N,09831.7356,W,2,08,1.0,296.8,M,-23.7,M,1.8,0000*4A
$GPGSA,A,3,01,22,31,11,25,20,32,30,,,,,2.0,1.0,1.7*33
$GPRMC,193548.000,A,3351.9972,N,09831.7356,W,0.07,49.12,020412,,,D*42
$GPGGA,193549.000,3351.9972,N,09831.7356,W,2,08,1.0,296.7,M,-23.7,M,2.8,0000*47
$GPGSA,A,3,01,22,31,11,25,20,32,30,,,,,2.0,1.0,1.7*33
$GPRMC,193549.000,A,3351.9972,N,09831.7356,W,0.04,61.06,020412,,,D*4F
$GPGGA,193550.000,3351.9971,N,09831.7356,W,2,08,1.0,296.6,M,-23.7,M,3.8,0000*4C
$GPGSA,A,3,01,22,31,11,25,20,32,30,,,,,2.0,1.0,1.7*33
$GPRMC,193550.000,A,3351.9971,N,09831.7356,W,0.05,85.56,020412,,,D*4A
$GPGGA,193551.000,3351.9971,N,09831.7356,W,2,08,1.0,296.6,M,-23.7,M,0.8,0000*4E
$GPGSA,A,3,01,22,31,11,25,20,32,30,,,,,2.0,1.0,1.7*33
$GPGSV,3,1,12,31,86,012,34,32,43,317,38,14,42,054,,22,35,133,25*7A
$GPGSV,3,2,12,01,31,283,26,25,25,060,35,30,24,166,26,11,22,258,33*7A
$GPGSV,3,3,12,20,16,314,32,16,03,180,,12,00,030,,51,49,195,32*70
$GPRMC,193551.000,A,3351.9971,N,09831.7356,W,0.05,149.45,020412,,,D*78
$GPGGA,193552.000,3351.9971,N,09831.7356,W,2,09,0.9,296.7,M,-23.7,M,0.8,0000*45
$GPGSA,A,3,01,22,31,11,25,20,32,14,30,,,,1.9,0.9,1.7*34
$GPRMC,193552.000,A,3351.9971,N,09831.7356,W,0.12,213.07,020412,,,D*77
$GPGGA,193553.000,3351.9970,N,09831.7356,W,2,09,0.9,296.7,M,-23.7,M,0.8,0000*45
$GPGSA,A,3,01,22,31,11,25,20,32,14,30,,,,1.9,0.9,1.7*34
$GPRMC,193553.000,A,3351.9970,N,09831.7356,W,0.13,202.67,020412,,,D*70
$GPGGA,193554.000,3351.9970,N,09831.7357,W,2,09,0.9,296.8,M,-23.7,M,1.8,0000*4D
$GPGSA,A,3,01,22,31,11,25,20,32,14,30,,,,1.9,0.9,1.7*34
$GPRMC,193554.000,A,3351.9970,N,09831.7357,W,0.09,199.05,020412,,,D*78
$GPGGA,193555.000,3351.9969,N,09831.7357,W,2,09,0.9,296.9,M,-23.7,M,2.8,0000*46
$GPGSA,A,3,01,22,31,11,25,20,32,14,30,,,,1.9,0.9,1.7*34
$GPRMC,193555.000,A,3351.9969,N,09831.7357,W,0.11,201.67,020412,,,D*7E
$GPGGA,193556.000,3351.9969,N,09831.7357,W,2,09,0.9,297.0,M,-23.7,M,3.8,0000*4C
$GPGSA,A,3,01,22,31,11,25,20,32,14,30,,,,1.9,0.9,1.7*34
$GPGSV,3,1,12,31,85,013,34,32,44,317,38,14,41,055,19,22,34,133,25*74
$GPGSV,3,2,12,01,31,282,26,30,25,166,26,25,25,060,35,11,22,257,33*75
$GPGSV,3,3,12,20,16,314,32,16,03,180,,12,00,030,,51,49,195,32*70
$GPRMC,193556.000,A,3351.9969,N,09831.7357,W,0.13,70.06,020412,,,D*4C
$GPGGA,193557.000,3351.9969,N,09831.7357,W,2,09,0.9,297.0,M,-23.7,M,0.8,0000*4E
$GPGSA,A,3,01,22,31,11,25,20,32,14,30,,,,1.9,0.9,1.7*34
$GPRMC,193557.000,A,3351.9969,N,09831.7357,W,0.14,64.20,020412,,,D*4B
$GPGGA,193558.000,3351.9969,N,09831.7356,W,2,09,0.9,297.0,M,-23.7,M,0.8,0000*40
$GPGSA,A,3,01,22,31,11,25,20,32,14,30,,,,1.9,0.9,1.7*34
$GPRMC,193558.000,A,3351.9969,N,09831.7356,W,0.06,191.03,020412,,,D*7C
$GPGGA,193559.000,3351.9969,N,09831.7356,W,2,09,0.9,297.0,M,-23.7,M,0.8,0000*41
$GPGSA,A,3,01,22,31,11,25,20,32,14,30,,,,1.9,0.9,1.7*34
$GPRMC,193559.000,A,3351.9969,N,09831.7356,W,0.10,72.96,020412,,,D*4A
$GPGGA,193600.000,3351.9969,N,09831.7356,W,2,09,0.9,296.9,M,-23.7,M,1.8,0000*47
$GPGSA,A,3,01,22,31,11,25,20,32,14,30,,,,1.9,0.9,1.7*34
$GPRMC,193600.000,A,3351.9969,N,09831.7356,W,0.04,196.52,020412,,,D*73
$GPGGA,193601.000,3351.9969,N,09831.7356,W,2,09,0.9,296.8,M,-23.7,M,2.8,0000*44
$GPGSA,A,3,01,22,31,11,25,20,32,14,30,,,,1.9,0.9,1.7*34
$GPGSV,3,1,12,31,85,013,34,32,44,317,38,14,41,055,19,22,34,133,25*74
$GPGSV,3,2,12,01,31,282,26,30,25,166,26,25,25,060,35,11,22,257,33*75
$GPGSV,3,3,12,20,16,314,31,16,03,180,,12,00,030,,51,49,195,32*73
$GPRMC,193601.000,A,3351.9969,N,09831.7356,W,0.12,71.97,020412,,,D*44
$GPGGA,193602.000,3351.9969,N,09831.7356,W,2,09,0.9,296.8,M,-23.7,M,3.8,0000*46
$GPGSA,A,3,01,22,31,11,25,20,32,14,30,,,,1.9,0.9,1.7*34
$GPRMC,193602.000,A,3351.9969,N,09831.7356,W,0.05,195.00,020412,,,D*74
$GPGGA,193603.000,3351.9969,N,09831.7356,W,2,09,0.9,296.7,M,-23.7,M,0.8,0000*4B
$GPGSA,A,3,01,22,31,11,25,20,32,14,30,,,,1.9,0.9,1.7*34
$GPRMC,193603.000,A,3351.9969,N,09831.7356,W,0.06,120.82,020412,,,D*72
$GPGGA,193604.000,3351.9969,N,09831.7356,W,2,09,0.9,296.7,M,-23.7,M,0.8,0000*4C
$GPGSA,A,3,01,22,31,11,25,20,32,14,30,,,,1.9,0.9,1.7*34
$GPRMC,193604.000,A,3351.9969,N,09831.7356,W,0.04,130.51,020412,,,D*78
$GPGGA,193605.000,3351.9968,N,09831.7356,W,2,09,0.9,296.8,M,-23.7,M,0.8,0000*43
$GPGSA,A,3,01,22,31,11,25,20,32,14,30,,,,1.9,0.9,1.7*34
$GPRMC,193605.000,A,3351.9968,N,09831.7356,W,0.15,66.77,020412,,,D*4E
$GPGGA,193606.000,3351.9968,N,09831.7355,W,2,09,0.9,296.8,M,-23.7,M,1.8,0000*42
$GPGSA,A,3,01,22,31,11,25,20,32,14,30,,,,1.9,0.9,1.7*34
$GPGSV,3,1,12,31,85,013,34,32,44,317,38,14,41,055,20,22,34,133,24*7F
$GPGSV,3,2,12,01,31,282,26,30,25,166,26,25,25,060,35,11,22,257,33*75
$GPGSV,3,3,12,20,16,314,31,16,03,180,,12,00,030,,51,49,195,32*73
$GPRMC,193606.000,A,3351.9968,N,09831.7355,W,0.11,74.22,020412,,,D*49
$GPGGA,193607.000,3351.9968,N,09831.7355,W,2,09,0.9,296.9,M,-23.7,M,2.8,0000*41
$GPGSA,A,3,01,22,31,11,25,20,32,14,30,,,,1.9,0.9,1.7*34
$GPRMC,193607.000,A,3351.9968,N,09831.7355,W,0.08,190.16,020412,,,D*7C
$GPGGA,193608.000,3351.9968,N,09831.7355,W,2,09,0.9,296.9,M,-23.7,M,3.8,0000*4F
$GPGSA,A,3,01,22,31,11,25,20,32,14,30,,,,1.9,0.9,1.7*34
$GPRMC,193608.000,A,3351.9968,N,09831.7355,W,0.03,31.86,020412,,,D*4B
$GPGGA,193609.000,3351.9968,N,09831.7355,W,2,09,0.9,297.0,M,-23.7,M,0.8,0000*45
$GPGSA,A,3,01,22,31,11,25,20,32,14,30,,,,1.9,0.9,1.7*34
$GPRMC,193609.000,A,3351.9968,N,09831.7355,W,0.02,181.38,020412,,,D*74
$GPGGA,193610.000,3351.9968,N,09831.7355,W,2,09,0.9,296.9,M,-23.7,M,0.8,0000*45
$GPGSA,A,3,01,22,31,11,25,20,32,14,30,,,,1.9,0.9,1.7*34
$GPRMC,193610.000,A,3351.9968,N,09831.7355,W,0.08,199.21,020412,,,D*77
$GPGGA,193611.000,3351.9967,N,09831.7355,W,2,09,0.9,296.8,M,-23.7,M,0.8,0000*4A
$GPGSA,A,3,01,22,31,11,25,20,32,14,30,,,,1.9,0.9,1.7*34
$GPGSV,3,1,12,31,85,013,35,32,44,317,38,14,41,055,21,22,34,133,24*7F
$GPGSV,3,2,12,01,31,282,27,30,25,166,26,25,25,060,34,11,22,257,33*75
$GPGSV,3,3,12,20,16,314,31,16,03,180,,12,00,030,,51,49,195,31*70
$GPRMC,193611.000,A,3351.9967,N,09831.7355,W,0.06,137.90,020412,,,D*79
$GPGGA,193612.000,3351.9967,N,09831.7355,W,2,09,0.9,296.7,M,-23.7,M,0.8,0000*46
$GPGSA,A,3,01,22,31,11,25,20,32,14,30,,,,1.9,0.9,1.7*34
$GPRMC,193612.000,A,3351.9967,N,09831.7355,W,0.11,70.02,020412,,,D*45
$GPGGA,193613.000,3351.9967,N,09831.7354,W,2,09,0.9,296.6,M,-23.7,M,0.8,0000*47
$GPGSA,A,3,01,22,31,11,25,20,32,14,30,,,,1.9,0.9,1.7*34
$GPRMC,193613.000,A,3351.9967,N,09831.7354,W,0.14,74.27,020412,,,D*43
$GPGGA,193614.000,3351.9967,N,09831.7354,W,2,09,0.9,296.6,M,-23.7,M,1.8,0000*41
$GPGSA,A,3,01,22,31,11,25,20,32,14,30,,,,1.9,0.9,1.7*34
$GPRMC,193614.000,A,3351.9967,N,09831.7354,W,0.05,125.77,020412,,,D*74
$GPGGA,193615.000,3351.9967,N,09831.7354,W,2,09,0.9,296.5,M,-23.7,M,0.8,0000*42
$GPGSA,A,3,01,22,31,11,25,20,32,14,30,,,,1.9,0.9,1.7*34
$GPRMC,193615.000,A,3351.9967,N,09831.7354,W,0.13,220.93,020412,,,D*7E
$GPGGA,193616.000,3351.9967,N,09831.7355,W,2,09,0.9,296.5,M,-23.7,M,0.8,0000*40
$GPGSA,A,3,01,22,31,11,25,20,32,14,30,,,,1.9,0.9,1.7*34
$GPGSV,3,1,12,31,85,013,35,32,44,317,38,14,41,055,22,22,34,133,25*7D
$GPGSV,3,2,12,01,31,282,27,30,25,166,26,25,25,060,34,11,22,257,33*75
$GPGSV,3,3,12,20,16,314,31,16,03,180,,12,00,030,,51,49,195,32*73
$GPRMC,193616.000,A,3351.9967,N,09831.7355,W,0.05,112.09,020412,,,D*7A
$GPGGA,193617.000,3351.9967,N,09831.7354,W,2,09,0.9,296.5,M,-23.7,M,0.8,0000*40
$GPGSA,A,3,01,22,31,11,25,20,32,14,30,,,,1.9,0.9,1.7*34
$GPRMC,193617.000,A,3351.9967,N,09831.7354,W,0.09,67.98,020412,,,D*4D
$GPGGA,193618.000,3351.9967,N,09831.7354,W,2,09,0.9,296.5,M,-23.7,M,1.8,0000*4E
$GPGSA,A,3,01,22,31,11,25,20,32,14,30,,,,1.9,0.9,1.7*34
$GPRMC,193618.000,A,3351.9967,N,09831.7354,W,0.03,196.58,020412,,,D*7B
$GPGGA,193619.000,3351.9967,N,09831.7354,W,2,09,0.9,296.6,M,-23.7,M,2.8,0000*4F
$GPGSA,A,3,01,22,31,11,25,20,32,14,30,,,,1.9,0.9,1.7*34
$GPRMC,193619.000,A,3351.9967,N,09831.7354,W,0.06,105.72,020412,,,D*7D
$GPGGA,193620.000,3351.9967,N,09831.7354,W,2,09,0.9,296.6,M,-23.7,M,3.8,0000*44
$GPGSA,A,3,01,22,31,11,25,20,32,14,30,,,,1.9,0.9,1.7*34
$GPRMC,193620.000,A,3351.9967,N,09831.7354,W,0.07,79.69,020412,,,D*46
$GPGGA,193621.000,3351.9967,N,09831.7354,W,2,09,0.9,296.6,M,-23.7,M,0.8,0000*46
$GPGSA,A,3,01,22,31,11,25,20,32,14,30,,,,1.9,0.9,1.7*34
$GPGSV,3,1,12,31,85,013,35,32,44,317,38,14,41,055,23,22,34,133,25*7C
$GPGSV,3,2,12,01,31,282,27,30,25,166,26,25,25,060,34,11,22,257,33*75
$GPGSV,3,3,12,20,16,314,31,16,03,180,,12,00,030,,51,49,195,32*73
$GPRMC,193621.000,A,3351.9967,N,09831.7354,W,0.06,68.14,020412,,,D*4C
$GPGGA,193622.000,3351.9967,N,09831.7354,W,2,09,0.9,296.6,M,-23.7,M,0.8,0000*45
$GPGSA,A,3,01,22,31,11,25,20,32,14,30,,,,1.9,0.9,1.7*34
$GPRMC,193622.000,A,3351.9967,N,09831.7354,W,0.07,92.75,020412,,,D*4C
$GPGGA,193623.000,3351.9967,N,09831.7354,W,2,09,0.9,296.5,M,-23.7,M,0.8,0000*47
$GPGSA,A,3,01,22,31,11,25,20,32,14,30,,,,1.9,0.9,1.7*34
$GPRMC,193623.000,A,3351.9967,N,09831.7354,W,0.05,197.99,020412,,,D*79
$GPGGA,193624.000,3351.9967,N,09831.7354,W,2,09,0.9,296.4,M,-23.7,M,1.8,0000*40
$GPGSA,A,3,01,22,31,11,25,20,32,14,30,,,,1.9,0.9,1.7*34
$GPRMC,193624.000,A,3351.9967,N,09831.7354,W,0.14,68.87,020412,,,D*40
$GPGGA,193625.000,3351.9967,N,09831.7353,W,2,09,0.9,296.3,M,-23.7,M,0.8,0000*40
$GPGSA,A,3,01,22,31,11,25,20,32,14,30,,,,1.9,0.9,1.7*34
$GPRMC,193625.000,A,3351.9967,N,09831.7353,W,0.08,92.74,020412,,,D*42
$GPGGA,193626.000,3351.9967,N,09831.7353,W,2,09,0.9,296.2,M,-23.7,M,0.8,0000*42
$GPGSA,A,3,01,22,31,11,25,20,32,14,30,,,,1.9,0.9,1.7*34
$GPGSV,3,1,12,31,85,013,35,32,44,317,38,14,41,055,23,22,34,133,24*7D
$GPGSV,3,2,12,01,31,282,27,30,25,166,27,25,25,060,35,11,22,257,33*75
$GPGSV,3,3,12,20,16,314,32,16,03,180,,12,00,030,,51,49,195,32*70
$GPRMC,193626.000,A,3351.9967,N,09831.7353,W,0.08,76.52,020412,,,D*4F
$GPGGA,193627.000,3351.9967,N,09831.7353,W,2,09,0.9,296.2,M,-23.7,M,0.8,0000*43
$GPGSA,A,3,01,22,31,11,25,20,32,14,30,,,,1.9,0.9,1.7*34
$GPRMC,193627.000,A,3351.9967,N,09831.7353,W,0.05,171.66,020412,,,D*72
$GPGGA,193628.000,3351.9967,N,09831.7353,W,2,09,0.9,296.2,M,-23.7,M,0.8,0000*4C
$GPGSA,A,3,01,22,31,11,25,20,32,14,30,,,,1.9,0.9,1.7*34
$GPRMC,193628.000,A,3351.9967,N,09831.7353,W,0.04,228.54,020412,,,D*72
$GPGGA,193629.000,3351.9967,N,09831.7353,W,2,09,0.9,296.2,M,-23.7,M,0.8,0000*4D
$GPGSA,A,3,01,22,31,11,25,20,32,14,30,,,,1.9,0.9,1.7*34
$GPRMC,193629.000,A,3351.9967,N,09831.7353,W,0.06,39.36,020412,,,D*47
$GPGGA,193630.000,3351.9967,N,09831.7353,W,2,09,0.9,296.3,M,-23.7,M,0.8,0000*44
$GPGSA,A,3,01,22,31,11,25,20,32,14,30,,,,1.9,0.9,1.7*34
$GPRMC,193630.000,A,3351.9967,N,09831.7353,W,0.04,326.82,020412,,,D*7F
$GPGGA,193631.000,3351.9967,N,09831.7354,W,2,09,0.9,296.4,M,-23.7,M,1.8,0000*44
$GPGSA,A,3,01,22,31,11,25,20,32,14,30,,,,1.9,0.9,1.7*34
$GPGSV,3,1,12,31,85,013,35,32,44,317,38,14,41,055,23,22,34,133,23*7A
$GPGSV,3,2,12,01,31,282,28,30,25,166,27,25,25,060,35,11,22,257,33*7A
$GPGSV,3,3,12,20,16,314,31,16,03,180,,12,00,030,,51,49,195,32*73
$GPRMC,193631.000,A,3351.9967,N,09831.7354,W,0.17,293.12,020412,,,D*7D
$GPGGA,193632.000,3351.9967,N,09831.7354,W,2,09,0.9,296.4,M,-23.7,M,2.8,0000*44
$GPGSA,A,3,01,22,31,11,25,20,32,14,30,,,,1.9,0.9,1.7*34
$GPRMC,193632.000,A,3351.9967,N,09831.7354,W,0.16,192.00,020412,,,D*7E
$GPGGA,193633.000,3351.9966,N,09831.7354,W,2,09,0.9,296.4,M,-23.7,M,0.8,0000*46
$GPGSA,A,3,01,22,31,11,25,20,32,14,30,,,,1.9,0.9,1.7*34
$GPRMC,193633.000,A,3351.9966,N,09831.7354,W,0.18,126.90,020412,,,D*76
$GPGGA,193634.000,3351.9966,N,09831.7353,W,2,09,0.9,296.4,M,-23.7,M,0.8,0000*46
$GPGSA,A,3,01,22,31,11,25,20,32,14,30,,,,1.9,0.9,1.7*34
$GPRMC,193634.000,A,3351.9966,N,09831.7353,W,0.21,109.65,020412,,,D*7B
$GPGGA,193635.000,3351.9966,N,09831.7353,W,2,09,0.9,296.3,M,-23.7,M,0.8,0000*40
$GPGSA,A,3,01,22,31,11,25,20,32,14,30,,,,1.9,0.9,1.7*34
$GPRMC,193635.000,A,3351.9966,N,09831.7353,W,0.22,164.52,020412,,,D*76
$GPGGA,193636.000,3351.9965,N,09831.7353,W,2,09,0.9,296.2,M,-23.7,M,0.8,0000*41
$GPGSA,A,3,01,22,31,11,25,20,32,14,30,,,,1.9,0.9,1.7*34
$GPGSV,3,1,12,31,85,013,35,32,44,317,38,14,41,055,23,22,34,133,20*79
$GPGSV,3,2,12,01,31,282,28,30,25,166,27,25,25,060,35,11,22,257,34*7D
$GPGSV,3,3,12,20,16,314,31,16,03,180,,12,00,030,,51,49,195,32*73
$GPRMC,193636.000,A,3351.9965,N,09831.7353,W,0.01,68.66,020412,,,D*4D
$GPGGA,193637.000,3351.9966,N,09831.7353,W,2,08,1.0,296.1,M,-23.7,M,1.8,0000*48
$GPGSA,A,3,01,31,11,25,20,32,14,30,,,,,2.0,1.0,1.7*36
$GPRMC,193637.000,A,3351.9966,N,09831.7353,W,0.05,103.30,020412,,,D*74
$GPGGA,193638.000,3351.9966,N,09831.7353,W,2,08,1.0,296.1,M,-23.7,M,2.8,0000*44
$GPGSA,A,3,01,31,11,25,20,32,14,30,,,,,2.0,1.0,1.7*36
$GPRMC,193638.000,A,3351.9966,N,09831.7353,W,0.06,63.24,020412,,,D*4A
$GPGGA,193639.000,3351.9966,N,09831.7353,W,2,08,1.0,296.0,M,-23.7,M,0.8,0000*46
$GPGSA,A,3,01,31,11,25,20,32,14,30,,,,,2.0,1.0,1.7*36
$GPRMC,193639.000,A,3351.9966,N,09831.7353,W,0.06,78.84,020412,,,D*4B
$GPGGA,193640.000,3351.9966,N,09831.7353,W,2,08,1.0,296.0,M,-23.7,M,0.8,0000*48
$GPGSA,A,3,01,31,11,25,20,32,14,30,,,,,2.0,1.0,1.7*36
$GPRMC,193640.000,A,3351.9966,N,09831.7353,W,0.05,105.43,020412,,,D*76
$GPGGA,193641.000,3351.9966,N,09831.7353,W,2,08,1.0,296.1,M,-23.7,M,0.8,0000*48
$GPGSA,A,3,01,31,11,25,20,32,14,30,,,,,2.0,1.0,1.7*36
$GPGSV,3,1,12,31,85,013,35,32,44,317,38,14,41,055,24,22,34,133,*7C
$GPGSV,3,2,12,01,31,282,28,30,25,166,27,25,25,060,35,11,22,257,34*7D
$GPGSV,3,3,12,20,16,314,31,16,03,180,,12,00,030,,51,49,195,32*73
$GPRMC,193641.000,A,3351.9966,N,09831.7353,W,0.08,77.01,020412,,,D*48
$GPGGA,193642.000,3351.9966,N,09831.7353,W,2,09,0.9,296.2,M,-23.7,M,1.8,0000*40
$GPGSA,A,3,01,22,31,11,25,20,32,14,30,,,,1.9,0.9,1.7*34
$GPRMC,193642.000,A,3351.9966,N,09831.7353,W,0.14,351.86,020412,,,D*7E
$GPGGA,193643.000,3351.9966,N,09831.7353,W,2,08,1.0,296.2,M,-23.7,M,2.8,0000*4B
$GPGSA,A,3,01,31,11,25,20,32,14,30,,,,,2.0,1.0,1.7*36
$GPRMC,193643.000,A,3351.9966,N,09831.7353,W,0.09,62.25,020412,,,D*49
$GPGGA,193644.000,3351.9966,N,09831.7353,W,2,08,1.0,296.3,M,-23.7,M,3.8,0000*4C
$GPGSA,A,3,01,31,11,25,20,32,14,30,,,,,2.0,1.0,1.7*36
$GPRMC,193644.000,A,3351.9966,N,09831.7353,W,0.03,127.73,020412,,,D*77
$GPGGA,193645.000,3351.9966,N,09831.7353,W,2,08,1.0,296.3,M,-23.7,M,0.8,0000*4E
$GPGSA,A,3,01,31,11,25,20,32,14,30,,,,,2.0,1.0,1.7*36
$GPRMC,193645.000,A,3351.9966,N,09831.7353,W,0.06,86.29,020412,,,D*46
$GPGGA,193646.000,3351.9966,N,09831.7352,W,2,08,1.0,296.3,M,-23.7,M,0.8,0000*4C
$GPGSA,A,3,01,31,11,25,20,32,14,30,,,,,2.0,1.0,1.7*36
$GPGSV,3,1,12,31,85,013,35,32,44,317,38,14,41,055,25,22,34,133,*7D
$GPGSV,3,2,12,01,31,282,28,30,25,166,27,25,25,060,36,11,22,257,33*79
$GPGSV,3,3,12,20,16,314,31,16,03,180,,12,00,030,,51,49,195,32*73
$GPRMC,193646.000,A,3351.9966,N,09831.7352,W,0.11,83.26,020412,,,D*48
$GPGGA,193647.000,3351.9966,N,09831.7352,W,2,08,1.0,296.3,M,-23.7,M,0.8,0000*4D
$GPGSA,A,3,01,31,11,25,20,32,14,30,,,,,2.0,1.0,1.7*36
$GPRMC,193647.000,A,3351.9966,N,09831.7352,W,0.04,172.19,020412,,,D*7E
$GPGGA,193648.000,3351.9966,N,09831.7352,W,2,08,1.0,296.2,M,-23.7,M,1.8,0000*42
$GPGSA,A,3,01,31,11,25,20,32,14,30,,,,,2.0,1.0,1.7*36
$GPRMC,193648.000,A,3351.9966,N,09831.7352,W,0.04,83.64,020412,,,D*44
$GPGGA,193649.000,3351.9966,N,09831.7352,W,2,08,1.0,296.2,M,-23.7,M,2.8,0000*40
$GPGSA,A,3,01,31,11,25,20,32,14,30,,,,,2.0,1.0,1.7*36
$GPRMC,193649.000,A,3351.9966,N,09831.7352,W,0.05,167.19,020412,,,D*75
$GPGGA,193650.000,3351.9966,N,09831.7352,W,2,08,1.0,296.1,M,-23.7,M,3.8,0000*4A
$GPGSA,A,3,01,31,11,25,20,32,14,30,,,,,2.0,1.0,1.7*36
$GPRMC,193650.000,A,3351.9966,N,09831.7352,W,0.04,108.90,020412,,,D*74
$GPGGA,193651.000,3351.9966,N,09831.7352,W,2,08,1.0,296.1,M,-23.7,M,0.8,0000*48
$GPGSA,A,3,01,31,11,25,20,32,14,30,,,,,2.0,1.0,1.7*36
$GPGSV,3,1,12,31,85,013,35,32,44,317,38,14,41,055,25,22,34,133,*7D
$GPGSV,3,2,12,01,31,282,28,30,25,166,27,25,25,060,36,11,22,257,33*79
$GPGSV,3,3,12,20,16,314,31,16,03,180,,12,00,030,,51,49,195,32*73
$GPRMC,193651.000,A,3351.9966,N,09831.7352,W,0.04,136.01,020412,,,D*70
$GPGGA,193652.000,3351.9966,N,09831.7353,W,2,08,1.0,296.0,M,-23.7,M,0.8,0000*4B
$GPGSA,A,3,01,31,11,25,20,32,14,30,,,,,2.0,1.0,1.7*36
$GPRMC,193652.000,A,3351.9966,N,09831.7353,W,0.05,145.82,020412,,,D*7C
$GPGGA,193653.000,3351.9966,N,09831.7353,W,2,08,1.0,296.0,M,-23.7,M,0.8,0000*4A
$GPGSA,A,3,01,31,11,25,20,32,14,30,,,,,2.0,1.0,1.7*36
$GPRMC,193653.000,A,3351.9966,N,09831.7353,W,0.05,77.84,020412,,,D*4B
$GPGGA,193654.000,3351.9966,N,09831.7353,W,2,08,1.0,296.0,M,-23.7,M,1.8,0000*4C
$GPGSA,A,3,01,31,11,25,20,32,14,30,,,,,2.0,1.0,1.7*36
$GPRMC,193654.000,A,3351.9966,N,09831.7353,W,0.02,99.35,020412,,,D*41
$GPGGA,193655.000,3351.9966,N,09831.7353,W,2,08,1.0,296.0,M,-23.7,M,2.8,0000*4E
$GPGSA,A,3,01,31,11,25,20,32,14,30,,,,,2.0,1.0,1.7*36
$GPRMC,193655.000,A,3351.9966,N,09831.7353,W,0.05,81.53,020412,,,D*4E
$GPGGA,193656.000,3351.9966,N,09831.7353,W,2,08,1.0,296.0,M,-23.7,M,3.8,0000*4C
$GPGSA,A,3,01,31,11,25,20,32,14,30,,,,,2.0,1.0,1.7*36
$GPGSV,3,1,12,31,85,013,36,32,44,317,38,14,41,055,26,22,34,133,*7D
$GPGSV,3,2,12,01,31,282,28,30,25,166,27,25,25,060,36,11,22,257,33*79
$GPGSV,3,3,12,20,16,314,31,16,03,180,,12,00,030,,51,49,195,32*73
$GPRMC,193656.000,A,3351.9966,N,09831.7353,W,0.04,95.61,020412,,,D*48
$GPGGA,193657.000,3351.9967,N,09831.7353,W,2,08,1.0,295.9,M,-23.7,M,0.8,0000*45
$GPGSA,A,3,01,31,11,25,20,32,14,30,,,,,2.0,1.0,1.7*36
$GPRMC,193657.000,A,3351.9967,N,09831.7353,W,0.08,65.65,020412,,,D*4F
$GPGGA,193658.000,3351.9967,N,09831.7353,W,2,08,1.0,296.0,M,-23.7,M,0.8,0000*40
$GPGSA,A,3,01,31,11,25,20,32,14,30,,,,,2.0,1.0,1.7*36
$GPRMC,193658.000,A,3351.9967,N,09831.7353,W,0.06,71.10,020412,,,D*49
$GPGGA,193659.000,3351.9967,N,09831.7353,W,2,08,1.0,296.0,M,-23.7,M,0.8,0000*41
$GPGSA,A,3,01,31,11,25,20,32,14,30,,,,,2.0,1.0,1.7*36
$GPRMC,193659.000,A,3351.9967,N,09831.7353,W,0.04,62.96,020412,,,D*46
$GPGGA,193700.000,3351.9967,N,09831.7353,W,2,08,1.0,296.0,M,-23.7,M,0.8,0000*4C
$GPGSA,A,3,01,31,11,25,20,32,14,30,,,,,2.0,1.0,1.7*36
$GPRMC,193700.000,A,3351.9967,N,09831.7353,W,0.02,59.88,020412,,,D*4A
$GPGGA,193701.000,3351.9967,N,09831.7353,W,2,08,1.0,296.0,M,-23.7,M,0.8,0000*4D
$GPGSA,A,3,01,31,11,25,20,32,14,30,,,,,2.0,1.0,1.7*36
$GPGSV,3,1,12,31,85,013,36,32,44,317,38,14,41,055,26,22,34,133,*7D
$GPGSV,3,2,12,01,31,282,28,30,25,166,27,25,25,060,36,11,22,257,33*79
$GPGSV,3,3,12,20,16,314,32,16,03,180,,12,00,030,,51,49,195,32*70
$GPRMC,193701.000,A,3351.9967,N,09831.7353,W,0.05,95.01,020412,,,D*4D
$GPGGA,193702.000,3351.9967,N,09831.7353,W,2,08,1.0,296.0,M,-23.7,M,1.8,0000*4F
$GPGSA,A,3,01,31,11,25,20,32,14,30,,,,,2.0,1.0,1.7*36
$GPRMC,193702.000,A,3351.9967,N,09831.7353,W,0.03,45.79,020412,,,D*4A
$GPGGA,193703.000,3351.9967,N,09831.7353,W,2,08,1.0,296.1,M,-23.7,M,0.8,0000*4E
$GPGSA,A,3,01,31,11,25,20,32,14,30,,,,,2.0,1.0,1.7*36
$GPRMC,193703.000,A,3351.9967,N,09831.7353,W,0.03,134.23,020412,,,D*73
$GPGGA,193704.000,3351.9967,N,09831.7353,W,2,08,1.0,296.1,M,-23.7,M,0.8,0000*49
$GPGSA,A,3,01,31,11,25,20,32,14,30,,,,,2.0,1.0,1.7*36
$GPRMC,193704.000,A,3351.9967,N,09831.7353,W,0.03,132.19,020412,,,D*7B
$GPGGA,193705.000,3351.9967,N,09831.7353,W,2,08,1.0,296.1,M,-23.7,M,0.8,0000*48
$GPGSA,A,3,01,31,11,25,20,32,14,30,,,,,2.0,1.0,1.7*36
$GPRMC,193705.000,A,3351.9967,N,09831.7353,W,0.05,90.83,020412,,,D*46
$GPGGA,193706.000,3351.9968,N,09831.7353,W,2,08,1.0,296.1,M,-23.7,M,1.8,0000*45
$GPGSA,A,3,01,31,11,25,20,32,14,30,,,,,2.0,1.0,1.7*36
$GPGSV,3,1,12,31,85,013,36,32,44,317,38,14,41,055,26,22,34,133,*7D
$GPGSV,3,2,12,01,31,282,28,30,25,166,27,25,25,060,36,11,22,257,33*79
$GPGSV,3,3,12,20,16,314,32,16,03,180,,12,00,030,,51,49,195,32*70
$GPRMC,193706.000,A,3351.9968,N,09831.7353,W,0.05,57.18,020412,,,D*43
$GPGGA,193707.000,3351.9968,N,09831.7353,W,2,08,1.0,296.1,M,-23.7,M,0.8,0000*45
$GPGSA,A,3,01,31,11,25,20,32,14,30,,,,,2.0,1.0,1.7*36
$GPRMC,193707.000,A,3351.9968,N,09831.7353,W,0.05,81.81,020412,,,D*49
$GPGGA,193708.000,3351.9968,N,09831.7353,W,2,08,1.0,296.1,M,-23.7,M,1.8,0000*4B
$GPGSA,A,3,01,31,11,25,20,32,14,30,,,,,2.0,1.0,1.7*36
$GPRMC,193708.000,A,3351.9968,N,09831.7353,W,0.04,99.33,020412,,,D*47
$GPGGA,193709.000,3351.9968,N,09831.7353,W,2,08,1.0,295.9,M,-23.7,M,0.8,0000*40
$GPGSA,A,3,01,31,11,25,20,32,14,30,,,,,2.0,1.0,1.7*36
$GPRMC,193709.000,A,3351.9968,N,09831.7353,W,0.09,45.47,020412,,,D*49
$GPGGA,193710.000,3351.9969,N,09831.7354,W,2,08,1.0,295.9,M,-23.7,M,0.8,0000*4E
$GPGSA,A,3,01,31,11,25,20,32,14,30,,,,,2.0,1.0,1.7*36
$GPRMC,193710.000,A,3351.9969,N,09831.7354,W,0.05,63.99,020412,,,D*4C
$GPGGA,193711.000,3351.9969,N,09831.7354,W,2,08,1.0,295.9,M,-23.7,M,0.8,0000*4F
$GPGSA,A,3,01,31,11,25,20,32,14,30,,,,,2.0,1.0,1.7*36
$GPGSV,3,1,12,31,85,013,36,32,44,317,38,14,41,055,27,22,34,133,*7C
$GPGSV,3,2,12,01,31,282,28,30,25,166,27,25,25,060,36,11,22,257,33*79
$GPGSV,3,3,12,20,16,314,32,16,03,180,,12,00,030,,51,49,195,32*70
$GPRMC,193711.000,A,3351.9969,N,09831.7354,W,0.04,72.99,020412,,,D*4C
$GPGGA,193712.000,3351.9969,N,09831.7354,W,2,08,1.0,295.9,M,-23.7,M,1.8,0000*4D
$GPGSA,A,3,01,31,11,25,20,32,14,30,,,,,2.0,1.0,1.7*36
$GPRMC,193712.000,A,3351.9969,N,09831.7354,W,0.02,113.05,020412,,,D*7A
$GPGGA,193713.000,3351.9970,N,09831.7354,W,2,08,1.0,295.8,M,-23.7,M,2.8,0000*46
$GPGSA,A,3,01,31,11,25,20,32,14,30,,,,,2.0,1.0,1.7*36
$GPRMC,193713.000,A,3351.9970,N,09831.7354,W,0.04,73.52,020412,,,D*40
$GPGGA,193714.000,3351.9970,N,09831.7354,W,2,08,1.0,295.8,M,-23.7,M,0.8,0000*43
$GPGSA,A,3,01,31,11,25,20,32,14,30,,,,,2.0,1.0,1.7*36
$GPRMC,193714.000,A,3351.9970,N,09831.7354,W,0.03,134.11,020412,,,D*75
$GPGGA,193715.000,3351.9970,N,09831.7354,W,2,08,1.0,295.9,M,-23.7,M,0.8,0000*43
$GPGSA,A,3,01,31,11,25,20,32,14,30,,,,,2.0,1.0,1.7*36
$GPRMC,193715.000,A,3351.9970,N,09831.7354,W,0.03,148.01,020412,,,D*7E
$GPGGA,193716.000,3351.9970,N,09831.7354,W,2,08,1.0,295.8,M,-23.7,M,0.8,0000*41
$GPGSA,A,3,01,31,11,25,20,32,14,30,,,,,2.0,1.0,1.7*36
$GPGSV,3,1,12,31,85,013,36,32,44,317,38,14,41,055,27,22,34,133,*7C
$GPGSV,3,2,12,01,31,282,28,30,25,166,28,25,25,060,36,11,22,257,33*76
$GPGSV,3,3,12,20,16,314,32,16,03,180,,12,00,030,,51,49,195,32*70
$GPRMC,193716.000,A,3351.9970,N,09831.7354,W,0.06,172.91,020412,,,D*78
$GPGGA,193717.000,3351.9970,N,09831.7354,W,2,08,1.0,295.8,M,-23.7,M,0.8,0000*40
$GPGSA,A,3,01,31,11,25,20,32,14,30,,,,,2.0,1.0,1.7*36
$GPRMC,193717.000,A,3351.9970,N,09831.7354,W,0.06,93.08,020412,,,D*47
$GPGGA,193718.000,3351.9970,N,09831.7354,W,2,08,1.0,295.8,M,-23.7,M,1.8,0000*4E
$GPGSA,A,3,01,31,11,25,20,32,14,30,,,,,2.0,1.0,1.7*36
$GPRMC,193718.000,A,3351.9970,N,09831.7354,W,0.05,101.29,020412,,,D*72
$GPGGA,193719.000,3351.9970,N,09831.7354,W,2,08,1.0,295.8,M,-23.7,M,2.8,0000*4C
$GPGSA,A,3,01,31,11,25,20,32,14,30,,,,,2.0,1.0,1.7*36
$GPRMC,193719.000,A,3351.9970,N,09831.7354,W,0.07,121.79,020412,,,D*76
$GPGGA,193720.000,3351.9970,N,09831.7355,W,2,08,1.0,295.7,M,-23.7,M,3.8,0000*49
$GPGSA,A,3,01,31,11,25,20,32,14,30,,,,,2.0,1.0,1.7*36
$GPRMC,193720.000,A,3351.9970,N,09831.7355,W,0.06,107.53,020412,,,D*70
$GPGGA,193721.000,3351.9971,N,09831.7355,W,2,08,1.0,295.6,M,-23.7,M,0.8,0000*4B
$GPGSA,A,3,01,31,11,25,20,32,14,30,,,,,2.0,1.0,1.7*36
$GPGSV,3,1,12,31,85,013,36,32,44,317,38,14,41,055,27,22,34,133,*7C
$GPGSV,3,2,12,01,31,282,28,30,25,166,28,25,25,060,37,11,22,257,33*77
$GPGSV,3,3,12,20,16,314,32,16,03,180,,12,00,030,,51,49,195,32*70
$GPRMC,193721.000,A,3351.9971,N,09831.7355,W,0.07,103.07,020412,,,D*74
$GPGGA,193722.000,3351.9971,N,09831.7355,W,2,08,1.0,295.6,M,-23.7,M,0.8,0000*48
$GPGSA,A,3,01,31,11,25,20,32,14,30,,,,,2.0,1.0,1.7*36
$GPRMC,193722.000,A,3351.9971,N,09831.7355,W,0.05,47.97,020412,,,D*4D
$GPGGA,193723.000,3351.9971,N,09831.7355,W,2,08,1.0,295.5,M,-23.7,M,0.8,0000*4A
$GPGSA,A,3,01,31,11,25,20,32,14,30,,,,,2.0,1.0,1.7*36
$GPRMC,193723.000,A,3351.9971,N,09831.7355,W,0.01,50.38,020412,,,D*4B
$GPGGA,193724.000,3351.9972,N,09831.7355,W,2,09,0.9,295.6,M,-23.7,M,1.8,0000*45
$GPGSA,A,3,01,22,31,11,25,20,32,14,30,,,,1.9,0.9,1.7*34
$GPRMC,193724.000,A,3351.9972,N,09831.7355,W,0.12,351.51,020412,,,D*70
$GPGGA,193725.000,3351.9972,N,09831.7355,W,2,09,0.9,295.7,M,-23.7,M,2.8,0000*46
$GPGSA,A,3,01,22,31,11,25,20,32,14,30,,,,1.9,0.9,1.7*34
$GPRMC,193725.000,A,3351.9972,N,09831.7355,W,0.04,1.53,020412,,,D*72
$GPGGA,193726.000,3351.9972,N,09831.7355,W,2,09,0.9,295.7,M,-23.7,M,3.8,0000*44
$GPGSA,A,3,01,22,31,11,25,20,32,14,30,,,,1.9,0.9,1.7*34
$GPGSV,3,1,12,31,85,013,36,32,44,317,38,14,41,055,27,22,34,133,22*7C
$GPGSV,3,2,12,01,31,282,28,30,25,166,27,25,25,060,36,11,22,257,33*79
$GPGSV,3,3,12,20,16,314,32,16,03,180,,12,00,030,,51,49,195,32*70
$GPRMC,193726.000,A,3351.9972,N,09831.7355,W,0.04,138.34,020412,,,D*7B
$GPGGA,193727.000,3351.9971,N,09831.7356,W,2,09,0.9,295.8,M,-23.7,M,0.8,0000*49
$GPGSA,A,3,01,22,31,11,25,20,32,14,30,,,,1.9,0.9,1.7*34
$GPRMC,193727.000,A,3351.9971,N,09831.7356,W,0.04,340.20,020412,,,D*72
$GPGGA,193728.000,3351.9972,N,09831.7356,W,2,09,0.9,295.8,M,-23.7,M,0.8,0000*45
$GPGSA,A,3,01,22,31,11,25,20,32,14,30,,,,1.9,0.9,1.7*34
$GPRMC,193728.000,A,3351.9972,N,09831.7356,W,0.01,87.06,020412,,,D*47
$GPGGA,193729.000,3351.9972,N,09831.7356,W,2,09,0.9,295.7,M,-23.7,M,0.8,0000*4B
$GPGSA,A,3,01,22,31,11,25,20,32,14,30,,,,1.9,0.9,1.7*34
$GPRMC,193729.000,A,3351.9972,N,09831.7356,W,0.15,146.07,020412,,,D*7E
$GPGGA,193730.000,3351.9971,N,09831.7356,W,2,09,0.9,295.7,M,-23.7,M,0.8,0000*40
$GPGSA,A,3,01,22,31,11,25,20,32,14,30,,,,1.9,0.9,1.7*34
$GPRMC,193730.000,A,3351.9971,N,09831.7356,W,0.19,146.79,020412,,,D*70
$GPGGA,193731.000,3351.9971,N,09831.7356,W,2,09,0.9,295.6,M,-23.7,M,1.8,0000*41
$GPGSA,A,3,01,22,31,11,25,20,32,14,30,,,,1.9,0.9,1.7*34
$GPGSV,3,1,12,31,85,013,36,32,44,317,38,14,41,055,28,22,34,133,23*72
$GPGSV,3,2,12,01,31,282,29,30,25,166,27,25,25,060,36,11,22,257,33*78
$GPGSV,3,3,12,20,16,314,32,16,03,180,,12,00,030,,51,49,195,32*70
$GPRMC,193731.000,A,3351.9971,N,09831.7356,W,0.04,89.70,020412,,,D*46
$GPGGA,193732.000,3351.9971,N,09831.7356,W,2,09,0.9,295.6,M,-23.7,M,2.8,0000*41
$GPGSA,A,3,01,22,31,11,25,20,32,14,30,,,,1.9,0.9,1.7*34
$GPRMC,193732.000,A,3351.9971,N,09831.7356,W,0.17,146.28,020412,,,D*78
$GPGGA,193733.000,3351.9970,N,09831.7355,W,2,09,0.9,295.6,M,-23.7,M,0.8,0000*40
$GPGSA,A,3,01,22,31,11,25,20,32,14,30,,,,1.9,0.9,1.7*34
$GPRMC,193733.000,A,3351.9970,N,09831.7355,W,0.17,131.68,020412,,,D*7F
$GPGGA,193734.000,3351.9971,N,09831.7355,W,2,09,0.9,295.5,M,-23.7,M,0.8,0000*45
$GPGSA,A,3,01,22,31,11,25,20,32,14,30,,,,1.9,0.9,1.7*34
$GPRMC,193734.000,A,3351.9971,N,09831.7355,W,0.11,9.24,020412,,,D*7D
$GPGGA,193735.000,3351.9971,N,09831.7356,W,2,09,0.9,295.5,M,-23.7,M,0.8,0000*47
$GPGSA,A,3,01,22,31,11,25,20,32,14,30,,,,1.9,0.9,1.7*34
$GPRMC,193735.000,A,3351.9971,N,09831.7356,W,0.03,37.14,020412,,,D*42
$GPGGA,193736.000,3351.9971,N,09831.7356,W,2,09,0.9,295.4,M,-23.7,M,1.8,0000*44
$GPGSA,A,3,01,22,31,11,25,20,32,14,30,,,,1.9,0.9,1.7*34
$GPGSV,3,1,12,31,85,013,36,32,44,317,38,14,41,055,28,22,34,133,24*75
$GPGSV,3,2,12,01,31,282,29,30,25,166,27,25,25,060,36,11,22,257,32*79
$GPGSV,3,3,12,20,16,314,32,16,03,180,,12,00,030,,51,49,195,32*70
$GPRMC,193736.000,A,3351.9971,N,09831.7356,W,0.05,118.41,020412,,,D*7B
$GPGGA,193737.000,3351.9972,N,09831.7356,W,2,09,0.9,295.3,M,-23.7,M,2.8,0000*42
$GPGSA,A,3,01,22,31,11,25,20,32,14,30,,,,1.9,0.9,1.7*34
$GPRMC,193737.000,A,3351.9972,N,09831.7356,W,0.03,15.87,020412,,,D*49
$GPGGA,193738.000,3351.9972,N,09831.7356,W,2,09,0.9,295.3,M,-23.7,M,0.8,0000*4F
$GPGSA,A,3,01,22,31,11,25,20,32,14,30,,,,1.9,0.9,1.7*34
$GPRMC,193738.000,A,3351.9972,N,09831.7356,W,0.04,138.56,020412,,,D*73
$GPGGA,193739.000,3351.9972,N,09831.7356,W,2,09,0.9,295.3,M,-23.7,M,0.8,0000*4E
$GPGSA,A,3,01,22,31,11,25,20,32,14,30,,,,1.9,0.9,1.7*34
$GPRMC,193739.000,A,3351.9972,N,09831.7356,W,0.06,46.33,020412,,,D*4B
$GPGGA,193740.000,3351.9972,N,09831.7356,W,2,09,0.9,295.3,M,-23.7,M,0.8,0000*40
$GPGSA,A,3,01,22,31,11,25,20,32,14,30,,,,1.9,0.9,1.7*34
$GPRMC,193740.000,A,3351.9972,N,09831.7356,W,0.05,108.57,020412,,,D*7F
$GPGGA,193741.000,3351.9972,N,09831.7356,W,2,09,0.9,295.2,M,-23.7,M,0.8,0000*40
$GPGSA,A,3,01,22,31,11,25,20,32,14,30,,,,1.9,0.9,1.7*34
$GPGSV,3,1,12,31,85,013,36,32,44,317,38,14,41,055,28,22,34,133,24*75
$GPGSV,3,2,12,01,31,282,29,30,25,166,26,25,25,060,36,11,22,257,32*78
$GPGSV,3,3,12,20,16,314,32,16,03,180,,12,00,030,,51,49,195,32*70
$GPRMC,193741.000,A,3351.9972,N,09831.7356,W,0.18,136.87,020412,,,D*72
$GPGGA,193742.000,3351.9972,N,09831.7356,W,2,09,0.9,295.1,M,-23.7,M,1.8,0000*41
$GPGSA,A,3,01,22,31,11,25,20,32,14,30,,,,1.9,0.9,1.7*34
$GPRMC,193742.000,A,3351.9972,N,09831.7356,W,0.07,63.29,020412,,,D*4A
$GPGGA,193743.000,3351.9972,N,09831.7356,W,2,09,0.9,295.0,M,-23.7,M,2.8,0000*42
$GPGSA,A,3,01,22,31,11,25,20,32,14,30,,,,1.9,0.9,1.7*34
$GPRMC,193743.000,A,3351.9972,N,09831.7356,W,0.13,7.61,020412,,,D*70
$GPGGA,193744.000,3351.9972,N,09831.7356,W,2,09,0.9,295.1,M,-23.7,M,3.8,0000*45
$GPGSA,A,3,01,22,31,11,25,20,32,14,30,,,,1.9,0.9,1.7*34
$GPRMC,193744.000,A,3351.9972,N,09831.7356,W,0.14,15.39,020412,,,D*4E
$GPGGA,193745.000,3351.9973,N,09831.7356,W,2,09,0.9,295.0,M,-23.7,M,0.8,0000*47
$GPGSA,A,3,01,22,31,11,25,20,32,14,30,,,,1.9,0.9,1.7*34
$GPRMC,193745.000,A,3351.9973,N,09831.7356,W,0.06,44.37,020412,,,D*47
$GPGGA,193746.000,3351.9973,N,09831.7356,W,2,09,0.9,295.0,M,-23.7,M,0.8,0000*44
$GPGSA,A,3,01,22,31,11,25,20,32,14,30,,,,1.9,0.9,1.7*34
$GPGSV,3,1,12,31,85,013,36,32,44,317,38,14,41,055,28,22,34,133,24*75
$GPGSV,3,2,12,01,31,282,30,30,25,166,25,25,25,060,36,11,22,257,32*73
$GPGSV,3,3,12,20,16,314,32,16,03,180,,12,00,030,,51,49,195,32*70
$GPRMC,193746.000,A,3351.9973,N,09831.7356,W,0.10,135.93,020412,,,D*7A
$GPGGA,193747.000,3351.9974,N,09831.7356,W,2,09,0.9,295.0,M,-23.7,M,0.8,0000*42
$GPGSA,A,3,01,22,31,11,25,20,32,14,30,,,,1.9,0.9,1.7*34
$GPRMC,193747.000,A,3351.9974,N,09831.7356,W,0.01,355.32,020412,,,D*73
$GPGGA,193748.000,3351.9974,N,09831.7357,W,2,09,0.9,295.0,M,-23.7,M,1.8,0000*4D
$GPGSA,A,3,01,22,31,11,25,20,32,14,30,,,,1.9,0.9,1.7*34
$GPRMC,193748.000,A,3351.9974,N,09831.7357,W,0.07,154.55,020412,,,D*79
$GPGGA,193749.000,3351.9974,N,09831.7357,W,2,09,0.9,295.0,M,-23.7,M,0.8,0000*4D
$GPGSA,A,3,01,22,31,11,25,20,32,14,30,,,,1.9,0.9,1.7*34
$GPRMC,193749.000,A,3351.9974,N,09831.7357,W,0.02,177.66,020412,,,D*7C
$GPGGA,193750.000,3351.9974,N,09831.7357,W,2,09,0.9,295.1,M,-23.7,M,1.8,0000*45
$GPGSA,A,3,01,22,31,11,25,20,32,14,30,,,,1.9,0.9,1.7*34
$GPRMC,193750.000,A,3351.9974,N,09831.7357,W,0.03,330.84,020412,,,D*78
$GPGGA,193751.000,3351.9974,N,09831.7357,W,2,09,0.9,295.1,M,-23.7,M,0.8,0000*45
$GPGSA,A,3,01,22,31,11,25,20,32,14,30,,,,1.9,0.9,1.7*34
$GPGSV,3,1,12,31,85,013,36,32,44,317,38,14,41,055,29,22,34,133,23*73
$GPGSV,3,2,12,01,31,282,30,30,25,166,25,25,25,060,37,11,22,257,32*72
$GPGSV,3,3,12,20,16,314,32,16,03,180,,12,00,030,,51,49,195,32*70
$GPRMC,193751.000,A,3351.9974,N,09831.7357,W,0.11,152.15,020412,,,D*74
$GPGGA,193752.000,3351.9974,N,09831.7357,W,2,09,0.9,295.0,M,-23.7,M,0.8,0000*47
$GPGSA,A,3,01,22,31,11,25,20,32,14,30,,,,1.9,0.9,1.7*34
$GPRMC,193752.000,A,3351.9974,N,09831.7357,W,0.13,150.87,020412,,,D*7C
$GPGGA,193753.000,3351.9974,N,09831.7357,W,2,09,0.9,295.0,M,-23.7,M,0.8,0000*46
$GPGSA,A,3,01,22,31,11,25,20,32,14,30,,,,1.9,0.9,1.7*34
$GPRMC,193753.000,A,3351.9974,N,09831.7357,W,0.08,19.02,020412,,,D*46
$GPGGA,193754.000,3351.9974,N,09831.7357,W,2,09,0.9,295.0,M,-23.7,M,1.8,0000*40
$GPGSA,A,3,01,22,31,11,25,20,32,14,30,,,,1.9,0.9,1.7*34
$GPRMC,193754.000,A,3351.9974,N,09831.7357,W,0.14,138.24,020412,,,D*7A
$GPGGA,193755.000,3351.9974,N,09831.7357,W,2,09,0.9,295.0,M,-23.7,M,0.8,0000*40
$GPGSA,A,3,01,22,31,11,25,20,32,14,30,,,,1.9,0.9,1.7*34
$GPRMC,193755.000,A,3351.9974,N,09831.7357,W,0.09,17.78,020412,,,D*42
$GPGGA,193756.000,3351.9975,N,09831.7357,W,2,09,0.9,294.9,M,-23.7,M,0.8,0000*4A
$GPGSA,A,3,01,22,31,11,25,20,32,14,30,,,,1.9,0.9,1.7*34
$GPGSV,3,1,12,31,85,013,36,32,44,317,38,14,41,055,29,22,34,133,23*73
$GPGSV,3,2,12,01,31,282,31,30,25,166,24,25,25,060,37,11,22,257,33*73
$GPGSV,3,3,12,20,16,314,32,16,03,180,,12,00,030,,51,49,195,32*70
$GPRMC,193756.000,A,3351.9975,N,09831.7357,W,0.13,130.05,020412,,,D*75
$GPGGA,193757.000,3351.9975,N,09831.7357,W,2,09,0.9,294.9,M,-23.7,M,0.8,0000*4B
$GPGSA,A,3,01,22,31,11,25,20,32,14,30,,,,1.9,0.9,1.7*34
$GPRMC,193757.000,A,3351.9975,N,09831.7357,W,0.06,43.01,020412,,,D*41
$GPGGA,193758.000,3351.9975,N,09831.7357,W,2,09,0.9,294.9,M,-23.7,M,0.8,0000*44
$GPGSA,A,3,01,22,31,11,25,20,32,14,30,,,,1.9,0.9,1.7*34
$GPRMC,193758.000,A,3351.9975,N,09831.7357,W,0.13,5.49,020412,,,D*74
$GPGGA,193759.000,3351.9975,N,09831.7357,W,2,09,0.9,294.9,M,-23.7,M,0.8,0000*45
$GPGSA,A,3,01,22,31,11,25,20,32,14,30,,,,1.9,0.9,1.7*34
$GPRMC,193759.000,A,3351.9975,N,09831.7357,W,0.16,162.36,020412,,,D*78
$GPGGA,193800.000,3351.9974,N,09831.7357,W,2,09,0.9,294.9,M,-23.7,M,1.8,0000*46
$GPGSA,A,3,01,22,31,11,25,20,32,14,30,,,,1.9,0.9,1.7*34
$GPRMC,193800.000,A,3351.9974,N,09831.7357,W,0.53,170.06,020412,,,D*7B
$GPGGA,193801.000,3351.9973,N,09831.7357,W,2,09,0.9,294.9,M,-23.7,M,0.8,0000*41
$GPGSA,A,3,01,22,31,11,25,20,32,14,30,,,,1.9,0.9,1.7*34
