$GPGGA,090843.000,3353.7475,N,09832.0297,W,1,06,2.3,291.3,M,-23.7,M,18.8,0000*79
$GPGSA,A,3,12,17,02,05,04,10,,,,,,,4.2,2.3,3.5*34
$GPRMC,090843.000,A,3353.7475,N,09832.0297,W,0.14,355.44,030412,,,A*73
$GPGGA,090844.000,3353.7475,N,09832.0297,W,1,06,2.3,291.2,M,-23.7,M,18.8,0000*7F
$GPGSA,A,3,12,17,02,05,04,10,,,,,,,4.2,2.3,3.5*34
$GPRMC,090844.000,A,3353.7475,N,09832.0297,W,0.13,326.75,030412,,,A*75
$GPGGA,090845.000,3353.7475,N,09832.0298,W,1,06,2.3,291.0,M,-23.7,M,18.8,0000*73
$GPGSA,A,3,12,17,02,05,04,10,,,,,,,4.2,2.3,3.5*34
$GPGSV,3,1,11,02,72,354,31,12,67,280,28,10,50,077,33,05,44,172,37*7F
$GPGSV,3,2,11,04,41,044,34,25,28,314,16,17,11,100,38,09,11,225,*72
$GPGSV,3,3,11,27,05,213,,29,05,295,,13,00,068,*45
$GPRMC,090845.000,A,3353.7475,N,09832.0298,W,0.16,311.98,030412,,,A*79
$GPGGA,090846.000,3353.7476,N,09832.0299,W,1,06,2.3,290.8,M,-23.7,M,18.8,0000*7B
$GPGSA,A,3,12,17,02,05,04,10,,,,,,,4.2,2.3,3.5*34
$GPRMC,090846.000,A,3353.7476,N,09832.0299,W,0.19,304.37,030412,,,A*76
$GPGGA,090847.000,3353.7476,N,09832.0301,W,1,06,2.3,290.5,M,-23.7,M,18.8,0000*77
$GPGSA,A,3,12,17,02,05,04,10,,,,,,,4.2,2.3,3.5*34
$GPRMC,090847.000,A,3353.7476,N,09832.0301,W,0.24,306.91,030412,,,A*77
$GPGGA,090848.000,3353.7477,N,09832.0303,W,1,06,2.3,290.2,M,-23.7,M,18.8,0000*7C
$GPGSA,A,3,12,17,02,05,04,10,,,,,,,4.2,2.3,3.5*34
$GPRMC,090848.000,A,3353.7477,N,09832.0303,W,0.27,304.68,030412,,,A*7C
$GPGGA,090849.000,3353.7477,N,09832.0305,W,1,06,2.3,289.9,M,-23.7,M,18.8,0000*78
$GPGSA,A,3,12,17,02,05,04,10,,,,,,,4.2,2.3,3.5*34
$GPRMC,090849.000,A,3353.7477,N,09832.0305,W,0.27,301.44,030412,,,A*70
$GPGGA,090850.000,3353.7478,N,09832.0307,W,1,06,2.3,289.5,M,-23.7,M,18.8,0000*71
$GPGSA,A,3,12,17,02,05,04,10,,,,,,,4.2,2.3,3.5*34
$GPGSV,3,1,11,02,72,354,31,12,67,280,28,10,50,077,33,05,44,172,37*7F
$GPGSV,3,2,11,04,41,044,33,25,28,314,17,17,11,100,38,09,11,225,*74
$GPGSV,3,3,11,27,05,213,13,29,05,295,,13,00,068,*47
$GPRMC,090850.000,A,3353.7478,N,09832.0307,W,0.26,306.99,030412,,,A*73
$GPGGA,090851.000,3353.7478,N,09832.0309,W,1,06,2.3,289.2,M,-23.7,M,18.8,0000*79
$GPGSA,A,3,12,17,02,05,04,10,,,,,,,4.2,2.3,3.5*34
$GPRMC,090851.000,A,3353.7478,N,09832.0309,W,0.26,299.63,030412,,,A*7E
$GPGGA,090852.000,3353.7479,N,09832.0310,W,1,06,2.3,288.9,M,-23.7,M,18.8,0000*79
$GPGSA,A,3,12,17,02,05,04,10,,,,,,,4.2,2.3,3.5*34
$GPRMC,090852.000,A,3353.7479,N,09832.0310,W,0.27,306.26,030412,,,A*73
$GPGGA,090853.000,3353.7479,N,09832.0312,W,1,06,2.3,288.6,M,-23.7,M,18.8,0000*75
$GPGSA,A,3,12,17,02,05,04,10,,,,,,,4.2,2.3,3.5*34
$GPRMC,090853.000,A,3353.7479,N,09832.0312,W,0.28,303.76,030412,,,A*7F
$GPGGA,090854.000,3353.7479,N,09832.0314,W,1,06,2.3,288.3,M,-23.7,M,18.8,0000*71
$GPGSA,A,3,12,17,02,05,04,10,,,,,,,4.2,2.3,3.5*34
$GPRMC,090854.000,A,3353.7479,N,09832.0314,W,0.28,304.16,030412,,,A*7F
$GPGGA,090855.000,3353.7480,N,09832.0316,W,1,06,2.3,288.0,M,-23.7,M,18.8,0000*77
$GPGSA,A,3,12,17,02,05,04,10,,,,,,,4.2,2.3,3.5*34
$GPGSV,3,1,11,02,72,354,31,12,67,280,27,10,50,077,33,05,44,172,37*70
$GPGSV,3,2,11,04,41,044,33,25,28,314,17,17,11,100,37,09,11,225,*7B
$GPGSV,3,3,11,27,05,213,13,29,05,295,,13,00,068,*47
$GPRMC,090855.000,A,3353.7480,N,09832.0316,W,0.27,305.25,030412,,,A*74
$GPGGA,090856.000,3353.7480,N,09832.0318,W,1,06,2.3,287.7,M,-23.7,M,18.8,0000*72
$GPGSA,A,3,12,17,02,05,04,10,,,,,,,4.2,2.3,3.5*34
$GPRMC,090856.000,A,3353.7480,N,09832.0318,W,0.25,302.68,030412,,,A*75
$GPGGA,090857.000,3353.7481,N,09832.0320,W,1,06,2.3,287.5,M,-23.7,M,18.8,0000*7B
$GPGSA,A,3,12,17,02,05,04,10,,,,,,,4.2,2.3,3.5*34
$GPRMC,090857.000,A,3353.7481,N,09832.0320,W,0.26,305.81,030412,,,A*7D
$GPGGA,090858.000,3353.7481,N,09832.0321,W,1,06,2.3,287.2,M,-23.7,M,18.8,0000*72
$GPGSA,A,3,12,17,02,05,04,10,,,,,,,4.2,2.3,3.5*34
$GPRMC,090858.000,A,3353.7481,N,09832.0321,W,0.24,308.36,030412,,,A*70
$GPGGA,090859.000,3353.7482,N,09832.0323,W,1,06,2.3,287.0,M,-23.7,M,18.8,0000*70
$GPGSA,A,3,12,17,02,05,04,10,,,,,,,4.2,2.3,3.5*34
$GPRMC,090859.000,A,3353.7482,N,09832.0323,W,0.24,301.72,030412,,,A*79
$GPGGA,090900.000,3353.7482,N,09832.0325,W,1,06,2.3,286.8,M,-23.7,M,18.8,0000*72
$GPGSA,A,3,12,17,02,05,04,10,,,,,,,4.2,2.3,3.5*34
$GPGSV,3,1,11,02,72,354,32,12,67,280,27,10,50,077,33,05,44,172,36*72
$GPGSV,3,2,11,04,41,044,32,25,28,314,16,17,11,100,37,09,11,225,*7B
$GPGSV,3,3,11,27,05,213,13,29,05,295,,13,00,068,*47
$GPRMC,090900.000,A,3353.7482,N,09832.0325,W,0.25,307.39,030412,,,A*7A
$GPGGA,090901.000,3353.7482,N,09832.0327,W,1,06,2.3,286.5,M,-23.7,M,18.8,0000*7C
$GPGSA,A,3,12,17,02,05,04,10,,,,,,,4.2,2.3,3.5*34
$GPRMC,090901.000,A,3353.7482,N,09832.0327,W,0.25,299.91,030412,,,A*7D
$GPGGA,090902.000,3353.7483,N,09832.0329,W,1,06,2.3,286.3,M,-23.7,M,18.8,0000*76
$GPGSA,A,3,12,17,02,05,04,10,,,,,,,4.2,2.3,3.5*34
$GPRMC,090902.000,A,3353.7483,N,09832.0329,W,0.30,303.15,030412,,,A*7B
$GPGGA,090903.000,3353.7483,N,09832.0331,W,1,06,2.3,286.0,M,-23.7,M,18.8,0000*7D
$GPGSA,A,3,12,17,02,05,04,10,,,,,,,4.2,2.3,3.5*34
$GPRMC,090903.000,A,3353.7483,N,09832.0331,W,0.29,306.11,030412,,,A*7A
$GPGGA,090904.000,3353.7484,N,09832.0333,W,1,06,2.3,285.7,M,-23.7,M,18.8,0000*7B
$GPGSA,A,3,12,17,02,05,04,10,,,,,,,4.2,2.3,3.5*34
$GPRMC,090904.000,A,3353.7484,N,09832.0333,W,0.29,301.07,030412,,,A*78
$GPGGA,090905.000,3353.7484,N,09832.0335,W,1,06,2.3,285.4,M,-23.7,M,18.8,0000*7F
$GPGSA,A,3,12,17,02,05,04,10,,,,,,,4.2,2.3,3.5*34
$GPGSV,3,1,11,02,72,354,32,12,67,280,27,10,50,077,33,05,44,172,36*72
$GPGSV,3,2,11,04,41,044,32,25,28,314,15,17,11,100,37,09,11,225,*78
$GPGSV,3,3,11,27,05,213,12,29,05,295,,13,00,068,*46
$GPRMC,090905.000,A,3353.7484,N,09832.0335,W,0.29,304.12,030412,,,A*7E
$GPGGA,090906.000,3353.7484,N,09832.0337,W,1,06,2.3,285.2,M,-23.7,M,18.8,0000*78
$GPGSA,A,3,12,17,02,05,04,10,,,,,,,4.2,2.3,3.5*34
$GPRMC,090906.000,A,3353.7484,N,09832.0337,W,0.25,298.57,030412,,,A*76
$GPGGA,090907.000,3353.7485,N,09832.0338,W,1,06,2.3,284.9,M,-23.7,M,18.8,0000*7D
$GPGSA,A,3,12,17,02,05,04,10,,,,,,,4.2,2.3,3.5*34
$GPRMC,090907.000,A,3353.7485,N,09832.0338,W,0.27,304.29,030412,,,A*76
$GPGGA,090908.000,3353.7485,N,09832.0340,W,1,06,2.3,284.7,M,-23.7,M,18.8,0000*73
$GPGSA,A,3,12,17,02,05,04,10,,,,,,,4.2,2.3,3.5*34
$GPRMC,090908.000,A,3353.7485,N,09832.0340,W,0.24,308.10,030412,,,A*73
$GPGGA,090909.000,3353.7486,N,09832.0341,W,1,06,2.3,284.5,M,-23.7,M,18.8,0000*72
$GPGSA,A,3,12,17,02,05,04,10,,,,,,,4.2,2.3,3.5*34
$GPRMC,090909.000,A,3353.7486,N,09832.0341,W,0.22,305.64,030412,,,A*78
$GPGGA,090910.000,3353.7486,N,09832.0343,W,1,06,2.3,284.3,M,-23.7,M,18.8,0000*7E
$GPGSA,A,3,12,17,02,05,04,10,,,,,,,4.2,2.3,3.5*34
$GPGSV,3,1,11,02,71,355,32,12,67,279,27,10,50,076,33,05,44,172,37*76
$GPGSV,3,2,11,04,41,045,31,25,29,314,14,17,11,100,36,09,10,225,*7A
$GPGSV,3,3,11,29,05,295,,27,05,212,14,13,00,068,*41
$GPRMC,090910.000,A,3353.7486,N,09832.0343,W,0.21,309.33,030412,,,A*7F
$GPGGA,090911.000,3353.7486,N,09832.0344,W,1,06,2.3,284.2,M,-23.7,M,18.8,0000*79
$GPGSA,A,3,12,17,02,05,04,10,,,,,,,4.2,2.3,3.5*34
$GPRMC,090911.000,A,3353.7486,N,09832.0344,W,0.20,304.11,030412,,,A*75
$GPGGA,090912.000,3353.7486,N,09832.0345,W,1,06,2.3,284.1,M,-23.7,M,18.8,0000*78
$GPGSA,A,3,12,17,02,05,04,10,,,,,,,4.2,2.3,3.5*34
$GPRMC,090912.000,A,3353.7486,N,09832.0345,W,0.17,317.66,030412,,,A*71
$GPGGA,090913.000,3353.7487,N,09832.0346,W,1,06,2.3,284.1,M,-23.7,M,18.8,0000*7B
$GPGSA,A,3,12,17,02,05,04,10,,,,,,,4.2,2.3,3.5*34
$GPRMC,090913.000,A,3353.7487,N,09832.0346,W,0.15,321.33,030412,,,A*75
$GPGGA,090914.000,3353.7487,N,09832.0347,W,1,06,2.3,284.0,M,-23.7,M,18.8,0000*7C
$GPGSA,A,3,12,17,02,05,04,10,,,,,,,4.2,2.3,3.5*34
$GPRMC,090914.000,A,3353.7487,N,09832.0347,W,0.11,319.23,030412,,,A*7D
$GPGGA,090915.000,3353.7487,N,09832.0347,W,1,06,2.3,284.1,M,-23.7,M,18.8,0000*7C
$GPGSA,A,3,12,17,02,05,04,10,,,,,,,4.2,2.3,3.5*34
$GPGSV,3,1,12,02,71,355,32,12,67,279,28,10,50,076,34,05,44,172,37*7D
$GPGSV,3,2,12,04,41,045,31,25,29,314,15,17,11,100,36,09,10,225,*78
$GPGSV,3,3,12,29,05,295,,27,05,212,15,13,00,068,,51,49,195,32*76
$GPRMC,090915.000,A,3353.7487,N,09832.0347,W,0.10,331.95,030412,,,A*7A
$GPGGA,090916.000,3353.7487,N,09832.0347,W,1,07,1.5,284.2,M,-23.7,M,18.8,0000*78
$GPGSA,A,3,12,17,02,05,04,09,10,,,,,,2.2,1.5,1.7*3E
$GPRMC,090916.000,A,3353.7487,N,09832.0347,W,0.19,51.26,030412,,,A*4D
$GPGGA,090917.000,3353.7487,N,09832.0346,W,1,07,1.5,284.5,M,-23.7,M,18.8,0000*7F
$GPGSA,A,3,12,17,02,05,04,09,10,,,,,,2.2,1.5,1.7*3E
$GPRMC,090917.000,A,3353.7487,N,09832.0346,W,0.27,61.07,030412,,,A*40
$GPGGA,090918.000,3353.7487,N,09832.0345,W,1,07,1.5,284.8,M,-23.7,M,18.8,0000*7E
$GPGSA,A,3,12,17,02,05,04,09,10,,,,,,2.2,1.5,1.7*3E
$GPRMC,090918.000,A,3353.7487,N,09832.0345,W,0.29,76.70,030412,,,A*44
$GPGGA,090919.000,3353.7486,N,09832.0343,W,1,07,1.5,285.2,M,-23.7,M,18.8,0000*73
$GPGSA,A,3,12,17,02,05,04,09,10,,,,,,2.2,1.5,1.7*3E
$GPRMC,090919.000,A,3353.7486,N,09832.0343,W,0.27,83.64,030412,,,A*43
$GPGGA,090920.000,3353.7486,N,09832.0342,W,1,07,1.5,285.6,M,-23.7,M,18.8,0000*7C
$GPGSA,A,3,12,17,02,05,04,09,10,,,,,,2.2,1.5,1.7*3E
$GPGSV,3,1,12,02,71,355,33,12,67,279,28,10,50,076,34,05,44,172,37*7C
$GPGSV,3,2,12,04,41,045,31,25,29,314,16,17,11,100,36,09,10,225,13*79
$GPGSV,3,3,12,29,05,295,,27,05,212,14,13,00,068,,51,49,195,32*77
$GPRMC,090920.000,A,3353.7486,N,09832.0342,W,0.33,76.37,030412,,,A*41
$GPGGA,090921.000,3353.7486,N,09832.0341,W,1,07,1.5,286.0,M,-23.7,M,18.8,0000*7B
$GPGSA,A,3,12,17,02,05,04,09,10,,,,,,2.2,1.5,1.7*3E
$GPRMC,090921.000,A,3353.7486,N,09832.0341,W,0.35,88.48,030412,,,A*4C
$GPGGA,090922.000,3353.7486,N,09832.0339,W,1,07,1.5,286.5,M,-23.7,M,18.8,0000*72
$GPGSA,A,3,12,17,02,05,04,09,10,,,,,,2.2,1.5,1.7*3E
$GPRMC,090922.000,A,3353.7486,N,09832.0339,W,0.42,83.29,030412,,,A*4C
$GPGGA,090923.000,3353.7485,N,09832.0337,W,1,07,1.5,287.0,M,-23.7,M,18.8,0000*7A
$GPGSA,A,3,12,17,02,05,04,09,10,,,,,,2.2,1.5,1.7*3E
$GPRMC,090923.000,A,3353.7485,N,09832.0337,W,0.49,84.50,030412,,,A*42
$GPGGA,090924.000,3353.7485,N,09832.0334,W,1,07,1.5,287.6,M,-23.7,M,18.8,0000*78
$GPGSA,A,3,12,17,02,05,04,09,10,,,,,,2.2,1.5,1.7*3E
$GPRMC,090924.000,A,3353.7485,N,09832.0334,W,0.53,88.31,030412,,,A*46
$GPGGA,090925.000,3353.7484,N,09832.0332,W,1,07,1.5,288.2,M,-23.7,M,18.8,0000*75
$GPGSA,A,3,12,17,02,05,04,09,10,,,,,,2.2,1.5,1.7*3E
$GPGSV,3,1,12,02,71,355,33,12,67,279,29,10,50,076,35,05,44,172,37*7C
$GPGSV,3,2,12,04,41,045,31,25,29,314,15,17,11,100,37,09,10,225,13*7B
$GPGSV,3,3,12,29,05,295,,27,05,212,13,13,00,068,,51,49,195,32*70
$GPRMC,090925.000,A,3353.7484,N,09832.0332,W,0.52,90.99,030412,,,A*4A
$GPGGA,090926.000,3353.7484,N,09832.0331,W,1,07,1.5,288.7,M,-23.7,M,18.8,0000*70
$GPGSA,A,3,12,17,02,05,04,09,10,,,,,,2.2,1.5,1.7*3E
$GPRMC,090926.000,A,3353.7484,N,09832.0331,W,0.32,113.37,030412,,,A*72
$GPGGA,090927.000,3353.7483,N,09832.0330,W,1,07,1.5,289.2,M,-23.7,M,18.8,0000*73
$GPGSA,A,3,12,17,02,05,04,09,10,,,,,,2.2,1.5,1.7*3E
$GPRMC,090927.000,A,3353.7483,N,09832.0330,W,0.24,130.43,030412,,,A*70
$GPGGA,090928.000,3353.7482,N,09832.0329,W,1,07,1.5,289.6,M,-23.7,M,18.8,0000*71
$GPGSA,A,3,12,17,02,05,04,09,10,,,,,,2.2,1.5,1.7*3E
$GPRMC,090928.000,A,3353.7482,N,09832.0329,W,0.20,128.66,030412,,,A*7C
$GPGGA,090929.000,3353.7482,N,09832.0329,W,1,07,1.5,289.9,M,-23.7,M,18.8,0000*7F
$GPGSA,A,3,12,17,02,05,04,09,10,,,,,,2.2,1.5,1.7*3E
$GPRMC,090929.000,A,3353.7482,N,09832.0329,W,0.14,132.11,030412,,,A*71
$GPGGA,090930.000,3353.7481,N,09832.0328,W,1,07,1.5,290.1,M,-23.7,M,18.8,0000*75
$GPGSA,A,3,12,17,02,05,04,09,10,,,,,,2.2,1.5,1.7*3E
$GPGSV,3,1,12,02,71,355,33,12,67,279,28,10,50,076,36,05,44,172,36*7F
$GPGSV,3,2,12,04,41,045,31,25,29,314,15,17,11,100,37,09,10,225,13*7B
$GPGSV,3,3,12,29,05,295,,27,05,212,,13,00,068,,51,49,195,32*72
$GPRMC,090930.000,A,3353.7481,N,09832.0328,W,0.12,128.76,030412,,,A*77
$GPGGA,090931.000,3353.7481,N,09832.0327,W,1,06,2.3,290.4,M,-23.7,M,18.8,0000*7A
$GPGSA,A,3,12,17,02,05,04,10,,,,,,,4.2,2.3,3.5*34
$GPRMC,090931.000,A,3353.7481,N,09832.0327,W,0.17,95.63,030412,,,A*4F
$GPGGA,090932.000,3353.7480,N,09832.0327,W,1,06,2.3,290.6,M,-23.7,M,18.8,0000*7A
$GPGSA,A,3,12,17,02,05,04,10,,,,,,,4.2,2.3,3.5*34
$GPRMC,090932.000,A,3353.7480,N,09832.0327,W,0.15,97.88,030412,,,A*48
$GPGGA,090933.000,3353.7480,N,09832.0326,W,1,06,2.3,290.8,M,-23.7,M,18.8,0000*74
$GPGSA,A,3,12,17,02,05,04,10,,,,,,,4.2,2.3,3.5*34
$GPRMC,090933.000,A,3353.7480,N,09832.0326,W,0.18,87.68,030412,,,A*4A
$GPGGA,090934.000,3353.7480,N,09832.0325,W,1,06,2.3,291.0,M,-23.7,M,18.8,0000*79
$GPGSA,A,3,12,17,02,05,04,10,,,,,,,4.2,2.3,3.5*34
$GPRMC,090934.000,A,3353.7480,N,09832.0325,W,0.17,89.17,030412,,,A*47
$GPGGA,090935.000,3353.7479,N,09832.0324,W,1,06,2.3,291.2,M,-23.7,M,18.8,0000*7D
$GPGSA,A,3,12,17,02,05,04,10,,,,,,,4.2,2.3,3.5*34
$GPGSV,3,1,12,02,71,355,34,12,67,279,28,10,50,076,36,05,44,172,36*78
$GPGSV,3,2,12,04,41,045,32,25,29,314,16,17,11,100,37,09,10,225,*79
$GPGSV,3,3,12,29,05,295,,27,05,212,,13,00,068,,51,49,195,32*72
$GPRMC,090935.000,A,3353.7479,N,09832.0324,W,0.17,97.80,030412,,,A*40
$GPGGA,090936.000,3353.7479,N,09832.0324,W,1,06,2.3,291.4,M,-23.7,M,18.8,0000*78
$GPGSA,A,3,12,17,02,05,04,10,,,,,,,4.2,2.3,3.5*34
$GPRMC,090936.000,A,3353.7479,N,09832.0324,W,0.15,87.47,030412,,,A*4B
$GPGGA,090937.000,3353.7479,N,09832.0323,W,1,06,2.3,291.5,M,-23.7,M,18.8,0000*7F
$GPGSA,A,3,12,17,02,05,04,10,,,,,,,4.2,2.3,3.5*34
$GPRMC,090937.000,A,3353.7479,N,09832.0323,W,0.17,89.69,030412,,,A*4D
$GPGGA,090938.000,3353.7478,N,09832.0323,W,1,06,2.3,291.7,M,-23.7,M,18.8,0000*73
$GPGSA,A,3,12,17,02,05,04,10,,,,,,,4.2,2.3,3.5*34
$GPRMC,090938.000,A,3353.7478,N,09832.0323,W,0.14,86.83,030412,,,A*4B
$GPGGA,090939.000,3353.7478,N,09832.0322,W,1,06,2.3,291.8,M,-23.7,M,18.8,0000*7C
$GPGSA,A,3,12,17,02,05,04,10,,,,,,,4.2,2.3,3.5*34
$GPRMC,090939.000,A,3353.7478,N,09832.0322,W,0.13,88.68,030412,,,A*47
$GPGGA,090940.000,3353.7478,N,09832.0322,W,1,06,2.3,292.0,M,-23.7,M,18.8,0000*79
$GPGSA,A,3,12,17,02,05,04,10,,,,,,,4.2,2.3,3.5*34
$GPGSV,3,1,11,02,71,355,34,12,67,278,27,10,50,076,37,05,45,171,36*76
$GPGSV,3,2,11,04,40,045,32,25,29,314,16,17,11,100,37,09,10,225,*7B
$GPGSV,3,3,11,29,06,295,,27,05,212,,13,00,067,*48
$GPRMC,090940.000,A,3353.7478,N,09832.0322,W,0.14,80.87,030412,,,A*47
$GPGGA,090941.000,3353.7477,N,09832.0321,W,1,06,2.3,292.1,M,-23.7,M,18.8,0000*75
$GPGSA,A,3,12,17,02,05,04,10,,,,,,,4.2,2.3,3.5*34
$GPRMC,090941.000,A,3353.7477,N,09832.0321,W,0.13,87.47,030412,,,A*46
$GPGGA,090942.000,3353.7477,N,09832.0321,W,1,06,2.3,292.2,M,-23.7,M,18.8,0000*75
$GPGSA,A,3,12,17,02,05,04,10,,,,,,,4.2,2.3,3.5*34
$GPRMC,090942.000,A,3353.7477,N,09832.0321,W,0.12,80.76,030412,,,A*41
$GPGGA,090943.000,3353.7477,N,09832.0321,W,1,06,2.3,292.2,M,-23.7,M,18.8,0000*74
$GPGSA,A,3,12,17,02,05,04,10,,,,,,,4.2,2.3,3.5*34
$GPRMC,090943.000,A,3353.7477,N,09832.0321,W,0.11,78.61,030412,,,A*42
$GPGGA,090944.000,3353.7476,N,09832.0320,W,1,06,2.3,292.3,M,-23.7,M,18.8,0000*72
$GPGSA,A,3,12,17,02,05,04,10,,,,,,,4.2,2.3,3.5*34
$GPRMC,090944.000,A,3353.7476,N,09832.0320,W,0.12,73.10,030412,,,A*4B
$GPGGA,090945.000,3353.7476,N,09832.0320,W,1,06,2.3,292.4,M,-23.7,M,18.8,0000*74
$GPGSA,A,3,12,17,02,05,04,10,,,,,,,4.2,2.3,3.5*34
$GPGSV,3,1,11,02,71,355,34,12,67,278,27,10,50,076,37,05,45,171,36*76
$GPGSV,3,2,11,04,40,045,32,25,29,314,17,17,11,100,37,09,10,225,*7A
$GPGSV,3,3,11,29,06,295,,27,05,212,,13,00,067,*48
$GPRMC,090945.000,A,3353.7476,N,09832.0320,W,0.10,78.31,030412,,,A*40
$GPGGA,090946.000,3353.7476,N,09832.0320,W,1,06,2.3,292.4,M,-23.7,M,18.8,0000*77
$GPGSA,A,3,12,17,02,05,04,10,,,,,,,4.2,2.3,3.5*34
$GPRMC,090946.000,A,3353.7476,N,09832.0320,W,0.09,67.34,030412,,,A*40
$GPGGA,090947.000,3353.7476,N,09832.0320,W,1,06,2.3,292.4,M,-23.7,M,18.8,0000*76
$GPGSA,A,3,12,17,02,05,04,10,,,,,,,4.2,2.3,3.5*34
$GPRMC,090947.000,A,3353.7476,N,09832.0320,W,0.06,22.75,030412,,,A*4A
$GPGGA,090948.000,3353.7476,N,09832.0320,W,1,06,2.3,292.4,M,-23.7,M,18.8,0000*79
$GPGSA,A,3,12,17,02,05,04,10,,,,,,,4.2,2.3,3.5*34
$GPRMC,090948.000,A,3353.7476,N,09832.0320,W,0.14,84.57,030412,,,A*4A
$GPGGA,090949.000,3353.7475,N,09832.0321,W,1,06,2.3,292.4,M,-23.7,M,18.8,0000*7A
$GPGSA,A,3,12,17,02,05,04,10,,,,,,,4.2,2.3,3.5*34
$GPRMC,090949.000,A,3353.7475,N,09832.0321,W,0.07,53.10,030412,,,A*42
$GPGGA,090950.000,3353.7476,N,09832.0321,W,1,07,1.5,292.3,M,-23.7,M,18.8,0000*72
$GPGSA,A,3,09,12,17,02,05,04,10,,,,,,2.2,1.5,1.7*3E
$GPGSV,3,1,11,02,71,355,34,12,67,278,27,10,50,076,37,05,45,171,36*76
$GPGSV,3,2,11,04,40,045,32,25,29,314,18,17,11,100,37,09,10,225,17*73
$GPGSV,3,3,11,29,06,295,,27,05,212,,13,00,067,*48
$GPRMC,090950.000,A,3353.7476,N,09832.0321,W,0.16,49.94,030412,,,A*4E
$GPGGA,090951.000,3353.7476,N,09832.0321,W,1,07,1.5,292.3,M,-23.7,M,18.8,0000*73
$GPGSA,A,3,09,12,17,02,05,04,10,,,,,,2.2,1.5,1.7*3E
$GPRMC,090951.000,A,3353.7476,N,09832.0321,W,0.08,40.13,030412,,,A*46
$GPGGA,090952.000,3353.7475,N,09832.0322,W,1,07,1.5,292.2,M,-23.7,M,18.8,0000*71
$GPGSA,A,3,09,12,17,02,05,04,10,,,,,,2.2,1.5,1.7*3E
$GPRMC,090952.000,A,3353.7475,N,09832.0322,W,0.07,271.32,030412,,,A*79
$GPGGA,090953.000,3353.7475,N,09832.0324,W,1,07,1.5,292.1,M,-23.7,M,18.8,0000*75
$GPGSA,A,3,09,12,17,02,05,04,10,,,,,,2.2,1.5,1.7*3E
$GPRMC,090953.000,A,3353.7475,N,09832.0324,W,0.19,265.39,030412,,,A*7F
$GPGGA,090954.000,3353.7475,N,09832.0325,W,1,07,1.5,291.9,M,-23.7,M,18.8,0000*78
$GPGSA,A,3,09,12,17,02,05,04,10,,,,,,2.2,1.5,1.7*3E
$GPRMC,090954.000,A,3353.7475,N,09832.0325,W,0.25,268.52,030412,,,A*76
$GPGGA,090955.000,3353.7475,N,09832.0326,W,1,06,2.3,291.7,M,-23.7,M,18.8,0000*70
$GPGSA,A,3,12,17,02,05,04,10,,,,,,,4.2,2.3,3.5*34
$GPGSV,3,1,11,02,71,355,34,12,67,278,26,10,50,076,37,05,45,171,36*77
$GPGSV,3,2,11,04,40,045,32,25,29,314,18,17,11,100,37,09,10,225,17*73
$GPGSV,3,3,11,29,06,295,,27,05,212,,13,00,067,*48
$GPRMC,090955.000,A,3353.7475,N,09832.0326,W,0.12,355.71,030412,,,A*7E
$GPGGA,090956.000,3353.7475,N,09832.0326,W,1,07,1.5,291.7,M,-23.7,M,18.8,0000*77
$GPGSA,A,3,09,12,17,02,05,04,10,,,,,,2.2,1.5,1.7*3E
$GPRMC,090956.000,A,3353.7475,N,09832.0326,W,0.21,39.16,030412,,,A*45
$GPGGA,090957.000,3353.7475,N,09832.0326,W,1,07,1.5,291.7,M,-23.7,M,18.8,0000*76
$GPGSA,A,3,09,12,17,02,05,04,10,,,,,,2.2,1.5,1.7*3E
$GPRMC,090957.000,A,3353.7475,N,09832.0326,W,0.15,31.87,030412,,,A*43
$GPGGA,090958.000,3353.7475,N,09832.0325,W,1,07,1.5,291.8,M,-23.7,M,18.8,0000*75
$GPGSA,A,3,09,12,17,02,05,04,10,,,,,,2.2,1.5,1.7*3E
$GPRMC,090958.000,A,3353.7475,N,09832.0325,W,0.23,67.99,030412,,,A*46
$GPGGA,090959.000,3353.7475,N,09832.0324,W,1,06,2.3,291.9,M,-23.7,M,18.8,0000*70
$GPGSA,A,3,12,17,02,05,04,10,,,,,,,4.2,2.3,3.5*34
$GPRMC,090959.000,A,3353.7475,N,09832.0324,W,0.17,83.73,030412,,,A*4F
$GPGGA,091000.000,3353.7475,N,09832.0324,W,1,06,2.3,292.1,M,-23.7,M,18.8,0000*7F
$GPGSA,A,3,12,17,02,05,04,10,,,,,,,4.2,2.3,3.5*34
$GPGSV,3,1,11,02,71,355,34,12,67,278,26,10,50,076,37,05,45,171,36*77
$GPGSV,3,2,11,04,40,045,32,25,29,314,18,17,11,100,37,09,10,225,07*72
$GPGSV,3,3,11,29,06,295,,27,05,212,,13,00,067,*48
$GPRMC,091000.000,A,3353.7475,N,09832.0324,W,0.14,85.65,030412,,,A*49
$GPGGA,091001.000,3353.7474,N,09832.0323,W,1,06,2.3,292.2,M,-23.7,M,18.8,0000*7B
$GPGSA,A,3,12,17,02,05,04,10,,,,,,,4.2,2.3,3.5*34
$GPRMC,091001.000,A,3353.7474,N,09832.0323,W,0.13,81.51,030412,,,A*4A
$GPGGA,091002.000,3353.7474,N,09832.0323,W,1,06,2.3,292.3,M,-23.7,M,18.8,0000*79
$GPGSA,A,3,12,17,02,05,04,10,,,,,,,4.2,2.3,3.5*34
$GPRMC,091002.000,A,3353.7474,N,09832.0323,W,0.09,72.23,030412,,,A*4B
$GPGGA,091003.000,3353.7474,N,09832.0323,W,1,06,2.3,292.4,M,-23.7,M,18.8,0000*7F
$GPGSA,A,3,12,17,02,05,04,10,,,,,,,4.2,2.3,3.5*34
$GPRMC,091003.000,A,3353.7474,N,09832.0323,W,0.08,42.18,030412,,,A*40
$GPGGA,091004.000,3353.7474,N,09832.0324,W,1,06,2.3,292.4,M,-23.7,M,18.8,0000*7F
$GPGSA,A,3,12,17,02,05,04,10,,,,,,,4.2,2.3,3.5*34
$GPRMC,091004.000,A,3353.7474,N,09832.0324,W,0.05,4.75,030412,,,A*74
$GPGGA,091005.000,3353.7474,N,09832.0324,W,1,06,2.3,292.4,M,-23.7,M,18.8,0000*7E
$GPGSA,A,3,12,17,02,05,04,10,,,,,,,4.2,2.3,3.5*34
$GPGSV,3,1,11,02,71,355,34,12,67,278,26,10,50,076,37,05,45,171,36*77
$GPGSV,3,2,11,04,40,045,32,25,29,314,18,17,11,100,37,09,10,225,*75
$GPGSV,3,3,11,29,06,295,,27,05,212,,13,00,067,*48
$GPRMC,091005.000,A,3353.7474,N,09832.0324,W,0.07,354.41,030412,,,A*76
$GPGGA,091006.000,3353.7474,N,09832.0325,W,1,06,2.3,292.3,M,-23.7,M,18.8,0000*7B
$GPGSA,A,3,12,17,02,05,04,10,,,,,,,4.2,2.3,3.5*34
$GPRMC,091006.000,A,3353.7474,N,09832.0325,W,0.07,332.79,030412,,,A*7F
$GPGGA,091007.000,3353.7474,N,09832.0327,W,1,06,2.3,292.1,M,-23.7,M,18.8,0000*7A
$GPGSA,A,3,12,17,02,05,04,10,,,,,,,4.2,2.3,3.5*34
$GPRMC,091007.000,A,3353.7474,N,09832.0327,W,0.12,330.74,030412,,,A*77
$GPGGA,091008.000,3353.7474,N,09832.0328,W,1,06,2.3,292.0,M,-23.7,M,18.8,0000*7B
$GPGSA,A,3,12,17,02,05,04,10,,,,,,,4.2,2.3,3.5*34
$GPRMC,091008.000,A,3353.7474,N,09832.0328,W,0.11,326.11,030412,,,A*70
$GPGGA,091009.000,3353.7474,N,09832.0330,W,1,06,2.3,291.7,M,-23.7,M,18.8,0000*77
$GPGSA,A,3,12,17,02,05,04,10,,,,,,,4.2,2.3,3.5*34
$GPRMC,091009.000,A,3353.7474,N,09832.0330,W,0.13,318.48,030412,,,A*7B
$GPGGA,091010.000,3353.7475,N,09832.0331,W,1,06,2.3,291.5,M,-23.7,M,18.8,0000*7D
$GPGSA,A,3,12,17,02,05,04,10,,,,,,,4.2,2.3,3.5*34
$GPGSV,3,1,11,02,71,355,34,12,67,278,26,10,50,076,37,05,45,171,35*74
$GPGSV,3,2,11,04,40,045,32,25,29,314,17,17,11,100,37,09,10,225,*7A
$GPGSV,3,3,11,29,06,295,,27,05,212,,13,00,067,*48
$GPRMC,091010.000,A,3353.7475,N,09832.0331,W,0.08,354.24,030412,,,A*7B
$GPGGA,091011.000,3353.7475,N,09832.0334,W,1,07,1.5,291.2,M,-23.7,M,18.8,0000*7A
$GPGSA,A,3,09,12,17,02,05,04,10,,,,,,2.2,1.5,1.7*3E
$GPRMC,091011.000,A,3353.7475,N,09832.0334,W,0.35,288.87,030412,,,A*78
$GPGGA,091012.000,3353.7475,N,09832.0336,W,1,07,1.5,290.8,M,-23.7,M,18.8,0000*70
$GPGSA,A,3,09,12,17,02,05,04,10,,,,,,2.2,1.5,1.7*3E
$GPRMC,091012.000,A,3353.7475,N,09832.0336,W,0.19,334.42,030412,,,A*78
$GPGGA,091013.000,3353.7476,N,09832.0338,W,1,07,1.5,290.5,M,-23.7,M,18.8,0000*71
$GPGSA,A,3,09,12,17,02,05,04,10,,,,,,2.2,1.5,1.7*3E
$GPRMC,091013.000,A,3353.7476,N,09832.0338,W,0.19,11.62,030412,,,A*42
$GPGGA,091014.000,3353.7476,N,09832.0340,W,1,07,1.5,290.2,M,-23.7,M,18.8,0000*7E
$GPGSA,A,3,09,12,17,02,05,04,10,,,,,,2.2,1.5,1.7*3E
$GPRMC,091014.000,A,3353.7476,N,09832.0340,W,0.14,311.20,030412,,,A*72
$GPGGA,091015.000,3353.7476,N,09832.0342,W,1,07,1.5,289.9,M,-23.7,M,18.8,0000*7E
$GPGSA,A,3,09,12,17,02,05,04,10,,,,,,2.2,1.5,1.7*3E
$GPGSV,3,1,11,02,71,355,34,12,67,278,25,10,50,076,37,05,45,171,35*77
$GPGSV,3,2,11,04,40,045,31,25,29,314,17,17,11,100,38,09,10,225,19*7E
$GPGSV,3,3,11,29,06,295,,27,05,212,,13,00,067,*48
$GPRMC,091015.000,A,3353.7476,N,09832.0342,W,0.30,272.10,030412,,,A*70
$GPGGA,091016.000,3353.7476,N,09832.0344,W,1,07,1.5,289.6,M,-23.7,M,18.8,0000*74
$GPGSA,A,3,09,12,17,02,05,04,10,,,,,,2.2,1.5,1.7*3E
$GPRMC,091016.000,A,3353.7476,N,09832.0344,W,0.15,323.95,030412,,,A*7A
$GPGGA,091017.000,3353.7477,N,09832.0346,W,1,07,1.5,289.3,M,-23.7,M,18.8,0000*73
$GPGSA,A,3,09,12,17,02,05,04,10,,,,,,2.2,1.5,1.7*3E
$GPRMC,091017.000,A,3353.7477,N,09832.0346,W,0.24,278.46,030412,,,A*7B
$GPGGA,091018.000,3353.7477,N,09832.0349,W,1,07,1.5,289.0,M,-23.7,M,18.8,0000*70
$GPGSA,A,3,09,12,17,02,05,04,10,,,,,,2.2,1.5,1.7*3E
$GPRMC,091018.000,A,3353.7477,N,09832.0349,W,0.26,273.85,030412,,,A*7D
$GPGGA,091019.000,3353.7476,N,09832.0351,W,1,07,1.5,288.7,M,-23.7,M,18.8,0000*7F
$GPGSA,A,3,09,12,17,02,05,04,10,,,,,,2.2,1.5,1.7*3E
$GPRMC,091019.000,A,3353.7476,N,09832.0351,W,0.29,270.23,030412,,,A*74
$GPGGA,091020.000,3353.7476,N,09832.0354,W,1,07,1.5,288.4,M,-23.7,M,18.8,0000*73
$GPGSA,A,3,09,12,17,02,05,04,10,,,,,,2.2,1.5,1.7*3E
$GPGSV,3,1,11,02,71,356,34,12,67,278,25,10,50,076,37,05,45,171,35*74
$GPGSV,3,2,11,04,40,045,31,25,29,314,16,17,10,100,38,09,10,225,18*7F
$GPGSV,3,3,11,29,06,295,,27,05,212,,13,00,067,*48
$GPRMC,091020.000,A,3353.7476,N,09832.0354,W,0.38,268.25,030412,,,A*74
$GPGGA,091021.000,3353.7477,N,09832.0355,W,1,07,1.5,288.1,M,-23.7,M,18.8,0000*77
$GPGSA,A,3,09,12,17,02,05,04,10,,,,,,2.2,1.5,1.7*3E
$GPRMC,091021.000,A,3353.7477,N,09832.0355,W,0.20,338.57,030412,,,A*7D
$GPGGA,091022.000,3353.7477,N,09832.0356,W,1,07,1.5,288.0,M,-23.7,M,18.8,0000*76
$GPGSA,A,3,09,12,17,02,05,04,10,,,,,,2.2,1.5,1.7*3E
$GPRMC,091022.000,A,3353.7477,N,09832.0356,W,0.18,2.13,030412,,,A*7C
$GPGGA,091023.000,3353.7477,N,09832.0356,W,1,06,2.3,287.9,M,-23.7,M,18.8,0000*75
$GPGSA,A,3,12,17,02,05,04,10,,,,,,,4.2,2.3,3.5*34
$GPRMC,091023.000,A,3353.7477,N,09832.0356,W,0.11,352.06,030412,,,A*76
$GPGGA,091024.000,3353.7477,N,09832.0357,W,1,06,2.3,287.8,M,-23.7,M,18.8,0000*72
$GPGSA,A,3,12,17,02,05,04,10,,,,,,,4.2,2.3,3.5*34
$GPRMC,091024.000,A,3353.7477,N,09832.0357,W,0.10,350.76,030412,,,A*74
$GPGGA,091025.000,3353.7477,N,09832.0358,W,1,06,2.3,287.8,M,-23.7,M,18.8,0000*7C
$GPGSA,A,3,12,17,02,05,04,10,,,,,,,4.2,2.3,3.5*34
$GPGSV,3,1,11,02,71,356,34,12,67,278,26,10,50,076,36,05,45,171,34*77
$GPGSV,3,2,11,04,40,045,30,25,29,314,14,17,10,100,38,09,10,225,07*72
$GPGSV,3,3,11,29,06,295,,27,05,212,,13,00,067,*48
$GPRMC,091025.000,A,3353.7477,N,09832.0358,W,0.08,342.16,030412,,,A*76
$GPGGA,091026.000,3353.7477,N,09832.0358,W,1,06,2.3,287.8,M,-23.7,M,18.8,0000*7F
$GPGSA,A,3,12,17,02,05,04,10,,,,,,,4.2,2.3,3.5*34
$GPRMC,091026.000,A,3353.7477,N,09832.0358,W,0.06,356.88,030412,,,A*79
$GPGGA,091027.000,3353.7477,N,09832.0358,W,1,06,2.3,287.8,M,-23.7,M,18.8,0000*7E
$GPGSA,A,3,12,17,02,05,04,10,,,,,,,4.2,2.3,3.5*34
$GPRMC,091027.000,A,3353.7477,N,09832.0358,W,0.07,10.57,030412,,,A*4A
$GPGGA,091028.000,3353.7476,N,09832.0359,W,1,06,2.3,287.9,M,-23.7,M,18.8,0000*70
$GPGSA,A,3,12,17,02,05,04,10,,,,,,,4.2,2.3,3.5*34
$GPRMC,091028.000,A,3353.7476,N,09832.0359,W,0.05,8.63,030412,,,A*79
$GPGGA,091029.000,3353.7476,N,09832.0359,W,1,06,2.3,287.9,M,-23.7,M,18.8,0000*71
$GPGSA,A,3,12,17,02,05,04,10,,,,,,,4.2,2.3,3.5*34
$GPRMC,091029.000,A,3353.7476,N,09832.0359,W,0.04,18.14,030412,,,A*48
$GPGGA,091030.000,3353.7476,N,09832.0359,W,1,06,2.3,287.9,M,-23.7,M,18.8,0000*79
$GPGSA,A,3,12,17,02,05,04,10,,,,,,,4.2,2.3,3.5*34
$GPGSV,3,1,11,02,71,356,34,12,67,278,26,10,50,076,36,05,45,171,34*77
$GPGSV,3,2,11,04,40,045,30,25,29,314,13,17,10,100,37,09,10,225,*7D
$GPGSV,3,3,11,29,06,295,,27,05,212,,13,00,067,*48
$GPRMC,091030.000,A,3353.7476,N,09832.0359,W,0.08,17.32,030412,,,A*47
$GPGGA,091031.000,3353.7476,N,09832.0359,W,1,06,2.3,288.0,M,-23.7,M,18.8,0000*7E
$GPGSA,A,3,12,17,02,05,04,10,,,,,,,4.2,2.3,3.5*34
$GPRMC,091031.000,A,3353.7476,N,09832.0359,W,0.04,28.89,030412,,,A*46
$GPGGA,091032.000,3353.7476,N,09832.0359,W,1,06,2.3,288.1,M,-23.7,M,18.8,0000*7C
$GPGSA,A,3,12,17,02,05,04,10,,,,,,,4.2,2.3,3.5*34
$GPRMC,091032.000,A,3353.7476,N,09832.0359,W,0.06,33.82,030412,,,A*46
$GPGGA,091033.000,3353.7476,N,09832.0359,W,1,07,1.5,288.2,M,-23.7,M,18.8,0000*7A
$GPGSA,A,3,09,12,17,02,05,04,10,,,,,,2.2,1.5,1.7*3E
$GPRMC,091033.000,A,3353.7476,N,09832.0359,W,0.24,61.87,030412,,,A*45
$GPGGA,091034.000,3353.7476,N,09832.0358,W,1,07,1.5,288.4,M,-23.7,M,18.8,0000*7A
$GPGSA,A,3,09,12,17,02,05,04,10,,,,,,2.2,1.5,1.7*3E
$GPRMC,091034.000,A,3353.7476,N,09832.0358,W,0.17,66.35,030412,,,A*4D
$GPGGA,091035.000,3353.7475,N,09832.0358,W,1,07,1.5,288.6,M,-23.7,M,18.8,0000*7A
$GPGSA,A,3,09,12,17,02,05,04,10,,,,,,2.2,1.5,1.7*3E
$GPGSV,3,1,11,02,71,356,35,12,67,278,25,10,50,076,36,05,45,171,34*75
$GPGSV,3,2,11,04,40,045,31,25,29,314,14,17,10,100,37,09,10,225,17*7D
$GPGSV,3,3,11,29,06,295,,27,05,212,,13,00,067,*48
$GPRMC,091035.000,A,3353.7475,N,09832.0358,W,0.09,169.70,030412,,,A*7F
$GPGGA,091036.000,3353.7474,N,09832.0358,W,1,07,1.5,288.8,M,-23.7,M,18.8,0000*76
$GPGSA,A,3,09,12,17,02,05,04,10,,,,,,2.2,1.5,1.7*3E
$GPRMC,091036.000,A,3353.7474,N,09832.0358,W,0.20,209.24,030412,,,A*72
$GPGGA,091037.000,3353.7473,N,09832.0358,W,1,07,1.5,289.0,M,-23.7,M,18.8,0000*79
$GPGSA,A,3,09,12,17,02,05,04,10,,,,,,2.2,1.5,1.7*3E
$GPRMC,091037.000,A,3353.7473,N,09832.0358,W,0.09,195.41,030412,,,A*7A
$GPGGA,091038.000,3353.7473,N,09832.0357,W,1,07,1.5,289.2,M,-23.7,M,18.8,0000*7B
$GPGSA,A,3,09,12,17,02,05,04,10,,,,,,2.2,1.5,1.7*3E
$GPRMC,091038.000,A,3353.7473,N,09832.0357,W,0.09,91.51,030412,,,A*4E
$GPGGA,091039.000,3353.7473,N,09832.0356,W,1,07,1.5,289.3,M,-23.7,M,18.8,0000*7A
$GPGSA,A,3,09,12,17,02,05,04,10,,,,,,2.2,1.5,1.7*3E
$GPRMC,091039.000,A,3353.7473,N,09832.0356,W,0.12,79.79,030412,,,A*48
$GPGGA,091040.000,3353.7472,N,09832.0356,W,1,07,1.5,289.5,M,-23.7,M,18.8,0000*73
$GPGSA,A,3,09,12,17,02,05,04,10,,,,,,2.2,1.5,1.7*3E
$GPGSV,3,1,11,02,71,356,35,12,67,278,26,10,50,076,36,05,45,171,35*77
$GPGSV,3,2,11,04,40,045,31,25,29,314,17,17,10,100,37,09,10,225,18*71
$GPGSV,3,3,11,29,06,295,,27,05,212,16,13,00,067,*4F
$GPRMC,091040.000,A,3353.7472,N,09832.0356,W,0.08,230.83,030412,,,A*76
$GPGGA,091041.000,3353.7472,N,09832.0355,W,1,07,1.5,289.7,M,-23.7,M,18.8,0000*73
$GPGSA,A,3,09,12,17,02,05,04,10,,,,,,2.2,1.5,1.7*3E
$GPRMC,091041.000,A,3353.7472,N,09832.0355,W,0.25,69.22,030412,,,A*4E
$GPGGA,091042.000,3353.7472,N,09832.0353,W,1,07,1.5,290.0,M,-23.7,M,18.8,0000*79
$GPGSA,A,3,09,12,17,02,05,04,10,,,,,,2.2,1.5,1.7*3E
$GPRMC,091042.000,A,3353.7472,N,09832.0353,W,0.36,65.42,030412,,,A*43
$GPGGA,091043.000,3353.7472,N,09832.0350,W,1,07,1.5,290.3,M,-23.7,M,18.8,0000*78
$GPGSA,A,3,09,12,17,02,05,04,10,,,,,,2.2,1.5,1.7*3E
$GPRMC,091043.000,A,3353.7472,N,09832.0350,W,0.46,70.04,030412,,,A*40
$GPGGA,091044.000,3353.7471,N,09832.0348,W,1,07,1.5,290.8,M,-23.7,M,18.8,0000*7E
$GPGSA,A,3,09,12,17,02,05,04,10,,,,,,2.2,1.5,1.7*3E
$GPRMC,091044.000,A,3353.7471,N,09832.0348,W,0.49,76.13,030412,,,A*42
$GPGGA,091045.000,3353.7471,N,09832.0346,W,1,07,1.5,291.3,M,-23.7,M,18.8,0000*7B
$GPGSA,A,3,09,12,17,02,05,04,10,,,,,,2.2,1.5,1.7*3E
$GPGSV,3,1,11,02,71,356,35,12,67,278,26,10,50,076,35,05,45,171,35*74
$GPGSV,3,2,11,04,40,045,31,25,29,314,19,17,10,100,37,09,10,225,16*71
$GPGSV,3,3,11,29,06,295,,27,05,212,14,13,00,067,*4D
$GPRMC,091045.000,A,3353.7471,N,09832.0346,W,0.31,101.31,030412,,,A*73
$GPGGA,091046.000,3353.7470,N,09832.0343,W,1,07,1.5,291.8,M,-23.7,M,18.8,0000*77
$GPGSA,A,3,09,12,17,02,05,04,10,,,,,,2.2,1.5,1.7*3E
$GPRMC,091046.000,A,3353.7470,N,09832.0343,W,0.46,88.58,030412,,,A*4B
$GPGGA,091047.000,3353.7469,N,09832.0341,W,1,06,2.3,292.3,M,-23.7,M,18.8,0000*70
$GPGSA,A,3,12,17,02,05,04,10,,,,,,,4.2,2.3,3.5*34
$GPRMC,091047.000,A,3353.7469,N,09832.0341,W,0.30,98.41,030412,,,A*48
$GPGGA,091048.000,3353.7469,N,09832.0339,W,1,06,2.3,292.8,M,-23.7,M,18.8,0000*7B
$GPGSA,A,3,12,17,02,05,04,10,,,,,,,4.2,2.3,3.5*34
$GPRMC,091048.000,A,3353.7469,N,09832.0339,W,0.25,98.77,030412,,,A*49
$GPGGA,091049.000,3353.7468,N,09832.0337,W,1,06,2.3,293.2,M,-23.7,M,18.8,0000*7E
$GPGSA,A,3,12,17,02,05,04,10,,,,,,,4.2,2.3,3.5*34
$GPRMC,091049.000,A,3353.7468,N,09832.0337,W,0.38,99.91,030412,,,A*42
$GPGGA,091050.000,3353.7468,N,09832.0335,W,1,06,2.3,293.6,M,-23.7,M,18.8,0000*70
$GPGSA,A,3,12,17,02,05,04,10,,,,,,,4.2,2.3,3.5*34
$GPGSV,3,1,11,02,71,357,35,12,67,277,25,10,50,075,35,05,45,171,35*7A
$GPGSV,3,2,11,04,40,045,31,25,29,314,20,17,10,101,37,09,10,224,*7C
$GPGSV,3,3,11,29,06,296,,27,04,212,,13,00,067,*4A
$GPRMC,091050.000,A,3353.7468,N,09832.0335,W,0.32,98.82,030412,,,A*41
$GPGGA,091051.000,3353.7467,N,09832.0335,W,1,06,2.3,293.9,M,-23.7,M,18.8,0000*71
$GPGSA,A,3,12,17,02,05,04,10,,,,,,,4.2,2.3,3.5*34
$GPRMC,091051.000,A,3353.7467,N,09832.0335,W,0.04,33.49,030412,,,A*4C
$GPGGA,091052.000,3353.7467,N,09832.0335,W,1,06,2.3,294.0,M,-23.7,M,18.8,0000*7C
$GPGSA,A,3,12,17,02,05,04,10,,,,,,,4.2,2.3,3.5*34
$GPRMC,091052.000,A,3353.7467,N,09832.0335,W,0.05,22.58,030412,,,A*4E
$GPGGA,091053.000,3353.7467,N,09832.0336,W,1,06,2.3,294.1,M,-23.7,M,18.8,0000*7F
$GPGSA,A,3,12,17,02,05,04,10,,,,,,,4.2,2.3,3.5*34
$GPRMC,091053.000,A,3353.7467,N,09832.0336,W,0.10,311.65,030412,,,A*75
$GPGGA,091054.000,3353.7467,N,09832.0337,W,1,06,2.3,294.1,M,-23.7,M,18.8,0000*79
$GPGSA,A,3,12,17,02,05,04,10,,,,,,,4.2,2.3,3.5*34
$GPRMC,091054.000,A,3353.7467,N,09832.0337,W,0.19,308.10,030412,,,A*70
$GPGGA,091055.000,3353.7468,N,09832.0338,W,1,06,2.3,294.0,M,-23.7,M,18.8,0000*79
$GPGSA,A,3,12,17,02,05,04,10,,,,,,,4.2,2.3,3.5*34
$GPGSV,3,1,11,02,71,357,35,12,67,277,21,10,50,075,35,05,45,171,36*7D
$GPGSV,3,2,11,04,40,045,31,25,29,314,20,17,10,101,37,09,10,224,*7C
$GPGSV,3,3,11,29,06,296,,27,04,212,,13,00,067,*4A
$GPRMC,091055.000,A,3353.7468,N,09832.0338,W,0.18,303.91,030412,,,A*72
$GPGGA,091056.000,3353.7468,N,09832.0340,W,1,06,2.3,293.9,M,-23.7,M,18.8,0000*7B
$GPGSA,A,3,12,17,02,05,04,10,,,,,,,4.2,2.3,3.5*34
$GPRMC,091056.000,A,3353.7468,N,09832.0340,W,0.30,298.83,030412,,,A*74
$GPGGA,091057.000,3353.7469,N,09832.0342,W,1,06,2.3,293.6,M,-23.7,M,18.8,0000*76
$GPGSA,A,3,12,17,02,05,04,10,,,,,,,4.2,2.3,3.5*34
$GPRMC,091057.000,A,3353.7469,N,09832.0342,W,0.31,299.52,030412,,,A*7A
$GPGGA,091058.000,3353.7469,N,09832.0344,W,1,07,1.5,293.4,M,-23.7,M,18.8,0000*79
$GPGSA,A,3,09,12,17,02,05,04,10,,,,,,2.2,1.5,1.7*3E
$GPRMC,091058.000,A,3353.7469,N,09832.0344,W,0.18,328.76,030412,,,A*75
$GPGGA,091059.000,3353.7469,N,09832.0344,W,1,07,1.5,293.2,M,-23.7,M,18.8,0000*7E
$GPGSA,A,3,09,12,17,02,05,04,10,,,,,,2.2,1.5,1.7*3E
$GPRMC,091059.000,A,3353.7469,N,09832.0344,W,0.10,55.62,030412,,,A*40
$GPGGA,091100.000,3353.7469,N,09832.0346,W,1,07,1.5,293.0,M,-23.7,M,18.8,0000*73
$GPGSA,A,3,09,12,17,02,05,04,10,,,,,,2.2,1.5,1.7*3E
$GPGSV,3,1,11,02,71,357,35,12,67,277,21,10,50,075,35,05,45,171,36*7D
$GPGSV,3,2,11,04,40,045,32,25,29,314,20,17,10,101,37,09,10,224,18*76
$GPGSV,3,3,11,29,06,296,,27,04,212,,13,00,067,*4A
$GPRMC,091100.000,A,3353.7469,N,09832.0346,W,0.03,174.55,030412,,,A*7B
$GPGGA,091101.000,3353.7469,N,09832.0347,W,1,07,1.5,292.8,M,-23.7,M,18.8,0000*7A
$GPGSA,A,3,09,12,17,02,05,04,10,,,,,,2.2,1.5,1.7*3E
$GPRMC,091101.000,A,3353.7469,N,09832.0347,W,0.13,264.41,030412,,,A*7D
$GPGGA,091102.000,3353.7469,N,09832.0348,W,1,06,2.3,292.6,M,-23.7,M,18.8,0000*7C
$GPGSA,A,3,12,17,02,05,04,10,,,,,,,4.2,2.3,3.5*34
$GPRMC,091102.000,A,3353.7469,N,09832.0348,W,0.27,278.91,030412,,,A*76
$GPGGA,091103.000,3353.7469,N,09832.0349,W,1,06,2.3,292.4,M,-23.7,M,18.8,0000*7E
$GPGSA,A,3,12,17,02,05,04,10,,,,,,,4.2,2.3,3.5*34
$GPRMC,091103.000,A,3353.7469,N,09832.0349,W,0.28,280.61,030412,,,A*71
$GPGGA,091104.000,3353.7469,N,09832.0349,W,1,06,2.3,292.3,M,-23.7,M,18.8,0000*7E
$GPGSA,A,3,12,17,02,05,04,10,,,,,,,4.2,2.3,3.5*34
$GPRMC,091104.000,A,3353.7469,N,09832.0349,W,0.04,356.76,030412,,,A*74
$GPGGA,091105.000,3353.7469,N,09832.0349,W,1,06,2.3,292.3,M,-23.7,M,18.8,0000*7F
$GPGSA,A,3,12,17,02,05,04,10,,,,,,,4.2,2.3,3.5*34
$GPGSV,3,1,11,02,71,357,35,12,67,277,22,10,50,075,35,05,45,171,36*7E
$GPGSV,3,2,11,04,40,045,32,25,29,314,19,17,10,101,37,09,10,224,16*72
$GPGSV,3,3,11,29,06,296,,27,04,212,,13,00,067,*4A
$GPRMC,091105.000,A,3353.7469,N,09832.0349,W,0.06,306.22,030412,,,A*73
$GPGGA,091106.000,3353.7469,N,09832.0349,W,1,06,2.3,292.2,M,-23.7,M,18.8,0000*7D
$GPGSA,A,3,12,17,02,05,04,10,,,,,,,4.2,2.3,3.5*34
$GPRMC,091106.000,A,3353.7469,N,09832.0349,W,0.07,36.18,030412,,,A*48
$GPGGA,091107.000,3353.7469,N,09832.0348,W,1,06,2.3,292.2,M,-23.7,M,18.8,0000*7D
$GPGSA,A,3,12,17,02,05,04,10,,,,,,,4.2,2.3,3.5*34
$GPRMC,091107.000,A,3353.7469,N,09832.0348,W,0.03,23.14,030412,,,A*44
$GPGGA,091108.000,3353.7469,N,09832.0348,W,1,06,2.3,292.3,M,-23.7,M,18.8,0000*73
$GPGSA,A,3,12,17,02,05,04,10,,,,,,,4.2,2.3,3.5*34
$GPRMC,091108.000,A,3353.7469,N,09832.0348,W,0.20,298.79,030412,,,A*73
$GPGGA,091109.000,3353.7468,N,09832.0347,W,1,06,2.3,292.6,M,-23.7,M,18.8,0000*79
$GPGSA,A,3,12,17,02,05,04,10,,,,,,,4.2,2.3,3.5*34
$GPRMC,091109.000,A,3353.7468,N,09832.0347,W,0.17,288.51,030412,,,A*73
$GPGGA,091110.000,3353.7468,N,09832.0345,W,1,06,2.3,292.9,M,-23.7,M,18.8,0000*7C
$GPGSA,A,3,12,17,02,05,04,10,,,,,,,4.2,2.3,3.5*34
$GPGSV,3,1,11,02,71,357,34,12,67,277,23,10,50,075,35,05,45,171,36*7E
$GPGSV,3,2,11,04,40,045,32,25,29,314,18,17,10,101,37,09,10,224,*74
$GPGSV,3,3,11,29,06,296,,27,04,212,,13,00,067,*4A
$GPRMC,091110.000,A,3353.7468,N,09832.0345,W,0.10,322.90,030412,,,A*72
$GPGGA,091111.000,3353.7467,N,09832.0343,W,1,06,2.3,293.2,M,-23.7,M,18.8,0000*7E
$GPGSA,A,3,12,17,02,05,04,10,,,,,,,4.2,2.3,3.5*34
$GPRMC,091111.000,A,3353.7467,N,09832.0343,W,0.20,83.91,030412,,,A*40
$GPGGA,091112.000,3353.7467,N,09832.0340,W,1,06,2.3,293.6,M,-23.7,M,18.8,0000*7A
$GPGSA,A,3,12,17,02,05,04,10,,,,,,,4.2,2.3,3.5*34
$GPRMC,091112.000,A,3353.7467,N,09832.0340,W,0.34,95.62,030412,,,A*4E
$GPGGA,091113.000,3353.7466,N,09832.0336,W,1,06,2.3,294.1,M,-23.7,M,18.8,0000*7B
$GPGSA,A,3,12,17,02,05,04,10,,,,,,,4.2,2.3,3.5*34
$GPRMC,091113.000,A,3353.7466,N,09832.0336,W,0.52,98.98,030412,,,A*47
$GPGGA,091114.000,3353.7465,N,09832.0333,W,1,06,2.3,294.6,M,-23.7,M,18.8,0000*7D
$GPGSA,A,3,12,17,02,05,04,10,,,,,,,4.2,2.3,3.5*34
$GPRMC,091114.000,A,3353.7465,N,09832.0333,W,0.35,98.48,030412,,,A*4A
$GPGGA,091115.000,3353.7464,N,09832.0330,W,1,06,2.3,295.2,M,-23.7,M,18.8,0000*7B
$GPGSA,A,3,12,17,02,05,04,10,,,,,,,4.2,2.3,3.5*34
$GPGSV,3,1,11,02,71,357,34,12,67,277,23,10,50,075,35,05,45,171,36*7E
$GPGSV,3,2,11,04,40,045,32,25,29,314,18,17,10,101,37,09,10,224,*74
$GPGSV,3,3,11,29,06,296,,27,04,212,,13,00,067,*4A
$GPRMC,091115.000,A,3353.7464,N,09832.0330,W,0.32,97.28,030412,,,A*47
$GPGGA,091116.000,3353.7463,N,09832.0327,W,1,06,2.3,295.8,M,-23.7,M,18.8,0000*73
$GPGSA,A,3,12,17,02,05,04,10,,,,,,,4.2,2.3,3.5*34
$GPRMC,091116.000,A,3353.7463,N,09832.0327,W,0.25,95.92,030412,,,A*40
$GPGGA,091117.000,3353.7463,N,09832.0323,W,1,06,2.3,296.3,M,-23.7,M,18.8,0000*7E
$GPGSA,A,3,12,17,02,05,04,10,,,,,,,4.2,2.3,3.5*34
$GPRMC,091117.000,A,3353.7463,N,09832.0323,W,0.32,98.91,030412,,,A*4D
$GPGGA,091118.000,3353.7462,N,09832.0320,W,1,06,2.3,296.9,M,-23.7,M,18.8,0000*79
$GPGSA,A,3,12,17,02,05,04,10,,,,,,,4.2,2.3,3.5*34
$GPRMC,091118.000,A,3353.7462,N,09832.0320,W,0.43,100.72,030412,,,A*7B
$GPGGA,091119.000,3353.7461,N,09832.0317,W,1,06,2.3,297.4,M,-23.7,M,18.8,0000*73
$GPGSA,A,3,12,17,02,05,04,10,,,,,,,4.2,2.3,3.5*34
$GPRMC,091119.000,A,3353.7461,N,09832.0317,W,0.23,94.21,030412,,,A*41
$GPGGA,091120.000,3353.7461,N,09832.0315,W,1,06,2.3,298.0,M,-23.7,M,18.8,0000*70
$GPGSA,A,3,12,17,02,05,04,10,,,,,,,4.2,2.3,3.5*34
$GPGSV,3,1,11,02,71,357,34,12,67,277,23,10,50,075,36,05,45,171,36*7D
$GPGSV,3,2,11,04,40,045,32,25,29,314,18,17,10,101,37,09,10,224,*74
$GPGSV,3,3,11,29,06,296,,27,04,212,,13,00,067,*4A
$GPRMC,091120.000,A,3353.7461,N,09832.0315,W,0.13,94.04,030412,,,A*4D
$GPGGA,091121.000,3353.7460,N,09832.0312,W,1,06,2.3,298.5,M,-23.7,M,18.8,0000*72
$GPGSA,A,3,12,17,02,05,04,10,,,,,,,4.2,2.3,3.5*34
$GPRMC,091121.000,A,3353.7460,N,09832.0312,W,0.23,91.06,030412,,,A*4E
$GPGGA,091122.000,3353.7459,N,09832.0309,W,1,06,2.3,299.0,M,-23.7,M,18.8,0000*75
$GPGSA,A,3,12,17,02,05,04,10,,,,,,,4.2,2.3,3.5*34
$GPRMC,091122.000,A,3353.7459,N,09832.0309,W,0.28,98.89,030412,,,A*48
$GPGGA,091123.000,3353.7459,N,09832.0306,W,1,06,2.3,299.6,M,-23.7,M,18.8,0000*7D
$GPGSA,A,3,12,17,02,05,04,10,,,,,,,4.2,2.3,3.5*34
$GPRMC,091123.000,A,3353.7459,N,09832.0306,W,0.28,99.61,030412,,,A*41
$GPGGA,091124.000,3353.7457,N,09832.0301,W,1,06,2.3,300.3,M,-23.7,M,18.8,0000*77
$GPGSA,A,3,12,17,02,05,04,10,,,,,,,4.2,2.3,3.5*34
$GPRMC,091124.000,A,3353.7457,N,09832.0301,W,0.54,102.29,030412,,,A*7B
$GPGGA,091125.000,3353.7457,N,09832.0297,W,1,06,2.3,301.0,M,-23.7,M,18.8,0000*7A
$GPGSA,A,3,12,17,02,05,04,10,,,,,,,4.2,2.3,3.5*34
$GPGSV,3,1,11,02,71,357,33,12,67,277,23,10,50,075,36,05,45,171,36*7A
$GPGSV,3,2,11,04,40,045,32,25,29,314,18,17,10,101,37,09,10,224,*74
$GPGSV,3,3,11,29,06,296,,27,04,212,,13,00,067,*4A
$GPRMC,091125.000,A,3353.7457,N,09832.0297,W,0.47,100.09,030412,,,A*76
$GPGGA,091126.000,3353.7456,N,09832.0293,W,1,06,2.3,301.7,M,-23.7,M,18.8,0000*7B
$GPGSA,A,3,12,17,02,05,04,10,,,,,,,4.2,2.3,3.5*34
$GPRMC,091126.000,A,3353.7456,N,09832.0293,W,0.46,100.74,030412,,,A*7B
$GPGGA,091127.000,3353.7455,N,09832.0290,W,1,06,2.3,302.3,M,-23.7,M,18.8,0000*7D
$GPGSA,A,3,12,17,02,05,04,10,,,,,,,4.2,2.3,3.5*34
$GPRMC,091127.000,A,3353.7455,N,09832.0290,W,0.28,103.00,030412,,,A*72
$GPGGA,091128.000,3353.7454,N,09832.0287,W,1,06,2.3,302.9,M,-23.7,M,18.8,0000*7F
$GPGSA,A,3,12,17,02,05,04,10,,,,,,,4.2,2.3,3.5*34
$GPRMC,091128.000,A,3353.7454,N,09832.0287,W,0.30,97.43,030412,,,A*48
$GPGGA,091129.000,3353.7453,N,09832.0283,W,1,06,2.3,303.7,M,-23.7,M,18.8,0000*72
$GPGSA,A,3,12,17,02,05,04,10,,,,,,,4.2,2.3,3.5*34
$GPRMC,091129.000,A,3353.7453,N,09832.0283,W,0.42,101.84,030412,,,A*7A
$GPGGA,091130.000,3353.7452,N,09832.0278,W,1,06,2.3,304.5,M,-23.7,M,18.8,0000*7A
$GPGSA,A,3,12,17,02,05,04,10,,,,,,,4.2,2.3,3.5*34
$GPGSV,3,1,11,02,71,357,33,12,67,277,24,10,50,075,36,05,45,171,36*7D
$GPGSV,3,2,11,04,40,045,33,25,29,314,18,17,10,101,37,09,10,224,*75
$GPGSV,3,3,11,29,06,296,,27,04,212,,13,00,067,*4A
$GPRMC,091130.000,A,3353.7452,N,09832.0278,W,0.38,101.40,030412,,,A*72
$GPGGA,091131.000,3353.7451,N,09832.0274,W,1,06,2.3,305.3,M,-23.7,M,18.8,0000*73
$GPGSA,A,3,12,17,02,05,04,10,,,,,,,4.2,2.3,3.5*34
$GPRMC,091131.000,A,3353.7451,N,09832.0274,W,0.38,99.99,030412,,,A*48
$GPGGA,091132.000,3353.7450,N,09832.0270,W,1,06,2.3,306.0,M,-23.7,M,18.8,0000*75
$GPGSA,A,3,12,17,02,05,04,10,,,,,,,4.2,2.3,3.5*34
$GPRMC,091132.000,A,3353.7450,N,09832.0270,W,0.57,101.32,030412,,,A*76
$GPGGA,091133.000,3353.7449,N,09832.0264,W,1,06,2.3,306.9,M,-23.7,M,18.8,0000*70
$GPGSA,A,3,12,17,02,05,04,10,,,,,,,4.2,2.3,3.5*34
$GPRMC,091133.000,A,3353.7449,N,09832.0264,W,0.74,103.50,030412,,,A*7D
$GPGGA,091134.000,3353.7448,N,09832.0258,W,1,06,2.3,307.9,M,-23.7,M,18.8,0000*78
$GPGSA,A,3,12,17,02,05,04,10,,,,,,,4.2,2.3,3.5*34
$GPRMC,091134.000,A,3353.7448,N,09832.0258,W,0.67,104.02,030412,,,A*76
$GPGGA,091135.000,3353.7446,N,09832.0253,W,1,06,2.3,308.9,M,-23.7,M,18.8,0000*73
$GPGSA,A,3,12,17,02,05,04,10,,,,,,,4.2,2.3,3.5*34
$GPGSV,3,1,11,02,71,357,33,12,67,277,24,10,50,075,37,05,45,171,35*7F
$GPGSV,3,2,11,04,40,045,33,25,29,314,18,17,10,101,36,09,10,224,*74
$GPGSV,3,3,11,29,06,296,,27,04,212,,13,00,067,*4A
$GPRMC,091135.000,A,3353.7446,N,09832.0253,W,0.66,104.19,030412,,,A*79
$GPGGA,091136.000,3353.7445,N,09832.0247,W,1,06,2.3,309.9,M,-23.7,M,18.8,0000*77
$GPGSA,A,3,12,17,02,05,04,10,,,,,,,4.2,2.3,3.5*34
$GPRMC,091136.000,A,3353.7445,N,09832.0247,W,0.67,104.44,030412,,,A*75
$GPGGA,091137.000,3353.7444,N,09832.0242,W,1,06,2.3,310.9,M,-23.7,M,18.8,0000*7A
$GPGSA,A,3,12,17,02,05,04,10,,,,,,,4.2,2.3,3.5*34
$GPRMC,091137.000,A,3353.7444,N,09832.0242,W,0.58,105.62,030412,,,A*79
$GPGGA,091138.000,3353.7442,N,09832.0237,W,1,06,2.3,311.8,M,-23.7,M,18.8,0000*71
$GPGSA,A,3,12,17,02,05,04,10,,,,,,,4.2,2.3,3.5*34
$GPRMC,091138.000,A,3353.7442,N,09832.0237,W,0.54,104.61,030412,,,A*7C
$GPGGA,091139.000,3353.7441,N,09832.0232,W,1,06,2.3,312.6,M,-23.7,M,18.8,0000*7B
$GPGSA,A,3,12,17,02,05,04,10,,,,,,,4.2,2.3,3.5*34
$GPRMC,091139.000,A,3353.7441,N,09832.0232,W,0.52,103.23,030412,,,A*7C
$GPGGA,091140.000,3353.7440,N,09832.0228,W,1,06,2.3,313.3,M,-23.7,M,18.8,0000*7B
$GPGSA,A,3,12,17,02,05,04,10,,,,,,,4.2,2.3,3.5*34
$GPGSV,3,1,12,02,71,357,33,12,67,277,24,10,50,075,37,05,45,171,35*7C
$GPGSV,3,2,12,04,40,045,33,25,29,314,19,17,10,101,36,09,10,224,*76
$GPGSV,3,3,12,29,06,296,,27,04,212,,13,00,067,,51,49,195,33*7D
$GPRMC,091140.000,A,3353.7440,N,09832.0228,W,0.43,101.99,030412,,,A*7B
$GPGGA,091141.000,3353.7440,N,09832.0225,W,1,06,2.3,313.9,M,-23.7,M,18.8,0000*7D
$GPGSA,A,3,12,17,02,05,04,10,,,,,,,4.2,2.3,3.5*34
$GPRMC,091141.000,A,3353.7440,N,09832.0225,W,0.37,100.66,030412,,,A*75
$GPGGA,091142.000,3353.7439,N,09832.0222,W,1,06,2.3,314.5,M,-23.7,M,18.8,0000*7C
$GPGSA,A,3,12,17,02,05,04,10,,,,,,,4.2,2.3,3.5*34
$GPRMC,091142.000,A,3353.7439,N,09832.0222,W,0.38,102.98,030412,,,A*73
$GPGGA,091143.000,3353.7438,N,09832.0220,W,1,07,1.5,314.9,M,-23.7,M,18.8,0000*76
$GPGSA,A,3,09,12,17,02,05,04,10,,,,,,2.2,1.5,1.6*3F
$GPRMC,091143.000,A,3353.7438,N,09832.0220,W,0.27,105.56,030412,,,A*7A
$GPGGA,091144.000,3353.7438,N,09832.0218,W,1,07,1.5,315.3,M,-23.7,M,18.8,0000*71
$GPGSA,A,3,09,12,17,02,05,04,10,,,,,,2.2,1.5,1.6*3F
$GPRMC,091144.000,A,3353.7438,N,09832.0218,W,0.11,119.29,030412,,,A*76
$GPGGA,091145.000,3353.7438,N,09832.0218,W,1,07,1.5,315.4,M,-23.7,M,18.8,0000*77
$GPGSA,A,3,09,12,17,02,05,04,10,,,,,,2.2,1.5,1.6*3F
$GPGSV,3,1,12,02,71,357,33,12,67,277,24,10,50,075,37,05,45,171,35*7C
$GPGSV,3,2,12,04,40,045,34,25,29,314,21,17,10,101,36,09,10,224,14*7F
$GPGSV,3,3,12,29,06,296,,27,04,212,,13,00,067,,51,49,195,31*7F
$GPRMC,091145.000,A,3353.7438,N,09832.0218,W,0.09,285.19,030412,,,A*7B
$GPGGA,091146.000,3353.7438,N,09832.0217,W,1,07,1.5,315.5,M,-23.7,M,18.8,0000*7A
$GPGSA,A,3,09,12,17,02,05,04,10,,,,,,2.2,1.5,1.6*3F
$GPRMC,091146.000,A,3353.7438,N,09832.0217,W,0.04,296.24,030412,,,A*76
$GPGGA,091147.000,3353.7437,N,09832.0215,W,1,07,1.5,315.7,M,-23.7,M,18.8,0000*74
$GPGSA,A,3,09,12,17,02,05,04,10,,,,,,2.2,1.5,1.6*3F
$GPRMC,091147.000,A,3353.7437,N,09832.0215,W,0.28,103.66,030412,,,A*7D
$GPGGA,091148.000,3353.7437,N,09832.0213,W,1,07,1.5,315.9,M,-23.7,M,18.8,0000*73
$GPGSA,A,3,09,12,17,02,05,04,10,,,,,,2.2,1.5,1.6*3F
$GPRMC,091148.000,A,3353.7437,N,09832.0213,W,0.27,98.01,030412,,,A*49
$GPGGA,091149.000,3353.7436,N,09832.0212,W,1,07,1.5,316.1,M,-23.7,M,18.8,0000*79
$GPGSA,A,3,09,12,17,02,05,04,10,,,,,,2.2,1.5,1.6*3F
$GPRMC,091149.000,A,3353.7436,N,09832.0212,W,0.07,95.83,030412,,,A*4D
$GPGGA,091150.000,3353.7436,N,09832.0211,W,1,06,2.3,316.3,M,-23.7,M,18.8,0000*74
$GPGSA,A,3,12,17,02,05,04,10,,,,,,,4.2,2.3,3.5*34
$GPGSV,3,1,12,02,71,358,33,12,67,276,24,10,50,074,37,05,46,171,35*70
$GPGSV,3,2,12,04,40,045,34,25,30,314,22,17,10,101,36,09,09,224,12*7A
$GPGSV,3,3,12,29,06,296,,27,04,212,,13,00,067,,51,49,195,31*7F
$GPRMC,091150.000,A,3353.7436,N,09832.0211,W,0.06,71.41,030412,,,A*43
$GPGGA,091151.000,3353.7436,N,09832.0209,W,1,06,2.3,316.6,M,-23.7,M,18.8,0000*79
$GPGSA,A,3,12,17,02,05,04,10,,,,,,,4.2,2.3,3.5*34
$GPRMC,091151.000,A,3353.7436,N,09832.0209,W,0.19,89.48,030412,,,A*4B
$GPGGA,091152.000,3353.7435,N,09832.0207,W,1,06,2.3,316.9,M,-23.7,M,18.8,0000*78
$GPGSA,A,3,12,17,02,05,04,10,,,,,,,4.2,2.3,3.5*34
$GPRMC,091152.000,A,3353.7435,N,09832.0207,W,0.24,90.71,030412,,,A*49
$GPGGA,091153.000,3353.7435,N,09832.0205,W,1,06,2.3,317.1,M,-23.7,M,18.8,0000*72
$GPGSA,A,3,12,17,02,05,04,10,,,,,,,4.2,2.3,3.5*34
$GPRMC,091153.000,A,3353.7435,N,09832.0205,W,0.20,90.05,030412,,,A*4D
$GPGGA,091154.000,3353.7435,N,09832.0203,W,1,06,2.3,317.4,M,-23.7,M,18.8,0000*76
$GPGSA,A,3,12,17,02,05,04,10,,,,,,,4.2,2.3,3.5*34
$GPRMC,091154.000,A,3353.7435,N,09832.0203,W,0.22,89.59,030412,,,A*4F
$GPGGA,091155.000,3353.7434,N,09832.0201,W,1,06,2.3,317.7,M,-23.7,M,18.8,0000*77
$GPGSA,A,3,12,17,02,05,04,10,,,,,,,4.2,2.3,3.5*34
$GPGSV,3,1,12,02,71,358,33,12,67,276,24,10,50,074,37,05,46,171,35*70
$GPGSV,3,2,12,04,40,045,34,25,30,314,22,17,10,101,36,09,09,224,*79
$GPGSV,3,3,12,29,06,296,,27,04,212,,13,00,067,,51,49,195,30*7E
$GPRMC,091155.000,A,3353.7434,N,09832.0201,W,0.26,97.47,030412,,,A*49
$GPGGA,091156.000,3353.7434,N,09832.0199,W,1,06,2.3,318.1,M,-23.7,M,18.8,0000*7F
$GPGSA,A,3,12,17,02,05,04,10,,,,,,,4.2,2.3,3.5*34
$GPRMC,091156.000,A,3353.7434,N,09832.0199,W,0.28,95.38,030412,,,A*4C
$GPGGA,091157.000,3353.7433,N,09832.0196,W,1,06,2.3,318.5,M,-23.7,M,18.8,0000*72
$GPGSA,A,3,12,17,02,05,04,10,,,,,,,4.2,2.3,3.5*34
$GPRMC,091157.000,A,3353.7433,N,09832.0196,W,0.28,96.66,030412,,,A*4D
$GPGGA,091158.000,3353.7433,N,09832.0194,W,1,06,2.3,318.9,M,-23.7,M,18.8,0000*73
$GPGSA,A,3,12,17,02,05,04,10,,,,,,,4.2,2.3,3.5*34
$GPRMC,091158.000,A,3353.7433,N,09832.0194,W,0.29,95.20,030412,,,A*40
$GPGGA,091159.000,3353.7432,N,09832.0191,W,1,06,2.3,319.2,M,-23.7,M,18.8,0000*7C
$GPGSA,A,3,12,17,02,05,04,10,,,,,,,4.2,2.3,3.5*34
$GPRMC,091159.000,A,3353.7432,N,09832.0191,W,0.25,96.95,030412,,,A*44
$GPGGA,091200.000,3353.7432,N,09832.0190,W,1,06,2.3,319.6,M,-23.7,M,18.8,0000*76
$GPGSA,A,3,12,17,02,05,04,10,,,,,,,4.2,2.3,3.5*34
$GPGSV,3,1,11,02,71,358,33,12,67,276,24,10,50,074,37,05,46,171,36*70
$GPGSV,3,2,11,04,40,045,33,25,30,314,23,17,10,101,36,09,09,224,*7C
$GPGSV,3,3,11,29,06,296,,27,04,212,,13,00,067,*4A
$GPRMC,091200.000,A,3353.7432,N,09832.0190,W,0.13,81.61,030412,,,A*42
$GPGGA,091201.000,3353.7432,N,09832.0188,W,1,06,2.3,319.9,M,-23.7,M,18.8,0000*71
$GPGSA,A,3,12,17,02,05,04,10,,,,,,,4.2,2.3,3.5*34
$GPRMC,091201.000,A,3353.7432,N,09832.0188,W,0.17,87.97,030412,,,A*41
$GPGGA,091202.000,3353.7431,N,09832.0187,W,1,07,1.5,320.0,M,-23.7,M,18.8,0000*79
$GPGSA,A,3,09,12,17,02,05,04,10,,,,,,2.2,1.5,1.6*3F
$GPRMC,091202.000,A,3353.7431,N,09832.0187,W,0.05,180.14,030412,,,A*70
$GPGGA,091203.000,3353.7431,N,09832.0185,W,1,07,1.5,320.2,M,-23.7,M,18.8,0000*78
$GPGSA,A,3,09,12,17,02,05,04,10,,,,,,2.2,1.5,1.6*3F
$GPRMC,091203.000,A,3353.7431,N,09832.0185,W,0.21,110.14,030412,,,A*7C
$GPGGA,091204.000,3353.7430,N,09832.0184,W,1,07,1.5,320.3,M,-23.7,M,18.8,0000*7E
$GPGSA,A,3,09,12,17,02,05,04,10,,,,,,2.2,1.5,1.6*3F
$GPRMC,091204.000,A,3353.7430,N,09832.0184,W,0.06,176.12,030412,,,A*78
$GPGGA,091205.000,3353.7430,N,09832.0184,W,1,07,1.5,320.4,M,-23.7,M,18.8,0000*78
$GPGSA,A,3,09,12,17,02,05,04,10,,,,,,2.2,1.5,1.6*3F
$GPGSV,3,1,11,02,71,358,33,12,67,276,24,10,50,074,38,05,46,171,36*7F
$GPGSV,3,2,11,04,40,045,33,25,30,314,23,17,10,101,36,09,09,224,18*75
$GPGSV,3,3,11,29,06,296,,27,04,212,,13,00,067,*4A
$GPRMC,091205.000,A,3353.7430,N,09832.0184,W,0.11,242.24,030412,,,A*7E
$GPGGA,091206.000,3353.7430,N,09832.0183,W,1,07,1.5,320.5,M,-23.7,M,18.8,0000*7D
$GPGSA,A,3,09,12,17,02,05,04,10,,,,,,2.2,1.5,1.6*3F
$GPRMC,091206.000,A,3353.7430,N,09832.0183,W,0.16,322.31,030412,,,A*7E
$GPGGA,091207.000,3353.7430,N,09832.0184,W,1,07,1.5,320.5,M,-23.7,M,18.8,0000*7B
$GPGSA,A,3,09,12,17,02,05,04,10,,,,,,2.2,1.5,1.6*3F
$GPRMC,091207.000,A,3353.7430,N,09832.0184,W,0.41,284.33,030412,,,A*75
$GPGGA,091208.000,3353.7430,N,09832.0185,W,1,07,1.5,320.3,M,-23.7,M,18.8,0000*73
$GPGSA,A,3,09,12,17,02,05,04,10,,,,,,2.2,1.5,1.6*3F
$GPRMC,091208.000,A,3353.7430,N,09832.0185,W,0.56,281.86,030412,,,A*76
$GPGGA,091209.000,3353.7431,N,09832.0186,W,1,07,1.5,320.2,M,-23.7,M,18.8,0000*71
$GPGSA,A,3,09,12,17,02,05,04,10,,,,,,2.2,1.5,1.6*3F
$GPRMC,091209.000,A,3353.7431,N,09832.0186,W,0.33,291.30,030412,,,A*7A
$GPGGA,091210.000,3353.7431,N,09832.0187,W,1,07,1.5,320.0,M,-23.7,M,18.8,0000*7A
$GPGSA,A,3,09,12,17,02,05,04,10,,,,,,2.2,1.5,1.6*3F
$GPGSV,3,1,11,02,71,358,33,12,67,276,23,10,50,074,38,05,46,171,36*78
$GPGSV,3,2,11,04,40,045,34,25,30,314,23,17,10,101,36,09,09,224,17*7D
$GPGSV,3,3,11,29,06,296,,27,04,212,,13,00,067,*4A
$GPRMC,091210.000,A,3353.7431,N,09832.0187,W,0.18,288.01,030412,,,A*70
$GPGGA,091211.000,3353.7431,N,09832.0188,W,1,07,1.5,319.8,M,-23.7,M,18.8,0000*76
$GPGSA,A,3,09,12,17,02,05,04,10,,,,,,2.2,1.5,1.6*3F
$GPRMC,091211.000,A,3353.7431,N,09832.0188,W,0.44,285.56,030412,,,A*78
$GPGGA,091212.000,3353.7431,N,09832.0189,W,1,07,1.5,319.6,M,-23.7,M,18.8,0000*7A
$GPGSA,A,3,09,12,17,02,05,04,10,,,,,,2.2,1.5,1.6*3F
$GPRMC,091212.000,A,3353.7431,N,09832.0189,W,0.29,279.81,030412,,,A*78
$GPGGA,091213.000,3353.7432,N,09832.0190,W,1,07,1.5,319.4,M,-23.7,M,18.8,0000*72
$GPGSA,A,3,09,12,17,02,05,04,10,,,,,,2.2,1.5,1.6*3F
$GPRMC,091213.000,A,3353.7432,N,09832.0190,W,0.45,295.34,030412,,,A*74
$GPGGA,091214.000,3353.7433,N,09832.0191,W,1,07,1.5,319.2,M,-23.7,M,18.8,0000*73
$GPGSA,A,3,09,12,17,02,05,04,10,,,,,,2.2,1.5,1.6*3F
$GPRMC,091214.000,A,3353.7433,N,09832.0191,W,0.31,322.55,030412,,,A*7A
$GPGGA,091215.000,3353.7433,N,09832.0192,W,1,07,1.5,319.0,M,-23.7,M,18.8,0000*73
$GPGSA,A,3,09,12,17,02,05,04,10,,,,,,2.2,1.5,1.6*3F
$GPGSV,3,1,11,02,71,358,33,12,67,276,22,10,50,074,38,05,46,171,36*79
$GPGSV,3,2,11,04,40,045,34,25,30,314,22,17,10,101,36,09,09,224,16*7D
$GPGSV,3,3,11,29,06,296,,27,04,212,,13,00,067,*4A
$GPRMC,091215.000,A,3353.7433,N,09832.0192,W,0.24,348.72,030412,,,A*75
$GPGGA,091216.000,3353.7434,N,09832.0193,W,1,07,1.5,318.7,M,-23.7,M,18.8,0000*70
$GPGSA,A,3,09,12,17,02,05,04,10,,,,,,2.2,1.5,1.6*3F
$GPRMC,091216.000,A,3353.7434,N,09832.0193,W,0.20,331.02,030412,,,A*7D
$GPGGA,091217.000,3353.7435,N,09832.0194,W,1,07,1.5,318.5,M,-23.7,M,18.8,0000*75
$GPGSA,A,3,09,12,17,02,05,04,10,,,,,,2.2,1.5,1.6*3F
$GPRMC,091217.000,A,3353.7435,N,09832.0194,W,0.17,303.79,030412,,,A*73
$GPGGA,091218.000,3353.7435,N,09832.0194,W,1,07,1.5,318.3,M,-23.7,M,18.8,0000*7C
$GPGSA,A,3,09,12,17,02,05,04,10,,,,,,2.2,1.5,1.6*3F
$GPRMC,091218.000,A,3353.7435,N,09832.0194,W,0.21,50.93,030412,,,A*48
$GPGGA,091219.000,3353.7435,N,09832.0195,W,1,06,2.3,318.2,M,-23.7,M,18.8,0000*79
$GPGSA,A,3,12,17,02,05,04,10,,,,,,,4.2,2.3,3.5*34
$GPRMC,091219.000,A,3353.7435,N,09832.0195,W,0.16,301.14,030412,,,A*74
$GPGGA,091220.000,3353.7436,N,09832.0197,W,1,06,2.3,317.9,M,-23.7,M,18.8,0000*76
$GPGSA,A,3,12,17,02,05,04,10,,,,,,,4.2,2.3,3.5*34
$GPGSV,3,1,11,02,70,358,33,12,67,275,22,10,50,074,38,05,46,171,36*7B
$GPGSV,3,2,11,04,39,045,34,25,30,313,22,17,10,101,36,09,09,224,16*74
$GPGSV,3,3,11,29,06,296,,27,04,212,,13,00,066,*4B
$GPRMC,091220.000,A,3353.7436,N,09832.0197,W,0.24,278.32,030412,,,A*75
$GPGGA,091221.000,3353.7436,N,09832.0198,W,1,06,2.3,317.7,M,-23.7,M,18.8,0000*76
$GPGSA,A,3,12,17,02,05,04,10,,,,,,,4.2,2.3,3.5*34
$GPRMC,091221.000,A,3353.7436,N,09832.0198,W,0.11,301.33,030412,,,A*73
$GPGGA,091222.000,3353.7436,N,09832.0199,W,1,07,1.5,317.6,M,-23.7,M,18.8,0000*71
$GPGSA,A,3,09,12,17,02,05,04,10,,,,,,2.2,1.5,1.6*3F
$GPRMC,091222.000,A,3353.7436,N,09832.0199,W,0.15,288.08,030412,,,A*7D
$GPGGA,091223.000,3353.7437,N,09832.0201,W,1,07,1.5,317.4,M,-23.7,M,18.8,0000*71
$GPGSA,A,3,09,12,17,02,05,04,10,,,,,,2.2,1.5,1.6*3F
$GPRMC,091223.000,A,3353.7437,N,09832.0201,W,0.33,281.80,030412,,,A*72
$GPGGA,091224.000,3353.7437,N,09832.0202,W,1,07,1.5,317.2,M,-23.7,M,18.8,0000*73
$GPGSA,A,3,09,12,17,02,05,04,10,,,,,,2.2,1.5,1.6*3F
$GPRMC,091224.000,A,3353.7437,N,09832.0202,W,0.36,306.50,030412,,,A*70
$GPGGA,091225.000,3353.7438,N,09832.0204,W,1,06,2.3,317.1,M,-23.7,M,18.8,0000*7C
$GPGSA,A,3,12,17,02,05,04,10,,,,,,,4.2,2.3,3.5*34
$GPGSV,3,1,11,02,70,358,33,12,67,275,21,10,50,074,38,05,46,171,36*78
$GPGSV,3,2,11,04,39,045,34,25,30,313,22,17,10,101,36,09,09,224,16*74
$GPGSV,3,3,11,29,06,296,,27,04,212,,13,00,066,*4B
$GPRMC,091225.000,A,3353.7438,N,09832.0204,W,0.44,292.99,030412,,,A*74
$GPGGA,091226.000,3353.7438,N,09832.0205,W,1,07,1.5,317.0,M,-23.7,M,18.8,0000*7B
$GPGSA,A,3,09,12,17,02,05,04,10,,,,,,2.2,1.5,1.6*3F
$GPRMC,091226.000,A,3353.7438,N,09832.0205,W,0.30,281.58,030412,,,A*7A
$GPGGA,091227.000,3353.7438,N,09832.0205,W,1,07,1.5,317.0,M,-23.7,M,18.8,0000*7A
$GPGSA,A,3,09,12,17,02,05,04,10,,,,,,2.2,1.5,1.6*3F
$GPRMC,091227.000,A,3353.7438,N,09832.0205,W,0.18,325.43,030412,,,A*74
$GPGGA,091228.000,3353.7439,N,09832.0206,W,1,07,1.5,316.9,M,-23.7,M,18.8,0000*7F
$GPGSA,A,3,09,12,17,02,05,04,10,,,,,,2.2,1.5,1.6*3F
$GPRMC,091228.000,A,3353.7439,N,09832.0206,W,0.26,337.88,030412,,,A*70
$GPGGA,091229.000,3353.7440,N,09832.0206,W,1,07,1.5,316.9,M,-23.7,M,18.8,0000*70
$GPGSA,A,3,09,12,17,02,05,04,10,,,,,,2.2,1.5,1.6*3F
$GPRMC,091229.000,A,3353.7440,N,09832.0206,W,0.21,8.95,030412,,,A*7B
$GPGGA,091230.000,3353.7441,N,09832.0207,W,1,07,1.5,316.9,M,-23.7,M,18.8,0000*78
$GPGSA,A,3,09,12,17,02,05,04,10,,,,,,2.2,1.5,1.6*3F
$GPGSV,3,1,11,02,70,358,33,12,67,275,21,10,50,074,38,05,46,171,36*78
$GPGSV,3,2,11,04,39,045,34,25,30,313,22,17,10,101,36,09,09,224,16*74
$GPGSV,3,3,11,29,06,296,,27,04,212,,13,00,066,*4B
$GPRMC,091230.000,A,3353.7441,N,09832.0207,W,0.25,347.42,030412,,,A*75
$GPGGA,091231.000,3353.7442,N,09832.0209,W,1,07,1.5,316.8,M,-23.7,M,18.8,0000*75
$GPGSA,A,3,09,12,17,02,05,04,10,,,,,,2.2,1.5,1.6*3F
$GPRMC,091231.000,A,3353.7442,N,09832.0209,W,0.22,0.20,030412,,,A*7A
$GPGGA,091232.000,3353.7442,N,09832.0210,W,1,07,1.5,316.7,M,-23.7,M,18.8,0000*71
$GPGSA,A,3,09,12,17,02,05,04,10,,,,,,2.2,1.5,1.6*3F
$GPRMC,091232.000,A,3353.7442,N,09832.0210,W,0.23,344.08,030412,,,A*79
$GPGGA,091233.000,3353.7443,N,09832.0212,W,1,06,2.3,316.5,M,-23.7,M,18.8,0000*75
$GPGSA,A,3,12,17,02,05,04,10,,,,,,,4.2,2.3,3.5*34
$GPRMC,091233.000,A,3353.7443,N,09832.0212,W,0.10,6.10,030412,,,A*77
$GPGGA,091234.000,3353.7444,N,09832.0214,W,1,06,2.3,316.3,M,-23.7,M,18.8,0000*75
$GPGSA,A,3,12,17,02,05,04,10,,,,,,,4.2,2.3,3.5*34
$GPRMC,091234.000,A,3353.7444,N,09832.0214,W,0.05,9.42,030412,,,A*7D
$GPGGA,091235.000,3353.7444,N,09832.0217,W,1,06,2.3,316.0,M,-23.7,M,18.8,0000*74
$GPGSA,A,3,12,17,02,05,04,10,,,,,,,4.2,2.3,3.5*34
$GPGSV,3,1,11,02,70,358,33,12,67,275,20,10,50,074,38,05,46,171,36*79
$GPGSV,3,2,11,04,39,045,34,25,30,313,22,17,10,101,36,09,09,224,13*71
$GPGSV,3,3,11,29,06,296,,27,04,212,,13,00,066,*4B
$GPRMC,091235.000,A,3353.7444,N,09832.0217,W,0.10,31.66,030412,,,A*46
$GPGGA,091236.000,3353.7445,N,09832.0220,W,1,06,2.3,315.6,M,-23.7,M,18.8,0000*77
$GPGSA,A,3,12,17,02,05,04,10,,,,,,,4.2,2.3,3.5*34
$GPRMC,091236.000,A,3353.7445,N,09832.0220,W,0.26,304.86,030412,,,A*7E
$GPGGA,091237.000,3353.7446,N,09832.0224,W,1,06,2.3,315.1,M,-23.7,M,18.8,0000*76
$GPGSA,A,3,12,17,02,05,04,10,,,,,,,4.2,2.3,3.5*34
$GPRMC,091237.000,A,3353.7446,N,09832.0224,W,0.30,300.45,030412,,,A*74
$GPGGA,091238.000,3353.7447,N,09832.0227,W,1,06,2.3,314.6,M,-23.7,M,18.8,0000*7D
$GPGSA,A,3,12,17,02,05,04,10,,,,,,,4.2,2.3,3.5*34
$GPRMC,091238.000,A,3353.7447,N,09832.0227,W,0.20,316.24,030412,,,A*78
$GPGGA,091239.000,3353.7448,N,09832.0231,W,1,06,2.3,314.1,M,-23.7,M,18.8,0000*73
$GPGSA,A,3,12,17,02,05,04,10,,,,,,,4.2,2.3,3.5*34
$GPRMC,091239.000,A,3353.7448,N,09832.0231,W,0.22,314.32,030412,,,A*76
$GPGGA,091240.000,3353.7449,N,09832.0234,W,1,06,2.3,313.6,M,-23.7,M,18.8,0000*79
$GPGSA,A,3,12,17,02,05,04,10,,,,,,,4.2,2.3,3.5*34
$GPGSV,3,1,11,02,70,358,34,12,67,275,19,10,50,074,38,05,46,171,37*75
$GPGSV,3,2,11,04,39,045,34,25,30,313,22,17,10,101,36,09,09,224,*73
$GPGSV,3,3,11,29,06,296,,27,04,212,,13,00,066,*4B
$GPRMC,091240.000,A,3353.7449,N,09832.0234,W,0.21,314.86,030412,,,A*70
$GPGGA,091241.000,3353.7450,N,09832.0236,W,1,06,2.3,313.1,M,-23.7,M,18.8,0000*75
$GPGSA,A,3,12,17,02,05,04,10,,,,,,,4.2,2.3,3.5*34
$GPRMC,091241.000,A,3353.7450,N,09832.0236,W,0.25,313.12,030412,,,A*75
$GPGGA,091242.000,3353.7450,N,09832.0238,W,1,06,2.3,312.7,M,-23.7,M,18.8,0000*7F
$GPGSA,A,3,12,17,02,05,04,10,,,,,,,4.2,2.3,3.5*34
$GPRMC,091242.000,A,3353.7450,N,09832.0238,W,0.10,10.60,030412,,,A*4B
$GPGGA,091243.000,3353.7451,N,09832.0240,W,1,06,2.3,312.4,M,-23.7,M,18.8,0000*73
$GPGSA,A,3,12,17,02,05,04,10,,,,,,,4.2,2.3,3.5*34
$GPRMC,091243.000,A,3353.7451,N,09832.0240,W,0.16,322.39,030412,,,A*7C
$GPGGA,091244.000,3353.7451,N,09832.0241,W,1,06,2.3,312.2,M,-23.7,M,18.8,0000*73
$GPGSA,A,3,12,17,02,05,04,10,,,,,,,4.2,2.3,3.5*34
$GPRMC,091244.000,A,3353.7451,N,09832.0241,W,0.14,323.72,030412,,,A*76
$GPGGA,091245.000,3353.7452,N,09832.0242,W,1,06,2.3,311.9,M,-23.7,M,18.8,0000*7A
$GPGSA,A,3,12,17,02,05,04,10,,,,,,,4.2,2.3,3.5*34
$GPGSV,3,1,11,02,70,358,34,12,67,275,20,10,50,074,38,05,46,171,37*7F
$GPGSV,3,2,11,04,39,045,34,25,30,313,22,17,10,101,36,09,09,224,*73
$GPGSV,3,3,11,29,06,296,,27,04,212,,13,00,066,*4B
$GPRMC,091245.000,A,3353.7452,N,09832.0242,W,0.11,31.47,030412,,,A*44
$GPGGA,091246.000,3353.7452,N,09832.0244,W,1,06,2.3,311.7,M,-23.7,M,18.8,0000*71
$GPGSA,A,3,12,17,02,05,04,10,,,,,,,4.2,2.3,3.5*34
$GPRMC,091246.000,A,3353.7452,N,09832.0244,W,0.14,321.41,030412,,,A*70
$GPGGA,091247.000,3353.7453,N,09832.0244,W,1,06,2.3,311.5,M,-23.7,M,18.8,0000*73
$GPGSA,A,3,12,17,02,05,04,10,,,,,,,4.2,2.3,3.5*34
$GPRMC,091247.000,A,3353.7453,N,09832.0244,W,0.16,315.70,030412,,,A*77
$GPGGA,091248.000,3353.7453,N,09832.0245,W,1,06,2.3,311.4,M,-23.7,M,18.8,0000*7C
$GPGSA,A,3,12,17,02,05,04,10,,,,,,,4.2,2.3,3.5*34
$GPRMC,091248.000,A,3353.7453,N,09832.0245,W,0.15,62.39,030412,,,A*44
