$GPGGA,171313.000,3352.4640,N,09831.1870,W,1,09,0.9,291.0,M,-23.7,M,,0000*65
$GPGSA,A,3,03,21,14,09,06,31,22,19,18,,,,1.8,0.9,1.5*3F
$GPRMC,171313.000,A,3352.4640,N,09831.1870,W,0.04,237.22,310312,,,A*76
$GPGGA,171314.000,3352.4640,N,09831.1870,W,1,09,0.9,291.0,M,-23.7,M,,0000*62
$GPGSA,A,3,03,21,14,09,06,31,22,19,18,,,,1.8,0.9,1.5*3F
$GPGSV,3,1,12,22,67,001,38,14,67,279,32,18,44,083,35,21,27,157,30*78
$GPGSV,3,2,12,09,24,044,28,19,18,285,28,31,17,189,31,06,13,237,30*7D
$GPGSV,3,3,12,03,10,248,33,11,07,317,24,27,07,035,,12,03,089,*77
$GPRMC,171314.000,A,3352.4640,N,09831.1870,W,0.06,36.96,310312,,,A*4F
$GPGGA,171315.000,3352.4640,N,09831.1870,W,1,09,0.9,291.0,M,-23.7,M,,0000*63
$GPGSA,A,3,03,21,14,09,06,31,22,19,18,,,,1.8,0.9,1.5*3F
$GPRMC,171315.000,A,3352.4640,N,09831.1870,W,0.08,27.75,310312,,,A*4D
$GPGGA,171316.000,3352.4640,N,09831.1870,W,1,09,0.9,291.1,M,-23.7,M,,0000*61
$GPGSA,A,3,03,21,14,09,06,31,22,19,18,,,,1.8,0.9,1.5*3F
$GPRMC,171316.000,A,3352.4640,N,09831.1870,W,0.06,26.03,310312,,,A*40
$GPGGA,171317.000,3352.4640,N,09831.1870,W,1,09,0.9,291.1,M,-23.7,M,,0000*60
$GPGSA,A,3,03,21,14,09,06,31,22,19,18,,,,1.8,0.9,1.5*3F
$GPRMC,171317.000,A,3352.4640,N,09831.1870,W,0.04,40.85,310312,,,A*4D
$GPGGA,171318.000,3352.4640,N,09831.1870,W,1,09,0.9,291.1,M,-23.7,M,,0000*6F
$GPGSA,A,3,03,21,14,09,06,31,22,19,18,,,,1.8,0.9,1.5*3F
$GPRMC,171318.000,A,3352.4640,N,09831.1870,W,0.07,4.89,310312,,,A*7D
$GPGGA,171319.000,3352.4640,N,09831.1870,W,1,09,0.9,291.1,M,-23.7,M,,0000*6E
$GPGSA,A,3,03,21,14,09,06,31,22,19,18,,,,1.8,0.9,1.5*3F
$GPGSV,3,1,12,22,67,001,37,14,67,279,32,18,44,083,36,21,27,157,31*75
$GPGSV,3,2,12,09,24,044,28,19,18,285,28,31,17,189,31,06,13,237,30*7D
$GPGSV,3,3,12,03,10,248,33,11,07,317,24,27,07,035,,12,03,089,*77
$GPRMC,171319.000,A,3352.4640,N,09831.1870,W,0.06,22.78,310312,,,A*47
$GPGGA,171320.000,3352.4640,N,09831.1870,W,1,09,0.9,291.1,M,-23.7,M,,0000*64
$GPGSA,A,3,03,21,14,09,06,31,22,19,18,,,,1.8,0.9,1.5*3F
$GPRMC,171320.000,A,3352.4640,N,09831.1870,W,0.07,19.08,310312,,,A*43
$GPGGA,171321.000,3352.4640,N,09831.1870,W,1,09,0.9,291.1,M,-23.7,M,,0000*65
$GPGSA,A,3,03,21,14,09,06,31,22,19,18,,,,1.8,0.9,1.5*3F
$GPRMC,171321.000,A,3352.4640,N,09831.1870,W,0.06,10.62,310312,,,A*46
$GPGGA,171322.000,3352.4640,N,09831.1870,W,1,09,0.9,291.1,M,-23.7,M,,0000*66
$GPGSA,A,3,03,21,14,09,06,31,22,19,18,,,,1.8,0.9,1.5*3F
$GPRMC,171322.000,A,3352.4640,N,09831.1870,W,0.04,42.72,310312,,,A*41
$GPGGA,171323.000,3352.4640,N,09831.1870,W,1,09,0.9,291.2,M,-23.7,M,,0000*64
$GPGSA,A,3,03,21,14,09,06,31,22,19,18,,,,1.8,0.9,1.5*3F
$GPRMC,171323.000,A,3352.4640,N,09831.1870,W,0.07,17.74,310312,,,A*45
$GPGGA,171324.000,3352.4640,N,09831.1870,W,1,09,0.9,291.2,M,-23.7,M,,0000*63
$GPGSA,A,3,03,21,14,09,06,31,22,19,18,,,,1.8,0.9,1.5*3F
$GPGSV,3,1,12,22,67,001,38,14,67,279,32,18,44,083,37,21,27,157,31*7B
$GPGSV,3,2,12,09,24,044,28,19,18,285,29,31,17,189,31,06,13,237,30*7C
$GPGSV,3,3,12,03,10,248,33,11,07,317,25,27,07,035,,12,03,089,*76
$GPRMC,171324.000,A,3352.4640,N,09831.1870,W,0.07,15.54,310312,,,A*42
$GPGGA,171325.000,3352.4640,N,09831.1870,W,1,09,0.9,291.2,M,-23.7,M,,0000*62
$GPGSA,A,3,03,21,14,09,06,31,22,19,18,,,,1.8,0.9,1.5*3F
$GPRMC,171325.000,A,3352.4640,N,09831.1870,W,0.06,34.00,310312,,,A*40
$GPGGA,171326.000,3352.4640,N,09831.1870,W,1,09,0.9,291.1,M,-23.7,M,,0000*62
$GPGSA,A,3,03,21,14,09,06,31,22,19,18,,,,1.8,0.9,1.5*3F
$GPRMC,171326.000,A,3352.4640,N,09831.1870,W,0.08,11.85,310312,,,A*47
$GPGGA,171327.000,3352.4640,N,09831.1870,W,1,09,0.9,291.1,M,-23.7,M,,0000*63
$GPGSA,A,3,03,21,14,09,06,31,22,19,18,,,,1.8,0.9,1.5*3F
$GPRMC,171327.000,A,3352.4640,N,09831.1870,W,0.07,28.45,310312,,,A*4F
$GPGGA,171328.000,3352.4640,N,09831.1870,W,1,09,0.9,291.1,M,-23.7,M,,0000*6C
$GPGSA,A,3,03,21,14,09,06,31,22,19,18,,,,1.8,0.9,1.5*3F
$GPRMC,171328.000,A,3352.4640,N,09831.1870,W,0.05,24.56,310312,,,A*4C
$GPGGA,171329.000,3352.4640,N,09831.1870,W,1,09,0.9,291.1,M,-23.7,M,,0000*6D
$GPGSA,A,3,03,21,14,09,06,31,22,19,18,,,,1.8,0.9,1.5*3F
$GPGSV,3,1,12,22,67,001,38,14,67,279,32,18,44,083,37,21,27,157,31*7B
$GPGSV,3,2,12,09,24,044,27,19,18,285,29,31,17,189,31,06,13,237,30*73
$GPGSV,3,3,12,03,10,248,33,11,07,317,25,27,07,035,,12,03,089,*76
$GPRMC,171329.000,A,3352.4640,N,09831.1870,W,0.07,14.51,310312,,,A*4B
$GPGGA,171330.000,3352.4640,N,09831.1870,W,1,09,0.9,291.1,M,-23.7,M,,0000*65
$GPGSA,A,3,03,21,14,09,06,31,22,19,18,,,,1.8,0.9,1.5*3F
$GPRMC,171330.000,A,3352.4640,N,09831.1870,W,0.06,24.69,310312,,,A*4A
$GPGGA,171331.000,3352.4640,N,09831.1870,W,1,09,0.9,291.1,M,-23.7,M,,0000*64
$GPGSA,A,3,03,21,14,09,06,31,22,19,18,,,,1.8,0.9,1.5*3F
$GPRMC,171331.000,A,3352.4640,N,09831.1870,W,0.07,21.28,310312,,,A*4A
$GPGGA,171332.000,3352.4640,N,09831.1870,W,1,09,0.9,291.1,M,-23.7,M,,0000*67
$GPGSA,A,3,03,21,14,09,06,31,22,19,18,,,,1.8,0.9,1.5*3F
$GPRMC,171332.000,A,3352.4640,N,09831.1870,W,0.08,34.12,310312,,,A*4B
$GPGGA,171333.000,3352.4641,N,09831.1870,W,1,09,0.9,291.1,M,-23.7,M,,0000*67
$GPGSA,A,3,03,21,14,09,06,31,22,19,18,,,,1.8,0.9,1.5*3F
$GPRMC,171333.000,A,3352.4641,N,09831.1870,W,0.07,15.80,310312,,,A*4C
$GPGGA,171334.000,3352.4641,N,09831.1870,W,1,09,0.9,291.1,M,-23.7,M,,0000*60
$GPGSA,A,3,03,21,14,09,06,31,22,19,18,,,,1.8,0.9,1.5*3F
$GPGSV,3,1,12,22,67,001,38,14,67,279,32,18,44,083,37,21,27,157,31*7B
$GPGSV,3,2,12,09,24,044,27,19,18,285,29,31,17,189,31,06,13,237,31*72
$GPGSV,3,3,12,03,10,248,33,11,07,317,26,27,07,035,19,12,03,089,*7D
$GPRMC,171334.000,A,3352.4641,N,09831.1870,W,0.07,19.06,310312,,,A*49
$GPGGA,171335.000,3352.4641,N,09831.1870,W,1,09,0.9,291.1,M,-23.7,M,,0000*61
$GPGSA,A,3,03,21,14,09,06,31,22,19,18,,,,1.8,0.9,1.5*3F
$GPRMC,171335.000,A,3352.4641,N,09831.1870,W,0.05,34.62,310312,,,A*47
$GPGGA,171336.000,3352.4641,N,09831.1870,W,1,09,0.9,291.1,M,-23.7,M,,0000*62
$GPGSA,A,3,03,21,14,09,06,31,22,19,18,,,,1.8,0.9,1.5*3F
$GPRMC,171336.000,A,3352.4641,N,09831.1870,W,0.06,26.94,310312,,,A*4D
$GPGGA,171337.000,3352.4641,N,09831.1870,W,1,09,0.9,291.1,M,-23.7,M,,0000*63
$GPGSA,A,3,03,21,14,09,06,31,22,19,18,,,,1.8,0.9,1.5*3F
$GPRMC,171337.000,A,3352.4641,N,09831.1870,W,0.07,29.20,310312,,,A*4D
$GPGGA,171338.000,3352.4641,N,09831.1870,W,1,09,0.9,291.1,M,-23.7,M,,0000*6C
$GPGSA,A,3,03,21,14,09,06,31,22,19,18,,,,1.8,0.9,1.5*3F
$GPRMC,171338.000,A,3352.4641,N,09831.1870,W,0.06,23.49,310312,,,A*46
$GPGGA,171339.000,3352.4641,N,09831.1870,W,1,09,0.9,291.1,M,-23.7,M,,0000*6D
$GPGSA,A,3,03,21,14,09,06,31,22,19,18,,,,1.8,0.9,1.5*3F
$GPGSV,3,1,12,22,67,001,38,14,67,279,32,18,44,083,37,21,27,157,31*7B
$GPGSV,3,2,12,09,24,044,27,19,18,285,28,31,17,189,30,06,13,237,31*72
$GPGSV,3,3,12,03,10,248,33,11,07,317,26,27,07,035,20,12,03,089,*77
$GPRMC,171339.000,A,3352.4641,N,09831.1870,W,0.05,35.22,310312,,,A*4E
$GPGGA,171340.000,3352.4641,N,09831.1870,W,1,09,0.9,291.1,M,-23.7,M,,0000*63
$GPGSA,A,3,03,21,14,09,06,31,22,19,18,,,,1.8,0.9,1.5*3F
$GPRMC,171340.000,A,3352.4641,N,09831.1870,W,0.07,27.50,310312,,,A*44
$GPGGA,171341.000,3352.4641,N,09831.1870,W,1,09,0.9,291.1,M,-23.7,M,,0000*62
$GPGSA,A,3,03,21,14,09,06,31,22,19,18,,,,1.8,0.9,1.5*3F
$GPRMC,171341.000,A,3352.4641,N,09831.1870,W,0.07,21.07,310312,,,A*41
$GPGGA,171342.000,3352.4641,N,09831.1870,W,1,09,0.9,291.1,M,-23.7,M,,0000*61
$GPGSA,A,3,03,21,14,09,06,31,22,19,18,,,,1.8,0.9,1.5*3F
$GPRMC,171342.000,A,3352.4641,N,09831.1870,W,0.06,40.58,310312,,,A*4E
$GPGGA,171343.000,3352.4641,N,09831.1870,W,1,09,0.9,291.2,M,-23.7,M,,0000*63
$GPGSA,A,3,03,21,14,09,06,31,22,19,18,,,,1.8,0.9,1.5*3F
$GPRMC,171343.000,A,3352.4641,N,09831.1870,W,0.07,32.81,310312,,,A*4F
$GPGGA,171344.000,3352.4641,N,09831.1869,W,1,09,0.9,291.2,M,-23.7,M,,0000*6C
$GPGSA,A,3,03,21,14,09,06,31,22,19,18,,,,1.8,0.9,1.5*3F
$GPGSV,3,1,12,22,67,001,38,14,67,279,31,18,44,083,37,21,27,157,30*79
$GPGSV,3,2,12,09,24,044,27,19,18,285,27,31,17,189,30,06,13,237,30*7C
$GPGSV,3,3,12,03,10,248,32,11,07,317,26,27,07,035,20,12,03,089,*76
$GPRMC,171344.000,A,3352.4641,N,09831.1869,W,0.06,23.33,310312,,,A*48
$GPGGA,171345.000,3352.4641,N,09831.1869,W,1,09,0.9,291.2,M,-23.7,M,,0000*6D
$GPGSA,A,3,03,21,14,09,06,31,22,19,18,,,,1.8,0.9,1.5*3F
$GPRMC,171345.000,A,3352.4641,N,09831.1869,W,0.07,31.19,310312,,,A*43
$GPGGA,171346.000,3352.4641,N,09831.1869,W,1,09,0.9,291.2,M,-23.7,M,,0000*6E
$GPGSA,A,3,03,21,14,09,06,31,22,19,18,,,,1.8,0.9,1.5*3F
$GPRMC,171346.000,A,3352.4641,N,09831.1869,W,0.05,23.62,310312,,,A*4D
$GPGGA,171347.000,3352.4641,N,09831.1869,W,1,09,0.9,291.2,M,-23.7,M,,0000*6F
$GPGSA,A,3,03,21,14,09,06,31,22,19,18,,,,1.8,0.9,1.5*3F
$GPRMC,171347.000,A,3352.4641,N,09831.1869,W,0.07,46.76,310312,,,A*48
$GPGGA,171348.000,3352.4641,N,09831.1869,W,1,09,0.9,291.2,M,-23.7,M,,0000*60
$GPGSA,A,3,03,21,14,09,06,31,22,19,18,,,,1.8,0.9,1.5*3F
$GPRMC,171348.000,A,3352.4641,N,09831.1869,W,0.06,78.51,310312,,,A*4E
$GPGGA,171349.000,3352.4641,N,09831.1868,W,1,09,0.9,291.2,M,-23.7,M,,0000*60
$GPGSA,A,3,03,21,14,09,06,31,22,19,18,,,,1.8,0.9,1.5*3F
$GPGSV,3,1,12,22,67,002,37,14,67,280,31,18,44,084,37,21,26,157,30*75
$GPGSV,3,2,12,09,24,044,28,31,18,189,30,19,17,285,26,06,13,237,30*72
$GPGSV,3,3,12,03,10,248,32,11,07,317,26,27,07,035,21,12,03,088,*76
$GPRMC,171349.000,A,3352.4641,N,09831.1868,W,0.10,83.93,310312,,,A*43
$GPGGA,171350.000,3352.4640,N,09831.1868,W,1,09,0.9,291.2,M,-23.7,M,,0000*69
$GPGSA,A,3,03,21,14,09,06,31,22,19,18,,,,1.8,0.9,1.5*3F
$GPRMC,171350.000,A,3352.4640,N,09831.1868,W,0.08,358.78,310312,,,A*73
$GPGGA,171351.000,3352.4640,N,09831.1868,W,1,09,0.9,291.2,M,-23.7,M,,0000*68
$GPGSA,A,3,03,21,14,09,06,31,22,19,18,,,,1.8,0.9,1.5*3F
$GPRMC,171351.000,A,3352.4640,N,09831.1868,W,0.07,12.66,310312,,,A*4F
$GPGGA,171352.000,3352.4640,N,09831.1868,W,1,09,0.9,291.2,M,-23.7,M,,0000*6B
$GPGSA,A,3,03,21,14,09,06,31,22,19,18,,,,1.8,0.9,1.5*3F
$GPRMC,171352.000,A,3352.4640,N,09831.1868,W,0.07,71.07,310312,,,A*4E
$GPGGA,171353.000,3352.4640,N,09831.1868,W,1,09,0.9,291.2,M,-23.7,M,,0000*6A
$GPGSA,A,3,03,21,14,09,06,31,22,19,18,,,,1.8,0.9,1.5*3F
$GPRMC,171353.000,A,3352.4640,N,09831.1868,W,0.11,345.40,310312,,,A*7F
$GPGGA,171354.000,3352.4640,N,09831.1867,W,1,09,0.9,291.2,M,-23.7,M,,0000*62
$GPGSA,A,3,03,21,14,09,06,31,22,19,18,,,,1.8,0.9,1.5*3F
$GPGSV,3,1,12,22,67,002,38,14,67,280,30,18,44,084,38,21,26,157,29*7C
$GPGSV,3,2,12,09,24,044,29,31,18,189,30,19,17,285,25,06,13,237,30*70
$GPGSV,3,3,12,03,10,248,32,11,07,317,26,27,07,035,20,12,03,088,*77
$GPRMC,171354.000,A,3352.4640,N,09831.1867,W,0.07,18.89,310312,,,A*4E
$GPGGA,171355.000,3352.4640,N,09831.1867,W,1,09,0.9,291.2,M,-23.7,M,,0000*63
$GPGSA,A,3,03,21,14,09,06,31,22,19,18,,,,1.8,0.9,1.5*3F
$GPRMC,171355.000,A,3352.4640,N,09831.1867,W,0.07,27.14,310312,,,A*47
$GPGGA,171356.000,3352.4639,N,09831.1867,W,1,09,0.9,291.3,M,-23.7,M,,0000*6F
$GPGSA,A,3,03,21,14,09,06,31,22,19,18,,,,1.8,0.9,1.5*3F
$GPRMC,171356.000,A,3352.4639,N,09831.1867,W,0.07,80.92,310312,,,A*49
$GPGGA,171357.000,3352.4639,N,09831.1867,W,1,09,0.9,291.3,M,-23.7,M,,0000*6E
$GPGSA,A,3,03,21,14,09,06,31,22,19,18,,,,1.8,0.9,1.5*3F
$GPRMC,171357.000,A,3352.4639,N,09831.1867,W,0.10,4.87,310312,,,A*76
$GPGGA,171358.000,3352.4639,N,09831.1867,W,1,09,0.9,291.3,M,-23.7,M,,0000*61
$GPGSA,A,3,03,21,14,09,06,31,22,19,18,,,,1.8,0.9,1.5*3F
$GPRMC,171358.000,A,3352.4639,N,09831.1867,W,0.11,339.38,310312,,,A*71
$GPGGA,171359.000,3352.4638,N,09831.1866,W,1,09,0.9,291.3,M,-23.7,M,,0000*60
$GPGSA,A,3,03,21,14,09,06,31,22,19,18,,,,1.8,0.9,1.5*3F
$GPGSV,3,1,12,22,67,002,38,14,67,280,30,18,44,084,38,21,26,157,29*7C
$GPGSV,3,2,12,09,24,044,29,31,18,189,29,19,17,285,25,06,13,237,29*70
$GPGSV,3,3,12,03,10,248,32,11,07,317,26,27,07,035,20,12,03,088,*77
$GPRMC,171359.000,A,3352.4638,N,09831.1866,W,0.10,91.51,310312,,,A*4F
$GPGGA,171400.000,3352.4638,N,09831.1866,W,1,09,0.9,291.3,M,-23.7,M,,0000*6B
$GPGSA,A,3,03,21,14,09,06,31,22,19,18,,,,1.8,0.9,1.5*3F
$GPRMC,171400.000,A,3352.4638,N,09831.1866,W,0.08,63.34,310312,,,A*43
$GPGGA,171401.000,3352.4638,N,09831.1866,W,1,09,0.9,291.3,M,-23.7,M,,0000*6A
$GPGSA,A,3,03,21,14,09,06,31,22,19,18,,,,1.8,0.9,1.5*3F
$GPRMC,171401.000,A,3352.4638,N,09831.1866,W,0.08,352.80,310312,,,A*7C
$GPGGA,171402.000,3352.4637,N,09831.1865,W,1,09,0.9,291.3,M,-23.7,M,,0000*65
$GPGSA,A,3,03,21,14,09,06,31,22,19,18,,,,1.8,0.9,1.5*3F
$GPRMC,171402.000,A,3352.4637,N,09831.1865,W,0.08,82.06,310312,,,A*43
$GPGGA,171403.000,3352.4637,N,09831.1865,W,1,09,0.9,291.3,M,-23.7,M,,0000*64
$GPGSA,A,3,03,21,14,09,06,31,22,19,18,,,,1.8,0.9,1.5*3F
$GPRMC,171403.000,A,3352.4637,N,09831.1865,W,0.09,72.20,310312,,,A*48
$GPGGA,171404.000,3352.4636,N,09831.1865,W,1,09,0.9,291.3,M,-23.7,M,,0000*62
$GPGSA,A,3,03,21,14,09,06,31,22,19,18,,,,1.8,0.9,1.5*3F
$GPGSV,3,1,12,22,67,002,38,14,67,280,30,18,44,084,38,21,26,157,29*7C
$GPGSV,3,2,12,09,24,044,30,31,18,189,29,19,17,285,24,06,13,237,29*79
$GPGSV,3,3,12,03,10,248,32,11,07,317,25,27,07,035,19,12,03,088,*7E
$GPRMC,171404.000,A,3352.4636,N,09831.1865,W,0.07,72.42,310312,,,A*44
$GPGGA,171405.000,3352.4636,N,09831.1864,W,1,09,0.9,291.4,M,-23.7,M,,0000*65
$GPGSA,A,3,03,21,14,09,06,31,22,19,18,,,,1.8,0.9,1.5*3F
$GPRMC,171405.000,A,3352.4636,N,09831.1864,W,0.13,107.79,310312,,,A*7A
$GPGGA,171406.000,3352.4635,N,09831.1864,W,1,09,0.9,291.4,M,-23.7,M,,0000*65
$GPGSA,A,3,03,21,14,09,06,31,22,19,18,,,,1.8,0.9,1.5*3F
$GPRMC,171406.000,A,3352.4635,N,09831.1864,W,0.07,70.08,310312,,,A*48
$GPGGA,171407.000,3352.4635,N,09831.1864,W,1,09,0.9,291.4,M,-23.7,M,,0000*64
$GPGSA,A,3,03,21,14,09,06,31,22,19,18,,,,1.8,0.9,1.5*3F
$GPRMC,171407.000,A,3352.4635,N,09831.1864,W,0.06,31.08,310312,,,A*4D
$GPGGA,171408.000,3352.4635,N,09831.1864,W,1,09,0.9,291.4,M,-23.7,M,,0000*6B
$GPGSA,A,3,03,21,14,09,06,31,22,19,18,,,,1.8,0.9,1.5*3F
$GPRMC,171408.000,A,3352.4635,N,09831.1864,W,0.05,25.68,310312,,,A*42
$GPGGA,171409.000,3352.4634,N,09831.1863,W,1,09,0.9,291.4,M,-23.7,M,,0000*6C
$GPGSA,A,3,03,21,14,09,06,31,22,19,18,,,,1.8,0.9,1.5*3F
$GPGSV,3,1,12,22,67,002,38,14,67,280,29,18,44,084,38,21,26,157,29*74
$GPGSV,3,2,12,09,24,044,29,31,18,189,29,19,17,285,24,06,13,237,29*71
$GPGSV,3,3,12,03,10,248,32,11,07,317,25,27,07,035,18,12,03,088,*7F
$GPRMC,171409.000,A,3352.4634,N,09831.1863,W,0.05,25.89,310312,,,A*4A
$GPGGA,171410.000,3352.4634,N,09831.1863,W,1,09,0.9,291.4,M,-23.7,M,,0000*64
$GPGSA,A,3,03,21,14,09,06,31,22,19,18,,,,1.8,0.9,1.5*3F
$GPRMC,171410.000,A,3352.4634,N,09831.1863,W,0.05,37.20,310312,,,A*42
$GPGGA,171411.000,3352.4634,N,09831.1863,W,1,09,0.9,291.5,M,-23.7,M,,0000*64
$GPGSA,A,3,03,21,14,09,06,31,22,19,18,,,,1.8,0.9,1.5*3F
$GPRMC,171411.000,A,3352.4634,N,09831.1863,W,0.07,47.99,310312,,,A*44
$GPGGA,171412.000,3352.4634,N,09831.1863,W,1,09,0.9,291.4,M,-23.7,M,,0000*66
$GPGSA,A,3,03,21,14,09,06,31,22,19,18,,,,1.8,0.9,1.5*3F
$GPRMC,171412.000,A,3352.4634,N,09831.1863,W,0.12,336.44,310312,,,A*76
$GPGGA,171413.000,3352.4633,N,09831.1863,W,1,09,0.9,291.5,M,-23.7,M,,0000*61
$GPGSA,A,3,03,21,14,09,06,31,22,19,18,,,,1.8,0.9,1.5*3F
$GPRMC,171413.000,A,3352.4633,N,09831.1863,W,0.09,68.72,310312,,,A*47
$GPGGA,171414.000,3352.4633,N,09831.1862,W,1,09,0.9,291.5,M,-23.7,M,,0000*67
$GPGSA,A,3,03,21,14,09,06,31,22,19,18,,,,1.8,0.9,1.5*3F
$GPGSV,3,1,12,22,67,002,38,14,67,280,29,18,44,084,38,21,26,157,28*75
$GPGSV,3,2,12,09,24,044,29,31,18,189,29,19,17,285,24,06,13,237,29*71
$GPGSV,3,3,12,03,10,248,31,11,07,317,24,27,07,035,16,12,03,088,*73
$GPRMC,171414.000,A,3352.4633,N,09831.1862,W,0.09,96.21,310312,,,A*46
$GPGGA,171415.000,3352.4632,N,09831.1862,W,1,09,0.9,291.5,M,-23.7,M,,0000*67
$GPGSA,A,3,03,21,14,09,06,31,22,19,18,,,,1.8,0.9,1.5*3F
$GPRMC,171415.000,A,3352.4632,N,09831.1862,W,0.06,9.35,310312,,,A*7A
$GPGGA,171416.000,3352.4632,N,09831.1862,W,1,09,0.9,291.5,M,-23.7,M,,0000*64
$GPGSA,A,3,03,21,14,09,06,31,22,19,18,,,,1.8,0.9,1.5*3F
$GPRMC,171416.000,A,3352.4632,N,09831.1862,W,0.09,356.68,310312,,,A*77
$GPGGA,171417.000,3352.4632,N,09831.1862,W,1,09,0.9,291.5,M,-23.7,M,,0000*65
$GPGSA,A,3,03,21,14,09,06,31,22,19,18,,,,1.8,0.9,1.5*3F
$GPRMC,171417.000,A,3352.4632,N,09831.1862,W,0.11,347.81,310312,,,A*78
$GPGGA,171418.000,3352.4632,N,09831.1862,W,1,09,0.9,291.4,M,-23.7,M,,0000*6B
$GPGSA,A,3,03,21,14,09,06,31,22,19,18,,,,1.8,0.9,1.5*3F
$GPRMC,171418.000,A,3352.4632,N,09831.1862,W,0.20,334.59,310312,,,A*74
$GPGGA,171419.000,3352.4632,N,09831.1862,W,1,09,0.9,291.4,M,-23.7,M,,0000*6A
$GPGSA,A,3,03,21,14,09,06,31,22,19,18,,,,1.8,0.9,1.5*3F
$GPGSV,3,1,12,22,67,002,38,14,67,280,29,18,44,084,38,21,26,157,28*75
$GPGSV,3,2,12,09,24,044,29,31,18,189,28,19,17,285,24,06,13,237,29*70
$GPGSV,3,3,12,03,10,248,31,11,07,317,24,27,07,035,,12,03,088,*74
$GPRMC,171419.000,A,3352.4632,N,09831.1862,W,0.18,339.60,310312,,,A*79
$GPGGA,171420.000,3352.4632,N,09831.1862,W,1,09,0.9,291.4,M,-23.7,M,,0000*60
$GPGSA,A,3,03,21,14,09,06,31,22,19,18,,,,1.8,0.9,1.5*3F
$GPRMC,171420.000,A,3352.4632,N,09831.1862,W,0.09,83.02,310312,,,A*45
$GPGGA,171421.000,3352.4632,N,09831.1862,W,1,09,0.9,291.4,M,-23.7,M,,0000*61
$GPGSA,A,3,03,21,14,09,06,31,22,19,18,,,,1.8,0.9,1.5*3F
$GPRMC,171421.000,A,3352.4632,N,09831.1862,W,0.11,339.13,310312,,,A*7F
$GPGGA,171422.000,3352.4632,N,09831.1862,W,1,09,0.9,291.4,M,-23.7,M,,0000*62
$GPGSA,A,3,03,21,14,09,06,31,22,19,18,,,,1.8,0.9,1.5*3F
$GPRMC,171422.000,A,3352.4632,N,09831.1862,W,0.09,85.59,310312,,,A*4F
$GPGGA,171423.000,3352.4631,N,09831.1862,W,1,09,0.9,291.4,M,-23.7,M,,0000*60
$GPGSA,A,3,03,21,14,09,06,31,22,19,18,,,,1.8,0.9,1.5*3F
$GPRMC,171423.000,A,3352.4631,N,09831.1862,W,0.10,109.75,310312,,,A*7E
$GPGGA,171424.000,3352.4631,N,09831.1861,W,1,09,0.9,291.4,M,-23.7,M,,0000*64
$GPGSA,A,3,03,21,14,09,06,31,22,19,18,,,,1.8,0.9,1.5*3F
$GPGSV,3,1,12,22,67,002,38,14,67,280,29,18,44,084,39,21,26,157,28*74
$GPGSV,3,2,12,09,24,044,29,31,18,189,28,19,17,285,24,06,13,237,29*70
$GPGSV,3,3,12,03,10,248,31,11,07,317,24,27,07,035,,12,03,088,*74
$GPRMC,171424.000,A,3352.4631,N,09831.1861,W,0.06,8.99,310312,,,A*7F
$GPGGA,171425.000,3352.4631,N,09831.1862,W,1,09,0.9,291.4,M,-23.7,M,,0000*66
$GPGSA,A,3,03,21,14,09,06,31,22,19,18,,,,1.8,0.9,1.5*3F
$GPRMC,171425.000,A,3352.4631,N,09831.1862,W,0.11,343.01,310312,,,A*76
$GPGGA,171426.000,3352.4630,N,09831.1861,W,1,09,0.9,291.4,M,-23.7,M,,0000*67
$GPGSA,A,3,03,21,14,09,06,31,22,19,18,,,,1.8,0.9,1.5*3F
$GPRMC,171426.000,A,3352.4630,N,09831.1861,W,0.06,83.57,310312,,,A*4D
$GPGGA,171427.000,3352.4630,N,09831.1861,W,1,09,0.9,291.4,M,-23.7,M,,0000*66
$GPGSA,A,3,03,21,14,09,06,31,22,19,18,,,,1.8,0.9,1.5*3F
$GPRMC,171427.000,A,3352.4630,N,09831.1861,W,0.05,48.97,310312,,,A*44
$GPGGA,171428.000,3352.4630,N,09831.1861,W,1,09,0.9,291.4,M,-23.7,M,,0000*69
$GPGSA,A,3,03,21,14,09,06,31,22,19,18,,,,1.8,0.9,1.5*3F
$GPRMC,171428.000,A,3352.4630,N,09831.1861,W,0.05,32.32,310312,,,A*49
$GPGGA,171429.000,3352.4629,N,09831.1861,W,1,09,0.9,291.4,M,-23.7,M,,0000*60
$GPGSA,A,3,03,21,14,09,06,31,22,19,18,,,,1.8,0.9,1.5*3F
$GPGSV,3,1,12,22,67,002,38,14,67,280,29,18,44,084,39,21,26,157,27*7B
$GPGSV,3,2,12,09,24,044,30,31,18,189,27,19,17,285,24,06,13,237,29*77
$GPGSV,3,3,12,03,10,248,31,11,07,317,24,27,07,035,,12,03,088,*74
$GPRMC,171429.000,A,3352.4629,N,09831.1861,W,0.07,97.67,310312,,,A*4D
$GPGGA,171430.000,3352.4629,N,09831.1861,W,1,09,0.9,291.4,M,-23.7,M,,0000*68
$GPGSA,A,3,03,21,14,09,06,31,22,19,18,,,,1.8,0.9,1.5*3F
$GPRMC,171430.000,A,3352.4629,N,09831.1861,W,0.06,3.09,310312,,,A*71
$GPGGA,171431.000,3352.4629,N,09831.1861,W,1,09,0.9,291.4,M,-23.7,M,,0000*69
$GPGSA,A,3,03,21,14,09,06,31,22,19,18,,,,1.8,0.9,1.5*3F
$GPRMC,171431.000,A,3352.4629,N,09831.1861,W,0.06,90.76,310312,,,A*42
$GPGGA,171432.000,3352.4629,N,09831.1861,W,1,09,0.9,291.4,M,-23.7,M,,0000*6A
$GPGSA,A,3,03,21,14,09,06,31,22,19,18,,,,1.8,0.9,1.5*3F
$GPRMC,171432.000,A,3352.4629,N,09831.1861,W,0.05,62.52,310312,,,A*49
$GPGGA,171433.000,3352.4628,N,09831.1861,W,1,09,0.9,291.5,M,-23.7,M,,0000*6B
$GPGSA,A,3,03,21,14,09,06,31,22,19,18,,,,1.8,0.9,1.5*3F
$GPRMC,171433.000,A,3352.4628,N,09831.1861,W,0.05,24.08,310312,,,A*44
$GPGGA,171434.000,3352.4628,N,09831.1861,W,1,09,0.9,291.5,M,-23.7,M,,0000*6C
$GPGSA,A,3,03,21,14,09,06,31,22,19,18,,,,1.8,0.9,1.5*3F
$GPGSV,3,1,12,22,67,002,38,14,67,280,29,18,44,084,39,21,26,157,28*74
$GPGSV,3,2,12,09,24,044,30,31,18,189,26,19,17,285,25,06,13,237,29*77
$GPGSV,3,3,12,03,10,248,30,11,07,317,24,27,07,035,,12,03,088,*75
$GPRMC,171434.000,A,3352.4628,N,09831.1861,W,0.03,42.49,310312,,,A*40
$GPGGA,171435.000,3352.4628,N,09831.1861,W,1,09,0.9,291.5,M,-23.7,M,,0000*6D
$GPGSA,A,3,03,21,14,09,06,31,22,19,18,,,,1.8,0.9,1.5*3F
$GPRMC,171435.000,A,3352.4628,N,09831.1861,W,0.07,25.90,310312,,,A*40
$GPGGA,171436.000,3352.4628,N,09831.1861,W,1,09,0.9,291.4,M,-23.7,M,,0000*6F
$GPGSA,A,3,03,21,14,09,06,31,22,19,18,,,,1.8,0.9,1.5*3F
$GPRMC,171436.000,A,3352.4628,N,09831.1861,W,0.13,339.64,310312,,,A*73
$GPGGA,171437.000,3352.4628,N,09831.1861,W,1,09,0.9,291.4,M,-23.7,M,,0000*6E
$GPGSA,A,3,03,21,14,09,06,31,22,19,18,,,,1.8,0.9,1.5*3F
$GPRMC,171437.000,A,3352.4628,N,09831.1861,W,0.10,352.34,310312,,,A*79
$GPGGA,171438.000,3352.4628,N,09831.1861,W,1,09,0.9,291.4,M,-23.7,M,,0000*61
$GPGSA,A,3,03,21,14,09,06,31,22,19,18,,,,1.8,0.9,1.5*3F
$GPRMC,171438.000,A,3352.4628,N,09831.1861,W,0.07,357.95,310312,,,A*7E
$GPGGA,171439.000,3352.4628,N,09831.1861,W,1,09,0.9,291.4,M,-23.7,M,,0000*60
$GPGSA,A,3,03,21,14,09,06,31,22,19,18,,,,1.8,0.9,1.5*3F
$GPGSV,3,1,12,22,67,002,38,14,67,280,29,18,44,084,39,21,26,157,28*74
$GPGSV,3,2,12,09,24,044,29,31,18,189,26,19,17,285,25,06,13,237,30*77
$GPGSV,3,3,12,03,10,248,30,11,07,317,24,27,07,035,,12,03,088,*75
$GPRMC,171439.000,A,3352.4628,N,09831.1861,W,0.06,48.34,310312,,,A*48
$GPGGA,171440.000,3352.4627,N,09831.1861,W,1,09,0.9,291.3,M,-23.7,M,,0000*66
$GPGSA,A,3,03,21,14,09,06,31,22,19,18,,,,1.8,0.9,1.5*3F
$GPRMC,171440.000,A,3352.4627,N,09831.1861,W,0.06,27.98,310312,,,A*46
$GPGGA,171441.000,3352.4627,N,09831.1861,W,1,09,0.9,291.3,M,-23.7,M,,0000*67
$GPGSA,A,3,03,21,14,09,06,31,22,19,18,,,,1.8,0.9,1.5*3F
$GPRMC,171441.000,A,3352.4627,N,09831.1861,W,0.08,18.97,310312,,,A*4A
$GPGGA,171442.000,3352.4627,N,09831.1861,W,1,09,0.9,291.3,M,-23.7,M,,0000*64
$GPGSA,A,3,03,21,14,09,06,31,22,19,18,,,,1.8,0.9,1.5*3F
$GPRMC,171442.000,A,3352.4627,N,09831.1861,W,0.08,1.36,310312,,,A*7A
$GPGGA,171443.000,3352.4627,N,09831.1861,W,1,09,0.9,291.3,M,-23.7,M,,0000*65
$GPGSA,A,3,03,21,14,09,06,31,22,19,18,,,,1.8,0.9,1.5*3F
$GPRMC,171443.000,A,3352.4627,N,09831.1861,W,0.16,335.14,310312,,,A*70
$GPGGA,171444.000,3352.4627,N,09831.1861,W,1,09,0.9,291.2,M,-23.7,M,,0000*63
$GPGSA,A,3,03,21,14,09,06,31,22,19,18,,,,1.8,0.9,1.5*3F
$GPGSV,3,1,12,22,67,002,38,14,67,280,29,18,44,084,39,21,26,157,28*74
$GPGSV,3,2,12,09,24,044,29,31,18,189,26,19,17,285,24,06,13,237,30*76
$GPGSV,3,3,12,03,10,248,30,11,07,317,24,27,07,035,,12,03,088,*75
$GPRMC,171444.000,A,3352.4627,N,09831.1861,W,0.08,70.67,310312,,,A*4E
$GPGGA,171445.000,3352.4627,N,09831.1861,W,1,09,0.9,291.2,M,-23.7,M,,0000*62
$GPGSA,A,3,03,21,14,09,06,31,22,19,18,,,,1.8,0.9,1.5*3F
$GPRMC,171445.000,A,3352.4627,N,09831.1861,W,0.08,8.35,310312,,,A*77
$GPGGA,171446.000,3352.4627,N,09831.1862,W,1,09,0.9,291.2,M,-23.7,M,,0000*62
$GPGSA,A,3,03,21,14,09,06,31,22,19,18,,,,1.8,0.9,1.5*3F
$GPRMC,171446.000,A,3352.4627,N,09831.1862,W,0.15,343.34,310312,,,A*76
$GPGGA,171447.000,3352.4627,N,09831.1862,W,1,09,0.9,291.1,M,-23.7,M,,0000*60
$GPGSA,A,3,03,21,14,09,06,31,22,19,18,,,,1.8,0.9,1.5*3F
$GPRMC,171447.000,A,3352.4627,N,09831.1862,W,0.13,344.63,310312,,,A*74
$GPGGA,171448.000,3352.4627,N,09831.1862,W,1,09,0.9,291.1,M,-23.7,M,,0000*6F
$GPGSA,A,3,03,21,14,09,06,31,22,19,18,,,,1.8,0.9,1.5*3F
$GPRMC,171448.000,A,3352.4627,N,09831.1862,W,0.08,88.64,310312,,,A*45
$GPGGA,171449.000,3352.4627,N,09831.1861,W,1,09,0.9,291.0,M,-23.7,M,,0000*6C
$GPGSA,A,3,03,21,14,09,06,31,22,19,18,,,,1.8,0.9,1.5*3F
$GPGSV,3,1,12,22,67,002,38,14,67,280,28,18,44,084,40,21,26,157,28*7B
$GPGSV,3,2,12,09,24,044,29,31,18,189,26,19,17,285,24,06,13,237,31*77
$GPGSV,3,3,12,03,10,248,30,11,07,317,24,27,07,035,,12,03,088,*75
$GPRMC,171449.000,A,3352.4627,N,09831.1861,W,0.13,97.65,310312,,,A*42
$GPGGA,171450.000,3352.4627,N,09831.1861,W,1,09,0.9,291.0,M,-23.7,M,,0000*64
$GPGSA,A,3,03,21,14,09,06,31,22,19,18,,,,1.8,0.9,1.5*3F
$GPRMC,171450.000,A,3352.4627,N,09831.1861,W,0.07,6.58,310312,,,A*79
$GPGGA,171451.000,3352.4627,N,09831.1862,W,1,09,0.9,291.0,M,-23.7,M,,0000*66
$GPGSA,A,3,03,21,14,09,06,31,22,19,18,,,,1.8,0.9,1.5*3F
$GPRMC,171451.000,A,3352.4627,N,09831.1862,W,0.11,341.73,310312,,,A*75
$GPGGA,171452.000,3352.4627,N,09831.1861,W,1,09,0.9,290.9,M,-23.7,M,,0000*6E
$GPGSA,A,3,03,21,14,09,06,31,22,19,18,,,,1.8,0.9,1.5*3F
$GPRMC,171452.000,A,3352.4627,N,09831.1861,W,0.10,83.73,310312,,,A*49
$GPGGA,171453.000,3352.4626,N,09831.1861,W,1,09,0.9,290.9,M,-23.7,M,,0000*6E
$GPGSA,A,3,03,21,14,09,06,31,22,19,18,,,,1.8,0.9,1.5*3F
$GPRMC,171453.000,A,3352.4626,N,09831.1861,W,0.08,79.90,310312,,,A*48
$GPGGA,171454.000,3352.4626,N,09831.1861,W,1,09,0.9,290.9,M,-23.7,M,,0000*69
$GPGSA,A,3,03,21,14,09,06,31,22,19,18,,,,1.8,0.9,1.5*3F
$GPGSV,3,1,12,22,67,002,38,14,67,280,29,18,44,084,40,21,26,157,28*7A
$GPGSV,3,2,12,09,24,044,29,31,18,189,26,19,17,285,23,06,13,237,31*70
$GPGSV,3,3,12,03,10,248,30,11,07,317,25,27,07,035,,12,03,088,*74
$GPRMC,171454.000,A,3352.4626,N,09831.1861,W,0.10,99.84,310312,,,A*4D
$GPGGA,171455.000,3352.4626,N,09831.1861,W,1,09,0.9,290.9,M,-23.7,M,,0000*68
$GPGSA,A,3,03,21,14,09,06,31,22,19,18,,,,1.8,0.9,1.5*3F
$GPRMC,171455.000,A,3352.4626,N,09831.1861,W,0.06,1.51,310312,,,A*72
$GPGGA,171456.000,3352.4626,N,09831.1861,W,1,09,0.9,290.8,M,-23.7,M,,0000*6A
$GPGSA,A,3,03,21,14,09,06,31,22,19,18,,,,1.8,0.9,1.5*3F
$GPRMC,171456.000,A,3352.4626,N,09831.1861,W,0.09,88.14,310312,,,A*4E
$GPGGA,171457.000,3352.4626,N,09831.1861,W,1,09,0.9,290.8,M,-23.7,M,,0000*6B
$GPGSA,A,3,03,21,14,09,06,31,22,19,18,,,,1.8,0.9,1.5*3F
$GPRMC,171457.000,A,3352.4626,N,09831.1861,W,0.10,119.80,310312,,,A*73
$GPGGA,171458.000,3352.4626,N,09831.1861,W,1,09,0.9,290.8,M,-23.7,M,,0000*64
$GPGSA,A,3,03,21,14,09,06,31,22,19,18,,,,1.8,0.9,1.5*3F
$GPRMC,171458.000,A,3352.4626,N,09831.1861,W,0.14,143.97,310312,,,A*71
$GPGGA,171459.000,3352.4625,N,09831.1861,W,1,09,0.9,290.7,M,-23.7,M,,0000*69
$GPGSA,A,3,03,21,14,09,06,31,22,19,18,,,,1.8,0.9,1.5*3F
$GPGSV,3,1,12,22,67,002,38,14,67,280,29,18,44,084,40,21,26,157,28*7A
$GPGSV,3,2,12,09,24,044,29,31,18,189,25,19,17,285,23,06,13,237,31*73
$GPGSV,3,3,12,03,10,248,30,11,07,317,24,27,07,035,,12,03,088,*75
$GPRMC,171459.000,A,3352.4625,N,09831.1861,W,0.02,214.35,310312,,,A*7D
$GPGGA,171500.000,3352.4626,N,09831.1861,W,1,09,0.9,290.7,M,-23.7,M,,0000*67
$GPGSA,A,3,03,21,14,09,06,31,22,19,18,,,,1.8,0.9,1.5*3F
$GPRMC,171500.000,A,3352.4626,N,09831.1861,W,0.12,337.10,310312,,,A*75
$GPGGA,171501.000,3352.4626,N,09831.1861,W,1,09,0.9,290.6,M,-23.7,M,,0000*67
$GPGSA,A,3,03,21,14,09,06,31,22,19,18,,,,1.8,0.9,1.5*3F
$GPRMC,171501.000,A,3352.4626,N,09831.1861,W,0.09,75.08,310312,,,A*42
$GPGGA,171502.000,3352.4626,N,09831.1861,W,1,09,0.9,290.6,M,-23.7,M,,0000*64
$GPGSA,A,3,03,21,14,09,06,31,22,19,18,,,,1.8,0.9,1.5*3F
$GPRMC,171502.000,A,3352.4626,N,09831.1861,W,0.11,95.31,310312,,,A*4C
$GPGGA,171503.000,3352.4626,N,09831.1861,W,1,09,0.9,290.5,M,-23.7,M,,0000*66
$GPGSA,A,3,03,21,14,09,06,31,22,19,18,,,,1.8,0.9,1.5*3F
$GPRMC,171503.000,A,3352.4626,N,09831.1861,W,0.08,79.20,310312,,,A*47
$GPGGA,171504.000,3352.4626,N,09831.1861,W,1,09,0.9,290.5,M,-23.7,M,,0000*61
$GPGSA,A,3,03,21,14,09,06,31,22,19,18,,,,1.8,0.9,1.5*3F
$GPGSV,3,1,12,22,67,002,39,14,67,280,29,18,44,084,39,21,26,157,28*75
$GPGSV,3,2,12,09,24,044,29,31,18,189,25,19,17,285,23,06,13,237,31*73
$GPGSV,3,3,12,03,10,248,30,11,07,317,24,27,07,035,,12,03,088,*75
$GPRMC,171504.000,A,3352.4626,N,09831.1861,W,0.12,112.85,310312,,,A*78
$GPGGA,171505.000,3352.4626,N,09831.1861,W,1,09,0.9,290.5,M,-23.7,M,0.8,0000*46
$GPGSA,A,3,03,21,14,09,06,31,22,19,18,,,,1.8,0.9,1.5*3F
$GPRMC,171505.000,A,3352.4626,N,09831.1861,W,0.05,102.01,310312,,,A*72
$GPGGA,171506.000,3352.4625,N,09831.1861,W,1,09,0.9,290.5,M,-23.7,M,0.8,0000*46
$GPGSA,A,3,03,21,14,09,06,31,22,19,18,,,,1.8,0.9,1.5*3F
$GPRMC,171506.000,A,3352.4625,N,09831.1861,W,0.06,115.65,310312,,,A*75
$GPGGA,171507.000,3352.4625,N,09831.1860,W,1,09,0.9,290.4,M,-23.7,M,0.8,0000*47
$GPGSA,A,3,03,21,14,09,06,31,22,19,18,,,,1.8,0.9,1.5*3F
$GPRMC,171507.000,A,3352.4625,N,09831.1860,W,0.14,115.39,310312,,,A*7F
$GPGGA,171508.000,3352.4625,N,09831.1861,W,1,09,0.9,290.4,M,-23.7,M,0.8,0000*49
$GPGSA,A,3,03,21,14,09,06,31,22,19,18,,,,1.8,0.9,1.5*3F
$GPRMC,171508.000,A,3352.4625,N,09831.1861,W,0.05,6.31,310312,,,A*7A
$GPGGA,171509.000,3352.4625,N,09831.1860,W,1,09,0.9,290.4,M,-23.7,M,0.8,0000*49
$GPGSA,A,3,03,21,14,09,06,31,22,19,18,,,,1.8,0.9,1.5*3F
$GPGSV,3,1,12,22,67,002,38,14,67,280,30,18,44,084,39,21,26,157,28*7C
$GPGSV,3,2,12,09,24,044,30,31,18,189,25,19,17,285,23,06,13,237,30*7A
$GPGSV,3,3,12,03,10,248,30,11,07,317,23,27,07,035,,12,03,088,*72
$GPRMC,171509.000,A,3352.4625,N,09831.1860,W,0.10,107.40,310312,,,A*78
$GPGGA,171510.000,3352.4625,N,09831.1860,W,1,09,0.9,290.4,M,-23.7,M,0.8,0000*41
$GPGSA,A,3,03,21,14,09,06,31,22,19,18,,,,1.8,0.9,1.5*3F
$GPRMC,171510.000,A,3352.4625,N,09831.1860,W,0.07,92.22,310312,,,A*4F
$GPGGA,171511.000,3352.4625,N,09831.1860,W,1,09,0.9,290.4,M,-23.7,M,0.8,0000*40
$GPGSA,A,3,03,21,14,09,06,31,22,19,18,,,,1.8,0.9,1.5*3F
$GPRMC,171511.000,A,3352.4625,N,09831.1860,W,0.05,79.30,310312,,,A*4A
$GPGGA,171512.000,3352.4625,N,09831.1860,W,1,09,0.9,290.3,M,-23.7,M,0.8,0000*44
$GPGSA,A,3,03,21,14,09,06,31,22,19,18,,,,1.8,0.9,1.5*3F
$GPRMC,171512.000,A,3352.4625,N,09831.1860,W,0.12,119.62,310312,,,A*7F
$GPGGA,171513.000,3352.4625,N,09831.1861,W,1,09,0.9,290.3,M,-23.7,M,0.8,0000*44
$GPGSA,A,3,03,21,14,09,06,31,22,19,18,,,,1.8,0.9,1.5*3F
$GPRMC,171513.000,A,3352.4625,N,09831.1861,W,0.04,348.78,310312,,,A*75
$GPGGA,171514.000,3352.4625,N,09831.1860,W,1,09,0.9,290.3,M,-23.7,M,0.8,0000*42
$GPGSA,A,3,03,21,14,09,06,31,22,19,18,,,,1.8,0.9,1.5*3F
$GPGSV,3,1,12,22,67,002,38,14,67,280,31,18,44,084,39,21,26,157,29*7C
$GPGSV,3,2,12,09,24,044,30,31,18,189,25,19,17,285,23,06,13,237,30*7A
$GPGSV,3,3,12,03,10,248,30,11,07,317,22,27,07,035,,12,03,088,*73
$GPRMC,171514.000,A,3352.4625,N,09831.1860,W,0.09,97.04,310312,,,A*44
$GPGGA,171515.000,3352.4625,N,09831.1860,W,1,09,0.9,290.3,M,-23.7,M,0.8,0000*43
$GPGSA,A,3,03,21,14,09,06,31,22,19,18,,,,1.8,0.9,1.5*3F
$GPRMC,171515.000,A,3352.4625,N,09831.1860,W,0.08,97.93,310312,,,A*4A
$GPGGA,171516.000,3352.4625,N,09831.1860,W,1,09,0.9,290.2,M,-23.7,M,0.8,0000*41
$GPGSA,A,3,03,21,14,09,06,31,22,19,18,,,,1.8,0.9,1.5*3F
$GPRMC,171516.000,A,3352.4625,N,09831.1860,W,0.06,110.04,310312,,,A*77
$GPGGA,171517.000,3352.4625,N,09831.1860,W,1,09,0.9,290.2,M,-23.7,M,0.8,0000*40
$GPGSA,A,3,03,21,14,09,06,31,22,19,18,,,,1.8,0.9,1.5*3F
$GPRMC,171517.000,A,3352.4625,N,09831.1860,W,0.05,33.85,310312,,,A*4C
$GPGGA,171518.000,3352.4626,N,09831.1861,W,1,09,0.9,290.2,M,-23.7,M,0.8,0000*4D
$GPGSA,A,3,03,21,14,09,06,31,22,19,18,,,,1.8,0.9,1.5*3F
$GPRMC,171518.000,A,3352.4626,N,09831.1861,W,0.07,344.67,310312,,,A*7C
$GPGGA,171519.000,3352.4626,N,09831.1861,W,1,09,0.9,290.1,M,-23.7,M,0.8,0000*4F
$GPGSA,A,3,03,21,14,09,06,31,22,19,18,,,,1.8,0.9,1.5*3F
$GPGSV,3,1,12,22,67,002,38,14,67,280,31,18,44,084,39,21,26,157,28*7D
$GPGSV,3,2,12,09,24,044,31,31,18,189,26,19,17,285,24,06,13,237,31*7E
$GPGSV,3,3,12,03,10,248,30,11,07,317,21,27,07,035,,12,03,088,*70
$GPRMC,171519.000,A,3352.4626,N,09831.1861,W,0.06,47.12,310312,,,A*4E
$GPGGA,171520.000,3352.4626,N,09831.1861,W,1,09,0.9,290.1,M,-23.7,M,0.8,0000*45
$GPGSA,A,3,03,21,14,09,06,31,22,19,18,,,,1.8,0.9,1.5*3F
$GPRMC,171520.000,A,3352.4626,N,09831.1861,W,0.10,100.44,310312,,,A*72
$GPGGA,171521.000,3352.4626,N,09831.1861,W,1,09,0.9,290.0,M,-23.7,M,0.8,0000*45
$GPGSA,A,3,03,21,14,09,06,31,22,19,18,,,,1.8,0.9,1.5*3F
$GPRMC,171521.000,A,3352.4626,N,09831.1861,W,0.06,353.75,310312,,,A*72
$GPGGA,171522.000,3352.4626,N,09831.1861,W,1,09,0.9,290.0,M,-23.7,M,0.8,0000*46
$GPGSA,A,3,03,21,14,09,06,31,22,19,18,,,,1.8,0.9,1.5*3F
$GPRMC,171522.000,A,3352.4626,N,09831.1861,W,0.06,349.18,310312,,,A*71
$GPGGA,171523.000,3352.4626,N,09831.1861,W,1,09,0.9,289.9,M,-23.7,M,0.8,0000*46
$GPGSA,A,3,03,21,14,09,06,31,22,19,18,,,,1.8,0.9,1.5*3F
$GPRMC,171523.000,A,3352.4626,N,09831.1861,W,0.06,28.58,310312,,,A*40
$GPGGA,171524.000,3352.4626,N,09831.1861,W,1,09,0.9,289.9,M,-23.7,M,0.8,0000*41
$GPGSA,A,3,03,21,14,09,06,31,22,19,18,,,,1.8,0.9,1.5*3F
$GPGSV,3,1,12,22,67,002,39,14,67,280,31,18,44,084,39,21,26,157,28*7C
$GPGSV,3,2,12,09,24,044,31,31,18,189,26,19,17,285,25,06,13,237,31*7F
$GPGSV,3,3,12,03,10,248,30,11,07,317,21,27,07,035,,12,03,088,*70
$GPRMC,171524.000,A,3352.4626,N,09831.1861,W,0.06,33.09,310312,,,A*49
$GPGGA,171525.000,3352.4626,N,09831.1861,W,1,09,0.9,289.8,M,-23.7,M,0.8,0000*41
$GPGSA,A,3,03,21,14,09,06,31,22,19,18,,,,1.8,0.9,1.5*3F
$GPRMC,171525.000,A,3352.4626,N,09831.1861,W,0.05,51.67,310312,,,A*47
$GPGGA,171526.000,3352.4626,N,09831.1861,W,1,09,0.9,289.8,M,-23.7,M,0.8,0000*42
$GPGSA,A,3,03,21,14,09,06,31,22,19,18,,,,1.8,0.9,1.5*3F
$GPRMC,171526.000,A,3352.4626,N,09831.1861,W,0.07,42.25,310312,,,A*42
$GPGGA,171527.000,3352.4626,N,09831.1861,W,1,09,0.9,289.7,M,-23.7,M,0.8,0000*4C
$GPGSA,A,3,03,21,14,09,06,31,22,19,18,,,,1.8,0.9,1.5*3F
$GPRMC,171527.000,A,3352.4626,N,09831.1861,W,0.06,32.07,310312,,,A*45
$GPGGA,171528.000,3352.4626,N,09831.1861,W,1,09,0.9,289.7,M,-23.7,M,0.8,0000*43
$GPGSA,A,3,03,21,14,09,06,31,22,19,18,,,,1.8,0.9,1.5*3F
$GPRMC,171528.000,A,3352.4626,N,09831.1861,W,0.04,45.25,310312,,,A*48
$GPGGA,171529.000,3352.4626,N,09831.1861,W,1,09,0.9,289.7,M,-23.7,M,0.8,0000*42
$GPGSA,A,3,03,21,14,09,06,31,22,19,18,,,,1.8,0.9,1.5*3F
$GPGSV,3,1,12,22,67,002,39,14,67,280,31,18,44,084,38,21,26,157,28*7D
$GPGSV,3,2,12,09,24,044,30,31,18,189,26,19,17,285,25,06,13,237,30*7F
$GPGSV,3,3,12,03,10,248,30,11,07,317,21,27,07,035,,12,03,088,*70
$GPRMC,171529.000,A,3352.4626,N,09831.1861,W,0.05,41.07,310312,,,A*4C
$GPGGA,171530.000,3352.4626,N,09831.1861,W,1,09,0.9,289.6,M,-23.7,M,0.8,0000*4B
$GPGSA,A,3,03,21,14,09,06,31,22,19,18,,,,1.8,0.9,1.5*3F
$GPRMC,171530.000,A,3352.4626,N,09831.1861,W,0.06,35.07,310312,,,A*44
$GPGGA,171531.000,3352.4626,N,09831.1861,W,1,09,0.9,289.6,M,-23.7,M,0.8,0000*4A
$GPGSA,A,3,03,21,14,09,06,31,22,19,18,,,,1.8,0.9,1.5*3F
$GPRMC,171531.000,A,3352.4626,N,09831.1861,W,0.05,42.51,310312,,,A*45
$GPGGA,171532.000,3352.4626,N,09831.1861,W,1,09,0.9,289.5,M,-23.7,M,0.8,0000*4A
$GPGSA,A,3,03,21,14,09,06,31,22,19,18,,,,1.8,0.9,1.5*3F
$GPRMC,171532.000,A,3352.4626,N,09831.1861,W,0.10,22.32,310312,,,A*41
$GPGGA,171533.000,3352.4626,N,09831.1861,W,1,09,0.9,289.5,M,-23.7,M,0.8,0000*4B
$GPGSA,A,3,03,21,14,09,06,31,22,19,18,,,,1.8,0.9,1.5*3F
$GPRMC,171533.000,A,3352.4626,N,09831.1861,W,0.05,31.64,310312,,,A*45
$GPGGA,171534.000,3352.4626,N,09831.1861,W,1,09,0.9,289.5,M,-23.7,M,0.8,0000*4C
$GPGSA,A,3,03,21,14,09,06,31,22,19,18,,,,1.8,0.9,1.5*3F
$GPGSV,3,1,12,22,67,002,39,14,67,280,30,18,44,084,38,21,26,157,28*7C
$GPGSV,3,2,12,09,24,044,30,31,18,189,26,19,17,285,25,06,13,237,30*7F
$GPGSV,3,3,12,03,10,248,30,11,07,317,22,27,07,035,,12,03,088,*73
$GPRMC,171534.000,A,3352.4626,N,09831.1861,W,0.05,58.88,310312,,,A*4F
$GPGGA,171535.000,3352.4626,N,09831.1861,W,1,09,0.9,289.4,M,-23.7,M,0.8,0000*4C
$GPGSA,A,3,03,21,14,09,06,31,22,19,18,,,,1.8,0.9,1.5*3F
$GPRMC,171535.000,A,3352.4626,N,09831.1861,W,0.06,45.03,310312,,,A*42
$GPGGA,171536.000,3352.4627,N,09831.1861,W,1,09,0.9,289.4,M,-23.7,M,0.8,0000*4E
$GPGSA,A,3,03,21,14,09,06,31,22,19,18,,,,1.8,0.9,1.5*3F
$GPRMC,171536.000,A,3352.4627,N,09831.1861,W,0.05,36.97,310312,,,A*4A
$GPGGA,171537.000,3352.4627,N,09831.1861,W,1,09,0.9,289.4,M,-23.7,M,0.8,0000*4F
$GPGSA,A,3,03,21,14,09,06,31,22,19,18,,,,1.8,0.9,1.5*3F
$GPRMC,171537.000,A,3352.4627,N,09831.1861,W,0.06,38.23,310312,,,A*49
$GPGGA,171538.000,3352.4627,N,09831.1861,W,1,09,0.9,289.3,M,-23.7,M,0.8,0000*47
$GPGSA,A,3,03,21,14,09,06,31,22,19,18,,,,1.8,0.9,1.5*3F
$GPRMC,171538.000,A,3352.4627,N,09831.1861,W,0.05,30.74,310312,,,A*4F
$GPGGA,171539.000,3352.4627,N,09831.1861,W,1,09,0.9,289.3,M,-23.7,M,0.8,0000*46
$GPGSA,A,3,03,21,14,09,06,31,22,19,18,,,,1.8,0.9,1.5*3F
$GPGSV,3,1,12,22,67,002,39,14,67,280,30,18,44,084,38,21,26,157,28*7C
$GPGSV,3,2,12,09,24,044,29,31,18,189,26,19,17,285,25,06,13,237,30*77
$GPGSV,3,3,12,03,10,248,30,11,07,317,23,27,07,035,,12,03,088,*72
$GPRMC,171539.000,A,3352.4627,N,09831.1861,W,0.08,349.16,310312,,,A*7A
$GPGGA,171540.000,3352.4627,N,09831.1861,W,1,09,0.9,289.2,M,-23.7,M,0.8,0000*49
$GPGSA,A,3,03,21,14,09,06,31,22,19,18,,,,1.8,0.9,1.5*3F
$GPRMC,171540.000,A,3352.4627,N,09831.1861,W,0.07,7.78,310312,,,A*7A
$GPGGA,171541.000,3352.4627,N,09831.1861,W,1,09,0.9,289.2,M,-23.7,M,0.8,0000*48
$GPGSA,A,3,03,21,14,09,06,31,22,19,18,,,,1.8,0.9,1.5*3F
$GPRMC,171541.000,A,3352.4627,N,09831.1861,W,0.07,71.75,310312,,,A*47
$GPGGA,171542.000,3352.4627,N,09831.1861,W,1,09,0.9,289.2,M,-23.7,M,0.8,0000*4B
$GPGSA,A,3,03,21,14,09,06,31,22,19,18,,,,1.8,0.9,1.5*3F
$GPRMC,171542.000,A,3352.4627,N,09831.1861,W,0.07,76.52,310312,,,A*46
$GPGGA,171543.000,3352.4627,N,09831.1861,W,1,09,0.9,289.2,M,-23.7,M,0.8,0000*4A
$GPGSA,A,3,03,21,14,09,06,31,22,19,18,,,,1.8,0.9,1.5*3F
$GPRMC,171543.000,A,3352.4627,N,09831.1861,W,0.07,353.87,310312,,,A*7B
$GPGGA,171544.000,3352.4627,N,09831.1861,W,1,09,0.9,289.2,M,-23.7,M,0.8,0000*4D
$GPGSA,A,3,03,21,14,09,06,31,22,19,18,,,,1.8,0.9,1.5*3F
$GPGSV,3,1,12,22,67,002,39,14,67,280,29,18,44,084,38,21,26,157,28*74
$GPGSV,3,2,12,09,24,044,29,31,18,189,26,19,17,285,24,06,13,237,30*76
$GPGSV,3,3,12,03,10,248,30,11,07,317,23,27,07,035,,12,03,088,*72
$GPRMC,171544.000,A,3352.4627,N,09831.1861,W,0.06,63.46,310312,,,A*40
$GPGGA,171545.000,3352.4627,N,09831.1861,W,1,09,0.9,289.2,M,-23.7,M,0.8,0000*4C
$GPGSA,A,3,03,21,14,09,06,31,22,19,18,,,,1.8,0.9,1.5*3F
$GPRMC,171545.000,A,3352.4627,N,09831.1861,W,0.07,88.43,310312,,,A*40
$GPGGA,171546.000,3352.4627,N,09831.1861,W,1,09,0.9,289.1,M,-23.7,M,0.8,0000*4C
$GPGSA,A,3,03,21,14,09,06,31,22,19,18,,,,1.8,0.9,1.5*3F
$GPRMC,171546.000,A,3352.4627,N,09831.1861,W,0.08,340.91,310312,,,A*74
$GPGGA,171547.000,3352.4627,N,09831.1861,W,1,09,0.9,289.1,M,-23.7,M,0.8,0000*4D
$GPGSA,A,3,03,21,14,09,06,31,22,19,18,,,,1.8,0.9,1.5*3F
$GPRMC,171547.000,A,3352.4627,N,09831.1861,W,0.06,72.06,310312,,,A*47
$GPGGA,171548.000,3352.4627,N,09831.1861,W,1,09,0.9,289.1,M,-23.7,M,0.8,0000*42
$GPGSA,A,3,03,21,14,09,06,31,22,19,18,,,,1.8,0.9,1.5*3F
$GPRMC,171548.000,A,3352.4627,N,09831.1861,W,0.08,355.13,310312,,,A*74
$GPGGA,171549.000,3352.4627,N,09831.1862,W,1,09,0.9,289.1,M,-23.7,M,0.8,0000*40
$GPGSA,A,3,03,21,14,09,06,31,22,19,18,,,,1.8,0.9,1.5*3F
$GPGSV,3,1,12,22,68,005,39,14,67,282,29,18,44,085,38,21,25,157,28*7C
$GPGSV,3,2,12,09,23,044,29,31,19,189,26,19,17,284,24,06,12,236,29*79
$GPGSV,3,3,12,03,10,247,30,11,08,317,23,27,06,035,,12,04,088,*74
$GPRMC,171549.000,A,3352.4627,N,09831.1862,W,0.10,333.93,310312,,,A*77
$GPGGA,171550.000,3352.4627,N,09831.1861,W,1,09,0.9,289.1,M,-23.7,M,0.8,0000*4B
$GPGSA,A,3,03,21,14,09,06,31,22,19,18,,,,1.8,0.9,1.5*3F
$GPRMC,171550.000,A,3352.4627,N,09831.1861,W,0.07,61.86,310312,,,A*4A
$GPGGA,171551.000,3352.4627,N,09831.1861,W,1,09,0.9,289.0,M,-23.7,M,0.8,0000*4B
$GPGSA,A,3,03,21,14,09,06,31,22,19,18,,,,1.8,0.9,1.5*3F
$GPRMC,171551.000,A,3352.4627,N,09831.1861,W,0.06,45.51,310312,,,A*46
$GPGGA,171552.000,3352.4627,N,09831.1861,W,1,09,0.9,289.0,M,-23.7,M,0.8,0000*48
$GPGSA,A,3,03,21,14,09,06,31,22,19,18,,,,1.8,0.9,1.5*3F
$GPRMC,171552.000,A,3352.4627,N,09831.1861,W,0.08,88.62,310312,,,A*4A
$GPGGA,171553.000,3352.4627,N,09831.1861,W,1,09,0.9,289.0,M,-23.7,M,0.8,0000*49
$GPGSA,A,3,03,21,14,09,06,31,22,19,18,,,,1.7,0.9,1.5*30
$GPRMC,171553.000,A,3352.4627,N,09831.1861,W,0.14,109.47,310312,,,A*79
$GPGGA,171554.000,3352.4626,N,09831.1861,W,1,09,0.9,289.1,M,-23.7,M,0.8,0000*4E
$GPGSA,A,3,03,21,14,09,06,31,22,19,18,,,,1.7,0.9,1.5*30
$GPGSV,3,1,12,22,68,005,39,14,67,282,30,18,44,085,38,21,25,157,28*74
$GPGSV,3,2,12,09,23,044,29,31,19,189,26,19,17,284,24,06,12,236,29*79
$GPGSV,3,3,12,03,10,247,30,11,08,317,23,27,06,035,,12,04,088,*74
$GPRMC,171554.000,A,3352.4626,N,09831.1861,W,0.12,97.70,310312,,,A*4B
$GPGGA,171555.000,3352.4626,N,09831.1861,W,1,09,0.9,289.1,M,-23.7,M,0.8,0000*4F
$GPGSA,A,3,03,21,14,09,06,31,22,19,18,,,,1.7,0.9,1.5*30
$GPRMC,171555.000,A,3352.4626,N,09831.1861,W,0.04,36.70,310312,,,A*46
$GPGGA,171556.000,3352.4626,N,09831.1861,W,1,09,0.9,289.1,M,-23.7,M,0.8,0000*4C
$GPGSA,A,3,03,21,14,09,06,31,22,19,18,,,,1.7,0.9,1.5*30
$GPRMC,171556.000,A,3352.4626,N,09831.1861,W,0.11,328.45,310312,,,A*7B
$GPGGA,171557.000,3352.4626,N,09831.1861,W,1,09,0.9,289.1,M,-23.7,M,0.8,0000*4D
$GPGSA,A,3,03,21,14,09,06,31,22,19,18,,,,1.7,0.9,1.5*30
$GPRMC,171557.000,A,3352.4626,N,09831.1861,W,0.09,87.87,310312,,,A*4B
$GPGGA,171558.000,3352.4626,N,09831.1861,W,1,09,0.9,289.1,M,-23.7,M,0.8,0000*42
$GPGSA,A,3,03,21,14,09,06,31,22,19,18,,,,1.7,0.9,1.5*30
$GPRMC,171558.000,A,3352.4626,N,09831.1861,W,0.05,349.89,310312,,,A*77
$GPGGA,171559.000,3352.4627,N,09831.1861,W,1,09,0.9,289.1,M,-23.7,M,0.8,0000*42
$GPGSA,A,3,03,21,14,09,06,31,22,19,18,,,,1.7,0.9,1.5*30
$GPGSV,3,1,12,22,68,005,39,14,67,282,30,18,44,085,38,21,25,157,28*74
$GPGSV,3,2,12,09,23,044,30,31,19,189,26,19,17,284,24,06,12,236,28*70
$GPGSV,3,3,12,03,10,247,30,11,08,317,23,27,06,035,,12,04,088,*74
$GPRMC,171559.000,A,3352.4627,N,09831.1861,W,0.11,335.50,310312,,,A*7D
$GPGGA,171600.000,3352.4627,N,09831.1861,W,1,09,0.9,289.0,M,-23.7,M,0.8,0000*4C
$GPGSA,A,3,03,21,14,09,06,31,22,19,18,,,,1.7,0.9,1.5*30
$GPRMC,171600.000,A,3352.4627,N,09831.1861,W,0.10,351.71,310312,,,A*72
$GPGGA,171601.000,3352.4627,N,09831.1861,W,1,09,0.9,289.0,M,-23.7,M,0.8,0000*4D
$GPGSA,A,3,03,21,14,09,06,31,22,19,18,,,,1.7,0.9,1.5*30
$GPRMC,171601.000,A,3352.4627,N,09831.1861,W,0.07,18.93,310312,,,A*47
$GPGGA,171602.000,3352.4627,N,09831.1861,W,1,09,0.9,289.0,M,-23.7,M,0.8,0000*4E
$GPGSA,A,3,03,21,14,09,06,31,22,19,18,,,,1.7,0.9,1.5*30
$GPRMC,171602.000,A,3352.4627,N,09831.1861,W,0.08,30.42,310312,,,A*4D
$GPGGA,171603.000,3352.4627,N,09831.1861,W,1,09,0.9,289.0,M,-23.7,M,0.8,0000*4F
$GPGSA,A,3,03,21,14,09,06,31,22,19,18,,,,1.7,0.9,1.5*30
$GPRMC,171603.000,A,3352.4627,N,09831.1861,W,0.05,22.04,310312,,,A*40
$GPGGA,171604.000,3352.4627,N,09831.1861,W,1,09,0.9,288.9,M,-23.7,M,0.8,0000*40
$GPGSA,A,3,03,21,14,09,06,31,22,19,18,,,,1.7,0.9,1.5*30
$GPGSV,3,1,12,22,68,005,39,14,67,282,30,18,44,085,38,21,25,157,28*74
$GPGSV,3,2,12,09,23,044,30,31,19,189,26,19,17,284,25,06,12,236,28*71
$GPGSV,3,3,12,03,10,247,30,11,08,317,23,27,06,035,,12,04,088,*74
$GPRMC,171604.000,A,3352.4627,N,09831.1861,W,0.07,31.55,310312,,,A*43
$GPGGA,171605.000,3352.4627,N,09831.1861,W,1,09,0.9,288.9,M,-23.7,M,0.8,0000*41
$GPGSA,A,3,03,21,14,09,06,31,22,19,18,,,,1.7,0.9,1.5*30
$GPRMC,171605.000,A,3352.4627,N,09831.1861,W,0.05,44.68,310312,,,A*4C
$GPGGA,171606.000,3352.4627,N,09831.1861,W,1,09,0.9,288.9,M,-23.7,M,0.8,0000*42
$GPGSA,A,3,03,21,14,09,06,31,22,19,18,,,,1.7,0.9,1.5*30
$GPRMC,171606.000,A,3352.4627,N,09831.1861,W,0.06,43.89,310312,,,A*44
$GPGGA,171607.000,3352.4627,N,09831.1861,W,1,09,0.9,288.9,M,-23.7,M,0.8,0000*43
$GPGSA,A,3,03,21,14,09,06,31,22,19,18,,,,1.7,0.9,1.5*30
$GPRMC,171607.000,A,3352.4627,N,09831.1861,W,0.05,41.75,310312,,,A*47
$GPGGA,171608.000,3352.4627,N,09831.1861,W,1,09,0.9,288.9,M,-23.7,M,0.8,0000*4C
$GPGSA,A,3,03,21,14,09,06,31,22,19,18,,,,1.7,0.9,1.5*30
$GPRMC,171608.000,A,3352.4627,N,09831.1861,W,0.05,45.86,310312,,,A*40
$GPGGA,171609.000,3352.4627,N,09831.1861,W,1,09,0.9,288.9,M,-23.7,M,0.8,0000*4D
$GPGSA,A,3,03,21,14,09,06,31,22,19,18,,,,1.7,0.9,1.5*30
$GPGSV,3,1,12,22,68,005,39,14,67,282,30,18,44,085,38,21,25,157,28*74
$GPGSV,3,2,12,09,23,044,30,31,19,189,27,19,17,284,25,06,12,236,28*70
$GPGSV,3,3,12,03,10,247,30,11,08,317,24,27,06,035,18,12,04,088,*7A
$GPRMC,171609.000,A,3352.4627,N,09831.1861,W,0.06,51.20,310312,,,A*4B
$GPGGA,171610.000,3352.4627,N,09831.1861,W,1,09,0.9,288.8,M,-23.7,M,0.8,0000*44
$GPGSA,A,3,03,21,14,09,06,31,22,19,18,,,,1.7,0.9,1.5*30
$GPRMC,171610.000,A,3352.4627,N,09831.1861,W,0.05,32.41,310312,,,A*42
$GPGGA,171611.000,3352.4627,N,09831.1861,W,1,09,0.9,288.8,M,-23.7,M,0.8,0000*45
$GPGSA,A,3,03,21,14,09,06,31,22,19,18,,,,1.7,0.9,1.5*30
$GPRMC,171611.000,A,3352.4627,N,09831.1861,W,0.04,41.00,310312,,,A*43
$GPGGA,171612.000,3352.4627,N,09831.1861,W,1,09,0.9,288.8,M,-23.7,M,0.8,0000*46
$GPGSA,A,3,03,21,14,09,06,31,22,19,18,,,,1.7,0.9,1.5*30
$GPRMC,171612.000,A,3352.4627,N,09831.1861,W,0.07,72.81,310312,,,A*4A
$GPGGA,171613.000,3352.4627,N,09831.1861,W,1,09,0.9,288.8,M,-23.7,M,0.8,0000*47
$GPGSA,A,3,03,21,14,09,06,31,22,19,18,,,,1.7,0.9,1.5*30
$GPRMC,171613.000,A,3352.4627,N,09831.1861,W,0.06,60.97,310312,,,A*4E
$GPGGA,171614.000,3352.4626,N,09831.1861,W,1,09,0.9,288.8,M,-23.7,M,0.8,0000*41
$GPGSA,A,3,03,21,14,09,06,31,22,19,18,,,,1.7,0.9,1.5*30
$GPGSV,3,1,12,22,68,005,39,14,67,283,30,18,43,085,38,21,25,157,28*72
$GPGSV,3,2,12,09,23,044,30,31,19,189,27,19,17,283,24,06,12,236,28*76
$GPGSV,3,3,12,03,09,247,30,11,08,317,24,27,06,035,18,12,04,087,*7D
$GPRMC,171614.000,A,3352.4626,N,09831.1861,W,0.05,68.27,310312,,,A*48
$GPGGA,171615.000,3352.4627,N,09831.1861,W,1,09,0.9,288.8,M,-23.7,M,0.8,0000*41
$GPGSA,A,3,03,21,14,09,06,31,22,19,18,,,,1.7,0.9,1.5*30
$GPRMC,171615.000,A,3352.4627,N,09831.1861,W,0.09,329.44,310312,,,A*77
$GPGGA,171616.000,3352.4627,N,09831.1861,W,1,09,0.9,288.7,M,-23.7,M,0.8,0000*4D
$GPGSA,A,3,03,21,14,09,06,31,22,19,18,,,,1.7,0.9,1.5*30
$GPRMC,171616.000,A,3352.4627,N,09831.1861,W,0.07,358.84,310312,,,A*70
$GPGGA,171617.000,3352.4627,N,09831.1861,W,1,09,0.9,288.7,M,-23.7,M,0.8,0000*4C
$GPGSA,A,3,03,21,14,09,06,31,22,19,18,,,,1.7,0.9,1.5*30
$GPRMC,171617.000,A,3352.4627,N,09831.1861,W,0.08,345.03,310312,,,A*7D
$GPGGA,171618.000,3352.4627,N,09831.1861,W,1,09,0.9,288.6,M,-23.7,M,0.8,0000*42
$GPGSA,A,3,03,21,14,09,06,31,22,19,18,,,,1.7,0.9,1.5*30
$GPRMC,171618.000,A,3352.4627,N,09831.1861,W,0.13,96.06,310312,,,A*40
$GPGGA,171619.000,3352.4626,N,09831.1860,W,1,09,0.9,288.6,M,-23.7,M,0.8,0000*43
$GPGSA,A,3,03,21,14,09,06,31,22,19,18,,,,1.7,0.9,1.5*30
$GPGSV,3,1,12,22,68,005,39,14,67,283,31,18,43,085,38,21,25,157,28*73
$GPGSV,3,2,12,09,23,043,30,31,19,189,27,19,17,283,24,06,12,236,28*71
$GPGSV,3,3,12,03,09,247,30,11,08,317,25,27,06,035,18,12,04,087,*7C
$GPRMC,171619.000,A,3352.4626,N,09831.1860,W,0.13,92.97,310312,,,A*4D
$GPGGA,171620.000,3352.4626,N,09831.1861,W,1,09,0.9,288.5,M,-23.7,M,0.8,0000*4B
$GPGSA,A,3,03,21,14,09,06,31,22,19,18,,,,1.7,0.9,1.5*30
$GPRMC,171620.000,A,3352.4626,N,09831.1861,W,0.04,2.85,310312,,,A*7A
$GPGGA,171621.000,3352.4626,N,09831.1860,W,1,09,0.9,288.5,M,-23.7,M,0.8,0000*4B
$GPGSA,A,3,03,21,14,09,06,31,22,19,18,,,,1.7,0.9,1.5*30
$GPRMC,171621.000,A,3352.4626,N,09831.1860,W,0.12,94.34,310312,,,A*48
$GPGGA,171622.000,3352.4626,N,09831.1860,W,1,09,0.9,288.5,M,-23.7,M,0.8,0000*48
$GPGSA,A,3,03,21,14,09,06,31,22,19,18,,,,1.7,0.9,1.5*30
$GPRMC,171622.000,A,3352.4626,N,09831.1860,W,0.07,73.07,310312,,,A*46
$GPGGA,171623.000,3352.4626,N,09831.1860,W,1,09,0.9,288.4,M,-23.7,M,0.8,0000*48
$GPGSA,A,3,03,21,14,09,06,31,22,19,18,,,,1.7,0.9,1.5*30
$GPRMC,171623.000,A,3352.4626,N,09831.1860,W,0.10,98.52,310312,,,A*44
$GPGGA,171624.000,3352.4626,N,09831.1860,W,1,09,0.9,288.4,M,-23.7,M,0.8,0000*4F
$GPGSA,A,3,03,21,14,09,06,31,22,19,18,,,,1.7,0.9,1.5*30
$GPGSV,3,1,12,22,68,005,39,14,67,283,31,18,43,085,38,21,25,157,29*72
$GPGSV,3,2,12,09,23,043,30,31,19,189,28,19,17,283,24,06,12,236,27*71
$GPGSV,3,3,12,03,09,247,30,11,08,317,26,27,06,035,18,12,04,087,*7F
$GPRMC,171624.000,A,3352.4626,N,09831.1860,W,0.17,107.14,310312,,,A*71
$GPGGA,171625.000,3352.4626,N,09831.1859,W,1,09,0.9,288.4,M,-23.7,M,0.8,0000*44
$GPGSA,A,3,03,21,14,09,06,31,22,19,18,,,,1.7,0.9,1.5*30
$GPRMC,171625.000,A,3352.4626,N,09831.1859,W,0.15,109.80,310312,,,A*7B
$GPGGA,171626.000,3352.4626,N,09831.1859,W,1,09,0.9,288.4,M,-23.7,M,0.8,0000*47
$GPGSA,A,3,03,21,14,09,06,31,22,19,18,,,,1.7,0.9,1.5*30
$GPRMC,171626.000,A,3352.4626,N,09831.1859,W,0.05,67.70,310312,,,A*4F
$GPGGA,171627.000,3352.4626,N,09831.1859,W,1,09,0.9,288.4,M,-23.7,M,0.8,0000*46
$GPGSA,A,3,03,21,14,09,06,31,22,19,18,,,,1.7,0.9,1.5*30
$GPRMC,171627.000,A,3352.4626,N,09831.1859,W,0.05,343.54,310312,,,A*7D
$GPGGA,171628.000,3352.4626,N,09831.1859,W,1,09,0.9,288.3,M,-23.7,M,0.8,0000*4E
$GPGSA,A,3,03,21,14,09,06,31,22,19,18,,,,1.7,0.9,1.5*30
$GPRMC,171628.000,A,3352.4626,N,09831.1859,W,0.11,99.94,310312,,,A*4F
$GPGGA,171629.000,3352.4626,N,09831.1859,W,1,09,0.9,288.3,M,-23.7,M,0.8,0000*4F
$GPGSA,A,3,03,21,14,09,06,31,22,19,18,,,,1.7,0.9,1.5*30
$GPGSV,3,1,12,22,68,005,39,14,67,283,30,18,43,085,38,21,25,157,29*73
$GPGSV,3,2,12,09,23,043,30,31,19,189,28,19,17,283,23,06,12,236,27*76
$GPGSV,3,3,12,03,09,247,30,11,08,317,26,27,06,035,18,12,04,087,*7F
$GPRMC,171629.000,A,3352.4626,N,09831.1859,W,0.10,90.79,310312,,,A*45
$GPGGA,171630.000,3352.4626,N,09831.1859,W,1,09,0.9,288.3,M,-23.7,M,0.8,0000*47
$GPGSA,A,3,03,21,14,09,06,31,22,19,18,,,,1.7,0.9,1.5*30
$GPRMC,171630.000,A,3352.4626,N,09831.1859,W,0.06,357.61,310312,,,A*7B
$GPGGA,171631.000,3352.4626,N,09831.1859,W,1,09,0.9,288.2,M,-23.7,M,0.8,0000*47
$GPGSA,A,3,03,21,14,09,06,31,22,19,18,,,,1.7,0.9,1.5*30
$GPRMC,171631.000,A,3352.4626,N,09831.1859,W,0.05,16.51,310312,,,A*4C
$GPGGA,171632.000,3352.4626,N,09831.1859,W,1,09,0.9,288.1,M,-23.7,M,0.8,0000*47
$GPGSA,A,3,03,21,14,09,06,31,22,19,18,,,,1.7,0.9,1.5*30
$GPRMC,171632.000,A,3352.4626,N,09831.1859,W,0.06,39.58,310312,,,A*48
$GPGGA,171633.000,3352.4626,N,09831.1859,W,1,09,0.9,288.1,M,-23.7,M,0.8,0000*46
$GPGSA,A,3,03,21,14,09,06,31,22,19,18,,,,1.7,0.9,1.5*30
$GPRMC,171633.000,A,3352.4626,N,09831.1859,W,0.12,86.64,310312,,,A*47
$GPGGA,171634.000,3352.4626,N,09831.1859,W,1,09,0.9,288.1,M,-23.7,M,0.8,0000*41
$GPGSA,A,3,03,21,14,09,06,31,22,19,18,,,,1.7,0.9,1.5*30
$GPGSV,3,1,12,22,68,005,39,14,67,283,30,18,43,085,38,21,25,157,29*73
$GPGSV,3,2,12,09,23,043,29,31,19,189,28,19,17,283,23,06,12,236,27*7E
$GPGSV,3,3,12,03,09,247,30,11,08,317,26,27,06,035,18,12,04,087,*7F
$GPRMC,171634.000,A,3352.4626,N,09831.1859,W,0.13,92.81,310312,,,A*4F
$GPGGA,171635.000,3352.4626,N,09831.1859,W,1,09,0.9,288.0,M,-23.7,M,0.8,0000*41
$GPGSA,A,3,03,21,14,09,06,31,22,19,18,,,,1.7,0.9,1.5*30
$GPRMC,171635.000,A,3352.4626,N,09831.1859,W,0.06,63.88,310312,,,A*4D
$GPGGA,171636.000,3352.4626,N,09831.1858,W,1,09,0.9,288.0,M,-23.7,M,0.8,0000*43
$GPGSA,A,3,03,21,14,09,06,31,22,19,18,,,,1.7,0.9,1.5*30
$GPRMC,171636.000,A,3352.4626,N,09831.1858,W,0.11,93.16,310312,,,A*41
$GPGGA,171637.000,3352.4626,N,09831.1858,W,1,09,0.9,288.0,M,-23.7,M,0.8,0000*42
$GPGSA,A,3,03,21,14,09,06,31,22,19,18,,,,1.7,0.9,1.5*30
$GPRMC,171637.000,A,3352.4626,N,09831.1858,W,0.07,350.58,310312,,,A*71
$GPGGA,171638.000,3352.4626,N,09831.1858,W,1,09,0.9,287.9,M,-23.7,M,0.8,0000*4B
$GPGSA,A,3,03,21,14,09,06,31,22,19,18,,,,1.7,0.9,1.5*30
$GPRMC,171638.000,A,3352.4626,N,09831.1858,W,0.07,67.60,310312,,,A*42
$GPGGA,171639.000,3352.4626,N,09831.1858,W,1,09,0.9,287.9,M,-23.7,M,0.8,0000*4A
$GPGSA,A,3,03,21,14,09,06,31,22,19,18,,,,1.7,0.9,1.5*30
$GPGSV,3,1,12,22,68,005,39,14,67,283,30,18,43,085,38,21,25,157,29*73
$GPGSV,3,2,12,09,23,043,29,31,19,189,28,19,17,283,23,06,12,236,27*7E
$GPGSV,3,3,12,03,09,247,30,11,08,317,26,27,06,035,17,12,04,087,*70
$GPRMC,171639.000,A,3352.4626,N,09831.1858,W,0.12,90.26,310312,,,A*4D
$GPGGA,171640.000,3352.4627,N,09831.1858,W,1,09,0.9,287.9,M,-23.7,M,0.8,0000*45
$GPGSA,A,3,03,21,14,09,06,31,22,19,18,,,,1.7,0.9,1.5*30
$GPRMC,171640.000,A,3352.4627,N,09831.1858,W,0.07,46.23,310312,,,A*48
$GPGGA,171641.000,3352.4627,N,09831.1858,W,1,09,0.9,287.8,M,-23.7,M,0.8,0000*45
$GPGSA,A,3,03,21,14,09,06,31,22,19,18,,,,1.7,0.9,1.5*30
$GPRMC,171641.000,A,3352.4627,N,09831.1858,W,0.12,95.12,310312,,,A*41
$GPGGA,171642.000,3352.4627,N,09831.1858,W,1,09,0.9,287.8,M,-23.7,M,0.8,0000*46
$GPGSA,A,3,03,21,14,09,06,31,22,19,18,,,,1.7,0.9,1.5*30
$GPRMC,171642.000,A,3352.4627,N,09831.1858,W,0.05,34.41,310312,,,A*49
$GPGGA,171643.000,3352.4627,N,09831.1858,W,1,09,0.9,287.8,M,-23.7,M,0.8,0000*47
$GPGSA,A,3,03,21,14,09,06,31,22,19,18,,,,1.7,0.9,1.5*30
$GPRMC,171643.000,A,3352.4627,N,09831.1858,W,0.07,354.82,310312,,,A*70
$GPGGA,171644.000,3352.4627,N,09831.1858,W,1,09,0.9,287.7,M,-23.7,M,0.8,0000*4F
$GPGSA,A,3,03,21,14,09,06,31,22,19,18,,,,1.7,0.9,1.5*30
$GPGSV,3,1,12,22,68,006,39,14,68,283,30,18,43,085,38,21,25,157,29*7F
$GPGSV,3,2,12,09,23,043,29,31,19,189,28,19,17,283,24,06,12,236,27*79
$GPGSV,3,3,12,03,09,247,30,11,08,317,25,27,06,035,17,12,04,087,*73
$GPRMC,171644.000,A,3352.4627,N,09831.1858,W,0.13,337.16,310312,,,A*7A
$GPGGA,171645.000,3352.4628,N,09831.1859,W,1,09,0.9,287.6,M,-23.7,M,0.8,0000*41
$GPGSA,A,3,03,21,14,09,06,31,22,19,18,,,,1.7,0.9,1.5*30
$GPRMC,171645.000,A,3352.4628,N,09831.1859,W,0.08,356.74,310312,,,A*7C
$GPGGA,171646.000,3352.4628,N,09831.1859,W,1,09,0.9,287.5,M,-23.7,M,0.8,0000*41
$GPGSA,A,3,03,21,14,09,06,31,22,19,18,,,,1.7,0.9,1.5*30
$GPRMC,171646.000,A,3352.4628,N,09831.1859,W,0.11,353.78,310312,,,A*7E
$GPGGA,171647.000,3352.4628,N,09831.1859,W,1,09,0.9,287.5,M,-23.7,M,0.8,0000*40
$GPGSA,A,3,03,21,14,09,06,31,22,19,18,,,,1.7,0.9,1.5*30
$GPRMC,171647.000,A,3352.4628,N,09831.1859,W,0.11,80.16,310312,,,A*4A
$GPGGA,171648.000,3352.4628,N,09831.1858,W,1,09,0.9,287.4,M,-23.7,M,0.8,0000*4F
$GPGSA,A,3,03,21,14,09,06,31,22,19,18,,,,1.7,0.9,1.5*30
$GPRMC,171648.000,A,3352.4628,N,09831.1858,W,0.07,44.12,310312,,,A*4F
$GPGGA,171649.000,3352.4628,N,09831.1858,W,1,09,0.9,287.3,M,-23.7,M,0.8,0000*49
$GPGSA,A,3,03,21,14,09,06,31,22,19,18,,,,1.7,0.9,1.5*30
$GPGSV,3,1,12,22,68,006,39,14,68,284,30,18,43,085,38,21,25,157,29*78
$GPGSV,3,2,12,09,23,043,29,31,19,189,29,19,17,283,24,06,12,236,27*78
$GPGSV,3,3,12,03,09,247,30,11,08,317,25,27,06,035,16,12,04,087,*72
$GPRMC,171649.000,A,3352.4628,N,09831.1858,W,0.13,89.56,310312,,,A*4A
$GPGGA,171650.000,3352.4629,N,09831.1858,W,1,09,0.9,287.3,M,-23.7,M,0.8,0000*40
$GPGSA,A,3,03,21,14,09,06,31,22,19,18,,,,1.7,0.9,1.5*30
$GPRMC,171650.000,A,3352.4629,N,09831.1858,W,0.07,53.48,310312,,,A*4E
$GPGGA,171651.000,3352.4629,N,09831.1858,W,1,09,0.9,287.3,M,-23.7,M,0.8,0000*41
$GPGSA,A,3,03,21,14,09,06,31,22,19,18,,,,1.7,0.9,1.5*30
$GPRMC,171651.000,A,3352.4629,N,09831.1858,W,0.11,82.03,310312,,,A*4B
$GPGGA,171652.000,3352.4629,N,09831.1857,W,1,08,1.0,287.2,M,-23.7,M,0.8,0000*45
$GPGSA,A,3,21,14,09,06,31,22,19,18,,,,,1.8,1.0,1.5*34
$GPRMC,171652.000,A,3352.4629,N,09831.1857,W,0.18,92.58,310312,,,A*41
$GPGGA,171653.000,3352.4629,N,09831.1857,W,1,08,1.0,287.2,M,-23.7,M,0.8,0000*44
$GPGSA,A,3,21,14,09,06,31,22,19,18,,,,,1.8,1.0,1.5*34
$GPRMC,171653.000,A,3352.4629,N,09831.1857,W,0.06,54.10,310312,,,A*49
$GPGGA,171654.000,3352.4629,N,09831.1857,W,1,08,1.0,287.1,M,-23.7,M,0.8,0000*40
$GPGSA,A,3,21,14,09,06,31,22,19,18,,,,,1.8,1.0,1.5*34
$GPGSV,3,1,12,22,68,006,39,14,68,284,30,18,43,085,38,21,25,157,28*79
$GPGSV,3,2,12,09,23,043,29,31,19,189,29,19,17,283,24,06,12,236,27*78
$GPGSV,3,3,12,03,09,247,30,11,08,317,25,27,06,035,15,12,04,087,*71
$GPRMC,171654.000,A,3352.4629,N,09831.1857,W,0.07,34.16,310312,,,A*4F
$GPGGA,171655.000,3352.4629,N,09831.1857,W,1,08,1.0,287.1,M,-23.7,M,0.8,0000*41
$GPGSA,A,3,21,14,09,06,31,22,19,18,,,,,1.8,1.0,1.5*34
$GPRMC,171655.000,A,3352.4629,N,09831.1857,W,0.06,46.76,310312,,,A*4C
$GPGGA,171656.000,3352.4630,N,09831.1857,W,1,08,1.0,287.0,M,-23.7,M,0.8,0000*4B
$GPGSA,A,3,21,14,09,06,31,22,19,18,,,,,1.8,1.0,1.5*34
$GPRMC,171656.000,A,3352.4630,N,09831.1857,W,0.08,33.96,310312,,,A*45
$GPGGA,171657.000,3352.4630,N,09831.1857,W,1,08,1.0,286.9,M,-23.7,M,0.8,0000*42
$GPGSA,A,3,21,14,09,06,31,22,19,18,,,,,1.8,1.0,1.5*34
$GPRMC,171657.000,A,3352.4630,N,09831.1857,W,0.07,34.83,310312,,,A*48
$GPGGA,171658.000,3352.4630,N,09831.1857,W,1,08,1.0,286.9,M,-23.7,M,0.8,0000*4D
$GPGSA,A,3,21,14,09,06,31,22,19,18,,,,,1.8,1.0,1.5*34
$GPRMC,171658.000,A,3352.4630,N,09831.1857,W,0.07,32.35,310312,,,A*4C
$GPGGA,171659.000,3352.4631,N,09831.1857,W,1,08,1.0,286.8,M,-23.7,M,0.8,0000*4C
$GPGSA,A,3,21,14,09,06,31,22,19,18,,,,,1.8,1.0,1.5*34
$GPGSV,3,1,12,22,68,006,38,14,68,284,30,18,43,085,38,21,25,157,28*78
$GPGSV,3,2,12,09,23,043,29,31,19,189,29,19,17,283,25,06,12,236,27*79
$GPGSV,3,3,12,03,09,247,30,11,08,317,25,27,06,035,,12,04,087,*75
$GPRMC,171659.000,A,3352.4631,N,09831.1857,W,0.07,27.57,310312,,,A*4C
$GPGGA,171700.000,3352.4631,N,09831.1857,W,1,08,1.0,286.7,M,-23.7,M,0.8,0000*4E
$GPGSA,A,3,21,14,09,06,31,22,19,18,,,,,1.8,1.0,1.5*34
$GPRMC,171700.000,A,3352.4631,N,09831.1857,W,0.08,32.35,310312,,,A*4E
$GPGGA,171701.000,3352.4631,N,09831.1857,W,1,08,1.0,286.6,M,-23.7,M,0.8,0000*4E
$GPGSA,A,3,21,14,09,06,31,22,19,18,,,,,1.8,1.0,1.5*34
$GPRMC,171701.000,A,3352.4631,N,09831.1857,W,0.07,30.80,310312,,,A*4C
$GPGGA,171702.000,3352.4632,N,09831.1857,W,1,08,1.0,286.6,M,-23.7,M,0.8,0000*4E
$GPGSA,A,3,21,14,09,06,31,22,19,18,,,,,1.8,1.0,1.5*34
$GPRMC,171702.000,A,3352.4632,N,09831.1857,W,0.08,34.89,310312,,,A*4E
$GPGGA,171703.000,3352.4632,N,09831.1857,W,1,08,1.0,286.5,M,-23.7,M,0.8,0000*4C
$GPGSA,A,3,21,14,09,06,31,22,19,18,,,,,1.8,1.0,1.5*34
$GPRMC,171703.000,A,3352.4632,N,09831.1857,W,0.07,21.47,310312,,,A*46
$GPGGA,171704.000,3352.4632,N,09831.1857,W,1,08,1.0,286.4,M,-23.7,M,0.8,0000*4A
$GPGSA,A,3,21,14,09,06,31,22,19,18,,,,,1.8,1.0,1.5*34
$GPGSV,3,1,12,22,68,006,39,14,68,284,29,18,43,085,38,21,25,157,28*71
$GPGSV,3,2,12,09,23,043,29,31,19,189,29,19,17,283,25,06,12,236,28*76
$GPGSV,3,3,12,03,09,247,30,11,08,317,25,27,06,035,,12,04,087,*75
$GPRMC,171704.000,A,3352.4632,N,09831.1857,W,0.12,75.20,310312,,,A*45
$GPGGA,171705.000,3352.4632,N,09831.1857,W,1,08,1.0,286.3,M,-23.7,M,0.8,0000*4C
$GPGSA,A,3,21,14,09,06,31,22,19,18,,,,,1.8,1.0,1.5*34
$GPRMC,171705.000,A,3352.4632,N,09831.1857,W,0.08,61.21,310312,,,A*4B
$GPGGA,171706.000,3352.4632,N,09831.1857,W,1,08,1.0,286.3,M,-23.7,M,0.8,0000*4F
$GPGSA,A,3,21,14,09,06,31,22,19,18,,,,,1.8,1.0,1.5*34
$GPRMC,171706.000,A,3352.4632,N,09831.1857,W,0.07,67.21,310312,,,A*41
$GPGGA,171707.000,3352.4633,N,09831.1857,W,1,08,1.0,286.2,M,-23.7,M,0.8,0000*4E
$GPGSA,A,3,21,14,09,06,31,22,19,18,,,,,1.8,1.0,1.5*34
$GPRMC,171707.000,A,3352.4633,N,09831.1857,W,0.07,35.83,310312,,,A*4E
$GPGGA,171708.000,3352.4633,N,09831.1857,W,1,08,1.0,286.2,M,-23.7,M,0.8,0000*41
$GPGSA,A,3,21,14,09,06,31,22,19,18,,,,,1.8,1.0,1.5*34
$GPRMC,171708.000,A,3352.4633,N,09831.1857,W,0.07,42.42,310312,,,A*4C
$GPGGA,171709.000,3352.4633,N,09831.1857,W,1,08,1.0,286.1,M,-23.7,M,0.8,0000*43
$GPGSA,A,3,21,14,09,06,31,22,19,18,,,,,1.8,1.0,1.5*34
$GPGSV,3,1,12,22,68,006,39,14,68,284,29,18,43,085,38,21,25,157,28*71
$GPGSV,3,2,12,09,23,043,30,31,19,189,28,19,17,283,25,06,12,236,28*7F
$GPGSV,3,3,12,03,09,247,30,11,08,317,25,27,06,035,,12,04,087,*75
$GPRMC,171709.000,A,3352.4633,N,09831.1857,W,0.07,47.30,310312,,,A*4D
$GPGGA,171710.000,3352.4633,N,09831.1857,W,1,08,1.0,286.1,M,-23.7,M,0.8,0000*4B
$GPGSA,A,3,21,14,09,06,31,22,19,18,,,,,1.8,1.0,1.5*34
$GPRMC,171710.000,A,3352.4633,N,09831.1857,W,0.05,31.52,310312,,,A*42
$GPGGA,171711.000,3352.4633,N,09831.1857,W,1,08,1.0,286.1,M,-23.7,M,0.8,0000*4A
$GPGSA,A,3,21,14,09,06,31,22,19,18,,,,,1.8,1.0,1.5*34
$GPRMC,171711.000,A,3352.4633,N,09831.1857,W,0.06,30.26,310312,,,A*42
$GPGGA,171712.000,3352.4634,N,09831.1857,W,1,08,1.0,286.1,M,-23.7,M,0.8,0000*4E
$GPGSA,A,3,21,14,09,06,31,22,19,18,,,,,1.8,1.0,1.5*34
$GPRMC,171712.000,A,3352.4634,N,09831.1857,W,0.06,34.27,310312,,,A*43
$GPGGA,171713.000,3352.4634,N,09831.1857,W,1,08,1.0,286.1,M,-23.7,M,0.8,0000*4F
$GPGSA,A,3,21,14,09,06,31,22,19,18,,,,,1.8,1.0,1.5*34
$GPRMC,171713.000,A,3352.4634,N,09831.1857,W,0.06,57.32,310312,,,A*43
