$GPGGA,214046.000,3353.7492,N,09832.0232,W,2,06,2.3,288.8,M,-23.7,M,1.8,0000*44
$GPGSA,A,3,20,23,16,31,32,30,,,,,,,5.8,2.3,5.3*3C
$GPRMC,214046.000,A,3353.7492,N,09832.0232,W,0.28,304.27,030412,,,D*7D
$GPGGA,214047.000,3353.7493,N,09832.0232,W,2,06,2.3,288.7,M,-23.7,M,2.8,0000*48
$GPGSA,A,3,20,23,16,31,32,30,,,,,,,5.8,2.3,5.3*3C
$GPRMC,214047.000,A,3353.7493,N,09832.0232,W,0.31,279.67,030412,,,D*7A
$GPGGA,214048.000,3353.7493,N,09832.0233,W,2,06,2.3,288.8,M,-23.7,M,0.8,0000*4B
$GPGSA,A,3,20,23,16,31,32,30,,,,,,,5.8,2.3,5.3*3C
$GPGSV,3,1,12,30,68,084,38,32,64,208,34,16,60,156,36,20,56,268,28*7D
$GPGSV,3,2,12,23,36,313,29,31,31,048,22,06,09,144,19,13,09,301,*76
$GPGSV,3,3,12,14,07,107,20,03,07,158,20,01,05,227,,29,01,048,*73
$GPRMC,214048.000,A,3353.7493,N,09832.0233,W,0.18,338.02,030412,,,D*78
$GPGGA,214049.000,3353.7495,N,09832.0231,W,2,06,2.3,288.3,M,-23.7,M,0.8,0000*45
$GPGSA,A,3,20,23,16,31,32,30,,,,,,,5.8,2.3,5.3*3C
$GPRMC,214049.000,A,3353.7495,N,09832.0231,W,0.09,337.03,030412,,,D*73
$GPGGA,214050.000,3353.7495,N,09832.0230,W,2,06,2.3,287.6,M,-23.7,M,0.8,0000*46
$GPGSA,A,3,20,23,16,31,32,30,,,,,,,5.8,2.3,5.3*3C
$GPRMC,214050.000,A,3353.7495,N,09832.0230,W,0.19,15.23,030412,,,D*4A
$GPGGA,214051.000,3353.7496,N,09832.0232,W,2,06,2.3,289.0,M,-23.7,M,1.8,0000*4F
$GPGSA,A,3,20,23,16,31,32,30,,,,,,,5.8,2.3,5.3*3C
$GPRMC,214051.000,A,3353.7496,N,09832.0232,W,0.24,27.60,030412,,,D*42
$GPGGA,214052.000,3353.7497,N,09832.0232,W,2,06,2.3,289.8,M,-23.7,M,2.8,0000*46
$GPGSA,A,3,20,23,16,31,32,30,,,,,,,5.8,2.3,5.3*3C
$GPRMC,214052.000,A,3353.7497,N,09832.0232,W,0.41,30.29,030412,,,D*48
$GPGGA,214053.000,3353.7498,N,09832.0233,W,2,06,2.3,290.6,M,-23.7,M,3.8,0000*4E
$GPGSA,A,3,20,23,16,31,32,30,,,,,,,5.8,2.3,5.3*3C
$GPGSV,3,1,12,30,68,084,38,32,64,208,34,16,60,156,36,20,56,268,28*7D
$GPGSV,3,2,12,23,36,313,28,31,31,048,23,06,09,144,20,13,09,301,*7C
$GPGSV,3,3,12,14,07,107,19,03,07,158,20,01,05,227,,29,01,048,*79
$GPRMC,214053.000,A,3353.7498,N,09832.0233,W,0.32,26.85,030412,,,D*42
$GPGGA,214054.000,3353.7499,N,09832.0235,W,2,06,2.3,292.2,M,-23.7,M,0.8,0000*4B
$GPGSA,A,3,20,23,16,31,32,30,,,,,,,5.8,2.3,5.3*3C
$GPRMC,214054.000,A,3353.7499,N,09832.0235,W,0.21,329.44,030412,,,D*71
$GPGGA,214055.000,3353.7500,N,09832.0237,W,2,06,2.3,292.8,M,-23.7,M,0.8,0000*43
$GPGSA,A,3,20,23,16,31,32,30,,,,,,,5.8,2.3,5.3*3C
$GPRMC,214055.000,A,3353.7500,N,09832.0237,W,0.26,344.75,030412,,,D*7D
$GPGGA,214056.000,3353.7500,N,09832.0237,W,2,06,2.3,293.0,M,-23.7,M,0.8,0000*49
$GPGSA,A,3,20,23,16,31,32,30,,,,,,,5.8,2.3,5.3*3C
$GPRMC,214056.000,A,3353.7500,N,09832.0237,W,0.27,345.76,030412,,,D*7D
$GPGGA,214057.000,3353.7501,N,09832.0237,W,2,06,2.3,293.2,M,-23.7,M,1.8,0000*4A
$GPGSA,A,3,20,23,16,31,32,30,,,,,,,5.8,2.3,5.3*3C
$GPRMC,214057.000,A,3353.7501,N,09832.0237,W,0.20,343.45,030412,,,D*7C
$GPGGA,214058.000,3353.7501,N,09832.0238,W,2,06,2.3,293.7,M,-23.7,M,0.8,0000*4E
$GPGSA,A,3,20,23,16,31,32,30,,,,,,,5.7,2.3,5.3*33
$GPGSV,3,1,12,30,68,084,38,32,64,208,34,16,60,156,36,20,56,268,28*7D
$GPGSV,3,2,12,23,36,313,29,31,31,048,25,06,09,144,21,13,09,301,*7A
$GPGSV,3,3,12,14,07,107,19,03,07,158,20,01,05,227,,29,01,048,*79
$GPRMC,214058.000,A,3353.7501,N,09832.0238,W,0.23,342.81,030412,,,D*76
$GPGGA,214059.000,3353.7501,N,09832.0239,W,2,06,2.3,294.2,M,-23.7,M,0.8,0000*4C
$GPGSA,A,3,20,23,16,31,32,30,,,,,,,5.7,2.3,5.3*33
$GPRMC,214059.000,A,3353.7501,N,09832.0239,W,0.22,338.16,030412,,,D*74
$GPGGA,214100.000,3353.7501,N,09832.0239,W,2,06,2.3,294.7,M,-23.7,M,0.8,0000*44
$GPGSA,A,3,20,23,16,31,32,30,,,,,,,5.7,2.3,5.3*33
$GPRMC,214100.000,A,3353.7501,N,09832.0239,W,0.14,354.65,030412,,,D*72
$GPGGA,214101.000,3353.7501,N,09832.0240,W,2,06,2.3,295.3,M,-23.7,M,0.8,0000*4E
$GPGSA,A,3,20,23,16,31,32,30,,,,,,,5.7,2.3,5.3*33
$GPRMC,214101.000,A,3353.7501,N,09832.0240,W,0.18,13.73,030412,,,D*46
$GPGGA,214102.000,3353.7501,N,09832.0240,W,2,06,2.3,296.0,M,-23.7,M,0.8,0000*4D
$GPGSA,A,3,20,23,16,31,32,30,,,,,,,5.7,2.3,5.3*33
$GPRMC,214102.000,A,3353.7501,N,09832.0240,W,0.21,12.92,030412,,,D*41
$GPGGA,214103.000,3353.7501,N,09832.0240,W,2,06,2.3,296.6,M,-23.7,M,1.8,0000*4B
$GPGSA,A,3,20,23,16,31,32,30,,,,,,,5.7,2.3,5.3*33
$GPGSV,3,1,12,30,68,084,38,32,64,208,34,16,60,156,36,20,56,268,29*7C
$GPGSV,3,2,12,23,36,313,29,31,31,048,27,06,09,144,21,13,09,301,*78
$GPGSV,3,3,12,14,07,107,19,03,07,158,20,01,05,227,,29,01,048,*79
$GPRMC,214103.000,A,3353.7501,N,09832.0240,W,0.20,18.37,030412,,,D*44
$GPGGA,214104.000,3353.7501,N,09832.0241,W,2,06,2.3,297.2,M,-23.7,M,2.8,0000*4B
$GPGSA,A,3,20,23,16,31,32,30,,,,,,,5.7,2.3,5.3*33
$GPRMC,214104.000,A,3353.7501,N,09832.0241,W,0.22,17.89,030412,,,D*4A
$GPGGA,214105.000,3353.7501,N,09832.0241,W,2,06,2.3,297.7,M,-23.7,M,3.8,0000*4E
$GPGSA,A,3,20,23,16,31,32,30,,,,,,,5.7,2.3,5.3*33
$GPRMC,214105.000,A,3353.7501,N,09832.0241,W,0.24,18.94,030412,,,D*4E
$GPGGA,214106.000,3353.7502,N,09832.0241,W,2,06,2.3,298.2,M,-23.7,M,0.8,0000*47
$GPGSA,A,3,20,23,16,31,32,30,,,,,,,5.7,2.3,5.3*33
$GPRMC,214106.000,A,3353.7502,N,09832.0241,W,0.23,12.17,030412,,,D*48
$GPGGA,214107.000,3353.7502,N,09832.0241,W,2,06,2.3,298.5,M,-23.7,M,0.8,0000*41
$GPGSA,A,3,20,23,16,31,32,30,,,,,,,5.7,2.3,5.3*33
$GPRMC,214107.000,A,3353.7502,N,09832.0241,W,0.22,345.56,030412,,,D*7C
$GPGGA,214108.000,3353.7501,N,09832.0241,W,2,06,2.3,298.7,M,-23.7,M,0.8,0000*4F
$GPGSA,A,3,20,23,16,31,32,30,,,,,,,5.7,2.3,5.3*33
$GPGSV,3,1,12,30,68,084,38,32,64,208,34,16,60,156,36,20,56,268,29*7C
$GPGSV,3,2,12,23,36,313,29,31,31,048,29,06,09,144,20,13,09,301,*77
$GPGSV,3,3,12,14,07,107,19,03,07,158,20,01,05,227,,29,01,048,*79
$GPRMC,214108.000,A,3353.7501,N,09832.0241,W,0.16,339.28,030412,,,D*75
$GPGGA,214109.000,3353.7501,N,09832.0241,W,2,06,2.3,298.8,M,-23.7,M,1.8,0000*40
$GPGSA,A,3,20,23,16,31,32,30,,,,,,,5.7,2.3,5.3*33
$GPRMC,214109.000,A,3353.7501,N,09832.0241,W,0.13,348.25,030412,,,D*7A
$GPGGA,214110.000,3353.7500,N,09832.0241,W,2,06,2.3,299.0,M,-23.7,M,2.8,0000*43
$GPGSA,A,3,20,23,16,31,32,30,,,,,,,5.7,2.3,5.3*33
$GPRMC,214110.000,A,3353.7500,N,09832.0241,W,0.13,344.88,030412,,,D*78
$GPGGA,214111.000,3353.7500,N,09832.0241,W,2,06,2.3,299.1,M,-23.7,M,3.8,0000*42
$GPGSA,A,3,20,23,16,31,32,30,,,,,,,5.7,2.3,5.3*33
$GPRMC,214111.000,A,3353.7500,N,09832.0241,W,0.12,335.45,030412,,,D*7F
$GPGGA,214112.000,3353.7499,N,09832.0241,W,2,06,2.3,299.1,M,-23.7,M,0.8,0000*43
$GPGSA,A,3,20,23,16,31,32,30,,,,,,,5.7,2.3,5.3*33
$GPRMC,214112.000,A,3353.7499,N,09832.0241,W,0.09,337.48,030412,,,D*78
$GPGGA,214113.000,3353.7499,N,09832.0241,W,2,06,2.3,299.2,M,-23.7,M,0.8,0000*41
$GPGSA,A,3,20,23,16,31,32,30,,,,,,,5.7,2.3,5.3*33
$GPGSV,3,1,12,30,68,084,38,32,64,208,34,16,60,156,36,20,56,268,29*7C
$GPGSV,3,2,12,23,36,313,29,31,31,048,30,06,09,144,20,13,09,301,*7F
$GPGSV,3,3,12,14,07,107,20,03,07,158,20,01,05,227,,29,01,048,*73
$GPRMC,214113.000,A,3353.7499,N,09832.0241,W,0.14,25.01,030412,,,D*48
$GPGGA,214114.000,3353.7499,N,09832.0240,W,2,06,2.3,299.3,M,-23.7,M,0.8,0000*46
$GPGSA,A,3,20,23,16,31,32,30,,,,,,,5.7,2.3,5.3*33
$GPRMC,214114.000,A,3353.7499,N,09832.0240,W,0.15,26.69,030412,,,D*42
$GPGGA,214115.000,3353.7499,N,09832.0240,W,2,06,2.3,299.4,M,-23.7,M,0.8,0000*40
$GPGSA,A,3,20,23,16,31,32,30,,,,,,,5.7,2.3,5.3*33
$GPRMC,214115.000,A,3353.7499,N,09832.0240,W,0.16,30.84,030412,,,D*44
$GPGGA,214116.000,3353.7499,N,09832.0240,W,2,06,2.3,299.6,M,-23.7,M,0.8,0000*41
$GPGSA,A,3,20,23,16,31,32,30,,,,,,,5.7,2.3,5.3*33
$GPRMC,214116.000,A,3353.7499,N,09832.0240,W,0.13,40.60,030412,,,D*4F
$GPGGA,214117.000,3353.7499,N,09832.0240,W,2,06,2.3,299.7,M,-23.7,M,1.8,0000*40
$GPGSA,A,3,20,23,16,31,32,30,,,,,,,5.7,2.3,5.3*33
$GPRMC,214117.000,A,3353.7499,N,09832.0240,W,0.12,32.06,030412,,,D*4A
$GPGGA,214118.000,3353.7500,N,09832.0239,W,2,06,2.3,299.9,M,-23.7,M,0.8,0000*4F
$GPGSA,A,3,20,23,16,31,32,30,,,,,,,5.7,2.3,5.3*33
$GPGSV,3,1,12,30,68,084,38,32,64,208,34,16,60,156,36,20,56,268,29*7C
$GPGSV,3,2,12,23,36,313,29,31,31,048,30,06,09,144,19,13,09,301,*75
$GPGSV,3,3,12,14,07,107,20,03,07,158,20,01,05,227,,29,01,048,*73
$GPRMC,214118.000,A,3353.7500,N,09832.0239,W,0.15,24.23,030412,,,D*4D
$GPGGA,214119.000,3353.7499,N,09832.0240,W,2,06,2.3,300.1,M,-23.7,M,0.8,0000*48
$GPGSA,A,3,20,23,16,31,32,30,,,,,,,5.7,2.3,5.3*33
$GPRMC,214119.000,A,3353.7499,N,09832.0240,W,0.03,345.83,030412,,,D*7A
$GPGGA,214120.000,3353.7499,N,09832.0240,W,2,06,2.3,300.3,M,-23.7,M,0.8,0000*40
$GPGSA,A,3,20,23,16,31,32,30,,,,,,,5.7,2.3,5.3*33
$GPRMC,214120.000,A,3353.7499,N,09832.0240,W,0.04,325.19,030412,,,D*72
$GPGGA,214121.000,3353.7499,N,09832.0240,W,2,06,2.3,300.5,M,-23.7,M,1.8,0000*46
$GPGSA,A,3,20,23,16,31,32,30,,,,,,,5.7,2.3,5.3*33
$GPRMC,214121.000,A,3353.7499,N,09832.0240,W,0.06,274.34,030412,,,D*7B
$GPGGA,214122.000,3353.7499,N,09832.0241,W,2,06,2.3,300.7,M,-23.7,M,2.8,0000*45
$GPGSA,A,3,20,23,16,31,32,30,,,,,,,5.7,2.3,5.3*33
$GPRMC,214122.000,A,3353.7499,N,09832.0241,W,0.04,284.42,030412,,,D*75
$GPGGA,214123.000,3353.7498,N,09832.0242,W,2,06,2.3,301.2,M,-23.7,M,0.8,0000*40
$GPGSA,A,3,20,23,16,31,32,30,,,,,,,5.7,2.3,5.3*33
$GPGSV,3,1,12,30,67,080,39,32,63,206,33,16,62,155,36,20,56,265,29*74
$GPGSV,3,2,12,23,37,314,29,31,30,049,31,06,10,143,20,13,10,302,*7C
$GPGSV,3,3,12,03,08,158,20,14,06,108,20,01,04,226,,29,01,047,*7D
$GPRMC,214123.000,A,3353.7498,N,09832.0242,W,0.12,242.79,030412,,,D*73
$GPGGA,214124.000,3353.7498,N,09832.0244,W,2,06,2.3,301.7,M,-23.7,M,0.8,0000*44
$GPGSA,A,3,20,23,16,31,32,30,,,,,,,5.7,2.3,5.3*33
$GPRMC,214124.000,A,3353.7498,N,09832.0244,W,0.03,274.68,030412,,,D*77
$GPGGA,214125.000,3353.7498,N,09832.0244,W,2,06,2.3,302.2,M,-23.7,M,0.8,0000*43
$GPGSA,A,3,20,23,16,31,32,30,,,,,,,5.7,2.3,5.3*33
$GPRMC,214125.000,A,3353.7498,N,09832.0244,W,0.09,34.56,030412,,,D*47
$GPGGA,214126.000,3353.7498,N,09832.0245,W,2,06,2.3,302.6,M,-23.7,M,0.8,0000*45
$GPGSA,A,3,20,23,16,31,32,30,,,,,,,5.7,2.3,5.3*33
$GPRMC,214126.000,A,3353.7498,N,09832.0245,W,0.11,30.85,030412,,,D*46
$GPGGA,214127.000,3353.7498,N,09832.0245,W,2,06,2.3,303.0,M,-23.7,M,1.8,0000*42
$GPGSA,A,3,20,23,16,31,32,30,,,,,,,5.7,2.3,5.3*33
$GPRMC,214127.000,A,3353.7498,N,09832.0245,W,0.11,40.59,030412,,,D*41
$GPGGA,214128.000,3353.7499,N,09832.0245,W,2,06,2.3,303.3,M,-23.7,M,2.8,0000*4C
$GPGSA,A,3,20,23,16,31,32,30,,,,,,,5.7,2.3,5.3*33
$GPGSV,3,1,12,30,67,080,39,32,63,206,33,16,62,155,37,20,56,265,28*74
$GPGSV,3,2,12,23,37,314,29,31,30,049,32,06,10,143,20,13,10,302,*7F
$GPGSV,3,3,12,03,08,158,21,14,06,108,19,01,04,226,,29,01,047,*76
$GPRMC,214128.000,A,3353.7499,N,09832.0245,W,0.11,33.40,030412,,,D*43
$GPGGA,214129.000,3353.7499,N,09832.0245,W,2,06,2.3,303.6,M,-23.7,M,3.8,0000*49
$GPGSA,A,3,20,23,16,31,32,30,,,,,,,5.7,2.3,5.2*32
$GPRMC,214129.000,A,3353.7499,N,09832.0245,W,0.11,35.46,030412,,,D*42
$GPGGA,214130.000,3353.7499,N,09832.0245,W,2,06,2.3,303.9,M,-23.7,M,,0000*6B
$GPGSA,A,3,20,23,16,31,32,30,,,,,,,5.7,2.3,5.2*32
$GPRMC,214130.000,A,3353.7499,N,09832.0245,W,0.14,34.22,030412,,,D*4C
$GPGGA,214131.000,3353.7499,N,09832.0245,W,2,06,2.3,304.2,M,-23.7,M,,0000*66
$GPGSA,A,3,20,23,16,31,32,30,,,,,,,5.7,2.3,5.2*32
$GPRMC,214131.000,A,3353.7499,N,09832.0245,W,0.04,31.16,030412,,,D*4E
$GPGGA,214132.000,3353.7499,N,09832.0246,W,2,06,2.3,304.6,M,-23.7,M,,0000*62
$GPGSA,A,3,20,23,16,31,32,30,,,,,,,5.7,2.3,5.2*32
$GPRMC,214132.000,A,3353.7499,N,09832.0246,W,0.04,357.86,030412,,,D*74
$GPGGA,214133.000,3353.7499,N,09832.0246,W,2,06,2.3,304.9,M,-23.7,M,0.8,0000*4A
$GPGSA,A,3,20,23,16,31,32,30,,,,,,,5.7,2.3,5.2*32
$GPGSV,3,1,12,30,67,080,40,32,63,206,33,16,62,155,37,20,56,265,28*7A
$GPGSV,3,2,12,23,37,314,29,31,30,049,32,06,10,143,,13,10,302,*7D
$GPGSV,3,3,12,03,08,158,23,14,06,108,18,01,04,226,,29,01,047,*75
$GPRMC,214133.000,A,3353.7499,N,09832.0246,W,0.06,13.53,030412,,,D*4C
$GPGGA,214134.000,3353.7499,N,09832.0246,W,2,06,2.3,305.2,M,-23.7,M,1.8,0000*46
$GPGSA,A,3,20,23,16,31,32,30,,,,,,,5.7,2.3,5.2*32
$GPRMC,214134.000,A,3353.7499,N,09832.0246,W,0.06,358.28,030412,,,D*7B
$GPGGA,214135.000,3353.7499,N,09832.0246,W,2,06,2.3,305.4,M,-23.7,M,2.8,0000*42
$GPGSA,A,3,20,23,16,31,32,30,,,,,,,5.7,2.3,5.2*32
$GPRMC,214135.000,A,3353.7499,N,09832.0246,W,0.07,25.69,030412,,,D*47
$GPGGA,214136.000,3353.7498,N,09832.0246,W,2,06,2.3,305.6,M,-23.7,M,0.8,0000*40
$GPGSA,A,3,20,23,16,31,32,30,,,,,,,5.7,2.3,5.2*32
$GPRMC,214136.000,A,3353.7498,N,09832.0246,W,0.01,25.68,030412,,,D*42
$GPGGA,214137.000,3353.7498,N,09832.0246,W,2,06,2.3,305.7,M,-23.7,M,0.8,0000*40
$GPGSA,A,3,20,23,16,31,32,30,,,,,,,5.7,2.3,5.2*32
$GPRMC,214137.000,A,3353.7498,N,09832.0246,W,0.18,56.72,030412,,,D*44
$GPGGA,214138.000,3353.7498,N,09832.0246,W,2,06,2.3,305.7,M,-23.7,M,0.8,0000*4F
$GPGSA,A,3,20,23,16,31,32,30,,,,,,,5.7,2.3,5.2*32
$GPGSV,3,1,12,30,67,080,40,32,63,206,33,16,62,155,37,20,56,265,26*74
$GPGSV,3,2,12,23,37,314,29,31,30,049,33,06,10,143,,13,10,302,*7C
$GPGSV,3,3,12,03,08,158,24,14,06,108,16,01,04,226,,29,01,047,*7C
$GPRMC,214138.000,A,3353.7498,N,09832.0246,W,0.09,329.73,030412,,,D*71
$GPGGA,214139.000,3353.7498,N,09832.0246,W,2,06,2.3,305.8,M,-23.7,M,1.8,0000*40
$GPGSA,A,3,20,23,16,31,32,30,,,,,,,5.7,2.3,5.2*32
$GPRMC,214139.000,A,3353.7498,N,09832.0246,W,0.15,292.33,030412,,,D*78
$GPGGA,214140.000,3353.7498,N,09832.0246,W,2,06,2.3,305.8,M,-23.7,M,2.8,0000*4D
$GPGSA,A,3,20,23,16,31,32,30,,,,,,,5.7,2.3,5.2*32
$GPRMC,214140.000,A,3353.7498,N,09832.0246,W,0.19,73.14,030412,,,D*42
$GPGGA,214141.000,3353.7498,N,09832.0246,W,2,06,2.3,305.8,M,-23.7,M,3.8,0000*4D
$GPGSA,A,3,20,23,16,31,32,30,,,,,,,5.7,2.3,5.2*32
$GPRMC,214141.000,A,3353.7498,N,09832.0246,W,0.05,20.69,030412,,,D*42
$GPGGA,214142.000,3353.7497,N,09832.0246,W,2,06,2.3,305.8,M,-23.7,M,0.8,0000*42
$GPGSA,A,3,20,23,16,31,32,30,,,,,,,5.7,2.3,5.2*32
$GPRMC,214142.000,A,3353.7497,N,09832.0246,W,0.26,74.75,030412,,,D*43
$GPGGA,214143.000,3353.7497,N,09832.0245,W,2,06,2.3,305.7,M,-23.7,M,0.8,0000*4F
$GPGSA,A,3,20,23,16,31,32,30,,,,,,,5.7,2.3,5.2*32
$GPGSV,3,1,12,30,67,080,40,32,63,206,32,16,62,155,36,20,56,265,19*78
$GPGSV,3,2,12,23,37,314,29,31,30,049,33,06,10,143,,13,10,302,*7C
$GPGSV,3,3,12,03,08,158,25,14,06,108,16,01,04,226,,29,01,047,*7D
$GPRMC,214143.000,A,3353.7497,N,09832.0245,W,0.05,143.86,030412,,,D*79
$GPGGA,214144.000,3353.7496,N,09832.0245,W,2,06,2.3,305.7,M,-23.7,M,0.8,0000*49
$GPGSA,A,3,20,23,16,31,32,30,,,,,,,5.7,2.3,5.2*32
$GPRMC,214144.000,A,3353.7496,N,09832.0245,W,0.15,100.92,030412,,,D*7C
$GPGGA,214145.000,3353.7496,N,09832.0245,W,2,06,2.3,305.6,M,-23.7,M,0.8,0000*49
$GPGSA,A,3,20,23,16,31,32,30,,,,,,,5.7,2.3,5.2*32
$GPRMC,214145.000,A,3353.7496,N,09832.0245,W,0.16,101.25,030412,,,D*73
$GPGGA,214146.000,3353.7495,N,09832.0245,W,2,06,2.3,305.5,M,-23.7,M,1.8,0000*4B
$GPGSA,A,3,20,23,16,31,32,30,,,,,,,5.7,2.3,5.2*32
$GPRMC,214146.000,A,3353.7495,N,09832.0245,W,0.22,97.68,030412,,,D*43
$GPGGA,214147.000,3353.7495,N,09832.0244,W,2,06,2.3,305.4,M,-23.7,M,2.8,0000*49
$GPGSA,A,3,20,23,16,31,32,30,,,,,,,5.7,2.3,5.2*32
$GPRMC,214147.000,A,3353.7495,N,09832.0244,W,0.24,102.35,030412,,,D*70
$GPGGA,214148.000,3353.7494,N,09832.0244,W,2,06,2.3,305.4,M,-23.7,M,0.8,0000*45
$GPGSA,A,3,20,23,16,31,32,30,,,,,,,5.7,2.3,5.2*32
$GPGSV,3,1,12,30,67,080,40,32,63,206,32,16,62,155,36,20,56,265,17*76
$GPGSV,3,2,12,23,37,314,29,31,30,049,33,06,10,143,,13,10,302,*7C
$GPGSV,3,3,12,03,08,158,26,14,06,108,15,01,04,226,,29,01,047,*7D
$GPRMC,214148.000,A,3353.7494,N,09832.0244,W,0.17,99.18,030412,,,D*42
$GPGGA,214149.000,3353.7494,N,09832.0244,W,2,06,2.3,305.4,M,-23.7,M,0.8,0000*44
$GPGSA,A,3,20,23,16,31,32,30,,,,,,,5.7,2.3,5.2*32
$GPRMC,214149.000,A,3353.7494,N,09832.0244,W,0.28,77.22,030412,,,D*46
$GPGGA,214150.000,3353.7495,N,09832.0244,W,2,06,2.3,305.4,M,-23.7,M,0.8,0000*4D
$GPGSA,A,3,20,23,16,31,32,30,,,,,,,5.7,2.3,5.2*32
$GPRMC,214150.000,A,3353.7495,N,09832.0244,W,0.06,5.29,030412,,,D*7D
$GPGGA,214151.000,3353.7495,N,09832.0244,W,2,06,2.3,305.5,M,-23.7,M,1.8,0000*4C
$GPGSA,A,3,20,23,16,31,32,30,,,,,,,5.7,2.3,5.2*32
$GPRMC,214151.000,A,3353.7495,N,09832.0244,W,0.14,75.10,030412,,,D*42
$GPGGA,214152.000,3353.7495,N,09832.0244,W,2,06,2.3,305.6,M,-23.7,M,2.8,0000*4F
$GPGSA,A,3,20,23,16,31,32,30,,,,,,,5.7,2.3,5.2*32
$GPRMC,214152.000,A,3353.7495,N,09832.0244,W,0.10,320.31,030412,,,D*75
$GPGGA,214153.000,3353.7495,N,09832.0244,W,2,06,2.3,305.7,M,-23.7,M,3.8,0000*4E
$GPGSA,A,3,20,23,16,31,32,30,,,,,,,5.7,2.3,5.2*32
$GPGSV,3,1,12,30,67,080,41,32,63,206,33,16,62,155,36,20,56,265,15*74
$GPGSV,3,2,12,23,37,314,29,31,30,049,34,06,10,143,,13,10,302,*7B
$GPGSV,3,3,12,03,08,158,27,14,06,108,16,01,04,226,,29,01,047,*7F
$GPRMC,214153.000,A,3353.7495,N,09832.0244,W,0.16,60.18,030412,,,D*4E
$GPGGA,214154.000,3353.7495,N,09832.0244,W,2,06,2.3,305.7,M,-23.7,M,0.8,0000*4A
$GPGSA,A,3,20,23,16,31,32,30,,,,,,,5.7,2.3,5.2*32
$GPRMC,214154.000,A,3353.7495,N,09832.0244,W,0.24,91.63,030412,,,D*4A
$GPGGA,214155.000,3353.7495,N,09832.0244,W,2,06,2.3,305.6,M,-23.7,M,0.8,0000*4A
$GPGSA,A,3,20,23,16,31,32,30,,,,,,,5.7,2.3,5.2*32
$GPRMC,214155.000,A,3353.7495,N,09832.0244,W,0.20,120.53,030412,,,D*77
$GPGGA,214156.000,3353.7494,N,09832.0244,W,2,06,2.3,305.6,M,-23.7,M,0.8,0000*48
$GPGSA,A,3,20,23,16,31,32,30,,,,,,,5.7,2.3,5.2*32
$GPRMC,214156.000,A,3353.7494,N,09832.0244,W,0.20,118.34,030412,,,D*7F
$GPGGA,214157.000,3353.7493,N,09832.0244,W,2,05,2.3,305.6,M,-23.7,M,1.8,0000*4C
$GPGSA,A,3,23,16,31,32,30,,,,,,,,5.7,2.3,5.3*31
$GPRMC,214157.000,A,3353.7493,N,09832.0244,W,0.13,153.29,030412,,,D*7A
$GPGGA,214158.000,3353.7493,N,09832.0244,W,2,05,2.3,305.6,M,-23.7,M,2.8,0000*40
$GPGSA,A,3,23,16,31,32,30,,,,,,,,5.7,2.3,5.3*31
$GPGSV,3,1,12,30,67,080,41,32,63,206,33,16,62,155,36,20,56,265,*70
$GPGSV,3,2,12,23,37,314,28,31,30,049,34,06,10,143,,13,10,302,*7A
$GPGSV,3,3,12,03,08,158,26,14,06,108,16,01,04,226,,29,01,047,*7E
$GPRMC,214158.000,A,3353.7493,N,09832.0244,W,0.10,149.82,030412,,,D*7C
$GPGGA,214159.000,3353.7493,N,09832.0244,W,2,05,2.3,305.6,M,-23.7,M,3.8,0000*40
$GPGSA,A,3,23,16,31,32,30,,,,,,,,5.7,2.3,5.3*31
$GPRMC,214159.000,A,3353.7493,N,09832.0244,W,0.11,146.24,030412,,,D*7F
$GPGGA,214200.000,3353.7492,N,09832.0245,W,2,05,2.3,305.6,M,-23.7,M,0.8,0000*4C
$GPGSA,A,3,23,16,31,32,30,,,,,,,,5.7,2.3,5.3*31
$GPRMC,214200.000,A,3353.7492,N,09832.0245,W,0.04,103.23,030412,,,D*72
$GPGGA,214201.000,3353.7492,N,09832.0245,W,2,05,2.3,305.7,M,-23.7,M,1.8,0000*4D
$GPGSA,A,3,23,16,31,32,30,,,,,,,,5.7,2.3,5.2*30
$GPRMC,214201.000,A,3353.7492,N,09832.0245,W,0.00,185.41,030412,,,D*7D
$GPGGA,214202.000,3353.7493,N,09832.0246,W,2,05,2.3,305.7,M,-23.7,M,0.8,0000*4D
$GPGSA,A,3,23,16,31,32,30,,,,,,,,5.7,2.3,5.2*30
$GPRMC,214202.000,A,3353.7493,N,09832.0246,W,0.03,0.37,030412,,,D*72
$GPGGA,214203.000,3353.7493,N,09832.0247,W,2,05,2.3,305.8,M,-23.7,M,0.8,0000*42
$GPGSA,A,3,23,16,31,32,30,,,,,,,,5.7,2.3,5.2*30
$GPGSV,3,1,12,30,67,080,41,32,63,206,33,16,62,155,36,20,56,265,*70
$GPGSV,3,2,12,23,37,314,28,31,30,049,34,06,10,143,,13,10,302,*7A
$GPGSV,3,3,12,03,08,158,26,14,06,108,17,01,04,226,,29,01,047,*7F
$GPRMC,214203.000,A,3353.7493,N,09832.0247,W,0.02,9.64,030412,,,D*7C
$GPGGA,214204.000,3353.7493,N,09832.0247,W,2,05,2.3,305.8,M,-23.7,M,1.8,0000*44
$GPGSA,A,3,23,16,31,32,30,,,,,,,,5.7,2.3,5.2*30
$GPRMC,214204.000,A,3353.7493,N,09832.0247,W,0.03,51.88,030412,,,D*45
$GPGGA,214205.000,3353.7493,N,09832.0248,W,2,05,2.3,305.9,M,-23.7,M,2.8,0000*48
$GPGSA,A,3,23,16,31,32,30,,,,,,,,5.7,2.3,5.2*30
$GPRMC,214205.000,A,3353.7493,N,09832.0248,W,0.02,13.67,030412,,,D*4D
$GPGGA,214206.000,3353.7493,N,09832.0248,W,2,05,2.3,305.9,M,-23.7,M,3.8,0000*4A
$GPGSA,A,3,23,16,31,32,30,,,,,,,,5.7,2.3,5.2*30
$GPRMC,214206.000,A,3353.7493,N,09832.0248,W,0.02,345.29,030412,,,D*74
$GPGGA,214207.000,3353.7493,N,09832.0249,W,2,05,2.3,306.0,M,-23.7,M,4.8,0000*47
$GPGSA,A,3,23,16,31,32,30,,,,,,,,5.7,2.3,5.2*30
$GPRMC,214207.000,A,3353.7493,N,09832.0249,W,0.05,14.70,030412,,,D*48
$GPGGA,214208.000,3353.7493,N,09832.0249,W,2,05,2.3,306.1,M,-23.7,M,5.8,0000*48
$GPGSA,A,3,23,16,31,32,30,,,,,,,,5.7,2.3,5.2*30
$GPGSV,3,1,12,30,67,080,41,32,63,206,33,16,62,155,36,20,56,265,*70
$GPGSV,3,2,12,23,37,314,28,31,30,049,35,06,10,143,,13,10,302,*7B
$GPGSV,3,3,12,03,08,158,26,14,06,108,18,01,04,226,,29,01,047,*70
$GPRMC,214208.000,A,3353.7493,N,09832.0249,W,0.05,351.64,030412,,,D*70
$GPGGA,214209.000,3353.7494,N,09832.0250,W,2,05,2.3,306.2,M,-23.7,M,6.8,0000*46
$GPGSA,A,3,23,16,31,32,30,,,,,,,,5.7,2.3,5.2*30
$GPRMC,214209.000,A,3353.7494,N,09832.0250,W,0.03,48.03,030412,,,D*42
$GPGGA,214210.000,3353.7494,N,09832.0250,W,2,05,2.3,306.3,M,-23.7,M,7.8,0000*4E
$GPGSA,A,3,23,16,31,32,30,,,,,,,,5.7,2.3,5.2*30
$GPRMC,214210.000,A,3353.7494,N,09832.0250,W,0.03,336.95,030412,,,D*7F
$GPGGA,214211.000,3353.7494,N,09832.0251,W,2,05,2.3,306.4,M,-23.7,M,0.8,0000*4E
$GPGSA,A,3,23,16,31,32,30,,,,,,,,5.7,2.3,5.2*30
$GPRMC,214211.000,A,3353.7494,N,09832.0251,W,0.05,341.33,030412,,,D*75
$GPGGA,214212.000,3353.7494,N,09832.0251,W,2,05,2.3,306.4,M,-23.7,M,0.8,0000*4D
$GPGSA,A,3,23,16,31,32,30,,,,,,,,5.7,2.3,5.2*30
$GPRMC,214212.000,A,3353.7494,N,09832.0251,W,0.03,33.68,030412,,,D*48
$GPGGA,214213.000,3353.7494,N,09832.0251,W,2,05,2.3,306.4,M,-23.7,M,0.8,0000*4C
$GPGSA,A,3,23,16,31,32,30,,,,,,,,5.7,2.3,5.2*30
$GPGSV,3,1,12,30,67,080,41,32,63,206,33,16,62,155,36,20,56,265,*70
$GPGSV,3,2,12,23,37,314,28,31,30,049,35,06,10,143,,13,10,302,*7B
$GPGSV,3,3,12,03,08,158,27,14,06,108,19,01,04,226,,29,01,047,*70
$GPRMC,214213.000,A,3353.7494,N,09832.0251,W,0.07,76.76,030412,,,D*43
$GPGGA,214214.000,3353.7494,N,09832.0251,W,2,05,2.3,306.3,M,-23.7,M,0.8,0000*4C
$GPGSA,A,3,23,16,31,32,30,,,,,,,,5.7,2.3,5.2*30
$GPRMC,214214.000,A,3353.7494,N,09832.0251,W,0.10,59.74,030412,,,D*4D
$GPGGA,214215.000,3353.7494,N,09832.0250,W,2,05,2.3,306.3,M,-23.7,M,1.8,0000*4D
$GPGSA,A,3,23,16,31,32,30,,,,,,,,5.7,2.3,5.2*30
$GPRMC,214215.000,A,3353.7494,N,09832.0250,W,0.07,69.32,030412,,,D*4A
$GPGGA,214216.000,3353.7494,N,09832.0250,W,2,05,2.3,306.2,M,-23.7,M,2.8,0000*4C
$GPGSA,A,3,23,16,31,32,30,,,,,,,,5.7,2.3,5.2*30
$GPRMC,214216.000,A,3353.7494,N,09832.0250,W,0.09,87.29,030412,,,D*4D
$GPGGA,214217.000,3353.7494,N,09832.0250,W,2,05,2.3,306.1,M,-23.7,M,0.8,0000*4C
$GPGSA,A,3,23,16,31,32,30,,,,,,,,5.7,2.3,5.2*30
$GPRMC,214217.000,A,3353.7494,N,09832.0250,W,0.07,81.44,030412,,,D*4F
$GPGGA,214218.000,3353.7494,N,09832.0250,W,2,05,2.3,306.0,M,-23.7,M,0.8,0000*42
$GPGSA,A,3,23,16,31,32,30,,,,,,,,5.7,2.3,5.2*30
$GPGSV,3,1,12,30,67,080,40,32,63,206,33,16,62,155,36,20,56,265,*71
$GPGSV,3,2,12,23,37,314,28,31,30,049,36,06,10,143,,13,10,302,*78
$GPGSV,3,3,12,03,08,158,27,14,06,108,19,01,04,226,,29,01,047,*70
$GPRMC,214218.000,A,3353.7494,N,09832.0250,W,0.11,114.71,030412,,,D*7C
$GPGGA,214219.000,3353.7494,N,09832.0250,W,2,05,2.3,306.0,M,-23.7,M,0.8,0000*43
$GPGSA,A,3,23,16,31,32,30,,,,,,,,5.7,2.3,5.2*30
$GPRMC,214219.000,A,3353.7494,N,09832.0250,W,0.14,143.26,030412,,,D*78
$GPGGA,214220.000,3353.7493,N,09832.0250,W,2,05,2.3,306.0,M,-23.7,M,0.8,0000*4E
$GPGSA,A,3,23,16,31,32,30,,,,,,,,5.7,2.3,5.2*30
$GPRMC,214220.000,A,3353.7493,N,09832.0250,W,0.11,144.32,030412,,,D*72
$GPGGA,214221.000,3353.7493,N,09832.0250,W,2,05,2.3,305.9,M,-23.7,M,0.8,0000*45
$GPGSA,A,3,23,16,31,32,30,,,,,,,,5.7,2.3,5.2*30
$GPRMC,214221.000,A,3353.7493,N,09832.0250,W,0.11,144.95,030412,,,D*7E
$GPGGA,214222.000,3353.7492,N,09832.0250,W,2,05,2.3,305.9,M,-23.7,M,1.8,0000*46
$GPGSA,A,3,23,16,31,32,30,,,,,,,,5.7,2.3,5.2*30
$GPRMC,214222.000,A,3353.7492,N,09832.0250,W,0.14,144.30,030412,,,D*76
$GPGGA,214223.000,3353.7492,N,09832.0250,W,2,05,2.3,305.9,M,-23.7,M,0.8,0000*46
$GPGSA,A,3,23,16,31,32,30,,,,,,,,5.7,2.3,5.2*30
$GPGSV,3,1,12,30,67,080,40,32,63,206,33,16,62,155,36,20,56,265,*71
$GPGSV,3,2,12,23,37,314,28,31,30,049,36,06,10,143,,13,10,302,*78
$GPGSV,3,3,12,03,08,158,26,14,06,108,19,01,04,226,,29,01,047,*71
$GPRMC,214223.000,A,3353.7492,N,09832.0250,W,0.14,147.78,030412,,,D*78
$GPGGA,214224.000,3353.7492,N,09832.0250,W,2,05,2.3,305.9,M,-23.7,M,0.8,0000*41
$GPGSA,A,3,23,16,31,32,30,,,,,,,,5.7,2.3,5.2*30
$GPRMC,214224.000,A,3353.7492,N,09832.0250,W,0.05,129.03,030412,,,D*7B
$GPGGA,214225.000,3353.7493,N,09832.0250,W,2,05,2.3,305.9,M,-23.7,M,0.8,0000*41
$GPGSA,A,3,23,16,31,32,30,,,,,,,,5.7,2.3,5.2*30
$GPRMC,214225.000,A,3353.7493,N,09832.0250,W,0.08,37.52,030412,,,D*4C
$GPGGA,214226.000,3353.7493,N,09832.0250,W,2,05,2.3,305.9,M,-23.7,M,0.8,0000*42
$GPGSA,A,3,23,16,31,32,30,,,,,,,,5.7,2.3,5.2*30
$GPRMC,214226.000,A,3353.7493,N,09832.0250,W,0.11,43.18,030412,,,D*4A
$GPGGA,214227.000,3353.7494,N,09832.0251,W,2,06,2.2,305.9,M,-23.7,M,0.8,0000*47
$GPGSA,A,3,20,23,16,31,32,30,,,,,,,5.6,2.2,5.2*32
$GPRMC,214227.000,A,3353.7494,N,09832.0251,W,0.08,333.94,030412,,,D*75
$GPGGA,214228.000,3353.7494,N,09832.0251,W,2,06,2.2,305.9,M,-23.7,M,1.8,0000*49
$GPGSA,A,3,20,23,16,31,32,30,,,,,,,5.6,2.2,5.2*32
$GPGSV,3,1,12,30,67,080,41,32,63,206,32,16,62,155,37,20,56,265,19*78
$GPGSV,3,2,12,23,37,314,28,31,30,049,36,06,10,143,,13,10,302,*78
$GPGSV,3,3,12,03,08,158,25,14,06,108,18,01,04,226,,29,01,047,*73
$GPRMC,214228.000,A,3353.7494,N,09832.0251,W,0.17,318.65,030412,,,D*73
$GPGGA,214229.000,3353.7495,N,09832.0251,W,2,06,2.2,305.9,M,-23.7,M,2.8,0000*4A
$GPGSA,A,3,20,23,16,31,32,30,,,,,,,5.6,2.2,5.2*32
$GPRMC,214229.000,A,3353.7495,N,09832.0251,W,0.22,79.34,030412,,,D*45
$GPGGA,214230.000,3353.7495,N,09832.0251,W,2,06,2.2,305.8,M,-23.7,M,0.8,0000*41
$GPGSA,A,3,20,23,16,31,32,30,,,,,,,5.6,2.2,5.2*32
$GPRMC,214230.000,A,3353.7495,N,09832.0251,W,0.15,104.70,030412,,,D*72
$GPGGA,214231.000,3353.7495,N,09832.0251,W,2,06,2.2,305.8,M,-23.7,M,0.8,0000*40
$GPGSA,A,3,20,23,16,31,32,30,,,,,,,5.6,2.2,5.2*32
$GPRMC,214231.000,A,3353.7495,N,09832.0251,W,0.10,223.32,030412,,,D*76
$GPGGA,214232.000,3353.7494,N,09832.0252,W,2,06,2.2,305.8,M,-23.7,M,0.8,0000*41
$GPGSA,A,3,20,23,16,31,32,30,,,,,,,5.6,2.2,5.2*32
$GPRMC,214232.000,A,3353.7494,N,09832.0252,W,0.10,227.78,030412,,,D*7D
$GPGGA,214233.000,3353.7494,N,09832.0252,W,2,06,2.2,305.8,M,-23.7,M,1.8,0000*41
$GPGSA,A,3,20,23,16,31,32,30,,,,,,,5.6,2.2,5.2*32
$GPGSV,3,1,12,30,67,080,41,32,63,206,32,16,62,155,37,20,56,265,21*73
$GPGSV,3,2,12,23,37,314,28,31,30,049,36,06,10,143,,13,10,302,*78
$GPGSV,3,3,12,03,08,158,24,14,06,108,17,01,04,226,,29,01,047,*7D
$GPRMC,214233.000,A,3353.7494,N,09832.0252,W,0.15,251.14,030412,,,D*72
$GPGGA,214234.000,3353.7494,N,09832.0253,W,2,06,2.2,305.8,M,-23.7,M,0.8,0000*46
$GPGSA,A,3,20,23,16,31,32,30,,,,,,,5.6,2.2,5.2*32
$GPRMC,214234.000,A,3353.7494,N,09832.0253,W,0.15,237.25,030412,,,D*76
$GPGGA,214235.000,3353.7494,N,09832.0253,W,2,06,2.2,305.8,M,-23.7,M,1.8,0000*46
$GPGSA,A,3,20,23,16,31,32,30,,,,,,,5.6,2.2,5.2*32
$GPRMC,214235.000,A,3353.7494,N,09832.0253,W,0.09,188.55,030412,,,D*7A
$GPGGA,214236.000,3353.7494,N,09832.0254,W,2,06,2.2,305.8,M,-23.7,M,0.8,0000*43
$GPGSA,A,3,20,23,16,31,32,30,,,,,,,5.6,2.2,5.2*32
$GPRMC,214236.000,A,3353.7494,N,09832.0254,W,0.16,284.23,030412,,,D*7E
$GPGGA,214237.000,3353.7494,N,09832.0255,W,2,06,2.2,305.8,M,-23.7,M,0.8,0000*43
$GPGSA,A,3,20,23,16,31,32,30,,,,,,,5.6,2.2,5.2*32
$GPRMC,214237.000,A,3353.7494,N,09832.0255,W,0.18,307.28,030412,,,D*71
$GPGGA,214238.000,3353.7495,N,09832.0255,W,2,06,2.2,305.7,M,-23.7,M,0.8,0000*42
$GPGSA,A,3,20,23,16,31,32,30,,,,,,,5.6,2.2,5.2*32
$GPGSV,3,1,12,30,67,080,41,32,63,206,31,16,62,155,36,20,56,265,21*71
$GPGSV,3,2,12,23,37,314,28,31,30,049,36,06,10,143,,13,10,302,*78
$GPGSV,3,3,12,03,08,158,19,14,06,108,17,01,04,226,,29,01,047,*73
$GPRMC,214238.000,A,3353.7495,N,09832.0255,W,0.21,298.49,030412,,,D*75
$GPGGA,214239.000,3353.7495,N,09832.0256,W,2,06,2.2,305.7,M,-23.7,M,1.8,0000*41
$GPGSA,A,3,20,23,16,31,32,30,,,,,,,5.6,2.2,5.2*32
$GPRMC,214239.000,A,3353.7495,N,09832.0256,W,0.20,310.92,030412,,,D*71
$GPGGA,214240.000,3353.7496,N,09832.0256,W,2,06,2.2,305.7,M,-23.7,M,2.8,0000*4F
$GPGSA,A,3,20,23,16,31,32,30,,,,,,,5.6,2.2,5.2*32
$GPRMC,214240.000,A,3353.7496,N,09832.0256,W,0.17,66.35,030412,,,D*47
$GPGGA,214241.000,3353.7497,N,09832.0256,W,2,07,1.2,306.0,M,-23.7,M,3.8,0000*48
$GPGSA,A,3,20,06,23,16,31,32,30,,,,,,2.1,1.2,1.6*37
$GPRMC,214241.000,A,3353.7497,N,09832.0256,W,0.26,339.45,030412,,,D*7B
$GPGGA,214242.000,3353.7497,N,09832.0256,W,2,07,1.2,305.8,M,-23.7,M,0.8,0000*43
$GPGSA,A,3,20,06,23,16,31,32,30,,,,,,2.1,1.2,1.6*37
$GPRMC,214242.000,A,3353.7497,N,09832.0256,W,0.09,199.83,030412,,,D*77
$GPGGA,214243.000,3353.7497,N,09832.0256,W,2,07,1.2,305.9,M,-23.7,M,0.8,0000*43
$GPGSA,A,3,20,06,23,16,31,32,30,,,,,,2.1,1.2,1.6*37
$GPGSV,3,1,12,30,67,080,41,32,63,206,31,16,62,155,36,20,56,265,21*71
$GPGSV,3,2,12,23,37,314,28,31,30,049,36,06,10,143,23,13,10,302,*79
$GPGSV,3,3,12,03,08,158,19,14,06,108,17,01,04,226,,29,01,047,*73
$GPRMC,214243.000,A,3353.7497,N,09832.0256,W,0.03,294.15,030412,,,D*7D
$GPGGA,214244.000,3353.7497,N,09832.0257,W,2,07,1.2,306.1,M,-23.7,M,0.8,0000*4E
$GPGSA,A,3,20,06,23,16,31,32,30,,,,,,2.1,1.2,1.6*37
$GPRMC,214244.000,A,3353.7497,N,09832.0257,W,0.24,308.39,030412,,,D*74
$GPGGA,214245.000,3353.7497,N,09832.0257,W,2,07,1.2,306.3,M,-23.7,M,1.8,0000*4C
$GPGSA,A,3,20,06,23,16,31,32,30,,,,,,2.1,1.2,1.6*37
$GPRMC,214245.000,A,3353.7497,N,09832.0257,W,0.16,41.48,030412,,,D*4C
$GPGGA,214246.000,3353.7496,N,09832.0257,W,2,07,1.2,306.2,M,-23.7,M,2.8,0000*4C
$GPGSA,A,3,20,06,23,16,31,32,30,,,,,,2.1,1.2,1.6*37
$GPRMC,214246.000,A,3353.7496,N,09832.0257,W,0.16,178.66,030412,,,D*79
$GPGGA,214247.000,3353.7495,N,09832.0257,W,2,07,1.2,306.0,M,-23.7,M,3.8,0000*4D
$GPGSA,A,3,20,06,23,16,31,32,30,,,,,,2.1,1.2,1.6*37
$GPRMC,214247.000,A,3353.7495,N,09832.0257,W,0.26,136.71,030412,,,D*74
$GPGGA,214248.000,3353.7495,N,09832.0257,W,2,07,1.2,306.1,M,-23.7,M,0.8,0000*40
$GPGSA,A,3,20,06,23,16,31,32,30,,,,,,2.1,1.2,1.6*37
$GPGSV,3,1,12,30,67,080,41,32,63,206,31,16,62,155,36,20,56,265,22*72
$GPGSV,3,2,12,23,37,314,29,31,30,049,37,06,10,143,23,13,10,302,*79
$GPGSV,3,3,12,03,08,158,19,14,06,108,18,01,04,226,,29,01,047,*7C
$GPRMC,214248.000,A,3353.7495,N,09832.0257,W,0.12,315.86,030412,,,D*77
$GPGGA,214249.000,3353.7496,N,09832.0257,W,2,07,1.2,306.2,M,-23.7,M,0.8,0000*41
$GPGSA,A,3,20,06,23,16,31,32,30,,,,,,2.1,1.2,1.6*37
$GPRMC,214249.000,A,3353.7496,N,09832.0257,W,0.18,36.16,030412,,,D*44
$GPGGA,214250.000,3353.7496,N,09832.0257,W,2,07,1.2,306.1,M,-23.7,M,0.8,0000*4A
$GPGSA,A,3,20,06,23,16,31,32,30,,,,,,2.1,1.2,1.6*37
$GPRMC,214250.000,A,3353.7496,N,09832.0257,W,0.27,85.47,030412,,,D*4C
$GPGGA,214251.000,3353.7496,N,09832.0256,W,2,07,1.2,306.2,M,-23.7,M,0.8,0000*49
$GPGSA,A,3,20,06,23,16,31,32,30,,,,,,2.1,1.2,1.7*36
$GPRMC,214251.000,A,3353.7496,N,09832.0256,W,0.23,48.57,030412,,,D*48
$GPGGA,214252.000,3353.7497,N,09832.0256,W,2,07,1.2,306.4,M,-23.7,M,0.8,0000*4D
$GPGSA,A,3,20,06,23,16,31,32,30,,,,,,2.1,1.2,1.7*36
$GPRMC,214252.000,A,3353.7497,N,09832.0256,W,0.24,22.83,030412,,,D*48
$GPGGA,214253.000,3353.7498,N,09832.0255,W,2,07,1.2,306.5,M,-23.7,M,1.8,0000*40
$GPGSA,A,3,20,06,23,16,31,32,30,,,,,,2.1,1.2,1.7*36
$GPGSV,3,1,12,30,67,080,41,32,63,206,31,16,62,155,36,20,56,265,23*73
$GPGSV,3,2,12,23,37,314,29,31,30,049,37,06,10,143,24,13,10,302,*7E
$GPGSV,3,3,12,03,08,158,20,14,06,108,18,01,04,226,,29,01,047,*76
$GPRMC,214253.000,A,3353.7498,N,09832.0255,W,0.25,66.94,030412,,,D*42
$GPGGA,214254.000,3353.7497,N,09832.0255,W,2,07,1.2,306.4,M,-23.7,M,0.8,0000*48
$GPGSA,A,3,20,06,23,16,31,32,30,,,,,,2.1,1.2,1.7*36
$GPRMC,214254.000,A,3353.7497,N,09832.0255,W,0.23,108.86,030412,,,D*76
$GPGGA,214255.000,3353.7497,N,09832.0254,W,2,07,1.2,306.5,M,-23.7,M,0.8,0000*49
$GPGSA,A,3,20,06,23,16,31,32,30,,,,,,2.1,1.2,1.7*36
$GPRMC,214255.000,A,3353.7497,N,09832.0254,W,0.24,110.24,030412,,,D*70
$GPGGA,214256.000,3353.7496,N,09832.0254,W,2,07,1.2,306.4,M,-23.7,M,0.8,0000*4A
$GPGSA,A,3,20,06,23,16,31,32,30,,,,,,2.1,1.2,1.7*36
$GPRMC,214256.000,A,3353.7496,N,09832.0254,W,0.23,139.09,030412,,,D*71
$GPGGA,214257.000,3353.7495,N,09832.0254,W,2,07,1.2,306.3,M,-23.7,M,1.8,0000*4E
$GPGSA,A,3,20,06,23,16,31,32,30,,,,,,2.1,1.2,1.7*36
$GPRMC,214257.000,A,3353.7495,N,09832.0254,W,0.29,142.98,030412,,,D*7D
$GPGGA,214258.000,3353.7495,N,09832.0254,W,2,07,1.2,306.2,M,-23.7,M,2.8,0000*43
$GPGSA,A,3,20,06,23,16,31,32,30,,,,,,2.1,1.2,1.7*36
$GPGSV,3,1,12,30,67,080,41,32,63,206,31,16,62,155,35,20,56,265,22*71
$GPGSV,3,2,12,23,37,314,30,31,30,049,37,06,10,143,24,13,10,302,*76
$GPGSV,3,3,12,03,08,158,21,14,06,108,18,01,04,226,,29,01,047,*77
$GPRMC,214258.000,A,3353.7495,N,09832.0254,W,0.23,179.83,030412,,,D*7A
$GPGGA,214259.000,3353.7494,N,09832.0254,W,2,07,1.2,306.2,M,-23.7,M,3.8,0000*42
$GPGSA,A,3,20,06,23,16,31,32,30,,,,,,2.1,1.2,1.7*36
$GPRMC,214259.000,A,3353.7494,N,09832.0254,W,0.17,113.29,030412,,,D*71
$GPGGA,214300.000,3353.7494,N,09832.0254,W,2,07,1.2,306.1,M,-23.7,M,0.8,0000*4F
$GPGSA,A,3,20,06,23,16,31,32,30,,,,,,2.1,1.2,1.7*36
$GPRMC,214300.000,A,3353.7494,N,09832.0254,W,0.27,138.12,030412,,,D*7E
$GPGGA,214301.000,3353.7494,N,09832.0254,W,2,07,1.2,306.0,M,-23.7,M,0.8,0000*4F
$GPGSA,A,3,20,06,23,16,31,32,30,,,,,,2.1,1.2,1.7*36
$GPRMC,214301.000,A,3353.7494,N,09832.0254,W,0.09,316.83,030412,,,D*75
$GPGGA,214302.000,3353.7494,N,09832.0254,W,2,07,1.2,306.0,M,-23.7,M,0.8,0000*4C
$GPGSA,A,3,20,06,23,16,31,32,30,,,,,,2.1,1.2,1.7*36
$GPRMC,214302.000,A,3353.7494,N,09832.0254,W,0.19,50.32,030412,,,D*4C
$GPGGA,214303.000,3353.7494,N,09832.0254,W,2,07,1.2,305.9,M,-23.7,M,1.8,0000*46
$GPGSA,A,3,20,06,23,16,31,32,30,,,,,,2.1,1.2,1.7*36
$GPGSV,3,1,12,30,67,080,40,32,63,206,31,16,62,155,35,20,56,265,22*70
$GPGSV,3,2,12,23,37,314,30,31,30,049,37,06,10,143,24,13,10,302,*76
$GPGSV,3,3,12,03,08,158,21,14,06,108,17,01,04,226,,29,01,047,*78
$GPRMC,214303.000,A,3353.7494,N,09832.0254,W,0.06,58.14,030412,,,D*4F
$GPGGA,214304.000,3353.7495,N,09832.0254,W,2,07,1.2,305.8,M,-23.7,M,2.8,0000*42
$GPGSA,A,3,20,06,23,16,31,32,30,,,,,,2.1,1.2,1.7*36
$GPRMC,214304.000,A,3353.7495,N,09832.0254,W,0.12,305.27,030412,,,D*77
$GPGGA,214305.000,3353.7495,N,09832.0254,W,2,07,1.2,305.7,M,-23.7,M,3.8,0000*4D
$GPGSA,A,3,20,06,23,16,31,32,30,,,,,,2.1,1.2,1.7*36
$GPRMC,214305.000,A,3353.7495,N,09832.0254,W,0.20,82.75,030412,,,D*4C
$GPGGA,214306.000,3353.7494,N,09832.0254,W,2,07,1.2,305.5,M,-23.7,M,0.8,0000*4E
$GPGSA,A,3,20,06,23,16,31,32,30,,,,,,2.1,1.2,1.7*36
$GPRMC,214306.000,A,3353.7494,N,09832.0254,W,0.12,146.03,030412,,,D*77
$GPGGA,214307.000,3353.7494,N,09832.0254,W,2,07,1.2,305.5,M,-23.7,M,0.8,0000*4F
$GPGSA,A,3,20,06,23,16,31,32,30,,,,,,2.1,1.2,1.7*36
$GPRMC,214307.000,A,3353.7494,N,09832.0254,W,0.19,192.87,030412,,,D*78
$GPGGA,214308.000,3353.7494,N,09832.0254,W,2,07,1.2,305.7,M,-23.7,M,0.8,0000*42
$GPGSA,A,3,20,06,23,16,31,32,30,,,,,,2.1,1.2,1.7*36
$GPGSV,3,1,12,30,67,080,40,32,63,206,31,16,62,155,36,20,56,265,21*70
$GPGSV,3,2,12,23,37,314,30,31,30,049,37,06,10,143,24,13,10,302,*76
$GPGSV,3,3,12,03,08,158,22,14,06,108,17,01,04,226,,29,01,047,*7B
$GPRMC,214308.000,A,3353.7494,N,09832.0254,W,0.10,273.87,030412,,,D*72
$GPGGA,214309.000,3353.7494,N,09832.0254,W,2,07,1.2,305.9,M,-23.7,M,1.8,0000*4C
$GPGSA,A,3,20,06,23,16,31,32,30,,,,,,2.1,1.2,1.7*36
$GPRMC,214309.000,A,3353.7494,N,09832.0254,W,0.18,66.95,030412,,,D*4E
$GPGGA,214310.000,3353.7494,N,09832.0254,W,2,07,1.2,306.1,M,-23.7,M,2.8,0000*4C
$GPGSA,A,3,20,06,23,16,31,32,30,,,,,,2.1,1.2,1.7*36
$GPRMC,214310.000,A,3353.7494,N,09832.0254,W,0.17,49.72,030412,,,D*4D
$GPGGA,214311.000,3353.7495,N,09832.0254,W,2,07,1.2,306.4,M,-23.7,M,3.8,0000*48
$GPGSA,A,3,20,06,23,16,31,32,30,,,,,,2.1,1.2,1.7*36
$GPRMC,214311.000,A,3353.7495,N,09832.0254,W,0.16,318.10,030412,,,D*7F
$GPGGA,214312.000,3353.7495,N,09832.0255,W,2,07,1.2,306.5,M,-23.7,M,0.8,0000*48
$GPGSA,A,3,20,06,23,16,31,32,30,,,,,,2.1,1.2,1.7*36
$GPRMC,214312.000,A,3353.7495,N,09832.0255,W,0.07,267.68,030412,,,D*7B
$GPGGA,214313.000,3353.7495,N,09832.0255,W,2,07,1.2,306.5,M,-23.7,M,0.8,0000*49
$GPGSA,A,3,20,06,23,16,31,32,30,,,,,,2.1,1.2,1.7*36
$GPGSV,3,1,12,30,67,080,40,32,63,206,31,16,62,155,36,20,56,265,20*71
$GPGSV,3,2,12,23,37,314,31,31,30,049,38,06,10,143,23,13,10,302,*7F
$GPGSV,3,3,12,03,08,158,23,14,06,108,17,01,04,226,,29,01,047,*7A
$GPRMC,214313.000,A,3353.7495,N,09832.0255,W,0.12,204.74,030412,,,D*76
$GPGGA,214314.000,3353.7495,N,09832.0255,W,2,07,1.2,306.5,M,-23.7,M,0.8,0000*4E
$GPGSA,A,3,20,06,23,16,31,32,30,,,,,,2.1,1.2,1.7*36
$GPRMC,214314.000,A,3353.7495,N,09832.0255,W,0.24,75.61,030412,,,D*44
$GPGGA,214315.000,3353.7495,N,09832.0254,W,2,07,1.2,306.7,M,-23.7,M,0.8,0000*4C
$GPGSA,A,3,20,06,23,16,31,32,30,,,,,,2.1,1.2,1.7*36
$GPRMC,214315.000,A,3353.7495,N,09832.0254,W,0.32,42.15,030412,,,D*44
$GPGGA,214316.000,3353.7496,N,09832.0253,W,2,07,1.2,306.9,M,-23.7,M,1.8,0000*44
$GPGSA,A,3,20,06,23,16,31,32,30,,,,,,2.1,1.2,1.7*36
$GPRMC,214316.000,A,3353.7496,N,09832.0253,W,0.30,44.54,030412,,,D*42
$GPGGA,214317.000,3353.7497,N,09832.0253,W,2,07,1.2,306.9,M,-23.7,M,2.8,0000*47
$GPGSA,A,3,20,06,23,16,31,32,30,,,,,,2.1,1.2,1.7*36
$GPRMC,214317.000,A,3353.7497,N,09832.0253,W,0.14,16.43,030412,,,D*45
$GPGGA,214318.000,3353.7497,N,09832.0253,W,2,07,1.2,306.9,M,-23.7,M,0.8,0000*4A
$GPGSA,A,3,20,06,23,16,31,32,30,,,,,,2.1,1.2,1.7*36
$GPGSV,3,1,12,30,67,080,41,32,63,206,31,16,62,155,36,20,56,265,19*7A
$GPGSV,3,2,12,23,37,314,31,31,30,049,38,06,10,143,23,13,10,302,*7F
$GPGSV,3,3,12,03,08,158,23,14,06,108,16,01,04,226,,29,01,047,*7B
$GPRMC,214318.000,A,3353.7497,N,09832.0253,W,0.04,291.67,030412,,,D*70
$GPGGA,214319.000,3353.7497,N,09832.0254,W,2,07,1.2,307.0,M,-23.7,M,0.8,0000*44
$GPGSA,A,3,20,06,23,16,31,32,30,,,,,,2.1,1.2,1.7*36
$GPRMC,214319.000,A,3353.7497,N,09832.0254,W,0.09,286.05,030412,,,D*79
$GPGGA,214320.000,3353.7497,N,09832.0255,W,2,07,1.2,307.3,M,-23.7,M,1.8,0000*4D
$GPGSA,A,3,20,06,23,16,31,32,30,,,,,,2.1,1.2,1.7*36
$GPRMC,214320.000,A,3353.7497,N,09832.0255,W,0.27,308.08,030412,,,D*74
$GPGGA,214321.000,3353.7497,N,09832.0255,W,2,07,1.2,307.2,M,-23.7,M,0.8,0000*4C
$GPGSA,A,3,20,06,23,16,31,32,30,,,,,,2.1,1.2,1.7*36
$GPRMC,214321.000,A,3353.7497,N,09832.0255,W,0.14,234.44,030412,,,D*73
$GPGGA,214322.000,3353.7497,N,09832.0256,W,2,07,1.2,307.3,M,-23.7,M,1.8,0000*4C
$GPGSA,A,3,20,06,23,16,31,32,30,,,,,,2.1,1.2,1.7*36
$GPRMC,214322.000,A,3353.7497,N,09832.0256,W,0.11,111.84,030412,,,D*7E
$GPGGA,214323.000,3353.7497,N,09832.0256,W,2,07,1.2,307.5,M,-23.7,M,2.8,0000*48
$GPGSA,A,3,20,06,23,16,31,32,30,,,,,,2.1,1.2,1.7*36
$GPGSV,3,1,12,30,67,080,41,32,63,206,30,16,62,155,36,20,56,265,18*7A
$GPGSV,3,2,12,23,37,314,31,31,30,049,38,06,10,143,23,13,10,302,*7F
$GPGSV,3,3,12,03,08,158,24,14,06,108,15,01,04,226,,29,01,047,*7F
$GPRMC,214323.000,A,3353.7497,N,09832.0256,W,0.19,312.93,030412,,,D*70
$GPGGA,214324.000,3353.7497,N,09832.0256,W,2,07,1.2,307.5,M,-23.7,M,0.8,0000*4D
$GPGSA,A,3,20,06,23,16,31,32,30,,,,,,2.1,1.2,1.7*36
$GPRMC,214324.000,A,3353.7497,N,09832.0256,W,0.20,137.18,030412,,,D*7B
$GPGGA,214325.000,3353.7496,N,09832.0255,W,2,07,1.2,307.5,M,-23.7,M,0.8,0000*4E
$GPGSA,A,3,20,06,23,16,31,32,30,,,,,,2.1,1.2,1.7*36
$GPRMC,214325.000,A,3353.7496,N,09832.0255,W,0.35,108.50,030412,,,D*7C
$GPGGA,214326.000,3353.7496,N,09832.0254,W,2,07,1.2,307.5,M,-23.7,M,0.8,0000*4C
$GPGSA,A,3,20,06,23,16,31,32,30,,,,,,2.1,1.2,1.7*36
$GPRMC,214326.000,A,3353.7496,N,09832.0254,W,0.32,115.97,030412,,,D*7E
$GPGGA,214327.000,3353.7496,N,09832.0254,W,2,07,1.2,307.5,M,-23.7,M,1.8,0000*4C
$GPGSA,A,3,20,06,23,16,31,32,30,,,,,,2.1,1.2,1.7*36
$GPRMC,214327.000,A,3353.7496,N,09832.0254,W,0.17,134.50,030412,,,D*70
$GPGGA,214328.000,3353.7496,N,09832.0254,W,2,07,1.2,307.5,M,-23.7,M,0.8,0000*42
$GPGSA,A,3,20,06,23,16,31,32,30,,,,,,2.1,1.2,1.7*36
$GPGSV,3,1,12,30,67,080,41,32,63,206,30,16,62,155,36,20,56,265,19*7B
$GPGSV,3,2,12,23,37,314,31,31,30,049,38,06,10,143,23,13,10,302,*7F
$GPGSV,3,3,12,03,08,158,26,14,06,108,14,01,04,226,,29,01,047,*7C
$GPRMC,214328.000,A,3353.7496,N,09832.0254,W,0.04,33.35,030412,,,D*48
$GPGGA,214329.000,3353.7496,N,09832.0254,W,2,07,1.2,307.6,M,-23.7,M,1.8,0000*41
$GPGSA,A,3,20,06,23,16,31,32,30,,,,,,2.1,1.2,1.7*36
$GPRMC,214329.000,A,3353.7496,N,09832.0254,W,0.10,42.76,030412,,,D*4D
$GPGGA,214330.000,3353.7497,N,09832.0254,W,2,07,1.2,307.7,M,-23.7,M,0.8,0000*48
$GPGSA,A,3,20,06,23,16,31,32,30,,,,,,2.1,1.2,1.7*36
$GPRMC,214330.000,A,3353.7497,N,09832.0254,W,0.21,89.18,030412,,,D*49
$GPGGA,214331.000,3353.7496,N,09832.0254,W,2,07,1.2,307.6,M,-23.7,M,0.8,0000*49
$GPGSA,A,3,20,06,23,16,31,32,30,,,,,,2.1,1.2,1.7*36
$GPRMC,214331.000,A,3353.7496,N,09832.0254,W,0.21,138.64,030412,,,D*79
$GPGGA,214332.000,3353.7497,N,09832.0254,W,2,07,1.2,307.7,M,-23.7,M,0.8,0000*4A
$GPGSA,A,3,20,06,23,16,31,32,30,,,,,,2.1,1.2,1.7*36
$GPRMC,214332.000,A,3353.7497,N,09832.0254,W,0.12,323.41,030412,,,D*74
$GPGGA,214333.000,3353.7497,N,09832.0254,W,2,07,1.2,307.8,M,-23.7,M,1.8,0000*45
$GPGSA,A,3,20,06,23,16,31,32,30,,,,,,2.1,1.2,1.7*36
$GPGSV,3,1,12,30,67,080,41,32,63,206,29,16,62,155,36,20,56,265,20*79
$GPGSV,3,2,12,23,37,314,30,31,30,049,38,06,10,143,23,13,10,302,*7E
$GPGSV,3,3,12,03,08,158,27,14,06,108,15,01,04,226,,29,01,047,*7C
$GPRMC,214333.000,A,3353.7497,N,09832.0254,W,0.10,71.86,030412,,,D*48
$GPGGA,214334.000,3353.7497,N,09832.0255,W,2,07,1.2,307.9,M,-23.7,M,2.8,0000*41
$GPGSA,A,3,20,06,23,16,31,32,30,,,,,,2.1,1.2,1.7*36
$GPRMC,214334.000,A,3353.7497,N,09832.0255,W,0.13,3.27,030412,,,D*73
$GPGGA,214335.000,3353.7497,N,09832.0255,W,2,07,1.2,307.9,M,-23.7,M,3.8,0000*41
$GPGSA,A,3,20,06,23,16,31,32,30,,,,,,2.1,1.2,1.7*36
$GPRMC,214335.000,A,3353.7497,N,09832.0255,W,0.07,256.63,030412,,,D*75
$GPGGA,214336.000,3353.7498,N,09832.0256,W,2,07,1.2,308.1,M,-23.7,M,0.8,0000*4A
$GPGSA,A,3,20,06,23,16,31,32,30,,,,,,2.1,1.2,1.7*36
$GPRMC,214336.000,A,3353.7498,N,09832.0256,W,0.17,302.85,030412,,,D*73
$GPGGA,214337.000,3353.7498,N,09832.0257,W,2,07,1.2,308.2,M,-23.7,M,1.8,0000*48
$GPGSA,A,3,20,06,23,16,31,32,30,,,,,,2.1,1.2,1.7*36
$GPRMC,214337.000,A,3353.7498,N,09832.0257,W,0.10,313.34,030412,,,D*7E
$GPGGA,214338.000,3353.7497,N,09832.0257,W,2,07,1.2,308.1,M,-23.7,M,0.8,0000*4A
$GPGSA,A,3,20,06,23,16,31,32,30,,,,,,2.1,1.2,1.7*36
$GPGSV,3,1,12,30,67,080,41,32,63,206,29,16,62,155,35,20,56,265,21*7B
$GPGSV,3,2,12,23,37,314,30,31,30,049,38,06,10,143,23,13,10,302,*7E
$GPGSV,3,3,12,03,08,158,28,14,06,108,18,01,04,226,,29,01,047,*7E
$GPRMC,214338.000,A,3353.7497,N,09832.0257,W,0.16,199.29,030412,,,D*74
$GPGGA,214339.000,3353.7497,N,09832.0257,W,2,07,1.2,308.2,M,-23.7,M,1.8,0000*49
$GPGSA,A,3,20,06,23,16,31,32,30,,,,,,2.1,1.2,1.7*36
$GPRMC,214339.000,A,3353.7497,N,09832.0257,W,0.17,108.86,030412,,,D*79
$GPGGA,214340.000,3353.7497,N,09832.0257,W,2,07,1.2,308.2,M,-23.7,M,2.8,0000*44
$GPGSA,A,3,20,06,23,16,31,32,30,,,,,,2.1,1.2,1.7*36
$GPRMC,214340.000,A,3353.7497,N,09832.0257,W,0.06,203.80,030412,,,D*79
$GPGGA,214341.000,3353.7497,N,09832.0257,W,2,07,1.2,308.4,M,-23.7,M,0.8,0000*41
$GPGSA,A,3,20,06,23,16,31,32,30,,,,,,2.1,1.2,1.7*36
$GPRMC,214341.000,A,3353.7497,N,09832.0257,W,0.12,40.77,030412,,,D*40
$GPGGA,214342.000,3353.7496,N,09832.0257,W,2,07,1.2,308.3,M,-23.7,M,0.8,0000*44
$GPGSA,A,3,20,06,23,16,31,32,30,,,,,,2.1,1.2,1.7*36
$GPRMC,214342.000,A,3353.7496,N,09832.0257,W,0.26,117.96,030412,,,D*79
$GPGGA,214343.000,3353.7496,N,09832.0257,W,2,07,1.2,308.1,M,-23.7,M,0.8,0000*47
$GPGSA,A,3,20,06,23,16,31,32,30,,,,,,2.1,1.2,1.7*36
$GPGSV,3,1,12,30,67,080,41,32,63,206,28,16,62,155,35,20,56,265,21*7A
$GPGSV,3,2,12,23,37,314,30,31,30,049,38,06,10,143,23,13,10,302,*7E
$GPGSV,3,3,12,03,08,158,28,14,06,108,20,01,04,226,,29,01,047,*75
$GPRMC,214343.000,A,3353.7496,N,09832.0257,W,0.24,177.82,030412,,,D*79
$GPGGA,214344.000,3353.7496,N,09832.0258,W,2,07,1.2,308.1,M,-23.7,M,0.8,0000*4F
$GPGSA,A,3,20,06,23,16,31,32,30,,,,,,2.1,1.2,1.7*36
$GPRMC,214344.000,A,3353.7496,N,09832.0258,W,0.14,225.07,030412,,,D*7B
$GPGGA,214345.000,3353.7496,N,09832.0258,W,2,07,1.2,308.1,M,-23.7,M,1.8,0000*4F
$GPGSA,A,3,20,06,23,16,31,32,30,,,,,,2.1,1.2,1.7*36
$GPRMC,214345.000,A,3353.7496,N,09832.0258,W,0.15,70.29,030412,,,D*45
$GPGGA,214346.000,3353.7497,N,09832.0258,W,2,07,1.2,308.3,M,-23.7,M,0.8,0000*4E
$GPGSA,A,3,20,06,23,16,31,32,30,,,,,,2.1,1.2,1.7*36
$GPRMC,214346.000,A,3353.7497,N,09832.0258,W,0.21,357.42,030412,,,D*7B
$GPGGA,214347.000,3353.7497,N,09832.0258,W,2,07,1.2,308.2,M,-23.7,M,0.8,0000*4E
$GPGSA,A,3,20,06,23,16,31,32,30,,,,,,2.1,1.2,1.7*36
$GPRMC,214347.000,A,3353.7497,N,09832.0258,W,0.13,178.02,030412,,,D*70
$GPGGA,214348.000,3353.7495,N,09832.0259,W,2,07,1.2,308.2,M,-23.7,M,0.8,0000*42
$GPGSA,A,3,20,06,23,16,31,32,30,,,,,,2.1,1.2,1.7*36
$GPGSV,3,1,12,30,67,080,41,32,63,206,27,16,62,155,35,20,56,265,22*76
$GPGSV,3,2,12,23,37,314,30,31,30,049,37,06,10,143,23,13,10,302,*71
$GPGSV,3,3,12,03,08,158,28,14,06,108,20,01,04,226,,29,01,047,*75
$GPRMC,214348.000,A,3353.7495,N,09832.0259,W,0.06,256.20,030412,,,D*77
$GPGGA,214349.000,3353.7496,N,09832.0259,W,2,07,1.2,308.1,M,-23.7,M,0.8,0000*43
$GPGSA,A,3,20,06,23,16,31,32,30,,,,,,2.1,1.2,1.7*36
$GPRMC,214349.000,A,3353.7496,N,09832.0259,W,0.11,165.45,030412,,,D*73
$GPGGA,214350.000,3353.7495,N,09832.0259,W,2,07,1.2,307.8,M,-23.7,M,0.8,0000*4E
$GPGSA,A,3,20,06,23,16,31,32,30,,,,,,2.1,1.2,1.7*36
$GPRMC,214350.000,A,3353.7495,N,09832.0259,W,0.32,187.10,030412,,,D*75
$GPGGA,214351.000,3353.7493,N,09832.0260,W,2,07,1.2,307.5,M,-23.7,M,1.8,0000*4F
$GPGSA,A,3,20,06,23,16,31,32,30,,,,,,2.1,1.2,1.7*36
$GPRMC,214351.000,A,3353.7493,N,09832.0260,W,0.34,158.23,030412,,,D*7C
$GPGGA,214352.000,3353.7492,N,09832.0260,W,2,07,1.2,307.4,M,-23.7,M,2.8,0000*4F
$GPGSA,A,3,20,06,23,16,31,32,30,,,,,,2.1,1.2,1.7*36
$GPRMC,214352.000,A,3353.7492,N,09832.0260,W,0.02,342.32,030412,,,D*72
$GPGGA,214353.000,3353.7492,N,09832.0260,W,2,07,1.2,307.3,M,-23.7,M,0.8,0000*4B
$GPGSA,A,3,20,06,23,16,31,32,30,,,,,,2.1,1.2,1.7*36
$GPGSV,3,1,12,30,67,080,41,32,63,206,26,16,62,155,34,20,56,265,23*77
$GPGSV,3,2,12,23,37,314,29,31,30,049,37,06,10,143,24,13,10,302,*7E
$GPGSV,3,3,12,03,08,158,28,14,06,108,21,01,04,226,,29,01,047,*74
$GPRMC,214353.000,A,3353.7492,N,09832.0260,W,0.02,86.57,030412,,,D*4B
$GPGGA,214354.000,3353.7492,N,09832.0260,W,2,07,1.2,307.0,M,-23.7,M,0.8,0000*4F
$GPGSA,A,3,20,06,23,16,31,32,30,,,,,,2.1,1.2,1.7*36
$GPRMC,214354.000,A,3353.7492,N,09832.0260,W,0.15,155.55,030412,,,D*77
$GPGGA,214355.000,3353.7491,N,09832.0261,W,2,07,1.2,307.0,M,-23.7,M,0.8,0000*4C
$GPGSA,A,3,20,06,23,16,31,32,30,,,,,,2.1,1.2,1.7*36
$GPRMC,214355.000,A,3353.7491,N,09832.0261,W,0.08,272.51,030412,,,D*7A
$GPGGA,214356.000,3353.7491,N,09832.0261,W,2,07,1.2,307.0,M,-23.7,M,0.8,0000*4F
$GPGSA,A,3,20,06,23,16,31,32,30,,,,,,2.1,1.2,1.7*36
$GPRMC,214356.000,A,3353.7491,N,09832.0261,W,0.05,187.56,030412,,,D*7A
$GPGGA,214357.000,3353.7490,N,09832.0262,W,2,07,1.2,307.0,M,-23.7,M,0.8,0000*4C
$GPGSA,A,3,20,06,23,16,31,32,30,,,,,,2.1,1.2,1.7*36
$GPRMC,214357.000,A,3353.7490,N,09832.0262,W,0.06,101.40,030412,,,D*73
$GPGGA,214358.000,3353.7488,N,09832.0263,W,2,07,1.2,306.8,M,-23.7,M,1.8,0000*43
$GPGSA,A,3,20,06,23,16,31,32,30,,,,,,2.1,1.2,1.7*36
$GPGSV,3,1,12,30,67,080,41,32,63,206,25,16,62,155,34,20,56,265,25*72
$GPGSV,3,2,12,23,37,314,29,31,30,049,37,06,10,143,24,13,10,302,*7E
$GPGSV,3,3,12,03,08,158,27,14,06,108,21,01,04,226,,29,01,047,*7B
$GPRMC,214358.000,A,3353.7488,N,09832.0263,W,0.15,143.04,030412,,,D*70
$GPGGA,214359.000,3353.7491,N,09832.0260,W,2,07,1.2,307.4,M,-23.7,M,2.8,0000*47
$GPGSA,A,3,20,06,23,16,31,32,30,,,,,,2.1,1.2,1.7*36
$GPRMC,214359.000,A,3353.7491,N,09832.0260,W,0.10,63.73,030412,,,D*4C
$GPGGA,214400.000,3353.7494,N,09832.0258,W,2,07,1.2,308.3,M,-23.7,M,0.8,0000*48
$GPGSA,A,3,20,06,23,16,31,32,30,,,,,,2.1,1.2,1.7*36
$GPRMC,214400.000,A,3353.7494,N,09832.0258,W,0.18,57.53,030412,,,D*44
$GPGGA,214401.000,3353.7497,N,09832.0255,W,2,07,1.2,308.9,M,-23.7,M,0.8,0000*4D
$GPGSA,A,3,20,06,23,16,31,32,30,,,,,,2.1,1.2,1.7*36
$GPRMC,214401.000,A,3353.7497,N,09832.0255,W,0.14,98.52,030412,,,D*45
$GPGGA,214402.000,3353.7500,N,09832.0253,W,2,07,1.2,309.3,M,-23.7,M,0.8,0000*4C
$GPGSA,A,3,20,06,23,16,31,32,30,,,,,,2.1,1.2,1.7*36
$GPRMC,214402.000,A,3353.7500,N,09832.0253,W,0.18,68.72,030412,,,D*4E
$GPGGA,214403.000,3353.7502,N,09832.0250,W,2,07,1.2,309.6,M,-23.7,M,0.8,0000*49
$GPGSA,A,3,20,06,23,16,31,32,30,,,,,,2.1,1.2,1.7*36
$GPGSV,3,1,12,30,67,080,41,32,63,206,24,16,62,155,34,20,56,265,26*70
$GPGSV,3,2,12,23,37,314,30,31,30,049,36,06,10,143,25,13,10,302,*76
$GPGSV,3,3,12,03,08,158,27,14,06,108,22,01,04,226,,29,01,047,*78
$GPRMC,214403.000,A,3353.7502,N,09832.0250,W,0.17,59.25,030412,,,D*41
$GPGGA,214404.000,3353.7504,N,09832.0248,W,2,07,1.2,310.0,M,-23.7,M,1.8,0000*4E
$GPGSA,A,3,20,06,23,16,31,32,30,,,,,,2.1,1.2,1.7*36
$GPRMC,214404.000,A,3353.7504,N,09832.0248,W,0.16,74.71,030412,,,D*46
$GPGGA,214405.000,3353.7506,N,09832.0246,W,2,07,1.2,310.3,M,-23.7,M,2.8,0000*43
$GPGSA,A,3,20,06,23,16,31,32,30,,,,,,2.1,1.2,1.7*36
$GPRMC,214405.000,A,3353.7506,N,09832.0246,W,0.19,59.64,030412,,,D*4F
$GPGGA,214406.000,3353.7508,N,09832.0245,W,2,07,1.2,310.7,M,-23.7,M,0.8,0000*4B
$GPGSA,A,3,20,06,23,16,31,32,30,,,,,,2.1,1.2,1.7*36
$GPRMC,214406.000,A,3353.7508,N,09832.0245,W,0.17,31.82,030412,,,D*49
$GPGGA,214407.000,3353.7510,N,09832.0244,W,2,07,1.2,311.1,M,-23.7,M,0.8,0000*45
$GPGSA,A,3,20,06,23,16,31,32,30,,,,,,2.1,1.2,1.7*36
$GPRMC,214407.000,A,3353.7510,N,09832.0244,W,0.07,33.90,030412,,,D*40
$GPGGA,214408.000,3353.7511,N,09832.0243,W,2,07,1.2,311.4,M,-23.7,M,0.8,0000*49
$GPGSA,A,3,20,06,23,16,31,32,30,,,,,,2.1,1.2,1.7*36
$GPGSV,3,1,12,30,67,080,41,32,63,206,25,16,62,155,34,20,56,265,26*71
$GPGSV,3,2,12,23,37,314,30,31,30,049,36,06,10,143,25,13,10,302,*76
$GPGSV,3,3,12,03,08,158,26,14,06,108,23,01,04,226,,29,01,047,*78
$GPRMC,214408.000,A,3353.7511,N,09832.0243,W,0.00,258.50,030412,,,D*7D
$GPGGA,214409.000,3353.7513,N,09832.0243,W,2,07,1.2,311.7,M,-23.7,M,1.8,0000*48
$GPGSA,A,3,20,06,23,16,31,32,30,,,,,,2.1,1.2,1.7*36
$GPRMC,214409.000,A,3353.7513,N,09832.0243,W,0.03,356.24,030412,,,D*71
$GPGGA,214410.000,3353.7514,N,09832.0242,W,2,07,1.2,311.7,M,-23.7,M,2.8,0000*45
$GPGSA,A,3,20,06,23,16,31,32,30,,,,,,2.1,1.2,1.7*36
$GPRMC,214410.000,A,3353.7514,N,09832.0242,W,0.05,63.85,030412,,,D*47
$GPGGA,214411.000,3353.7516,N,09832.0241,W,2,07,1.2,311.7,M,-23.7,M,0.8,0000*47
$GPGSA,A,3,20,06,23,16,31,32,30,,,,,,2.1,1.2,1.7*36
$GPRMC,214411.000,A,3353.7516,N,09832.0241,W,0.01,102.53,030412,,,D*7E
$GPGGA,214412.000,3353.7517,N,09832.0241,W,2,07,1.2,311.8,M,-23.7,M,0.8,0000*4A
$GPGSA,A,3,20,06,23,16,31,32,30,,,,,,2.1,1.2,1.7*36
$GPRMC,214412.000,A,3353.7517,N,09832.0241,W,0.09,110.40,030412,,,D*75
$GPGGA,214413.000,3353.7518,N,09832.0239,W,2,07,1.2,311.8,M,-23.7,M,0.8,0000*4B
$GPGSA,A,3,20,06,23,16,31,32,30,,,,,,2.1,1.2,1.7*36
$GPGSV,3,1,12,30,67,080,41,32,63,206,26,16,62,155,34,20,56,265,26*72
$GPGSV,3,2,12,23,37,314,31,31,30,049,36,06,10,143,24,13,10,302,*76
$GPGSV,3,3,12,03,08,158,24,14,06,108,22,01,04,226,,29,01,047,*7B
$GPRMC,214413.000,A,3353.7518,N,09832.0239,W,0.19,116.58,030412,,,D*7A
$GPGGA,214414.000,3353.7519,N,09832.0239,W,2,07,1.2,311.9,M,-23.7,M,0.8,0000*4C
$GPGSA,A,3,20,06,23,16,31,32,30,,,,,,2.1,1.2,1.7*36
$GPRMC,214414.000,A,3353.7519,N,09832.0239,W,0.19,31.55,030412,,,D*45
$GPGGA,214415.000,3353.7521,N,09832.0238,W,2,07,1.2,312.0,M,-23.7,M,1.8,0000*4C
$GPGSA,A,3,20,06,23,16,31,32,30,,,,,,2.1,1.2,1.7*36
$GPRMC,214415.000,A,3353.7521,N,09832.0238,W,0.14,58.32,030412,,,D*4D
$GPGGA,214416.000,3353.7521,N,09832.0238,W,2,07,1.2,312.1,M,-23.7,M,2.8,0000*4D
$GPGSA,A,3,20,06,23,16,31,32,30,,,,,,2.1,1.2,1.7*36
$GPRMC,214416.000,A,3353.7521,N,09832.0238,W,0.20,118.86,030412,,,D*73
$GPGGA,214417.000,3353.7522,N,09832.0238,W,2,07,1.2,312.3,M,-23.7,M,3.8,0000*4C
$GPGSA,A,3,20,06,23,16,31,32,30,,,,,,2.1,1.2,1.7*36
$GPRMC,214417.000,A,3353.7522,N,09832.0238,W,0.19,22.91,030412,,,D*45
$GPGGA,214418.000,3353.7523,N,09832.0237,W,2,07,1.2,312.3,M,-23.7,M,0.8,0000*4E
$GPGSA,A,3,20,06,23,16,31,32,30,,,,,,2.1,1.2,1.7*36
$GPGSV,3,1,12,30,67,080,41,32,63,206,26,16,62,155,34,20,56,265,25*71
$GPGSV,3,2,12,23,37,314,31,31,30,049,36,06,10,143,24,13,10,302,*76
$GPGSV,3,3,12,03,08,158,23,14,06,108,21,01,04,226,,29,01,047,*7F
$GPRMC,214418.000,A,3353.7523,N,09832.0237,W,0.13,123.20,030412,,,D*74
$GPGGA,214419.000,3353.7523,N,09832.0238,W,2,07,1.2,312.4,M,-23.7,M,0.8,0000*47
$GPGSA,A,3,20,06,23,16,31,32,30,,,,,,2.1,1.2,1.7*36
$GPRMC,214419.000,A,3353.7523,N,09832.0238,W,0.05,336.36,030412,,,D*7C
$GPGGA,214420.000,3353.7524,N,09832.0238,W,2,07,1.2,312.4,M,-23.7,M,0.8,0000*4A
$GPGSA,A,3,20,06,23,16,31,32,30,,,,,,2.1,1.2,1.7*36
$GPRMC,214420.000,A,3353.7524,N,09832.0238,W,0.10,181.30,030412,,,D*7D
$GPGGA,214421.000,3353.7523,N,09832.0238,W,2,07,1.2,312.3,M,-23.7,M,1.8,0000*4A
$GPGSA,A,3,20,06,23,16,31,32,30,,,,,,2.1,1.2,1.7*36
$GPRMC,214421.000,A,3353.7523,N,09832.0238,W,0.23,170.46,030412,,,D*74
$GPGGA,214422.000,3353.7524,N,09832.0239,W,2,07,1.2,312.3,M,-23.7,M,2.8,0000*4C
$GPGSA,A,3,20,06,23,16,31,32,30,,,,,,2.1,1.2,1.7*36
$GPRMC,214422.000,A,3353.7524,N,09832.0239,W,0.05,244.83,030412,,,D*78
$GPGGA,214423.000,3353.7524,N,09832.0239,W,2,07,1.2,312.3,M,-23.7,M,3.8,0000*4C
$GPGSA,A,3,20,06,23,16,31,32,30,,,,,,2.1,1.2,1.7*36
$GPGSV,3,1,12,30,67,077,41,16,63,153,35,32,62,204,27,20,56,263,25*7B
$GPGSV,3,2,12,23,38,315,31,31,29,050,36,06,11,142,23,13,10,303,*7E
$GPGSV,3,3,12,03,09,157,23,14,05,109,21,01,04,225,,29,01,046,*71
$GPRMC,214423.000,A,3353.7524,N,09832.0239,W,0.08,274.65,030412,,,D*7F
$GPGGA,214424.000,3353.7524,N,09832.0240,W,2,07,1.2,312.2,M,-23.7,M,0.8,0000*47
$GPGSA,A,3,20,06,23,16,31,32,30,,,,,,2.1,1.2,1.7*36
$GPRMC,214424.000,A,3353.7524,N,09832.0240,W,0.33,192.30,030412,,,D*75
$GPGGA,214425.000,3353.7524,N,09832.0240,W,2,07,1.2,312.3,M,-23.7,M,0.8,0000*47
$GPGSA,A,3,20,06,23,16,31,32,30,,,,,,2.1,1.2,1.7*36
$GPRMC,214425.000,A,3353.7524,N,09832.0240,W,0.07,182.71,030412,,,D*77
$GPGGA,214426.000,3353.7524,N,09832.0239,W,2,07,1.2,312.4,M,-23.7,M,0.8,0000*4D
$GPGSA,A,3,20,06,23,16,31,32,30,,,,,,2.1,1.2,1.7*36
$GPRMC,214426.000,A,3353.7524,N,09832.0239,W,0.08,117.69,030412,,,D*70
$GPGGA,214427.000,3353.7524,N,09832.0239,W,2,07,1.2,312.3,M,-23.7,M,0.8,0000*4B
$GPGSA,A,3,20,06,23,16,31,32,30,,,,,,2.1,1.2,1.7*36
$GPRMC,214427.000,A,3353.7524,N,09832.0239,W,0.24,134.73,030412,,,D*75
$GPGGA,214428.000,3353.7524,N,09832.0238,W,2,07,1.2,312.4,M,-23.7,M,1.8,0000*43
$GPGSA,A,3,20,06,23,16,31,32,30,,,,,,2.1,1.2,1.7*36
$GPGSV,3,1,12,30,67,077,40,16,63,153,34,32,62,204,27,20,56,263,24*7A
$GPGSV,3,2,12,23,38,315,32,31,29,050,36,06,11,142,19,13,10,303,*74
$GPGSV,3,3,12,03,09,157,22,14,05,109,21,01,04,225,,29,01,046,*70
$GPRMC,214428.000,A,3353.7524,N,09832.0238,W,0.13,85.14,030412,,,D*45
$GPGGA,214429.000,3353.7524,N,09832.0238,W,2,07,1.2,312.6,M,-23.7,M,2.8,0000*43
$GPGSA,A,3,20,06,23,16,31,32,30,,,,,,2.1,1.2,1.7*36
$GPRMC,214429.000,A,3353.7524,N,09832.0238,W,0.32,56.86,030412,,,D*42
$GPGGA,214430.000,3353.7526,N,09832.0237,W,2,07,1.2,312.9,M,-23.7,M,0.8,0000*4B
$GPGSA,A,3,20,06,23,16,31,32,30,,,,,,2.1,1.2,1.7*36
$GPRMC,214430.000,A,3353.7526,N,09832.0237,W,0.44,39.66,030412,,,D*41
$GPGGA,214431.000,3353.7526,N,09832.0237,W,2,07,1.2,313.0,M,-23.7,M,0.8,0000*42
$GPGSA,A,3,20,06,23,16,31,32,30,,,,,,2.1,1.2,1.7*36
$GPRMC,214431.000,A,3353.7526,N,09832.0237,W,0.07,281.09,030412,,,D*7F
$GPGGA,214432.000,3353.7526,N,09832.0237,W,2,07,1.2,313.2,M,-23.7,M,0.8,0000*43
$GPGSA,A,3,20,06,23,16,31,32,30,,,,,,2.1,1.2,1.7*36
$GPRMC,214432.000,A,3353.7526,N,09832.0237,W,0.24,337.14,030412,,,D*7D
$GPGGA,214433.000,3353.7527,N,09832.0238,W,2,07,1.2,313.3,M,-23.7,M,1.8,0000*4C
$GPGSA,A,3,20,06,23,16,31,32,30,,,,,,2.1,1.2,1.7*36
$GPGSV,3,1,12,30,67,077,40,16,63,153,34,32,62,204,27,20,56,263,23*7D
$GPGSV,3,2,12,23,38,315,32,31,29,050,36,06,11,142,19,13,10,303,*74
$GPGSV,3,3,12,03,09,157,21,14,05,109,21,01,04,225,,29,01,046,*73
$GPRMC,214433.000,A,3353.7527,N,09832.0238,W,0.18,67.42,030412,,,D*48
$GPGGA,214434.000,3353.7526,N,09832.0238,W,2,07,1.2,313.2,M,-23.7,M,2.8,0000*48
$GPGSA,A,3,20,06,23,16,31,32,30,,,,,,2.1,1.2,1.7*36
$GPRMC,214434.000,A,3353.7526,N,09832.0238,W,0.20,183.78,030412,,,D*77
$GPGGA,214435.000,3353.7526,N,09832.0238,W,2,07,1.2,313.1,M,-23.7,M,3.8,0000*4B
$GPGSA,A,3,20,06,23,16,31,32,30,,,,,,2.1,1.2,1.7*36
$GPRMC,214435.000,A,3353.7526,N,09832.0238,W,0.32,176.77,030412,,,D*70
$GPGGA,214436.000,3353.7525,N,09832.0238,W,2,07,1.2,313.0,M,-23.7,M,0.8,0000*49
$GPGSA,A,3,20,06,23,16,31,32,30,,,,,,2.1,1.2,1.7*36
$GPRMC,214436.000,A,3353.7525,N,09832.0238,W,0.23,147.86,030412,,,D*7C
$GPGGA,214437.000,3353.7525,N,09832.0237,W,2,07,1.2,313.0,M,-23.7,M,0.8,0000*47
$GPGSA,A,3,20,06,23,16,31,32,30,,,,,,2.1,1.2,1.7*36
$GPRMC,214437.000,A,3353.7525,N,09832.0237,W,0.15,119.45,030412,,,D*73
$GPGGA,214438.000,3353.7524,N,09832.0236,W,2,07,1.2,312.9,M,-23.7,M,0.8,0000*40
$GPGSA,A,3,20,06,23,16,31,32,30,,,,,,2.1,1.2,1.7*36
$GPGSV,3,1,12,30,67,077,40,16,63,153,34,32,62,204,28,20,56,263,22*73
$GPGSV,3,2,12,23,38,315,33,31,29,050,36,06,11,142,19,13,10,303,*75
$GPGSV,3,3,12,03,09,157,21,14,05,109,21,01,04,225,,29,01,046,*73
$GPRMC,214438.000,A,3353.7524,N,09832.0236,W,0.45,120.99,030412,,,D*72
$GPGGA,214439.000,3353.7524,N,09832.0235,W,2,07,1.2,313.0,M,-23.7,M,1.8,0000*4B
$GPGSA,A,3,20,06,23,16,31,32,30,,,,,,2.1,1.2,1.7*36
$GPRMC,214439.000,A,3353.7524,N,09832.0235,W,0.31,92.83,030412,,,D*40
$GPGGA,214440.000,3353.7525,N,09832.0234,W,2,07,1.2,313.1,M,-23.7,M,2.8,0000*47
$GPGSA,A,3,20,06,23,16,31,32,30,,,,,,2.1,1.2,1.7*36
$GPRMC,214440.000,A,3353.7525,N,09832.0234,W,0.16,40.47,030412,,,D*4C
$GPGGA,214441.000,3353.7525,N,09832.0234,W,2,07,1.2,313.1,M,-23.7,M,3.8,0000*47
$GPGSA,A,3,20,06,23,16,31,32,30,,,,,,2.1,1.2,1.7*36
$GPRMC,214441.000,A,3353.7525,N,09832.0234,W,0.11,152.37,030412,,,D*7F
$GPGGA,214442.000,3353.7525,N,09832.0234,W,2,07,1.2,313.0,M,-23.7,M,0.8,0000*46
$GPGSA,A,3,20,06,23,16,31,32,30,,,,,,2.1,1.2,1.7*36
$GPRMC,214442.000,A,3353.7525,N,09832.0234,W,0.26,133.41,030412,,,D*7E
$GPGGA,214443.000,3353.7525,N,09832.0233,W,2,07,1.2,313.0,M,-23.7,M,0.8,0000*40
$GPGSA,A,3,20,06,23,16,31,32,30,,,,,,2.1,1.2,1.7*36
$GPGSV,3,1,12,30,67,077,40,16,63,153,34,32,62,204,28,20,56,263,22*73
$GPGSV,3,2,12,23,38,315,33,31,29,050,37,06,11,142,20,13,10,303,*7E
$GPGSV,3,3,12,03,09,157,21,14,05,109,21,01,04,225,,29,01,046,*73
$GPRMC,214443.000,A,3353.7525,N,09832.0233,W,0.10,169.06,030412,,,D*71
$GPGGA,214444.000,3353.7525,N,09832.0233,W,2,07,1.2,313.2,M,-23.7,M,0.8,0000*45
$GPGSA,A,3,20,06,23,16,31,32,30,,,,,,2.1,1.2,1.7*36
$GPRMC,214444.000,A,3353.7525,N,09832.0233,W,0.13,88.73,030412,,,D*49
$GPGGA,214445.000,3353.7525,N,09832.0233,W,2,07,1.2,313.2,M,-23.7,M,0.8,0000*44
$GPGSA,A,3,20,06,23,16,31,32,30,,,,,,2.1,1.2,1.7*36
$GPRMC,214445.000,A,3353.7525,N,09832.0233,W,0.15,129.62,030412,,,D*74
$GPGGA,214446.000,3353.7525,N,09832.0233,W,2,07,1.2,313.3,M,-23.7,M,1.8,0000*47
$GPGSA,A,3,20,06,23,16,31,32,30,,,,,,2.1,1.2,1.7*36
$GPRMC,214446.000,A,3353.7525,N,09832.0233,W,0.17,187.34,030412,,,D*72
$GPGGA,214447.000,3353.7525,N,09832.0233,W,2,07,1.2,313.4,M,-23.7,M,2.8,0000*42
$GPGSA,A,3,20,06,23,16,31,32,30,,,,,,2.1,1.2,1.7*36
$GPRMC,214447.000,A,3353.7525,N,09832.0233,W,0.15,93.72,030412,,,D*47
$GPGGA,214448.000,3353.7525,N,09832.0233,W,2,07,1.2,313.7,M,-23.7,M,0.8,0000*4C
$GPGSA,A,3,20,06,23,16,31,32,30,,,,,,2.1,1.2,1.7*36
$GPGSV,3,1,12,30,67,077,40,16,63,153,34,32,62,204,28,20,56,263,23*72
$GPGSV,3,2,12,23,38,315,34,31,29,050,37,06,11,142,22,13,10,303,*7B
$GPGSV,3,3,12,03,09,157,23,14,05,109,22,01,04,225,,29,01,046,*72
$GPRMC,214448.000,A,3353.7525,N,09832.0233,W,0.13,294.67,030412,,,D*7F
$GPGGA,214449.000,3353.7525,N,09832.0233,W,2,07,1.2,313.8,M,-23.7,M,0.8,0000*42
$GPGSA,A,3,20,06,23,16,31,32,30,,,,,,2.1,1.2,1.7*36
$GPRMC,214449.000,A,3353.7525,N,09832.0233,W,0.04,321.66,030412,,,D*76
$GPGGA,214450.000,3353.7525,N,09832.0233,W,2,07,1.2,313.8,M,-23.7,M,0.8,0000*4A
$GPGSA,A,3,20,06,23,16,31,32,30,,,,,,2.1,1.2,1.7*36
