$GPGGA,112757.000,3353.7501,N,09832.0267,W,2,07,1.9,307.8,M,-23.7,M,0.8,0000*42
$GPGSA,A,3,25,12,05,26,02,15,29,,,,,,4.8,1.9,4.4*3E
$GPRMC,112757.000,A,3353.7501,N,09832.0267,W,0.53,84.00,030412,,,D*46
$GPGGA,112758.000,3353.7501,N,09832.0261,W,2,07,1.9,307.9,M,-23.7,M,1.8,0000*4B
$GPGSA,A,3,25,12,05,26,02,15,29,,,,,,4.8,1.9,4.4*3E
$GPRMC,112758.000,A,3353.7501,N,09832.0261,W,0.50,123.79,030412,,,D*7E
$GPGGA,112759.000,3353.7502,N,09832.0260,W,2,07,1.9,307.9,M,-23.7,M,2.8,0000*4B
$GPGSA,A,3,25,12,05,26,02,15,29,,,,,,4.8,1.9,4.4*3E
$GPGSV,3,1,12,05,58,043,37,29,57,320,25,25,37,238,21,26,30,124,27*70
$GPGSV,3,2,12,02,28,071,28,12,21,194,23,15,17,168,25,21,17,280,*77
$GPGSV,3,3,12,18,09,224,,10,03,044,,30,01,325,,51,49,195,36*7B
$GPRMC,112759.000,A,3353.7502,N,09832.0260,W,0.11,179.46,030412,,,D*7B
$GPGGA,112800.000,3353.7504,N,09832.0262,W,2,07,1.9,307.0,M,-23.7,M,0.8,0000*47
$GPGSA,A,3,25,12,05,26,02,15,29,,,,,,4.8,1.9,4.4*3E
$GPRMC,112800.000,A,3353.7504,N,09832.0262,W,0.13,143.91,030412,,,D*7D
$GPGGA,112801.000,3353.7507,N,09832.0263,W,2,07,1.9,306.4,M,-23.7,M,0.8,0000*41
$GPGSA,A,3,25,12,05,26,02,15,29,,,,,,4.8,1.9,4.4*3E
$GPRMC,112801.000,A,3353.7507,N,09832.0263,W,0.29,349.84,030412,,,D*7B
$GPGGA,112802.000,3353.7509,N,09832.0261,W,2,07,1.9,306.1,M,-23.7,M,0.8,0000*4B
$GPGSA,A,3,25,12,05,26,02,15,29,,,,,,4.8,1.9,4.4*3E
$GPRMC,112802.000,A,3353.7509,N,09832.0261,W,0.09,88.50,030412,,,D*41
$GPGGA,112803.000,3353.7509,N,09832.0253,W,2,07,1.9,306.6,M,-23.7,M,0.8,0000*4C
$GPGSA,A,3,25,12,05,26,02,15,29,,,,,,4.8,1.9,4.4*3E
$GPRMC,112803.000,A,3353.7509,N,09832.0253,W,0.52,71.27,030412,,,D*49
$GPGGA,112804.000,3353.7507,N,09832.0244,W,2,07,1.9,307.6,M,-23.7,M,1.8,0000*43
$GPGSA,A,3,25,12,05,26,02,15,29,,,,,,4.8,1.9,4.4*3E
$GPGSV,3,1,12,05,58,043,37,29,57,320,24,25,37,238,18,26,30,124,23*7F
$GPGSV,3,2,12,02,28,071,27,12,21,194,22,15,17,168,24,21,17,280,*78
$GPGSV,3,3,12,18,09,224,,10,03,044,,30,01,325,,51,49,195,35*78
$GPRMC,112804.000,A,3353.7507,N,09832.0244,W,0.72,116.85,030412,,,D*7C
$GPGGA,112805.000,3353.7506,N,09832.0244,W,2,07,1.9,307.2,M,-23.7,M,2.8,0000*44
$GPGSA,A,3,25,12,05,26,02,15,29,,,,,,4.8,1.9,4.4*3E
$GPRMC,112805.000,A,3353.7506,N,09832.0244,W,0.78,122.21,030412,,,D*7F
$GPGGA,112806.000,3353.7505,N,09832.0245,W,2,06,2.0,306.7,M,-23.7,M,0.8,0000*48
$GPGSA,A,3,12,05,26,02,15,29,,,,,,,4.9,2.0,4.5*33
$GPRMC,112806.000,A,3353.7505,N,09832.0245,W,0.37,112.33,030412,,,D*75
$GPGGA,112807.000,3353.7509,N,09832.0246,W,2,06,1.9,306.1,M,-23.7,M,0.8,0000*4A
$GPGSA,A,3,25,05,26,02,15,29,,,,,,,4.9,1.9,4.5*3D
$GPRMC,112807.000,A,3353.7509,N,09832.0246,W,0.42,324.32,030412,,,D*7F
$GPGGA,112808.000,3353.7514,N,09832.0254,W,2,06,2.0,305.3,M,-23.7,M,0.8,0000*41
$GPGSA,A,3,12,05,26,02,15,29,,,,,,,4.9,2.0,4.5*33
$GPRMC,112808.000,A,3353.7514,N,09832.0254,W,0.06,13.54,030412,,,D*48
$GPGGA,112809.000,3353.7514,N,09832.0256,W,2,06,2.0,305.2,M,-23.7,M,0.8,0000*43
$GPGSA,A,3,12,05,26,02,15,29,,,,,,,4.9,2.0,4.5*33
$GPGSV,3,1,12,05,58,043,37,29,57,320,24,25,37,238,,26,30,124,22*77
$GPGSV,3,2,12,02,28,071,28,12,21,194,18,15,17,168,24,21,17,280,*7E
$GPGSV,3,3,12,18,09,224,,10,03,044,,30,01,325,,51,49,195,35*78
$GPRMC,112809.000,A,3353.7514,N,09832.0256,W,0.23,260.40,030412,,,D*7F
$GPGGA,112810.000,3353.7515,N,09832.0256,W,2,06,2.0,305.3,M,-23.7,M,1.8,0000*4A
$GPGSA,A,3,12,05,26,02,15,29,,,,,,,4.9,2.0,4.5*33
$GPRMC,112810.000,A,3353.7515,N,09832.0256,W,0.27,0.73,030412,,,D*76
$GPGGA,112811.000,3353.7517,N,09832.0257,W,2,06,2.0,306.2,M,-23.7,M,2.8,0000*49
$GPGSA,A,3,12,05,26,02,15,29,,,,,,,4.9,2.0,4.5*33
$GPRMC,112811.000,A,3353.7517,N,09832.0257,W,0.55,305.89,030412,,,D*72
$GPGGA,112812.000,3353.7517,N,09832.0255,W,2,06,2.0,307.1,M,-23.7,M,0.8,0000*48
$GPGSA,A,3,12,05,26,02,15,29,,,,,,,4.9,2.0,4.5*33
$GPRMC,112812.000,A,3353.7517,N,09832.0255,W,0.20,284.28,030412,,,D*72
$GPGGA,112813.000,3353.7518,N,09832.0252,W,2,06,2.0,307.6,M,-23.7,M,0.8,0000*46
$GPGSA,A,3,12,05,26,02,15,29,,,,,,,4.9,2.0,4.5*33
$GPRMC,112813.000,A,3353.7518,N,09832.0252,W,0.10,256.79,030412,,,D*73
$GPGGA,112814.000,3353.7512,N,09832.0243,W,2,06,2.0,309.9,M,-23.7,M,0.8,0000*4A
$GPGSA,A,3,12,05,26,02,15,29,,,,,,,4.9,2.0,4.5*33
$GPGSV,3,1,12,05,58,043,37,29,57,320,25,25,37,238,,26,30,124,22*76
$GPGSV,3,2,12,02,28,071,28,12,21,194,19,15,17,168,23,21,17,280,*78
$GPGSV,3,3,12,18,09,224,,10,03,044,,30,01,325,,51,49,195,35*78
$GPRMC,112814.000,A,3353.7512,N,09832.0243,W,0.43,83.45,030412,,,D*4D
$GPGGA,112815.000,3353.7515,N,09832.0241,W,2,07,1.9,310.0,M,-23.7,M,1.8,0000*45
$GPGSA,A,3,25,12,05,26,02,15,29,,,,,,4.8,1.9,4.4*3E
$GPRMC,112815.000,A,3353.7515,N,09832.0241,W,0.17,337.55,030412,,,D*75
$GPGGA,112816.000,3353.7519,N,09832.0242,W,2,07,1.9,309.4,M,-23.7,M,2.8,0000*46
$GPGSA,A,3,25,12,05,26,02,15,29,,,,,,4.8,1.9,4.4*3E
$GPRMC,112816.000,A,3353.7519,N,09832.0242,W,0.33,306.59,030412,,,D*71
$GPGGA,112817.000,3353.7513,N,09832.0236,W,2,07,1.9,311.4,M,-23.7,M,3.8,0000*46
$GPGSA,A,3,25,12,05,26,02,15,29,,,,,,4.8,1.9,4.4*3E
$GPRMC,112817.000,A,3353.7513,N,09832.0236,W,0.33,213.04,030412,,,D*74
$GPGGA,112818.000,3353.7511,N,09832.0233,W,2,07,1.9,312.7,M,-23.7,M,0.8,0000*4D
$GPGSA,A,3,25,12,05,26,02,15,29,,,,,,4.8,1.9,4.4*3E
$GPRMC,112818.000,A,3353.7511,N,09832.0233,W,0.49,212.07,030412,,,D*73
$GPGGA,112819.000,3353.7508,N,09832.0227,W,2,07,1.9,314.6,M,-23.7,M,0.8,0000*46
$GPGSA,A,3,25,12,05,26,02,15,29,,,,,,4.8,1.9,4.4*3E
$GPGSV,3,1,12,05,58,043,37,29,57,320,25,25,37,238,23,26,30,124,22*77
$GPGSV,3,2,12,02,28,071,28,12,21,194,19,15,17,168,23,21,17,280,*78
$GPGSV,3,3,12,18,09,224,,10,03,044,,30,01,325,,51,49,195,35*78
$GPRMC,112819.000,A,3353.7508,N,09832.0227,W,0.12,250.27,030412,,,D*75
$GPGGA,112820.000,3353.7507,N,09832.0226,W,2,07,1.9,315.1,M,-23.7,M,0.8,0000*44
$GPGSA,A,3,25,12,05,26,02,15,29,,,,,,4.8,1.9,4.4*3E
$GPRMC,112820.000,A,3353.7507,N,09832.0226,W,0.37,126.54,030412,,,D*70
$GPGGA,112821.000,3353.7511,N,09832.0225,W,2,07,1.9,315.1,M,-23.7,M,1.8,0000*40
$GPGSA,A,3,25,12,05,26,02,15,29,,,,,,4.8,1.9,4.4*3E
$GPRMC,112821.000,A,3353.7511,N,09832.0225,W,0.25,107.16,030412,,,D*73
$GPGGA,112822.000,3353.7513,N,09832.0229,W,2,07,1.9,314.7,M,-23.7,M,2.8,0000*49
$GPGSA,A,3,25,12,05,26,02,15,29,,,,,,4.8,1.9,4.4*3E
$GPRMC,112822.000,A,3353.7513,N,09832.0229,W,0.33,191.33,030412,,,D*71
$GPGGA,112823.000,3353.7512,N,09832.0223,W,2,07,1.9,316.0,M,-23.7,M,3.8,0000*47
$GPGSA,A,3,25,12,05,26,02,15,29,,,,,,4.8,1.9,4.4*3E
$GPRMC,112823.000,A,3353.7512,N,09832.0223,W,0.56,200.15,030412,,,D*77
$GPGGA,112824.000,3353.7510,N,09832.0221,W,2,07,1.9,317.3,M,-23.7,M,0.8,0000*41
$GPGSA,A,3,25,12,05,26,02,15,29,,,,,,4.8,1.9,4.4*3E
$GPGSV,3,1,12,05,58,043,37,29,57,320,26,25,37,238,20,26,30,124,23*76
$GPGSV,3,2,12,02,28,071,28,12,21,194,20,15,17,168,19,21,17,280,*7B
$GPGSV,3,3,12,18,09,224,,10,03,044,,30,01,325,,51,49,195,36*7B
$GPRMC,112824.000,A,3353.7510,N,09832.0221,W,0.68,215.57,030412,,,D*7F
$GPGGA,112825.000,3353.7513,N,09832.0225,W,2,07,1.9,316.2,M,-23.7,M,0.8,0000*47
$GPGSA,A,3,25,12,05,26,02,15,29,,,,,,4.8,1.9,4.4*3E
$GPRMC,112825.000,A,3353.7513,N,09832.0225,W,0.44,211.25,030412,,,D*76
$GPGGA,112826.000,3353.7515,N,09832.0220,W,2,07,1.9,317.2,M,-23.7,M,0.8,0000*46
$GPGSA,A,3,25,12,05,26,02,15,29,,,,,,4.8,1.9,4.4*3E
$GPRMC,112826.000,A,3353.7515,N,09832.0220,W,0.45,71.09,030412,,,D*4D
$GPGGA,112827.000,3353.7521,N,09832.0224,W,2,07,1.9,316.0,M,-23.7,M,0.8,0000*47
$GPGSA,A,3,25,12,05,26,02,15,29,,,,,,4.8,1.9,4.4*3E
$GPRMC,112827.000,A,3353.7521,N,09832.0224,W,0.36,69.35,030412,,,D*4D
$GPGGA,112828.000,3353.7522,N,09832.0226,W,2,07,1.9,315.8,M,-23.7,M,1.8,0000*43
$GPGSA,A,3,25,12,05,26,02,15,29,,,,,,4.8,1.9,4.4*3E
$GPRMC,112828.000,A,3353.7522,N,09832.0226,W,0.36,90.21,030412,,,D*40
$GPGGA,112829.000,3353.7523,N,09832.0229,W,2,07,1.9,315.5,M,-23.7,M,2.8,0000*42
$GPGSA,A,3,25,12,05,26,02,15,29,,,,,,4.8,1.9,4.4*3E
$GPGSV,3,1,12,05,58,043,37,29,57,320,26,25,37,238,20,26,30,124,24*71
$GPGSV,3,2,12,02,28,071,29,12,21,194,21,15,17,168,19,21,17,280,*7B
$GPGSV,3,3,12,18,09,224,,10,03,044,,30,01,325,,51,49,195,35*78
$GPRMC,112829.000,A,3353.7523,N,09832.0229,W,0.53,222.66,030412,,,D*74
$GPGGA,112830.000,3353.7526,N,09832.0227,W,2,07,1.9,316.1,M,-23.7,M,0.8,0000*44
$GPGSA,A,3,25,12,05,26,02,15,29,,,,,,4.8,1.9,4.4*3E
$GPRMC,112830.000,A,3353.7526,N,09832.0227,W,0.23,75.50,030412,,,D*45
$GPGGA,112831.000,3353.7526,N,09832.0230,W,2,07,1.9,316.0,M,-23.7,M,0.8,0000*42
$GPGSA,A,3,25,12,05,26,02,15,29,,,,,,4.8,1.9,4.4*3E
$GPRMC,112831.000,A,3353.7526,N,09832.0230,W,0.26,351.64,030412,,,D*75
$GPGGA,112832.000,3353.7528,N,09832.0234,W,2,07,1.9,315.5,M,-23.7,M,0.8,0000*4D
$GPGSA,A,3,25,12,05,26,02,15,29,,,,,,4.8,1.9,4.4*3E
$GPRMC,112832.000,A,3353.7528,N,09832.0234,W,0.52,309.53,030412,,,D*76
$GPGGA,112833.000,3353.7529,N,09832.0235,W,2,07,1.9,316.3,M,-23.7,M,1.8,0000*48
$GPGSA,A,3,25,12,05,26,02,15,29,,,,,,4.8,1.9,4.4*3E
$GPRMC,112833.000,A,3353.7529,N,09832.0235,W,0.41,289.36,030412,,,D*7F
$GPGGA,112834.000,3353.7525,N,09832.0235,W,2,07,1.9,317.4,M,-23.7,M,0.8,0000*44
$GPGSA,A,3,25,12,05,26,02,15,29,,,,,,4.8,1.9,4.4*3E
$GPGSV,3,1,12,05,58,043,37,29,57,320,26,25,37,238,16,26,30,124,20*70
$GPGSV,3,2,12,02,28,071,29,12,21,194,22,15,17,168,19,21,17,280,*78
$GPGSV,3,3,12,18,09,224,,10,03,044,,30,01,325,,51,49,195,37*7A
$GPRMC,112834.000,A,3353.7525,N,09832.0235,W,0.57,207.11,030412,,,D*70
$GPGGA,112835.000,3353.7523,N,09832.0236,W,2,07,1.9,318.4,M,-23.7,M,1.8,0000*4E
$GPGSA,A,3,25,12,05,26,02,15,29,,,,,,4.8,1.9,4.4*3E
$GPRMC,112835.000,A,3353.7523,N,09832.0236,W,0.37,233.53,030412,,,D*73
$GPGGA,112836.000,3353.7517,N,09832.0238,W,2,06,1.9,319.2,M,-23.7,M,0.8,0000*43
$GPGSA,A,3,25,12,05,26,02,29,,,,,,,4.9,1.9,4.5*3A
$GPRMC,112836.000,A,3353.7517,N,09832.0238,W,0.25,240.65,030412,,,D*7B
$GPGGA,112837.000,3353.7517,N,09832.0242,W,2,06,1.9,318.9,M,-23.7,M,0.8,0000*45
$GPGSA,A,3,25,12,05,26,02,29,,,,,,,4.9,1.9,4.5*3A
$GPRMC,112837.000,A,3353.7517,N,09832.0242,W,0.23,253.35,030412,,,D*76
$GPGGA,112838.000,3353.7523,N,09832.0242,W,2,07,1.9,318.5,M,-23.7,M,0.8,0000*40
$GPGSA,A,3,25,12,05,26,02,15,29,,,,,,4.8,1.9,4.4*3E
$GPRMC,112838.000,A,3353.7523,N,09832.0242,W,0.27,223.17,030412,,,D*7D
$GPGGA,112839.000,3353.7527,N,09832.0248,W,2,07,1.9,317.0,M,-23.7,M,1.8,0000*44
$GPGSA,A,3,25,12,05,26,02,15,29,,,,,,4.8,1.9,4.4*3E
$GPGSV,3,1,12,05,58,043,37,29,57,320,26,25,37,238,15,26,30,124,23*70
$GPGSV,3,2,12,02,28,071,28,12,21,194,22,15,17,168,13,21,17,280,*73
$GPGSV,3,3,12,18,09,224,,10,03,044,,30,01,325,,51,49,195,35*78
$GPRMC,112839.000,A,3353.7527,N,09832.0248,W,0.42,245.16,030412,,,D*70
$GPGGA,112840.000,3353.7531,N,09832.0252,W,2,07,1.9,315.7,M,-23.7,M,2.8,0000*40
$GPGSA,A,3,25,12,05,26,02,15,29,,,,,,4.8,1.9,4.4*3E
$GPRMC,112840.000,A,3353.7531,N,09832.0252,W,0.33,223.74,030412,,,D*70
$GPGGA,112841.000,3353.7529,N,09832.0253,W,2,06,1.9,315.3,M,-23.7,M,0.8,0000*4E
$GPGSA,A,3,25,12,05,26,02,29,,,,,,,4.9,1.9,4.5*3A
$GPRMC,112841.000,A,3353.7529,N,09832.0253,W,0.07,312.51,030412,,,D*7A
$GPGGA,112842.000,3353.7523,N,09832.0251,W,2,05,2.0,315.8,M,-23.7,M,0.8,0000*47
$GPGSA,A,3,12,05,26,02,29,,,,,,,,4.9,2.0,4.5*37
$GPRMC,112842.000,A,3353.7523,N,09832.0251,W,0.84,175.74,030412,,,D*7E
$GPGGA,112843.000,3353.7514,N,09832.0249,W,2,07,1.9,316.6,M,-23.7,M,0.8,0000*4E
$GPGSA,A,3,25,12,05,26,02,15,29,,,,,,4.8,1.9,4.4*3E
$GPRMC,112843.000,A,3353.7514,N,09832.0249,W,0.73,196.07,030412,,,D*73
$GPGGA,112844.000,3353.7510,N,09832.0249,W,2,07,1.9,316.9,M,-23.7,M,0.8,0000*42
$GPGSA,A,3,25,12,05,26,02,15,29,,,,,,4.8,1.9,4.4*3E
$GPGSV,3,1,12,05,58,043,37,29,57,320,26,25,37,238,17,26,30,124,23*72
$GPGSV,3,2,12,02,28,071,28,12,21,194,22,15,17,168,12,21,17,280,*72
$GPGSV,3,3,12,18,09,224,,10,03,044,,30,01,325,,51,49,195,35*78
$GPRMC,112844.000,A,3353.7510,N,09832.0249,W,0.52,231.04,030412,,,D*7E
$GPGGA,112845.000,3353.7508,N,09832.0250,W,2,07,1.9,316.8,M,-23.7,M,1.8,0000*42
$GPGSA,A,3,25,12,05,26,02,15,29,,,,,,4.8,1.9,4.4*3E
$GPRMC,112845.000,A,3353.7508,N,09832.0250,W,0.45,214.17,030412,,,D*7D
$GPGGA,112846.000,3353.7510,N,09832.0254,W,2,07,1.9,315.3,M,-23.7,M,2.8,0000*47
$GPGSA,A,3,25,12,05,26,02,15,29,,,,,,4.8,1.9,4.4*3E
$GPRMC,112846.000,A,3353.7510,N,09832.0254,W,0.22,153.21,030412,,,D*77
$GPGGA,112847.000,3353.7514,N,09832.0261,W,2,07,1.9,313.1,M,-23.7,M,3.8,0000*41
$GPGSA,A,3,25,12,05,26,02,15,29,,,,,,4.8,1.9,4.4*3E
$GPRMC,112847.000,A,3353.7514,N,09832.0261,W,0.50,280.66,030412,,,D*7F
$GPGGA,112848.000,3353.7518,N,09832.0265,W,2,07,1.9,311.7,M,-23.7,M,0.8,0000*41
$GPGSA,A,3,25,12,05,26,02,15,29,,,,,,4.8,1.9,4.4*3E
$GPRMC,112848.000,A,3353.7518,N,09832.0265,W,0.70,282.77,030412,,,D*78
$GPGGA,112849.000,3353.7519,N,09832.0266,W,2,07,1.9,311.6,M,-23.7,M,0.8,0000*43
$GPGSA,A,3,25,12,05,26,02,15,29,,,,,,4.8,1.9,4.4*3E
$GPGSV,3,1,12,05,58,043,37,29,57,320,27,25,37,238,18,26,30,124,24*7B
$GPGSV,3,2,12,02,28,071,28,12,21,194,22,15,17,168,16,21,17,280,*76
$GPGSV,3,3,12,18,09,224,,10,03,044,,30,01,325,,51,49,195,35*78
$GPRMC,112849.000,A,3353.7519,N,09832.0266,W,0.61,280.79,030412,,,D*77
$GPGGA,112850.000,3353.7514,N,09832.0263,W,2,07,1.9,312.8,M,-23.7,M,0.8,0000*4E
$GPGSA,A,3,25,12,05,26,02,15,29,,,,,,4.8,1.9,4.4*3E
$GPRMC,112850.000,A,3353.7514,N,09832.0263,W,0.24,274.62,030412,,,D*77
$GPGGA,112851.000,3353.7510,N,09832.0259,W,2,07,1.9,313.8,M,-23.7,M,1.8,0000*42
$GPGSA,A,3,25,12,05,26,02,15,29,,,,,,4.8,1.9,4.4*3E
$GPRMC,112851.000,A,3353.7510,N,09832.0259,W,0.36,110.10,030412,,,D*7C
$GPGGA,112852.000,3353.7511,N,09832.0259,W,2,07,1.9,313.2,M,-23.7,M,0.8,0000*4B
$GPGSA,A,3,25,12,05,26,02,15,29,,,,,,4.8,1.9,4.4*3E
$GPRMC,112852.000,A,3353.7511,N,09832.0259,W,0.29,88.82,030412,,,D*4B
$GPGGA,112853.000,3353.7509,N,09832.0256,W,2,07,1.9,313.5,M,-23.7,M,1.8,0000*4A
$GPGSA,A,3,25,12,05,26,02,15,29,,,,,,4.8,1.9,4.4*3E
$GPRMC,112853.000,A,3353.7509,N,09832.0256,W,0.30,47.37,030412,,,D*49
$GPGGA,112854.000,3353.7509,N,09832.0256,W,2,07,1.9,313.2,M,-23.7,M,0.8,0000*4B
$GPGSA,A,3,25,12,05,26,02,15,29,,,,,,4.8,1.9,4.4*3E
$GPGSV,3,1,12,05,58,043,36,29,57,320,27,25,37,238,17,26,30,124,23*72
$GPGSV,3,2,12,02,28,071,27,12,21,194,22,15,17,168,23,21,17,280,*7F
$GPGSV,3,3,12,18,09,224,,10,03,044,,30,01,325,,51,49,195,35*78
$GPRMC,112854.000,A,3353.7509,N,09832.0256,W,0.37,30.03,030412,,,D*4E
$GPGGA,112855.000,3353.7509,N,09832.0257,W,2,07,1.9,312.5,M,-23.7,M,0.8,0000*4D
$GPGSA,A,3,25,12,05,26,02,15,29,,,,,,4.8,1.9,4.4*3E
$GPRMC,112855.000,A,3353.7509,N,09832.0257,W,0.43,60.51,030412,,,D*4F
$GPGGA,112856.000,3353.7509,N,09832.0259,W,2,07,1.9,311.8,M,-23.7,M,0.8,0000*4E
$GPGSA,A,3,25,12,05,26,02,15,29,,,,,,4.8,1.9,4.4*3E
$GPRMC,112856.000,A,3353.7509,N,09832.0259,W,0.30,335.92,030412,,,D*7A
$GPGGA,112857.000,3353.7510,N,09832.0264,W,2,07,1.9,310.6,M,-23.7,M,0.8,0000*46
$GPGSA,A,3,25,12,05,26,02,15,29,,,,,,4.8,1.9,4.4*3E
$GPRMC,112857.000,A,3353.7510,N,09832.0264,W,0.43,236.30,030412,,,D*73
$GPGGA,112858.000,3353.7508,N,09832.0266,W,2,07,1.9,310.2,M,-23.7,M,1.8,0000*47
$GPGSA,A,3,25,12,05,26,02,15,29,,,,,,4.8,1.9,4.4*3E
$GPRMC,112858.000,A,3353.7508,N,09832.0266,W,0.61,222.53,030412,,,D*77
$GPGGA,112859.000,3353.7502,N,09832.0264,W,2,07,1.9,311.5,M,-23.7,M,2.8,0000*4B
$GPGSA,A,3,25,12,05,26,02,15,29,,,,,,4.8,1.9,4.4*3E
$GPGSV,3,1,12,05,58,043,37,29,57,320,27,25,37,238,18,26,30,124,23*7C
$GPGSV,3,2,12,02,28,071,27,12,21,194,23,15,17,168,21,21,17,280,*7C
$GPGSV,3,3,12,18,09,224,,10,03,044,,30,01,325,,51,49,195,35*78
$GPRMC,112859.000,A,3353.7502,N,09832.0264,W,0.61,187.90,030412,,,D*7D
$GPGGA,112900.000,3353.7498,N,09832.0264,W,2,07,1.9,311.8,M,-23.7,M,0.8,0000*4B
$GPGSA,A,3,25,12,05,26,02,15,29,,,,,,4.8,1.9,4.4*3E
$GPRMC,112900.000,A,3353.7498,N,09832.0264,W,0.14,133.55,030412,,,D*76
$GPGGA,112901.000,3353.7500,N,09832.0265,W,2,07,1.9,311.4,M,-23.7,M,0.8,0000*47
$GPGSA,A,3,25,12,05,26,02,15,29,,,,,,4.8,1.9,4.4*3E
$GPRMC,112901.000,A,3353.7500,N,09832.0265,W,0.06,119.37,030412,,,D*79
$GPGGA,112902.000,3353.7499,N,09832.0266,W,2,07,1.9,311.0,M,-23.7,M,0.8,0000*42
$GPGSA,A,3,25,12,05,26,02,15,29,,,,,,4.8,1.9,4.4*3E
$GPRMC,112902.000,A,3353.7499,N,09832.0266,W,0.14,19.57,030412,,,D*4C
$GPGGA,112903.000,3353.7498,N,09832.0258,W,2,07,1.9,312.3,M,-23.7,M,1.8,0000*4E
$GPGSA,A,3,25,12,05,26,02,15,29,,,,,,4.8,1.9,4.4*3E
$GPRMC,112903.000,A,3353.7498,N,09832.0258,W,0.15,83.45,030412,,,D*40
$GPGGA,112904.000,3353.7499,N,09832.0255,W,2,07,1.9,312.7,M,-23.7,M,2.8,0000*42
$GPGSA,A,3,25,12,05,26,02,15,29,,,,,,4.8,1.9,4.4*3E
$GPGSV,3,1,12,05,58,043,37,29,57,320,27,25,37,238,23,26,30,124,23*74
$GPGSV,3,2,12,02,28,071,27,12,21,194,22,15,17,168,22,21,17,280,*7E
$GPGSV,3,3,12,18,09,224,,10,03,044,,30,01,325,,51,49,195,35*78
$GPRMC,112904.000,A,3353.7499,N,09832.0255,W,0.24,211.71,030412,,,D*77
$GPGGA,112905.000,3353.7497,N,09832.0249,W,2,07,1.9,314.0,M,-23.7,M,3.8,0000*40
$GPGSA,A,3,25,12,05,26,02,15,29,,,,,,4.8,1.9,4.4*3E
$GPRMC,112905.000,A,3353.7497,N,09832.0249,W,0.44,79.61,030412,,,D*4E
$GPGGA,112906.000,3353.7494,N,09832.0248,W,2,07,1.9,314.6,M,-23.7,M,0.8,0000*44
$GPGSA,A,3,25,12,05,26,02,15,29,,,,,,4.8,1.9,4.4*3E
$GPRMC,112906.000,A,3353.7494,N,09832.0248,W,0.28,137.50,030412,,,D*7C
$GPGGA,112907.000,3353.7490,N,09832.0246,W,2,07,1.9,316.2,M,-23.7,M,0.8,0000*49
$GPGSA,A,3,25,12,05,26,02,15,29,,,,,,4.8,1.9,4.4*3E
$GPRMC,112907.000,A,3353.7490,N,09832.0246,W,0.48,329.03,030412,,,D*7A
$GPGGA,112908.000,3353.7491,N,09832.0248,W,2,07,1.9,316.2,M,-23.7,M,0.8,0000*49
$GPGSA,A,3,25,12,05,26,02,15,29,,,,,,4.8,1.9,4.4*3E
$GPRMC,112908.000,A,3353.7491,N,09832.0248,W,0.22,2.53,030412,,,D*79
$GPGGA,112909.000,3353.7492,N,09832.0250,W,2,07,1.9,316.2,M,-23.7,M,1.8,0000*43
$GPGSA,A,3,25,12,05,26,02,15,29,,,,,,4.8,1.9,4.4*3E
$GPGSV,3,1,12,05,58,043,37,29,57,320,28,25,37,238,21,26,30,124,23*79
$GPGSV,3,2,12,02,28,071,27,12,21,194,22,15,17,168,21,21,17,280,*7D
$GPGSV,3,3,12,18,09,224,,10,03,044,,30,01,325,,51,49,195,35*78
$GPRMC,112909.000,A,3353.7492,N,09832.0250,W,0.27,95.89,030412,,,D*4E
$GPGGA,112910.000,3353.7491,N,09832.0245,W,2,07,1.9,317.6,M,-23.7,M,2.8,0000*4A
$GPGSA,A,3,25,12,05,26,02,15,29,,,,,,4.8,1.9,4.4*3E
$GPRMC,112910.000,A,3353.7491,N,09832.0245,W,0.25,150.80,030412,,,D*72
$GPGGA,112911.000,3353.7489,N,09832.0240,W,2,07,1.9,319.5,M,-23.7,M,3.8,0000*4B
$GPGSA,A,3,25,12,05,26,02,15,29,,,,,,4.8,1.9,4.4*3E
$GPRMC,112911.000,A,3353.7489,N,09832.0240,W,0.20,345.58,030412,,,D*79
$GPGGA,112912.000,3353.7486,N,09832.0235,W,2,07,1.9,321.3,M,-23.7,M,0.8,0000*4B
$GPGSA,A,3,25,12,05,26,02,15,29,,,,,,4.8,1.9,4.4*3E
$GPRMC,112912.000,A,3353.7486,N,09832.0235,W,0.09,119.51,030412,,,D*7E
$GPGGA,112913.000,3353.7491,N,09832.0239,W,2,07,1.9,320.8,M,-23.7,M,0.8,0000*4A
$GPGSA,A,3,25,12,05,26,02,15,29,,,,,,4.8,1.9,4.4*3E
$GPRMC,112913.000,A,3353.7491,N,09832.0239,W,0.39,317.45,030412,,,D*7F
$GPGGA,112914.000,3353.7493,N,09832.0243,W,2,07,1.9,319.9,M,-23.7,M,0.8,0000*49
$GPGSA,A,3,25,12,05,26,02,15,29,,,,,,4.8,1.9,4.4*3E
$GPGSV,3,1,12,05,58,043,37,29,57,320,28,25,37,238,21,26,30,124,24*7E
$GPGSV,3,2,12,02,28,071,27,12,21,194,21,15,17,168,21,21,17,280,*7E
$GPGSV,3,3,12,18,09,224,,10,03,044,,30,01,325,,51,49,195,35*78
$GPRMC,112914.000,A,3353.7493,N,09832.0243,W,0.33,312.83,030412,,,D*72
$GPGGA,112915.000,3353.7488,N,09832.0243,W,2,07,1.9,321.6,M,-23.7,M,1.8,0000*47
$GPGSA,A,3,25,12,05,26,02,15,29,,,,,,4.8,1.9,4.4*3E
$GPRMC,112915.000,A,3353.7488,N,09832.0243,W,0.39,266.75,030412,,,D*78
$GPGGA,112916.000,3353.7492,N,09832.0248,W,2,07,1.9,320.1,M,-23.7,M,2.8,0000*41
$GPGSA,A,3,25,12,05,26,02,15,29,,,,,,4.8,1.9,4.4*3E
$GPRMC,112916.000,A,3353.7492,N,09832.0248,W,0.40,242.74,030412,,,D*72
$GPGGA,112917.000,3353.7493,N,09832.0249,W,2,07,1.9,319.5,M,-23.7,M,0.8,0000*4C
$GPGSA,A,3,25,12,05,26,02,15,29,,,,,,4.8,1.9,4.4*3E
$GPRMC,112917.000,A,3353.7493,N,09832.0249,W,0.33,170.58,030412,,,D*7B
$GPGGA,112918.000,3353.7489,N,09832.0248,W,2,07,1.9,320.1,M,-23.7,M,0.8,0000*47
$GPGSA,A,3,25,12,05,26,02,15,29,,,,,,4.8,1.9,4.4*3E
$GPRMC,112918.000,A,3353.7489,N,09832.0248,W,0.56,148.13,030412,,,D*79
$GPGGA,112919.000,3353.7485,N,09832.0246,W,2,07,1.9,321.2,M,-23.7,M,0.8,0000*46
$GPGSA,A,3,25,12,05,26,02,15,29,,,,,,4.8,1.9,4.4*3E
$GPGSV,3,1,12,05,58,043,37,29,57,320,29,25,37,238,17,26,30,124,24*7A
$GPGSV,3,2,12,02,28,071,26,12,21,194,20,15,17,168,21,21,17,280,*7E
$GPGSV,3,3,12,18,09,224,,10,03,044,,30,01,325,,51,49,195,35*78
$GPRMC,112919.000,A,3353.7485,N,09832.0246,W,0.48,149.07,030412,,,D*71
$GPGGA,112920.000,3353.7480,N,09832.0245,W,2,07,1.9,321.9,M,-23.7,M,0.8,0000*41
$GPGSA,A,3,25,12,05,26,02,15,29,,,,,,4.8,1.9,4.4*3E
$GPRMC,112920.000,A,3353.7480,N,09832.0245,W,0.63,170.71,030412,,,D*7F
$GPGGA,112921.000,3353.7478,N,09832.0246,W,2,07,1.9,322.2,M,-23.7,M,1.8,0000*4D
$GPGSA,A,3,25,12,05,26,02,15,29,,,,,,4.8,1.9,4.4*3E
$GPRMC,112921.000,A,3353.7478,N,09832.0246,W,0.02,319.15,030412,,,D*72
$GPGGA,112922.000,3353.7480,N,09832.0250,W,2,07,1.9,321.8,M,-23.7,M,2.8,0000*44
$GPGSA,A,3,25,12,05,26,02,15,29,,,,,,4.8,1.9,4.4*3E
$GPRMC,112922.000,A,3353.7480,N,09832.0250,W,0.28,315.19,030412,,,D*79
$GPGGA,112923.000,3353.7486,N,09832.0257,W,2,07,1.9,319.7,M,-23.7,M,3.8,0000*41
$GPGSA,A,3,25,12,05,26,02,15,29,,,,,,4.8,1.9,4.4*3E
$GPRMC,112923.000,A,3353.7486,N,09832.0257,W,0.63,293.80,030412,,,D*79
$GPGGA,112924.000,3353.7489,N,09832.0261,W,2,07,1.9,318.8,M,-23.7,M,0.8,0000*41
$GPGSA,A,3,25,12,05,26,02,15,29,,,,,,4.8,1.9,4.4*3E
$GPGSV,3,1,12,05,58,043,37,29,57,320,29,25,37,238,19,26,30,124,24*74
$GPGSV,3,2,12,02,28,071,27,12,21,194,20,15,17,168,22,21,17,280,*7C
$GPGSV,3,3,12,18,09,224,,10,03,044,,30,01,325,,51,49,195,34*79
$GPRMC,112924.000,A,3353.7489,N,09832.0261,W,0.06,297.30,030412,,,D*78
$GPGGA,112925.000,3353.7489,N,09832.0262,W,2,07,1.9,318.7,M,-23.7,M,0.8,0000*4C
$GPGSA,A,3,25,12,05,26,02,15,29,,,,,,4.8,1.9,4.4*3E
$GPRMC,112925.000,A,3353.7489,N,09832.0262,W,0.14,4.97,030412,,,D*7C
$GPGGA,112926.000,3353.7492,N,09832.0264,W,2,07,1.9,317.9,M,-23.7,M,0.8,0000*42
$GPGSA,A,3,25,12,05,26,02,15,29,,,,,,4.8,1.9,4.4*3E
$GPRMC,112926.000,A,3353.7492,N,09832.0264,W,0.12,8.46,030412,,,D*75
$GPGGA,112927.000,3353.7492,N,09832.0264,W,2,07,1.9,318.0,M,-23.7,M,1.8,0000*44
$GPGSA,A,3,25,12,05,26,02,15,29,,,,,,4.8,1.9,4.4*3E
$GPRMC,112927.000,A,3353.7492,N,09832.0264,W,0.09,347.10,030412,,,D*75
$GPGGA,112928.000,3353.7492,N,09832.0263,W,2,07,1.9,318.8,M,-23.7,M,2.8,0000*47
$GPGSA,A,3,25,12,05,26,02,15,29,,,,,,4.8,1.9,4.4*3E
$GPRMC,112928.000,A,3353.7492,N,09832.0263,W,0.34,222.44,030412,,,D*70
$GPGGA,112929.000,3353.7489,N,09832.0261,W,2,07,1.9,319.7,M,-23.7,M,0.8,0000*42
$GPGSA,A,3,25,12,05,26,02,15,29,,,,,,4.8,1.9,4.4*3E
$GPGSV,3,1,12,05,58,043,37,29,57,320,29,25,37,238,21,26,30,124,24*7F
$GPGSV,3,2,12,02,28,071,26,12,21,194,20,15,17,168,22,21,17,280,*7D
$GPGSV,3,3,12,18,09,224,,10,03,044,,30,01,325,,51,49,195,35*78
$GPRMC,112929.000,A,3353.7489,N,09832.0261,W,0.30,41.82,030412,,,D*40
$GPGGA,112930.000,3353.7487,N,09832.0260,W,2,07,1.9,319.9,M,-23.7,M,0.8,0000*4B
$GPGSA,A,3,25,12,05,26,02,15,29,,,,,,4.8,1.9,4.4*3E
$GPRMC,112930.000,A,3353.7487,N,09832.0260,W,0.54,51.10,030412,,,D*4F
$GPGGA,112931.000,3353.7486,N,09832.0258,W,2,07,1.9,320.5,M,-23.7,M,0.8,0000*46
$GPGSA,A,3,25,12,05,26,02,15,29,,,,,,4.8,1.9,4.4*3E
$GPRMC,112931.000,A,3353.7486,N,09832.0258,W,0.29,87.36,030412,,,D*41
$GPGGA,112932.000,3353.7486,N,09832.0255,W,2,07,1.9,321.7,M,-23.7,M,0.8,0000*4B
$GPGSA,A,3,25,12,05,26,02,15,29,,,,,,4.8,1.9,4.4*3E
$GPRMC,112932.000,A,3353.7486,N,09832.0255,W,0.15,90.82,030412,,,D*49
$GPGGA,112933.000,3353.7485,N,09832.0254,W,2,07,1.9,322.8,M,-23.7,M,0.8,0000*44
$GPGSA,A,3,25,12,05,26,02,15,29,,,,,,4.8,1.9,4.4*3E
$GPRMC,112933.000,A,3353.7485,N,09832.0254,W,0.15,269.93,030412,,,D*7E
$GPGGA,112934.000,3353.7483,N,09832.0253,W,2,07,1.9,323.9,M,-23.7,M,1.8,0000*43
$GPGSA,A,3,25,12,05,26,02,15,29,,,,,,4.8,1.9,4.4*3E
$GPGSV,3,1,12,05,58,043,37,29,57,320,29,25,37,238,21,26,30,124,24*7F
$GPGSV,3,2,12,02,28,071,26,12,21,194,20,15,17,168,21,21,17,280,*7E
$GPGSV,3,3,12,18,09,224,,10,03,044,,30,01,325,,51,49,195,35*78
$GPRMC,112934.000,A,3353.7483,N,09832.0253,W,0.20,149.69,030412,,,D*7A
$GPGGA,112935.000,3353.7480,N,09832.0253,W,2,07,1.9,324.7,M,-23.7,M,2.8,0000*4B
$GPGSA,A,3,25,12,05,26,02,15,29,,,,,,4.8,1.9,4.4*3E
$GPRMC,112935.000,A,3353.7480,N,09832.0253,W,0.22,219.53,030412,,,D*75
$GPGGA,112936.000,3353.7477,N,09832.0252,W,2,06,2.0,325.9,M,-23.7,M,0.8,0000*47
$GPGSA,A,3,12,05,26,02,15,29,,,,,,,4.9,2.0,4.4*32
$GPRMC,112936.000,A,3353.7477,N,09832.0252,W,0.45,186.92,030412,,,D*76
$GPGGA,112937.000,3353.7473,N,09832.0253,W,2,07,1.9,326.3,M,-23.7,M,0.8,0000*41
$GPGSA,A,3,25,12,05,26,02,15,29,,,,,,4.8,1.9,4.4*3E
$GPRMC,112937.000,A,3353.7473,N,09832.0253,W,0.37,144.43,030412,,,D*75
$GPGGA,112938.000,3353.7470,N,09832.0252,W,2,07,1.9,327.1,M,-23.7,M,0.8,0000*4F
$GPGSA,A,3,25,12,05,26,02,15,29,,,,,,4.8,1.9,4.4*3E
$GPRMC,112938.000,A,3353.7470,N,09832.0252,W,0.38,140.37,030412,,,D*70
$GPGGA,112939.000,3353.7466,N,09832.0252,W,2,07,1.9,327.6,M,-23.7,M,0.8,0000*4E
$GPGSA,A,3,25,12,05,26,02,15,29,,,,,,4.8,1.9,4.4*3E
$GPGSV,3,1,12,05,58,043,38,29,57,320,29,25,37,238,15,26,30,124,25*76
$GPGSV,3,2,12,02,28,071,26,12,21,194,21,15,17,168,20,21,17,280,*7E
$GPGSV,3,3,12,18,09,224,,10,03,044,,30,01,325,,51,49,195,35*78
$GPRMC,112939.000,A,3353.7466,N,09832.0252,W,0.56,170.02,030412,,,D*7B
$GPGGA,112940.000,3353.7462,N,09832.0250,W,2,07,1.9,328.8,M,-23.7,M,1.8,0000*46
$GPGSA,A,3,25,12,05,26,02,15,29,,,,,,4.8,1.9,4.4*3E
$GPRMC,112940.000,A,3353.7462,N,09832.0250,W,0.66,137.64,030412,,,D*73
$GPGGA,112941.000,3353.7455,N,09832.0247,W,2,07,1.9,330.3,M,-23.7,M,2.8,0000*44
$GPGSA,A,3,25,12,05,26,02,15,29,,,,,,4.8,1.9,4.4*3E
$GPRMC,112941.000,A,3353.7455,N,09832.0247,W,0.70,163.92,030412,,,D*7F
$GPGGA,112942.000,3353.7450,N,09832.0247,W,2,07,1.9,331.2,M,-23.7,M,0.8,0000*40
$GPGSA,A,3,25,12,05,26,02,15,29,,,,,,4.8,1.9,4.4*3E
$GPRMC,112942.000,A,3353.7450,N,09832.0247,W,0.59,179.75,030412,,,D*70
$GPGGA,112943.000,3353.7445,N,09832.0248,W,2,07,1.9,331.6,M,-23.7,M,0.8,0000*4E
$GPGSA,A,3,25,12,05,26,02,15,29,,,,,,4.8,1.9,4.4*3E
$GPRMC,112943.000,A,3353.7445,N,09832.0248,W,0.45,163.12,030412,,,D*7D
$GPGGA,112944.000,3353.7443,N,09832.0247,W,2,07,1.9,332.4,M,-23.7,M,0.8,0000*41
$GPGSA,A,3,25,12,05,26,02,15,29,,,,,,4.8,1.9,4.4*3E
$GPGSV,3,1,12,05,58,043,38,29,57,320,29,25,37,238,19,26,30,124,25*7A
$GPGSV,3,2,12,02,28,071,26,12,21,194,22,15,17,168,20,21,17,280,*7D
$GPGSV,3,3,12,18,09,224,,10,03,044,,30,01,325,,51,49,195,35*78
$GPRMC,112944.000,A,3353.7443,N,09832.0247,W,0.27,177.29,030412,,,D*7A
$GPGGA,112945.000,3353.7440,N,09832.0248,W,2,07,1.9,332.8,M,-23.7,M,1.8,0000*41
$GPGSA,A,3,25,12,05,26,02,15,29,,,,,,4.8,1.9,4.4*3E
$GPRMC,112945.000,A,3353.7440,N,09832.0248,W,0.05,203.02,030412,,,D*7E
$GPGGA,112946.000,3353.7438,N,09832.0248,W,2,07,1.9,333.4,M,-23.7,M,0.8,0000*41
$GPGSA,A,3,25,12,05,26,02,15,29,,,,,,4.8,1.9,4.4*3E
$GPRMC,112946.000,A,3353.7438,N,09832.0248,W,0.40,60.57,030412,,,D*44
$GPGGA,112947.000,3353.7436,N,09832.0249,W,2,07,1.9,333.6,M,-23.7,M,1.8,0000*4C
$GPGSA,A,3,25,12,05,26,02,15,29,,,,,,4.8,1.9,4.4*3E
$GPRMC,112947.000,A,3353.7436,N,09832.0249,W,0.15,191.44,030412,,,D*77
$GPGGA,112948.000,3353.7433,N,09832.0250,W,2,06,2.0,333.9,M,-23.7,M,0.8,0000*4B
$GPGSA,A,3,12,05,26,02,15,29,,,,,,,4.9,2.0,4.4*32
$GPRMC,112948.000,A,3353.7433,N,09832.0250,W,0.42,179.89,030412,,,D*70
$GPGGA,112949.000,3353.7429,N,09832.0251,W,2,06,2.0,334.2,M,-23.7,M,0.8,0000*4C
$GPGSA,A,3,12,05,26,02,15,29,,,,,,,4.9,2.0,4.4*32
$GPGSV,3,1,12,05,58,043,38,29,57,320,30,25,37,238,08,26,30,124,26*71
$GPGSV,3,2,12,02,28,071,27,12,21,194,22,15,17,168,15,21,17,280,*7A
$GPGSV,3,3,12,18,09,224,,10,03,044,,30,01,325,,51,49,195,35*78
$GPRMC,112949.000,A,3353.7429,N,09832.0251,W,0.59,174.31,030412,,,D*7F
$GPGGA,112950.000,3353.7426,N,09832.0251,W,2,06,2.0,334.1,M,-23.7,M,0.8,0000*48
$GPGSA,A,3,12,05,26,02,15,29,,,,,,,4.9,2.0,4.4*32
$GPRMC,112950.000,A,3353.7426,N,09832.0251,W,0.64,191.13,030412,,,D*7D
$GPGGA,112951.000,3353.7424,N,09832.0250,W,2,06,2.0,334.2,M,-23.7,M,1.8,0000*48
$GPGSA,A,3,12,05,26,02,15,29,,,,,,,4.9,2.0,4.4*32
$GPRMC,112951.000,A,3353.7424,N,09832.0250,W,0.95,184.34,030412,,,D*70
$GPGGA,112952.000,3353.7420,N,09832.0250,W,2,06,2.0,334.0,M,-23.7,M,2.8,0000*4E
$GPGSA,A,3,12,05,26,02,15,29,,,,,,,4.9,2.0,4.4*32
$GPRMC,112952.000,A,3353.7420,N,09832.0250,W,1.18,187.23,030412,,,D*76
$GPGGA,112953.000,3353.7417,N,09832.0250,W,2,06,2.0,333.7,M,-23.7,M,3.8,0000*4A
$GPGSA,A,3,12,05,26,02,15,29,,,,,,,4.9,2.0,4.4*32
$GPRMC,112953.000,A,3353.7417,N,09832.0250,W,0.95,176.27,030412,,,D*7D
$GPGGA,112954.000,3353.7415,N,09832.0250,W,2,06,2.0,333.4,M,-23.7,M,0.8,0000*4F
$GPGSA,A,3,12,05,26,02,15,29,,,,,,,4.9,2.0,4.4*32
$GPGSV,3,1,12,05,58,043,38,29,57,320,30,25,37,238,,26,30,124,27*78
$GPGSV,3,2,12,02,28,071,27,12,21,194,22,15,17,168,16,21,17,280,*79
$GPGSV,3,3,12,18,09,224,,10,03,044,,30,01,325,,51,49,195,34*79
$GPRMC,112954.000,A,3353.7415,N,09832.0250,W,0.63,164.11,030412,,,D*77
$GPGGA,112955.000,3353.7414,N,09832.0249,W,2,06,2.0,333.2,M,-23.7,M,0.8,0000*41
$GPGSA,A,3,12,05,26,02,15,29,,,,,,,4.9,2.0,4.4*32
$GPRMC,112955.000,A,3353.7414,N,09832.0249,W,0.39,156.21,030412,,,D*72
$GPGGA,112956.000,3353.7415,N,09832.0246,W,2,06,2.0,333.8,M,-23.7,M,0.8,0000*46
$GPGSA,A,3,12,05,26,02,15,29,,,,,,,4.9,2.0,4.4*32
$GPRMC,112956.000,A,3353.7415,N,09832.0246,W,0.29,54.69,030412,,,D*41
$GPGGA,112957.000,3353.7416,N,09832.0244,W,2,06,2.0,334.1,M,-23.7,M,1.8,0000*49
$GPGSA,A,3,12,05,26,02,15,29,,,,,,,4.9,2.0,4.4*32
$GPRMC,112957.000,A,3353.7416,N,09832.0244,W,0.42,29.86,030412,,,D*47
$GPGGA,112958.000,3353.7416,N,09832.0244,W,2,07,1.9,334.1,M,-23.7,M,2.8,0000*4E
$GPGSA,A,3,25,12,05,26,02,15,29,,,,,,4.8,1.9,4.4*3E
$GPRMC,112958.000,A,3353.7416,N,09832.0244,W,0.27,347.87,030412,,,D*71
$GPGGA,112959.000,3353.7416,N,09832.0247,W,2,07,1.9,333.8,M,-23.7,M,3.8,0000*43
$GPGSA,A,3,25,12,05,26,02,15,29,,,,,,4.8,1.9,4.4*3E
$GPGSV,3,1,12,05,58,043,38,29,57,320,31,25,37,238,15,26,30,124,27*7D
$GPGSV,3,2,12,02,28,071,27,12,21,194,22,15,17,168,15,21,17,280,*7A
$GPGSV,3,3,12,18,09,224,,10,03,044,,30,01,325,,51,49,195,35*78
$GPRMC,112959.000,A,3353.7416,N,09832.0247,W,0.24,254.28,030412,,,D*76
$GPGGA,113000.000,3353.7415,N,09832.0249,W,2,06,2.0,333.6,M,-23.7,M,0.8,0000*4C
$GPGSA,A,3,12,05,26,02,15,29,,,,,,,4.9,2.0,4.4*32
$GPRMC,113000.000,A,3353.7415,N,09832.0249,W,0.32,234.90,030412,,,D*7D
$GPGGA,113001.000,3353.7413,N,09832.0251,W,2,06,2.0,333.4,M,-23.7,M,0.8,0000*40
$GPGSA,A,3,12,05,26,02,15,29,,,,,,,4.9,2.0,4.4*32
$GPRMC,113001.000,A,3353.7413,N,09832.0251,W,0.59,215.28,030412,,,D*7E
$GPGGA,113002.000,3353.7411,N,09832.0253,W,2,07,1.9,332.8,M,-23.7,M,0.8,0000*45
$GPGSA,A,3,25,12,05,26,02,15,29,,,,,,4.8,1.9,4.4*3E
$GPRMC,113002.000,A,3353.7411,N,09832.0253,W,1.00,210.01,030412,,,D*7E
$GPGGA,113003.000,3353.7409,N,09832.0256,W,2,07,1.9,332.3,M,-23.7,M,0.8,0000*43
$GPGSA,A,3,25,12,05,26,02,15,29,,,,,,4.8,1.9,4.4*3E
$GPRMC,113003.000,A,3353.7409,N,09832.0256,W,0.22,210.59,030412,,,D*7F
$GPGGA,113004.000,3353.7409,N,09832.0257,W,2,06,2.0,331.8,M,-23.7,M,0.8,0000*46
$GPGSA,A,3,12,05,26,02,15,29,,,,,,,4.8,2.0,4.4*33
$GPGSV,3,1,12,05,58,043,38,29,57,320,31,25,37,238,15,26,30,124,27*7D
$GPGSV,3,2,12,02,28,071,27,12,21,194,18,15,17,168,15,21,17,280,*73
$GPGSV,3,3,12,18,09,224,,10,03,044,,30,01,325,,51,49,195,34*79
$GPRMC,113004.000,A,3353.7409,N,09832.0257,W,0.15,357.21,030412,,,D*70
$GPGGA,113005.000,3353.7410,N,09832.0257,W,2,05,2.2,331.5,M,-23.7,M,1.8,0000*42
$GPGSA,A,3,05,26,02,15,29,,,,,,,,5.2,2.2,4.7*3A
$GPRMC,113005.000,A,3353.7410,N,09832.0257,W,0.26,232.67,030412,,,D*79
$GPGGA,113006.000,3353.7409,N,09832.0258,W,2,05,2.2,330.9,M,-23.7,M,0.8,0000*4A
$GPGSA,A,3,05,26,02,15,29,,,,,,,,5.2,2.2,4.7*3A
$GPRMC,113006.000,A,3353.7409,N,09832.0258,W,0.39,244.12,030412,,,D*70
$GPGGA,113007.000,3353.7410,N,09832.0259,W,2,06,2.0,330.8,M,-23.7,M,0.8,0000*42
$GPGSA,A,3,12,05,26,02,15,29,,,,,,,4.8,2.0,4.4*33
$GPRMC,113007.000,A,3353.7410,N,09832.0259,W,0.41,303.80,030412,,,D*7E
$GPGGA,113008.000,3353.7410,N,09832.0259,W,2,06,2.0,330.6,M,-23.7,M,0.8,0000*43
$GPGSA,A,3,12,05,26,02,15,29,,,,,,,4.8,2.0,4.4*33
$GPRMC,113008.000,A,3353.7410,N,09832.0259,W,0.50,7.96,030412,,,D*71
$GPGGA,113009.000,3353.7410,N,09832.0259,W,2,06,2.0,330.5,M,-23.7,M,1.8,0000*40
$GPGSA,A,3,12,05,26,02,15,29,,,,,,,4.8,2.0,4.4*33
$GPGSV,3,1,12,05,58,043,38,29,57,320,31,25,37,238,17,26,30,124,27*7F
$GPGSV,3,2,12,02,28,071,26,12,21,194,14,15,17,168,15,21,17,280,*7E
$GPGSV,3,3,12,18,09,224,,10,03,044,,30,01,325,,51,49,195,35*78
$GPRMC,113009.000,A,3353.7410,N,09832.0259,W,0.47,41.20,030412,,,D*49
$GPGGA,113010.000,3353.7410,N,09832.0258,W,2,06,2.0,330.5,M,-23.7,M,2.8,0000*4A
$GPGSA,A,3,12,05,26,02,15,29,,,,,,,4.8,2.0,4.4*33
$GPRMC,113010.000,A,3353.7410,N,09832.0258,W,0.39,34.40,030412,,,D*4D
$GPGGA,113011.000,3353.7411,N,09832.0258,W,2,06,2.0,330.3,M,-23.7,M,0.8,0000*4E
$GPGSA,A,3,12,05,26,02,15,29,,,,,,,4.8,2.0,4.4*33
$GPRMC,113011.000,A,3353.7411,N,09832.0258,W,0.57,29.65,030412,,,D*4E
$GPGGA,113012.000,3353.7413,N,09832.0258,W,2,06,2.0,329.2,M,-23.7,M,0.8,0000*46
$GPGSA,A,3,12,05,26,02,15,29,,,,,,,4.8,2.0,4.4*33
$GPRMC,113012.000,A,3353.7413,N,09832.0258,W,0.46,44.63,030412,,,D*42
$GPGGA,113013.000,3353.7410,N,09832.0257,W,2,06,2.0,331.0,M,-23.7,M,0.8,0000*40
$GPGSA,A,3,12,05,26,02,15,29,,,,,,,4.8,2.0,4.4*33
$GPRMC,113013.000,A,3353.7410,N,09832.0257,W,0.12,134.89,030412,,,D*7C
$GPGGA,113014.000,3353.7408,N,09832.0256,W,2,06,2.0,332.3,M,-23.7,M,0.8,0000*4F
$GPGSA,A,3,12,05,26,02,15,29,,,,,,,4.8,2.0,4.4*33
$GPGSV,3,1,12,05,58,043,38,29,57,320,31,25,37,238,18,26,30,124,27*70
$GPGSV,3,2,12,02,28,071,23,12,21,194,16,15,17,168,16,21,17,280,*7A
$GPGSV,3,3,12,18,09,224,,10,03,044,,30,01,325,,51,49,195,35*78
$GPRMC,113014.000,A,3353.7408,N,09832.0256,W,0.14,168.76,030412,,,D*7C
$GPGGA,113015.000,3353.7408,N,09832.0256,W,2,06,2.0,332.5,M,-23.7,M,1.8,0000*49
$GPGSA,A,3,12,05,26,02,15,29,,,,,,,4.8,2.0,4.4*33
$GPRMC,113015.000,A,3353.7408,N,09832.0256,W,0.35,260.81,030412,,,D*7D
$GPGGA,113016.000,3353.7412,N,09832.0257,W,2,06,2.0,330.6,M,-23.7,M,0.8,0000*40
$GPGSA,A,3,12,05,26,02,15,29,,,,,,,4.8,2.0,4.4*33
$GPRMC,113016.000,A,3353.7412,N,09832.0257,W,0.34,288.85,030412,,,D*77
$GPGGA,113017.000,3353.7409,N,09832.0258,W,2,07,1.9,332.2,M,-23.7,M,0.8,0000*49
$GPGSA,A,3,25,12,05,26,02,15,29,,,,,,4.8,1.9,4.4*3E
$GPRMC,113017.000,A,3353.7409,N,09832.0258,W,0.25,257.27,030412,,,D*79
$GPGGA,113018.000,3353.7409,N,09832.0258,W,2,06,1.9,331.3,M,-23.7,M,0.8,0000*45
$GPGSA,A,3,25,05,26,02,15,29,,,,,,,4.9,1.9,4.6*3E
$GPRMC,113018.000,A,3353.7409,N,09832.0258,W,0.10,1.39,030412,,,D*7E
$GPGGA,113019.000,3353.7407,N,09832.0260,W,2,07,1.9,332.0,M,-23.7,M,0.8,0000*40
$GPGSA,A,3,25,12,05,26,02,15,29,,,,,,4.8,1.9,4.4*3E
$GPGSV,3,1,12,29,58,320,31,05,56,043,38,25,36,236,17,26,31,123,28*78
$GPGSV,3,2,12,02,28,072,24,12,19,194,18,15,19,167,18,21,18,281,*7A
$GPGSV,3,3,12,18,10,225,,30,02,324,,10,02,044,,51,49,195,34*73
$GPRMC,113019.000,A,3353.7407,N,09832.0260,W,0.19,74.11,030412,,,D*4B
$GPGGA,113020.000,3353.7408,N,09832.0259,W,2,07,1.9,331.6,M,-23.7,M,0.8,0000*4A
$GPGSA,A,3,25,12,05,26,02,15,29,,,,,,4.8,1.9,4.4*3E
$GPRMC,113020.000,A,3353.7408,N,09832.0259,W,0.45,79.95,030412,,,D*4C
$GPGGA,113021.000,3353.7405,N,09832.0260,W,2,07,1.9,332.1,M,-23.7,M,1.8,0000*49
$GPGSA,A,3,25,12,05,26,02,15,29,,,,,,4.8,1.9,4.4*3E
$GPRMC,113021.000,A,3353.7405,N,09832.0260,W,0.21,87.71,030412,,,D*43
$GPGGA,113022.000,3353.7405,N,09832.0260,W,2,07,1.9,332.1,M,-23.7,M,2.8,0000*49
$GPGSA,A,3,25,12,05,26,02,15,29,,,,,,4.8,1.9,4.4*3E
$GPRMC,113022.000,A,3353.7405,N,09832.0260,W,0.19,320.73,030412,,,D*77
$GPGGA,113023.000,3353.7408,N,09832.0261,W,2,07,1.9,330.9,M,-23.7,M,3.8,0000*4F
$GPGSA,A,3,25,12,05,26,02,15,29,,,,,,4.8,1.9,4.4*3E
$GPRMC,113023.000,A,3353.7408,N,09832.0261,W,0.28,308.72,030412,,,D*73
$GPGGA,113024.000,3353.7407,N,09832.0261,W,2,07,1.9,331.3,M,-23.7,M,0.8,0000*4F
$GPGSA,A,3,25,12,05,26,02,15,29,,,,,,4.8,1.9,4.4*3E
$GPGSV,3,1,12,29,58,320,31,05,56,043,38,25,36,236,18,26,31,123,27*78
$GPGSV,3,2,12,02,28,072,23,12,19,194,19,15,19,167,25,21,18,281,*72
$GPGSV,3,3,12,18,10,225,,30,02,324,,10,02,044,,51,49,195,34*73
$GPRMC,113024.000,A,3353.7407,N,09832.0261,W,0.29,307.33,030412,,,D*70
$GPGGA,113025.000,3353.7412,N,09832.0261,W,2,07,1.9,329.2,M,-23.7,M,0.8,0000*42
$GPGSA,A,3,25,12,05,26,02,15,29,,,,,,4.8,1.9,4.4*3E
$GPRMC,113025.000,A,3353.7412,N,09832.0261,W,0.29,6.45,030412,,,D*76
$GPGGA,113026.000,3353.7420,N,09832.0260,W,2,07,1.9,325.1,M,-23.7,M,0.8,0000*4E
$GPGSA,A,3,25,12,05,26,02,15,29,,,,,,4.8,1.9,4.4*3E
$GPRMC,113026.000,A,3353.7420,N,09832.0260,W,0.37,3.64,030412,,,D*7C
$GPGGA,113027.000,3353.7425,N,09832.0260,W,2,07,1.9,322.9,M,-23.7,M,1.8,0000*44
$GPGSA,A,3,25,12,05,26,02,15,29,,,,,,4.8,1.9,4.4*3E
$GPRMC,113027.000,A,3353.7425,N,09832.0260,W,0.37,325.24,030412,,,D*7B
$GPGGA,113028.000,3353.7425,N,09832.0260,W,2,07,1.9,323.1,M,-23.7,M,2.8,0000*41
$GPGSA,A,3,25,12,05,26,02,15,29,,,,,,4.8,1.9,4.4*3E
$GPRMC,113028.000,A,3353.7425,N,09832.0260,W,0.62,324.44,030412,,,D*73
$GPGGA,113029.000,3353.7427,N,09832.0260,W,2,07,1.9,323.0,M,-23.7,M,3.8,0000*42
$GPGSA,A,3,25,12,05,26,02,15,29,,,,,,4.8,1.9,4.4*3E
$GPGSV,3,1,12,29,58,320,31,05,56,043,38,25,36,236,16,26,31,123,27*76
$GPGSV,3,2,12,02,28,072,23,12,19,194,20,15,19,167,25,21,18,281,*78
$GPGSV,3,3,12,18,10,225,,30,02,324,,10,02,044,,51,49,195,34*73
$GPRMC,113029.000,A,3353.7427,N,09832.0260,W,0.64,14.63,030412,,,D*43
$GPGGA,113030.000,3353.7429,N,09832.0254,W,2,07,1.9,323.1,M,-23.7,M,0.8,0000*41
$GPGSA,A,3,25,12,05,26,02,15,29,,,,,,4.8,1.9,4.4*3E
$GPRMC,113030.000,A,3353.7429,N,09832.0254,W,0.60,12.07,030412,,,D*42
$GPGGA,113031.000,3353.7430,N,09832.0254,W,2,07,1.9,323.0,M,-23.7,M,0.8,0000*49
$GPGSA,A,3,25,12,05,26,02,15,29,,,,,,4.8,1.9,4.4*3E
$GPRMC,113031.000,A,3353.7430,N,09832.0254,W,0.35,315.28,030412,,,D*72
$GPGGA,113032.000,3353.7430,N,09832.0254,W,2,07,1.9,323.0,M,-23.7,M,0.8,0000*4A
$GPGSA,A,3,25,12,05,26,02,15,29,,,,,,4.8,1.9,4.4*3E
$GPRMC,113032.000,A,3353.7430,N,09832.0254,W,0.32,347.62,030412,,,D*7F
$GPGGA,113033.000,3353.7433,N,09832.0254,W,2,07,1.9,321.8,M,-23.7,M,0.8,0000*42
$GPGSA,A,3,25,12,05,26,02,15,29,,,,,,4.8,1.9,4.4*3E
$GPRMC,113033.000,A,3353.7433,N,09832.0254,W,0.63,9.60,030412,,,D*72
$GPGGA,113034.000,3353.7431,N,09832.0253,W,2,07,1.9,322.9,M,-23.7,M,1.8,0000*43
$GPGSA,A,3,25,12,05,26,02,15,29,,,,,,4.8,1.9,4.4*3E
$GPGSV,3,1,12,29,58,320,31,05,56,043,38,25,36,236,16,26,31,123,27*76
$GPGSV,3,2,12,02,28,072,23,12,19,194,21,15,19,167,26,21,18,281,*7A
$GPGSV,3,3,12,18,10,225,,30,02,324,,10,02,044,,51,49,195,35*72
$GPRMC,113034.000,A,3353.7431,N,09832.0253,W,0.64,27.20,030412,,,D*4F
$GPGGA,113035.000,3353.7428,N,09832.0252,W,2,07,1.9,324.7,M,-23.7,M,2.8,0000*40
$GPGSA,A,3,25,12,05,26,02,15,29,,,,,,4.8,1.9,4.4*3E
$GPRMC,113035.000,A,3353.7428,N,09832.0252,W,0.65,44.02,030412,,,D*43
$GPGGA,113036.000,3353.7424,N,09832.0252,W,2,07,1.9,327.4,M,-23.7,M,0.8,0000*4D
$GPGSA,A,3,25,12,05,26,02,15,29,,,,,,4.8,1.9,4.4*3E
$GPRMC,113036.000,A,3353.7424,N,09832.0252,W,0.13,298.16,030412,,,D*7B
$GPGGA,113037.000,3353.7419,N,09832.0251,W,2,07,1.9,330.1,M,-23.7,M,0.8,0000*42
$GPGSA,A,3,25,12,05,26,02,15,29,,,,,,4.8,1.9,4.4*3E
$GPRMC,113037.000,A,3353.7419,N,09832.0251,W,0.35,78.65,030412,,,D*4B
$GPGGA,113038.000,3353.7416,N,09832.0249,W,2,07,1.9,331.6,M,-23.7,M,0.8,0000*4D
$GPGSA,A,3,25,12,05,26,02,15,29,,,,,,4.8,1.9,4.4*3E
$GPRMC,113038.000,A,3353.7416,N,09832.0249,W,0.25,87.05,030412,,,D*45
$GPGGA,113039.000,3353.7414,N,09832.0248,W,2,07,1.9,332.6,M,-23.7,M,1.8,0000*4D
$GPGSA,A,3,25,12,05,26,02,15,29,,,,,,4.8,1.9,4.4*3E
$GPGSV,3,1,12,29,58,320,32,05,56,043,38,25,36,236,16,26,31,123,27*75
$GPGSV,3,2,12,02,28,072,24,12,19,194,22,15,19,167,28,21,18,281,*70
$GPGSV,3,3,12,18,10,225,,30,02,324,,10,02,044,,51,49,195,36*71
$GPRMC,113039.000,A,3353.7414,N,09832.0248,W,0.24,151.49,030412,,,D*74
$GPGGA,113040.000,3353.7413,N,09832.0247,W,2,07,1.9,333.3,M,-23.7,M,2.8,0000*4C
$GPGSA,A,3,25,12,05,26,02,15,29,,,,,,4.8,1.9,4.4*3E
$GPRMC,113040.000,A,3353.7413,N,09832.0247,W,0.39,90.05,030412,,,D*4A
$GPGGA,113041.000,3353.7412,N,09832.0246,W,2,07,1.9,334.0,M,-23.7,M,3.8,0000*48
$GPGSA,A,3,25,12,05,26,02,15,29,,,,,,4.8,1.9,4.4*3E
$GPRMC,113041.000,A,3353.7412,N,09832.0246,W,0.27,116.73,030412,,,D*7A
$GPGGA,113042.000,3353.7412,N,09832.0245,W,2,07,1.9,334.5,M,-23.7,M,0.8,0000*4E
$GPGSA,A,3,25,12,05,26,02,15,29,,,,,,4.8,1.9,4.4*3E
$GPRMC,113042.000,A,3353.7412,N,09832.0245,W,0.29,144.96,030412,,,D*78
$GPGGA,113043.000,3353.7411,N,09832.0245,W,2,07,1.9,335.0,M,-23.7,M,0.8,0000*48
$GPGSA,A,3,25,12,05,26,02,15,29,,,,,,4.8,1.9,4.4*3E
$GPRMC,113043.000,A,3353.7411,N,09832.0245,W,0.38,87.90,030412,,,D*42
$GPGGA,113044.000,3353.7410,N,09832.0243,W,2,07,1.9,335.5,M,-23.7,M,0.8,0000*4D
$GPGSA,A,3,25,12,05,26,02,15,29,,,,,,4.8,1.9,4.4*3E
$GPGSV,3,1,12,29,58,320,32,05,56,043,38,25,36,236,15,26,31,123,27*76
$GPGSV,3,2,12,02,28,072,26,12,19,194,22,15,19,167,29,21,18,281,*73
$GPGSV,3,3,12,18,10,225,,30,02,324,,10,02,044,,51,49,195,34*73
$GPRMC,113044.000,A,3353.7410,N,09832.0243,W,0.38,102.29,030412,,,D*7C
$GPGGA,113045.000,3353.7410,N,09832.0243,W,2,07,1.9,335.7,M,-23.7,M,1.8,0000*4F
$GPGSA,A,3,25,12,05,26,02,15,29,,,,,,4.8,1.9,4.4*3E
$GPRMC,113045.000,A,3353.7410,N,09832.0243,W,0.28,113.34,030412,,,D*70
$GPGGA,113046.000,3353.7410,N,09832.0242,W,2,07,1.9,335.8,M,-23.7,M,2.8,0000*41
$GPGSA,A,3,25,12,05,26,02,15,29,,,,,,4.8,1.9,4.4*3E
$GPRMC,113046.000,A,3353.7410,N,09832.0242,W,0.22,141.06,030412,,,D*7E
$GPGGA,113047.000,3353.7410,N,09832.0242,W,2,07,1.9,336.0,M,-23.7,M,3.8,0000*4A
$GPGSA,A,3,25,12,05,26,02,15,29,,,,,,4.8,1.9,4.4*3E
$GPRMC,113047.000,A,3353.7410,N,09832.0242,W,0.23,97.96,030412,,,D*4D
$GPGGA,113048.000,3353.7411,N,09832.0241,W,2,07,1.9,336.2,M,-23.7,M,0.8,0000*46
$GPGSA,A,3,25,12,05,26,02,15,29,,,,,,4.8,1.9,4.4*3E
$GPRMC,113048.000,A,3353.7411,N,09832.0241,W,0.38,71.73,030412,,,D*49
$GPGGA,113049.000,3353.7411,N,09832.0240,W,2,07,1.9,336.3,M,-23.7,M,0.8,0000*47
$GPGSA,A,3,25,12,05,26,02,15,29,,,,,,4.8,1.9,4.4*3E
$GPGSV,3,1,12,29,58,320,32,05,56,043,38,25,36,236,15,26,31,123,27*76
$GPGSV,3,2,12,02,28,072,26,12,19,194,22,15,19,167,29,21,18,281,*73
$GPGSV,3,3,12,18,10,225,,30,02,324,,10,02,044,,51,49,195,35*72
$GPRMC,113049.000,A,3353.7411,N,09832.0240,W,0.44,92.84,030412,,,D*47
$GPGGA,113050.000,3353.7411,N,09832.0239,W,2,07,1.9,336.2,M,-23.7,M,0.8,0000*40
$GPGSA,A,3,25,12,05,26,02,15,29,,,,,,4.8,1.9,4.4*3E
$GPRMC,113050.000,A,3353.7411,N,09832.0239,W,0.45,101.10,030412,,,D*76
$GPGGA,113051.000,3353.7412,N,09832.0238,W,2,07,1.9,336.1,M,-23.7,M,1.8,0000*41
$GPGSA,A,3,25,12,05,26,02,15,29,,,,,,4.8,1.9,4.4*3E
$GPRMC,113051.000,A,3353.7412,N,09832.0238,W,0.16,156.03,030412,,,D*73
$GPGGA,113052.000,3353.7412,N,09832.0239,W,2,07,1.9,336.0,M,-23.7,M,2.8,0000*41
$GPGSA,A,3,25,12,05,26,02,15,29,,,,,,4.8,1.9,4.4*3E
$GPRMC,113052.000,A,3353.7412,N,09832.0239,W,0.16,223.37,030412,,,D*77
$GPGGA,113053.000,3353.7412,N,09832.0239,W,2,07,1.9,335.9,M,-23.7,M,0.8,0000*48
$GPGSA,A,3,25,12,05,26,02,15,29,,,,,,4.8,1.9,4.4*3E
$GPRMC,113053.000,A,3353.7412,N,09832.0239,W,0.14,84.87,030412,,,D*40
$GPGGA,113054.000,3353.7413,N,09832.0239,W,2,07,1.9,335.6,M,-23.7,M,0.8,0000*41
$GPGSA,A,3,25,12,05,26,02,15,29,,,,,,4.8,1.9,4.4*3E
$GPGSV,3,1,12,29,58,320,31,05,56,043,38,25,36,236,19,26,31,123,27*79
$GPGSV,3,2,12,02,28,072,27,12,19,194,23,15,19,167,29,21,18,281,*73
$GPGSV,3,3,12,18,10,225,18,30,02,324,,10,02,044,,51,49,195,35*7B
$GPRMC,113054.000,A,3353.7413,N,09832.0239,W,0.08,197.33,030412,,,D*77
$GPGGA,113055.000,3353.7413,N,09832.0240,W,2,07,1.9,335.3,M,-23.7,M,0.8,0000*4B
$GPGSA,A,3,25,12,05,26,02,15,29,,,,,,4.8,1.9,4.4*3E
$GPRMC,113055.000,A,3353.7413,N,09832.0240,W,0.14,24.26,030412,,,D*48
$GPGGA,113056.000,3353.7414,N,09832.0240,W,2,07,1.9,335.3,M,-23.7,M,0.8,0000*4F
$GPGSA,A,3,25,12,05,26,02,15,29,,,,,,4.8,1.9,4.4*3E
$GPRMC,113056.000,A,3353.7414,N,09832.0240,W,0.25,30.98,030412,,,D*4E
$GPGGA,113057.000,3353.7415,N,09832.0240,W,2,07,1.9,335.3,M,-23.7,M,1.8,0000*4E
$GPGSA,A,3,25,12,05,26,02,15,29,,,,,,4.8,1.9,4.4*3E
$GPRMC,113057.000,A,3353.7415,N,09832.0240,W,0.15,4.47,030412,,,D*78
$GPGGA,113058.000,3353.7415,N,09832.0240,W,2,07,1.9,335.1,M,-23.7,M,2.8,0000*40
$GPGSA,A,3,25,12,05,26,02,15,29,,,,,,4.8,1.9,4.4*3E
$GPRMC,113058.000,A,3353.7415,N,09832.0240,W,0.20,259.92,030412,,,D*73
$GPGGA,113059.000,3353.7416,N,09832.0241,W,2,07,1.9,334.9,M,-23.7,M,0.8,0000*48
$GPGSA,A,3,25,12,05,26,02,15,29,,,,,,4.8,1.9,4.4*3E
$GPGSV,3,1,12,29,58,320,31,05,56,043,38,25,36,236,16,26,31,123,28*79
$GPGSV,3,2,12,02,28,072,27,12,19,194,23,15,19,167,30,21,18,281,*7B
$GPGSV,3,3,12,18,10,225,18,30,02,324,,10,02,044,,51,49,195,34*7A
$GPRMC,113059.000,A,3353.7416,N,09832.0241,W,0.15,10.84,030412,,,D*4E
$GPGGA,113100.000,3353.7417,N,09832.0241,W,2,07,1.9,334.8,M,-23.7,M,0.8,0000*45
$GPGSA,A,3,25,12,05,26,02,15,29,,,,,,4.8,1.9,4.4*3E
$GPRMC,113100.000,A,3353.7417,N,09832.0241,W,0.14,340.86,030412,,,D*77
$GPGGA,113101.000,3353.7417,N,09832.0242,W,2,07,1.9,334.6,M,-23.7,M,0.8,0000*49
$GPGSA,A,3,25,12,05,26,02,15,29,,,,,,4.8,1.9,4.4*3E
$GPRMC,113101.000,A,3353.7417,N,09832.0242,W,0.14,299.54,030412,,,D*7F
$GPGGA,113102.000,3353.7417,N,09832.0242,W,2,07,1.9,334.3,M,-23.7,M,0.8,0000*4F
$GPGSA,A,3,25,12,05,26,02,15,29,,,,,,4.8,1.9,4.4*3E
$GPRMC,113102.000,A,3353.7417,N,09832.0242,W,0.25,250.86,030412,,,D*74
$GPGGA,113103.000,3353.7417,N,09832.0243,W,2,07,1.9,334.0,M,-23.7,M,1.8,0000*4D
$GPGSA,A,3,25,12,05,26,02,15,29,,,,,,4.8,1.9,4.4*3E
$GPRMC,113103.000,A,3353.7417,N,09832.0243,W,0.16,275.81,030412,,,D*74
$GPGGA,113104.000,3353.7418,N,09832.0244,W,2,07,1.9,333.8,M,-23.7,M,0.8,0000*4C
$GPGSA,A,3,25,12,05,26,02,15,29,,,,,,4.8,1.9,4.4*3E
$GPGSV,3,1,12,29,58,320,31,05,56,043,37,25,36,236,15,26,31,123,28*75
$GPGSV,3,2,12,02,28,072,28,12,19,194,24,15,19,167,30,21,18,281,*73
$GPGSV,3,3,12,18,10,225,13,30,02,324,,10,02,044,,51,49,195,34*71
$GPRMC,113104.000,A,3353.7418,N,09832.0244,W,0.21,305.58,030412,,,D*7D
$GPGGA,113105.000,3353.7418,N,09832.0244,W,2,07,1.9,333.5,M,-23.7,M,0.8,0000*40
$GPGSA,A,3,25,12,05,26,02,15,29,,,,,,4.8,1.9,4.4*3E
$GPRMC,113105.000,A,3353.7418,N,09832.0244,W,0.17,322.79,030412,,,D*7F
$GPGGA,113106.000,3353.7419,N,09832.0245,W,2,07,1.9,333.2,M,-23.7,M,0.8,0000*44
$GPGSA,A,3,25,12,05,26,02,15,29,,,,,,4.8,1.9,4.4*3E
$GPRMC,113106.000,A,3353.7419,N,09832.0245,W,0.20,337.88,030412,,,D*72
$GPGGA,113107.000,3353.7419,N,09832.0245,W,2,07,1.9,332.7,M,-23.7,M,0.8,0000*41
$GPGSA,A,3,25,12,05,26,02,15,29,,,,,,4.8,1.9,4.4*3E
$GPRMC,113107.000,A,3353.7419,N,09832.0245,W,0.17,304.85,030412,,,D*7A
$GPGGA,113108.000,3353.7420,N,09832.0245,W,2,07,1.9,332.7,M,-23.7,M,0.8,0000*44
$GPGSA,A,3,25,12,05,26,02,15,29,,,,,,4.8,1.9,4.4*3E
$GPRMC,113108.000,A,3353.7420,N,09832.0245,W,0.26,15.42,030412,,,D*45
$GPGGA,113109.000,3353.7420,N,09832.0245,W,2,07,1.9,332.7,M,-23.7,M,1.8,0000*44
$GPGSA,A,3,25,12,05,26,02,15,29,,,,,,4.8,1.9,4.4*3E
$GPGSV,3,1,12,29,58,320,31,05,56,043,37,25,36,236,14,26,31,123,27*7B
$GPGSV,3,2,12,02,28,072,29,12,19,194,24,15,19,167,30,21,18,281,*72
$GPGSV,3,3,12,18,10,225,12,30,02,324,,10,02,044,,51,49,195,34*70
$GPRMC,113109.000,A,3353.7420,N,09832.0245,W,0.37,38.08,030412,,,D*45
$GPGGA,113110.000,3353.7421,N,09832.0244,W,2,07,1.9,332.5,M,-23.7,M,2.8,0000*4D
$GPGSA,A,3,25,12,05,26,02,15,29,,,,,,4.8,1.9,4.4*3E
$GPRMC,113110.000,A,3353.7421,N,09832.0244,W,0.23,38.83,030412,,,D*4B
$GPGGA,113111.000,3353.7421,N,09832.0244,W,2,07,1.9,332.3,M,-23.7,M,3.8,0000*4B
$GPGSA,A,3,25,12,05,26,02,15,29,,,,,,4.8,1.9,4.4*3E
$GPRMC,113111.000,A,3353.7421,N,09832.0244,W,0.21,34.94,030412,,,D*42
$GPGGA,113112.000,3353.7421,N,09832.0244,W,2,07,1.9,332.2,M,-23.7,M,0.8,0000*4A
$GPGSA,A,3,25,12,05,26,02,15,29,,,,,,4.8,1.9,4.4*3E
$GPRMC,113112.000,A,3353.7421,N,09832.0244,W,0.19,53.74,030412,,,D*45
$GPGGA,113113.000,3353.7421,N,09832.0243,W,2,07,1.9,332.2,M,-23.7,M,0.8,0000*4C
$GPGSA,A,3,25,12,05,26,02,15,29,,,,,,4.8,1.9,4.4*3E
$GPRMC,113113.000,A,3353.7421,N,09832.0243,W,0.26,66.35,030412,,,D*4C
$GPGGA,113114.000,3353.7421,N,09832.0243,W,2,07,1.9,332.0,M,-23.7,M,0.8,0000*49
$GPGSA,A,3,25,12,05,26,02,15,29,,,,,,4.8,1.9,4.4*3E
$GPGSV,3,1,12,29,58,320,31,05,56,043,37,25,36,236,13,26,31,123,27*7C
$GPGSV,3,2,12,02,28,072,29,12,19,194,25,15,19,167,30,21,18,281,*73
$GPGSV,3,3,12,18,10,225,14,30,02,324,,10,02,044,,51,49,195,34*76
$GPRMC,113114.000,A,3353.7421,N,09832.0243,W,0.26,64.45,030412,,,D*4E
$GPGGA,113115.000,3353.7421,N,09832.0242,W,2,06,2.0,331.8,M,-23.7,M,1.8,0000*48
$GPGSA,A,3,12,05,26,02,15,29,,,,,,,4.8,2.0,4.4*33
$GPRMC,113115.000,A,3353.7421,N,09832.0242,W,0.12,45.45,030412,,,D*4A
$GPGGA,113116.000,3353.7421,N,09832.0242,W,2,06,2.0,331.6,M,-23.7,M,2.8,0000*46
$GPGSA,A,3,12,05,26,02,15,29,,,,,,,4.8,2.0,4.4*33
$GPRMC,113116.000,A,3353.7421,N,09832.0242,W,0.10,25.73,030412,,,D*48
$GPGGA,113117.000,3353.7421,N,09832.0242,W,2,06,2.0,331.3,M,-23.7,M,3.8,0000*43
$GPGSA,A,3,12,05,26,02,15,29,,,,,,,4.8,2.0,4.4*33
$GPRMC,113117.000,A,3353.7421,N,09832.0242,W,0.10,25.50,030412,,,D*48
$GPGGA,113118.000,3353.7422,N,09832.0243,W,2,06,2.0,331.0,M,-23.7,M,0.8,0000*4E
$GPGSA,A,3,12,05,26,02,15,29,,,,,,,4.8,2.0,4.4*33
$GPRMC,113118.000,A,3353.7422,N,09832.0243,W,0.15,10.15,030412,,,D*47
$GPGGA,113119.000,3353.7422,N,09832.0243,W,2,06,2.0,330.6,M,-23.7,M,0.8,0000*48
$GPGSA,A,3,12,05,26,02,15,29,,,,,,,4.8,2.0,4.4*33
$GPGSV,3,1,12,29,58,320,31,05,56,043,38,25,36,236,,26,31,123,27*71
$GPGSV,3,2,12,02,28,072,29,12,19,194,26,15,19,167,29,21,18,281,15*7C
$GPGSV,3,3,12,18,10,225,13,30,02,324,,10,02,044,,51,49,195,34*71
$GPRMC,113119.000,A,3353.7422,N,09832.0243,W,0.19,350.46,030412,,,D*7B
$GPGGA,113120.000,3353.7423,N,09832.0244,W,2,06,2.0,330.5,M,-23.7,M,0.8,0000*47
$GPGSA,A,3,12,05,26,02,15,29,,,,,,,4.8,2.0,4.4*33
$GPRMC,113120.000,A,3353.7423,N,09832.0244,W,0.23,332.98,030412,,,D*79
$GPGGA,113121.000,3353.7423,N,09832.0244,W,2,06,2.0,330.3,M,-23.7,M,0.8,0000*40
$GPGSA,A,3,12,05,26,02,15,29,,,,,,,4.8,2.0,4.4*33
$GPRMC,113121.000,A,3353.7423,N,09832.0244,W,0.21,332.30,030412,,,D*78
$GPGGA,113122.000,3353.7423,N,09832.0245,W,2,06,2.0,330.1,M,-23.7,M,1.8,0000*41
$GPGSA,A,3,12,05,26,02,15,29,,,,,,,4.8,2.0,4.4*33
$GPRMC,113122.000,A,3353.7423,N,09832.0245,W,0.22,327.24,030412,,,D*78
$GPGGA,113123.000,3353.7423,N,09832.0245,W,2,07,1.9,330.0,M,-23.7,M,0.8,0000*4B
$GPGSA,A,3,25,12,05,26,02,15,29,,,,,,4.7,1.9,4.4*31
$GPRMC,113123.000,A,3353.7423,N,09832.0245,W,0.21,22.39,030412,,,D*40
$GPGGA,113124.000,3353.7423,N,09832.0245,W,2,07,1.9,329.8,M,-23.7,M,0.8,0000*4C
$GPGSA,A,3,25,12,05,26,02,15,29,,,,,,4.7,1.9,4.4*31
$GPGSV,3,1,12,29,58,320,31,05,56,043,38,25,36,236,17,26,31,123,26*76
$GPGSV,3,2,12,02,28,072,29,12,19,194,26,15,19,167,29,21,18,281,15*7C
$GPGSV,3,3,12,18,10,225,13,30,02,324,,10,02,044,,51,49,195,35*70
$GPRMC,113124.000,A,3353.7423,N,09832.0245,W,0.15,327.16,030412,,,D*7B
$GPGGA,113125.000,3353.7423,N,09832.0245,W,2,07,1.9,329.6,M,-23.7,M,0.8,0000*43
$GPGSA,A,3,25,12,05,26,02,15,29,,,,,,4.7,1.9,4.4*31
$GPRMC,113125.000,A,3353.7423,N,09832.0245,W,0.21,54.19,030412,,,D*45
$GPGGA,113126.000,3353.7423,N,09832.0245,W,2,07,1.9,329.3,M,-23.7,M,0.8,0000*45
$GPGSA,A,3,25,12,05,26,02,15,29,,,,,,4.7,1.9,4.4*31
$GPRMC,113126.000,A,3353.7423,N,09832.0245,W,0.08,346.38,030412,,,D*7E
$GPGGA,113127.000,3353.7423,N,09832.0245,W,2,07,1.9,329.0,M,-23.7,M,1.8,0000*46
$GPGSA,A,3,25,12,05,26,02,15,29,,,,,,4.7,1.9,4.4*31
$GPRMC,113127.000,A,3353.7423,N,09832.0245,W,0.17,293.74,030412,,,D*70
$GPGGA,113128.000,3353.7423,N,09832.0246,W,2,07,1.9,328.7,M,-23.7,M,2.8,0000*4F
$GPGSA,A,3,25,12,05,26,02,15,29,,,,,,4.7,1.9,4.4*31
$GPRMC,113128.000,A,3353.7423,N,09832.0246,W,0.22,293.66,030412,,,D*79
$GPGGA,113129.000,3353.7421,N,09832.0244,W,2,07,1.9,329.1,M,-23.7,M,3.8,0000*48
$GPGSA,A,3,25,12,05,26,02,15,29,,,,,,4.7,1.9,4.4*31
$GPGSV,3,1,12,29,58,320,31,05,56,043,38,25,36,236,17,26,31,123,25*75
$GPGSV,3,2,12,02,28,072,28,12,19,194,26,15,19,167,28,21,18,281,14*7D
$GPGSV,3,3,12,18,10,225,12,30,02,324,,10,02,044,,51,49,195,35*71
$GPRMC,113129.000,A,3353.7421,N,09832.0244,W,0.03,270.18,030412,,,D*7F
$GPGGA,113130.000,3353.7421,N,09832.0245,W,2,07,1.9,328.7,M,-23.7,M,0.8,0000*45
$GPGSA,A,3,25,12,05,26,02,15,29,,,,,,4.7,1.9,4.4*31
$GPRMC,113130.000,A,3353.7421,N,09832.0245,W,0.27,299.88,030412,,,D*7E
$GPGGA,113131.000,3353.7421,N,09832.0245,W,2,07,1.9,328.7,M,-23.7,M,0.8,0000*44
$GPGSA,A,3,25,12,05,26,02,15,29,,,,,,4.7,1.9,4.4*31
$GPRMC,113131.000,A,3353.7421,N,09832.0245,W,0.45,296.11,030412,,,D*74
$GPGGA,113132.000,3353.7417,N,09832.0241,W,2,07,1.9,330.2,M,-23.7,M,0.8,0000*4A
$GPGSA,A,3,25,12,05,26,02,15,29,,,,,,4.7,1.9,4.4*31
$GPRMC,113132.000,A,3353.7417,N,09832.0241,W,0.25,295.73,030412,,,D*77
$GPGGA,113133.000,3353.7414,N,09832.0240,W,2,07,1.9,330.9,M,-23.7,M,1.8,0000*43
$GPGSA,A,3,25,12,05,26,02,15,29,,,,,,4.7,1.9,4.4*31
$GPRMC,113133.000,A,3353.7414,N,09832.0240,W,0.12,297.87,030412,,,D*79
$GPGGA,113134.000,3353.7415,N,09832.0240,W,2,07,1.9,330.7,M,-23.7,M,2.8,0000*48
$GPGSA,A,3,25,12,05,26,02,15,29,,,,,,4.7,1.9,4.4*31
$GPGSV,3,1,12,29,58,320,31,05,56,043,38,25,36,236,16,26,31,123,25*74
$GPGSV,3,2,12,02,28,072,28,12,19,194,26,15,19,167,28,21,18,281,13*7A
$GPGSV,3,3,12,18,10,225,,30,02,324,,10,02,044,,51,49,195,34*73
$GPRMC,113134.000,A,3353.7415,N,09832.0240,W,0.14,314.16,030412,,,D*7B
$GPGGA,113135.000,3353.7416,N,09832.0240,W,2,07,1.9,330.6,M,-23.7,M,3.8,0000*4A
$GPGSA,A,3,25,12,05,26,02,15,29,,,,,,4.7,1.9,4.4*31
$GPRMC,113135.000,A,3353.7416,N,09832.0240,W,0.23,296.30,030412,,,D*72
$GPGGA,113136.000,3353.7415,N,09832.0239,W,2,07,1.9,330.8,M,-23.7,M,0.8,0000*49
$GPGSA,A,3,25,12,05,26,02,15,29,,,,,,4.7,1.9,4.4*31
$GPRMC,113136.000,A,3353.7415,N,09832.0239,W,0.21,86.90,030412,,,D*47
$GPGGA,113137.000,3353.7416,N,09832.0239,W,2,07,1.9,330.4,M,-23.7,M,0.8,0000*47
$GPGSA,A,3,25,12,05,26,02,15,29,,,,,,4.7,1.9,4.4*31
$GPRMC,113137.000,A,3353.7416,N,09832.0239,W,0.09,45.11,030412,,,D*49
$GPGGA,113138.000,3353.7411,N,09832.0234,W,2,07,1.9,332.3,M,-23.7,M,0.8,0000*47
$GPGSA,A,3,25,12,05,26,02,15,29,,,,,,4.7,1.9,4.4*31
$GPRMC,113138.000,A,3353.7411,N,09832.0234,W,0.29,108.53,030412,,,D*70
$GPGGA,113139.000,3353.7406,N,09832.0229,W,2,07,1.9,334.0,M,-23.7,M,1.8,0000*48
$GPGSA,A,3,25,12,05,26,02,15,29,,,,,,4.7,1.9,4.3*36
$GPGSV,3,1,12,29,58,320,31,05,56,043,38,25,36,236,17,26,31,123,24*74
$GPGSV,3,2,12,02,28,072,27,12,19,194,26,15,19,167,29,21,18,281,*76
$GPGSV,3,3,12,18,10,225,,30,02,324,,10,02,044,,51,49,195,33*74
$GPRMC,113139.000,A,3353.7406,N,09832.0229,W,0.18,163.47,030412,,,D*71
$GPGGA,113140.000,3353.7407,N,09832.0229,W,2,07,1.9,333.8,M,-23.7,M,2.8,0000*4B
$GPGSA,A,3,25,12,05,26,02,15,29,,,,,,4.7,1.9,4.3*36
$GPRMC,113140.000,A,3353.7407,N,09832.0229,W,0.16,236.77,030412,,,D*70
$GPGGA,113141.000,3353.7407,N,09832.0229,W,2,07,1.9,333.7,M,-23.7,M,0.8,0000*47
$GPGSA,A,3,25,12,05,26,02,15,29,,,,,,4.7,1.9,4.3*36
$GPRMC,113141.000,A,3353.7407,N,09832.0229,W,0.14,258.53,030412,,,D*7D
$GPGGA,113142.000,3353.7411,N,09832.0232,W,2,07,1.9,332.4,M,-23.7,M,0.8,0000*4B
$GPGSA,A,3,25,12,05,26,02,15,29,,,,,,4.7,1.9,4.3*36
$GPRMC,113142.000,A,3353.7411,N,09832.0232,W,0.40,286.54,030412,,,D*76
$GPGGA,113143.000,3353.7413,N,09832.0233,W,2,07,1.9,331.9,M,-23.7,M,0.8,0000*47
$GPGSA,A,3,25,12,05,26,02,15,29,,,,,,4.7,1.9,4.3*36
$GPRMC,113143.000,A,3353.7413,N,09832.0233,W,0.14,357.06,030412,,,D*7F
$GPGGA,113144.000,3353.7415,N,09832.0237,W,2,07,1.9,330.3,M,-23.7,M,0.8,0000*49
$GPGSA,A,3,25,12,05,26,02,15,29,,,,,,4.7,1.9,4.3*36
$GPGSV,3,1,12,29,58,320,31,05,56,043,38,25,36,236,18,26,31,123,24*7B
$GPGSV,3,2,12,02,28,072,28,12,19,194,25,15,19,167,29,21,18,281,*7A
$GPGSV,3,3,12,18,10,225,,30,02,324,,10,02,044,,51,49,195,35*72
$GPRMC,113144.000,A,3353.7415,N,09832.0237,W,0.35,297.36,030412,,,D*77
$GPGGA,113145.000,3353.7413,N,09832.0235,W,2,07,1.9,331.0,M,-23.7,M,1.8,0000*4F
$GPGSA,A,3,25,12,05,26,02,15,29,,,,,,4.7,1.9,4.3*36
$GPRMC,113145.000,A,3353.7413,N,09832.0235,W,0.29,339.23,030412,,,D*7E
$GPGGA,113146.000,3353.7415,N,09832.0239,W,2,07,1.9,329.6,M,-23.7,M,2.8,0000*4A
$GPGSA,A,3,25,12,05,26,02,15,29,,,,,,4.7,1.9,4.3*36
$GPRMC,113146.000,A,3353.7415,N,09832.0239,W,0.33,325.74,030412,,,D*73
$GPGGA,113147.000,3353.7415,N,09832.0238,W,2,06,2.0,329.5,M,-23.7,M,0.8,0000*40
$GPGSA,A,3,12,05,26,02,15,29,,,,,,,4.8,2.0,4.4*33
$GPRMC,113147.000,A,3353.7415,N,09832.0238,W,0.24,58.07,030412,,,D*48
$GPGGA,113148.000,3353.7412,N,09832.0236,W,2,07,1.9,330.1,M,-23.7,M,0.8,0000*41
$GPGSA,A,3,25,12,05,26,02,15,29,,,,,,4.7,1.9,4.3*36
$GPRMC,113148.000,A,3353.7412,N,09832.0236,W,0.09,301.95,030412,,,D*75
$GPGGA,113149.000,3353.7407,N,09832.0232,W,2,07,1.9,331.7,M,-23.7,M,0.8,0000*47
$GPGSA,A,3,25,12,05,26,02,15,29,,,,,,4.7,1.9,4.3*36
$GPGSV,3,1,12,29,58,320,31,05,56,043,38,25,36,236,18,26,31,123,20*7F
$GPGSV,3,2,12,02,28,072,27,12,19,194,25,15,19,167,29,21,18,281,*75
$GPGSV,3,3,12,18,10,225,,30,02,324,,10,02,044,,51,49,195,35*72
$GPRMC,113149.000,A,3353.7407,N,09832.0232,W,0.09,193.12,030412,,,D*72
$GPGGA,113150.000,3353.7402,N,09832.0227,W,2,07,1.9,332.9,M,-23.7,M,0.8,0000*43
$GPGSA,A,3,25,12,05,26,02,15,29,,,,,,4.7,1.9,4.3*36
$GPRMC,113150.000,A,3353.7402,N,09832.0227,W,0.37,128.58,030412,,,D*78
$GPGGA,113151.000,3353.7399,N,09832.0223,W,2,06,2.0,333.7,M,-23.7,M,1.8,0000*46
$GPGSA,A,3,12,05,26,02,15,29,,,,,,,4.8,2.0,4.4*33
$GPRMC,113151.000,A,3353.7399,N,09832.0223,W,0.35,120.08,030412,,,D*77
$GPGGA,113152.000,3353.7396,N,09832.0220,W,2,06,2.0,334.4,M,-23.7,M,2.8,0000*4E
$GPGSA,A,3,12,05,26,02,15,29,,,,,,,4.8,2.0,4.4*33
$GPRMC,113152.000,A,3353.7396,N,09832.0220,W,0.13,134.31,030412,,,D*73
$GPGGA,113153.000,3353.7394,N,09832.0217,W,2,06,2.0,335.1,M,-23.7,M,0.8,0000*4F
$GPGSA,A,3,12,05,26,02,15,29,,,,,,,4.8,2.0,4.4*33
$GPRMC,113153.000,A,3353.7394,N,09832.0217,W,0.10,168.12,030412,,,D*7F
$GPGGA,113154.000,3353.7393,N,09832.0217,W,2,06,2.0,335.2,M,-23.7,M,0.8,0000*4C
$GPGSA,A,3,12,05,26,02,15,29,,,,,,,4.8,2.0,4.4*33
$GPGSV,3,1,12,29,58,320,31,05,56,043,38,25,36,236,11,26,31,123,19*7C
$GPGSV,3,2,12,02,28,072,27,12,19,194,25,15,19,167,29,21,18,281,*75
$GPGSV,3,3,12,18,10,225,,30,02,324,,10,02,044,,51,49,195,36*71
$GPRMC,113154.000,A,3353.7393,N,09832.0217,W,0.13,133.79,030412,,,D*7F
$GPGGA,113155.000,3353.7389,N,09832.0214,W,2,07,1.9,336.3,M,-23.7,M,0.8,0000*4C
$GPGSA,A,3,25,12,05,26,02,15,29,,,,,,4.7,1.9,4.3*36
$GPRMC,113155.000,A,3353.7389,N,09832.0214,W,0.28,143.79,030412,,,D*79
$GPGGA,113156.000,3353.7385,N,09832.0209,W,2,07,1.9,338.0,M,-23.7,M,0.8,0000*42
$GPGSA,A,3,25,12,05,26,02,15,29,,,,,,4.7,1.9,4.3*36
$GPRMC,113156.000,A,3353.7385,N,09832.0209,W,0.37,148.95,030412,,,D*7D
$GPGGA,113157.000,3353.7385,N,09832.0209,W,2,07,1.9,337.8,M,-23.7,M,1.8,0000*45
$GPGSA,A,3,25,12,05,26,02,15,29,,,,,,4.7,1.9,4.3*36
$GPRMC,113157.000,A,3353.7385,N,09832.0209,W,0.29,164.40,030412,,,D*75
$GPGGA,113158.000,3353.7382,N,09832.0207,W,2,07,1.9,338.8,M,-23.7,M,2.8,0000*4F
$GPGSA,A,3,25,12,05,26,02,15,29,,,,,,4.7,1.9,4.3*36
$GPRMC,113158.000,A,3353.7382,N,09832.0207,W,0.22,196.13,030412,,,D*73
$GPGGA,113159.000,3353.7383,N,09832.0208,W,2,06,2.0,338.7,M,-23.7,M,3.8,0000*45
$GPGSA,A,3,12,05,26,02,15,29,,,,,,,4.8,2.0,4.4*33
$GPGSV,3,1,12,29,58,320,31,05,56,043,38,25,36,236,15,26,31,123,20*72
$GPGSV,3,2,12,02,28,072,27,12,19,194,25,15,19,167,29,21,18,281,*75
$GPGSV,3,3,12,18,10,225,,30,02,324,,10,02,044,,51,49,195,35*72
$GPRMC,113159.000,A,3353.7383,N,09832.0208,W,0.14,237.64,030412,,,D*71
$GPGGA,113200.000,3353.7381,N,09832.0207,W,2,07,1.9,339.3,M,-23.7,M,0.8,0000*4A
$GPGSA,A,3,25,12,05,26,02,15,29,,,,,,4.7,1.9,4.3*36
$GPRMC,113200.000,A,3353.7381,N,09832.0207,W,0.21,239.09,030412,,,D*70
