$GPGGA,102540.000,3353.7549,N,09832.0276,W,1,06,1.8,305.0,M,-23.7,M,,0000*64
$GPGSA,A,3,12,05,10,04,25,02,,,,,,,3.3,1.8,2.8*37
$GPGSV,3,1,10,05,74,139,38,12,53,214,36,02,51,040,39,25,46,286,28*70
$GPGSV,3,2,10,10,31,047,37,29,26,311,,04,18,062,38,26,06,149,*7D
$GPGSV,3,3,10,13,03,042,19,48,36,230,28*75
$GPRMC,102540.000,A,3353.7549,N,09832.0276,W,0.07,131.15,310312,,,A*76
$GPGGA,102541.000,3353.7549,N,09832.0276,W,1,06,1.8,305.0,M,-23.7,M,,0000*65
$GPGSA,A,3,12,05,10,04,25,02,,,,,,,3.3,1.8,2.8*37
$GPRMC,102541.000,A,3353.7549,N,09832.0276,W,0.03,158.09,310312,,,A*71
$GPGGA,102542.000,3353.7549,N,09832.0276,W,1,06,1.8,305.1,M,-23.7,M,,0000*67
$GPGSA,A,3,12,05,10,04,25,02,,,,,,,3.3,1.8,2.8*37
$GPRMC,102542.000,A,3353.7549,N,09832.0276,W,0.05,245.64,310312,,,A*70
$GPGGA,102543.000,3353.7549,N,09832.0275,W,1,06,1.8,305.1,M,-23.7,M,,0000*65
$GPGSA,A,3,12,05,10,04,25,02,,,,,,,3.3,1.8,2.8*37
$GPRMC,102543.000,A,3353.7549,N,09832.0275,W,0.03,204.83,310312,,,A*78
$GPGGA,102544.000,3353.7549,N,09832.0275,W,1,06,1.8,305.2,M,-23.7,M,,0000*61
$GPGSA,A,3,12,05,10,04,25,02,,,,,,,3.3,1.8,2.8*37
$GPRMC,102544.000,A,3353.7549,N,09832.0275,W,0.05,240.42,310312,,,A*74
$GPGGA,102545.000,3353.7549,N,09832.0275,W,1,06,1.8,305.2,M,-23.7,M,,0000*60
$GPGSA,A,3,12,05,10,04,25,02,,,,,,,3.3,1.8,2.8*37
$GPGSV,3,1,09,05,74,139,37,12,53,214,36,02,51,040,39,25,46,286,28*77
$GPGSV,3,2,09,10,31,047,37,29,26,311,,04,18,062,38,26,06,149,21*76
$GPGSV,3,3,09,13,03,042,21*44
$GPRMC,102545.000,A,3353.7549,N,09832.0275,W,0.04,262.44,310312,,,A*72
$GPGGA,102546.000,3353.7549,N,09832.0275,W,1,06,1.8,305.2,M,-23.7,M,,0000*63
$GPGSA,A,3,12,05,10,04,25,02,,,,,,,3.3,1.8,2.8*37
$GPRMC,102546.000,A,3353.7549,N,09832.0275,W,0.04,217.49,310312,,,A*7E
$GPGGA,102547.000,3353.7549,N,09832.0276,W,1,06,1.8,305.2,M,-23.7,M,,0000*61
$GPGSA,A,3,12,05,10,04,25,02,,,,,,,3.3,1.8,2.8*37
$GPRMC,102547.000,A,3353.7549,N,09832.0276,W,0.06,236.00,310312,,,A*70
$GPGGA,102548.000,3353.7549,N,09832.0276,W,1,06,1.8,305.2,M,-23.7,M,,0000*6E
$GPGSA,A,3,12,05,10,04,25,02,,,,,,,3.3,1.8,2.8*37
$GPRMC,102548.000,A,3353.7549,N,09832.0276,W,0.06,244.20,310312,,,A*78
$GPGGA,102549.000,3353.7549,N,09832.0276,W,1,06,1.8,305.2,M,-23.7,M,,0000*6F
$GPGSA,A,3,12,05,10,04,25,02,,,,,,,3.3,1.8,2.8*37
$GPRMC,102549.000,A,3353.7549,N,09832.0276,W,0.05,272.73,310312,,,A*79
$GPGGA,102550.000,3353.7549,N,09832.0276,W,1,06,1.8,305.2,M,-23.7,M,,0000*67
$GPGSA,A,3,12,05,10,04,25,02,,,,,,,3.3,1.8,2.8*37
$GPGSV,3,1,09,05,74,139,37,12,53,214,36,02,51,040,39,25,46,286,28*77
$GPGSV,3,2,09,10,31,047,37,29,26,311,,04,18,062,39,26,06,149,21*77
$GPGSV,3,3,09,13,03,042,21*44
$GPRMC,102550.000,A,3353.7549,N,09832.0276,W,0.07,248.95,310312,,,A*72
$GPGGA,102551.000,3353.7549,N,09832.0276,W,1,06,1.8,305.2,M,-23.7,M,,0000*66
$GPGSA,A,3,12,05,10,04,25,02,,,,,,,3.3,1.8,2.8*37
$GPRMC,102551.000,A,3353.7549,N,09832.0276,W,0.05,231.89,310312,,,A*72
$GPGGA,102552.000,3353.7550,N,09832.0277,W,1,06,1.8,305.2,M,-23.7,M,,0000*6C
$GPGSA,A,3,12,05,10,04,25,02,,,,,,,3.3,1.8,2.8*37
$GPRMC,102552.000,A,3353.7550,N,09832.0277,W,0.05,234.11,310312,,,A*7C
$GPGGA,102553.000,3353.7550,N,09832.0277,W,1,06,1.8,305.2,M,-23.7,M,,0000*6D
$GPGSA,A,3,12,05,10,04,25,02,,,,,,,3.3,1.8,2.8*37
$GPRMC,102553.000,A,3353.7550,N,09832.0277,W,0.06,223.77,310312,,,A*78
$GPGGA,102554.000,3353.7549,N,09832.0277,W,1,06,1.8,305.2,M,-23.7,M,,0000*62
$GPGSA,A,3,12,05,10,04,25,02,,,,,,,3.3,1.8,2.8*37
$GPRMC,102554.000,A,3353.7549,N,09832.0277,W,0.06,202.39,310312,,,A*7E
$GPGGA,102555.000,3353.7550,N,09832.0277,W,1,06,1.8,305.2,M,-23.7,M,,0000*6B
$GPGSA,A,3,12,05,10,04,25,02,,,,,,,3.3,1.8,2.8*37
$GPGSV,3,1,09,05,74,139,37,12,53,214,36,02,51,040,39,25,46,286,28*77
$GPGSV,3,2,09,10,31,047,37,29,26,311,,04,18,062,39,26,06,149,20*76
$GPGSV,3,3,09,13,03,042,21*44
$GPRMC,102555.000,A,3353.7550,N,09832.0277,W,0.06,270.61,310312,,,A*7F
$GPGGA,102556.000,3353.7549,N,09832.0277,W,1,06,1.8,305.2,M,-23.7,M,,0000*60
$GPGSA,A,3,12,05,10,04,25,02,,,,,,,3.3,1.8,2.8*37
$GPRMC,102556.000,A,3353.7549,N,09832.0277,W,0.06,206.89,310312,,,A*73
$GPGGA,102557.000,3353.7549,N,09832.0277,W,1,06,1.8,305.2,M,-23.7,M,,0000*61
$GPGSA,A,3,12,05,10,04,25,02,,,,,,,3.3,1.8,2.8*37
$GPRMC,102557.000,A,3353.7549,N,09832.0277,W,0.04,239.78,310312,,,A*72
$GPGGA,102558.000,3353.7549,N,09832.0277,W,1,06,1.8,305.2,M,-23.7,M,,0000*6E
$GPGSA,A,3,12,05,10,04,25,02,,,,,,,3.3,1.8,2.8*37
$GPRMC,102558.000,A,3353.7549,N,09832.0277,W,0.05,242.94,310312,,,A*72
$GPGGA,102559.000,3353.7549,N,09832.0278,W,1,06,1.8,305.2,M,-23.7,M,,0000*60
$GPGSA,A,3,12,05,10,04,25,02,,,,,,,3.3,1.8,2.8*37
$GPRMC,102559.000,A,3353.7549,N,09832.0278,W,0.04,223.92,310312,,,A*7C
$GPGGA,102600.000,3353.7549,N,09832.0278,W,1,06,1.8,305.3,M,-23.7,M,,0000*6E
$GPGSA,A,3,12,05,10,04,25,02,,,,,,,3.3,1.8,2.8*37
$GPGSV,3,1,09,05,74,139,37,12,53,214,36,02,51,040,39,25,46,286,28*77
$GPGSV,3,2,09,10,31,047,37,29,26,311,,04,18,062,39,26,06,149,20*76
$GPGSV,3,3,09,13,03,042,22*47
$GPRMC,102600.000,A,3353.7549,N,09832.0278,W,0.04,217.34,310312,,,A*78
$GPGGA,102601.000,3353.7549,N,09832.0278,W,1,06,1.8,305.3,M,-23.7,M,,0000*6F
$GPGSA,A,3,12,05,10,04,25,02,,,,,,,3.3,1.8,2.8*37
$GPRMC,102601.000,A,3353.7549,N,09832.0278,W,0.04,241.74,310312,,,A*7E
$GPGGA,102602.000,3353.7549,N,09832.0278,W,1,06,1.8,305.3,M,-23.7,M,,0000*6C
$GPGSA,A,3,12,05,10,04,25,02,,,,,,,3.3,1.8,2.8*37
$GPRMC,102602.000,A,3353.7549,N,09832.0278,W,0.04,237.41,310312,,,A*7A
$GPGGA,102603.000,3353.7549,N,09832.0278,W,1,06,1.8,305.4,M,-23.7,M,,0000*6A
$GPGSA,A,3,12,05,10,04,25,02,,,,,,,3.3,1.8,2.8*37
$GPRMC,102603.000,A,3353.7549,N,09832.0278,W,0.05,217.10,310312,,,A*7C
$GPGGA,102604.000,3353.7549,N,09832.0278,W,1,06,1.8,305.4,M,-23.7,M,,0000*6D
$GPGSA,A,3,12,05,10,04,25,02,,,,,,,3.3,1.8,2.8*37
$GPRMC,102604.000,A,3353.7549,N,09832.0278,W,0.05,205.21,310312,,,A*7A
$GPGGA,102605.000,3353.7549,N,09832.0278,W,1,06,1.8,305.4,M,-23.7,M,,0000*6C
$GPGSA,A,3,12,05,10,04,25,02,,,,,,,3.3,1.8,2.8*37
$GPGSV,3,1,09,05,74,139,37,12,53,214,36,02,51,040,39,25,46,286,28*77
$GPGSV,3,2,09,10,31,047,37,29,26,311,,04,18,062,39,26,06,149,19*7C
$GPGSV,3,3,09,13,03,042,22*47
$GPRMC,102605.000,A,3353.7549,N,09832.0278,W,0.05,233.69,310312,,,A*72
$GPGGA,102606.000,3353.7549,N,09832.0278,W,1,06,1.8,305.5,M,-23.7,M,,0000*6E
$GPGSA,A,3,12,05,10,04,25,02,,,,,,,3.3,1.8,2.8*37
$GPRMC,102606.000,A,3353.7549,N,09832.0278,W,0.06,188.56,310312,,,A*7D
$GPGGA,102607.000,3353.7549,N,09832.0278,W,1,06,1.8,305.5,M,-23.7,M,,0000*6F
$GPGSA,A,3,12,05,10,04,25,02,,,,,,,3.3,1.8,2.8*37
$GPRMC,102607.000,A,3353.7549,N,09832.0278,W,0.04,222.99,310312,,,A*7E
$GPGGA,102608.000,3353.7549,N,09832.0278,W,1,06,1.8,305.6,M,-23.7,M,,0000*63
$GPGSA,A,3,12,05,10,04,25,02,,,,,,,3.3,1.8,2.8*37
$GPRMC,102608.000,A,3353.7549,N,09832.0278,W,0.04,235.27,310312,,,A*72
$GPGGA,102609.000,3353.7549,N,09832.0278,W,1,06,1.8,305.6,M,-23.7,M,,0000*62
$GPGSA,A,3,12,05,10,04,25,02,,,,,,,3.3,1.8,2.8*37
$GPRMC,102609.000,A,3353.7549,N,09832.0278,W,0.06,184.89,310312,,,A*7C
$GPGGA,102610.000,3353.7549,N,09832.0277,W,1,06,1.8,305.6,M,-23.7,M,,0000*65
$GPGSA,A,3,12,05,10,04,25,02,,,,,,,3.3,1.8,2.8*37
$GPGSV,3,1,09,05,74,139,38,12,53,214,36,02,51,040,38,25,46,286,28*79
$GPGSV,3,2,09,10,31,047,36,29,26,311,,04,18,062,39,26,06,149,20*77
$GPGSV,3,3,09,13,03,042,22*47
$GPRMC,102610.000,A,3353.7549,N,09832.0277,W,0.06,174.39,310312,,,A*7F
$GPGGA,102611.000,3353.7549,N,09832.0277,W,1,06,1.8,305.7,M,-23.7,M,,0000*65
$GPGSA,A,3,12,05,10,04,25,02,,,,,,,3.3,1.8,2.8*37
$GPRMC,102611.000,A,3353.7549,N,09832.0277,W,0.04,202.02,310312,,,A*76
$GPGGA,102612.000,3353.7549,N,09832.0277,W,1,06,1.8,305.7,M,-23.7,M,,0000*66
$GPGSA,A,3,12,05,10,04,25,02,,,,,,,3.3,1.8,2.8*37
$GPRMC,102612.000,A,3353.7549,N,09832.0277,W,0.04,215.55,310312,,,A*71
$GPGGA,102613.000,3353.7548,N,09832.0277,W,1,06,1.8,305.8,M,-23.7,M,,0000*69
$GPGSA,A,3,12,05,10,04,25,02,,,,,,,3.3,1.8,2.7*38
$GPRMC,102613.000,A,3353.7548,N,09832.0277,W,0.05,200.74,310312,,,A*77
$GPGGA,102614.000,3353.7548,N,09832.0277,W,1,06,1.8,305.8,M,-23.7,M,,0000*6E
$GPGSA,A,3,12,05,10,04,25,02,,,,,,,3.3,1.8,2.7*38
$GPRMC,102614.000,A,3353.7548,N,09832.0277,W,0.04,198.25,310312,,,A*77
$GPGGA,102615.000,3353.7548,N,09832.0277,W,1,06,1.8,305.9,M,-23.7,M,,0000*6E
$GPGSA,A,3,12,05,10,04,25,02,,,,,,,3.3,1.8,2.7*38
$GPGSV,3,1,09,05,74,139,38,12,53,214,36,02,51,040,38,25,46,286,28*79
$GPGSV,3,2,09,10,31,047,36,29,26,311,,04,18,062,38,26,06,149,19*7C
$GPGSV,3,3,09,13,03,042,21*44
$GPRMC,102615.000,A,3353.7548,N,09832.0277,W,0.04,231.73,310312,,,A*75
$GPGGA,102616.000,3353.7548,N,09832.0276,W,1,06,1.8,305.9,M,-23.7,M,,0000*6C
$GPGSA,A,3,12,05,10,04,25,02,,,,,,,3.3,1.8,2.7*38
$GPRMC,102616.000,A,3353.7548,N,09832.0276,W,0.06,153.59,310312,,,A*7A
$GPGGA,102617.000,3353.7548,N,09832.0276,W,1,06,1.8,306.0,M,-23.7,M,,0000*67
$GPGSA,A,3,12,05,10,04,25,02,,,,,,,3.3,1.8,2.7*38
$GPRMC,102617.000,A,3353.7548,N,09832.0276,W,0.05,206.76,310312,,,A*76
$GPGGA,102618.000,3353.7548,N,09832.0276,W,1,06,1.8,306.1,M,-23.7,M,,0000*69
$GPGSA,A,3,12,05,10,04,25,02,,,,,,,3.3,1.8,2.7*38
$GPRMC,102618.000,A,3353.7548,N,09832.0276,W,0.04,176.89,310312,,,A*7C
$GPGGA,102619.000,3353.7547,N,09832.0275,W,1,06,1.8,306.1,M,-23.7,M,,0000*64
$GPGSA,A,3,12,05,10,04,25,02,,,,,,,3.3,1.8,2.7*38
$GPRMC,102619.000,A,3353.7547,N,09832.0275,W,0.06,168.75,310312,,,A*7F
$GPGGA,102620.000,3353.7547,N,09832.0275,W,1,06,1.8,306.2,M,-23.7,M,,0000*6D
$GPGSA,A,3,12,05,10,04,25,02,,,,,,,3.3,1.8,2.7*38
$GPGSV,3,1,09,05,74,139,38,12,53,214,35,02,51,040,38,25,46,286,28*7A
$GPGSV,3,2,09,10,31,047,36,29,26,311,,04,18,062,38,26,06,149,20*76
$GPGSV,3,3,09,13,03,042,20*45
$GPRMC,102620.000,A,3353.7547,N,09832.0275,W,0.05,164.62,310312,,,A*7C
$GPGGA,102621.000,3353.7547,N,09832.0274,W,1,06,1.8,306.3,M,-23.7,M,,0000*6C
$GPGSA,A,3,12,05,10,04,25,02,,,,,,,3.3,1.8,2.7*38
$GPRMC,102621.000,A,3353.7547,N,09832.0274,W,0.07,158.50,310312,,,A*70
$GPGGA,102622.000,3353.7546,N,09832.0274,W,1,06,1.8,306.3,M,-23.7,M,,0000*6E
$GPGSA,A,3,12,05,10,04,25,02,,,,,,,3.3,1.8,2.7*38
$GPRMC,102622.000,A,3353.7546,N,09832.0274,W,0.05,163.39,310312,,,A*77
$GPGGA,102623.000,3353.7546,N,09832.0273,W,1,06,1.8,306.4,M,-23.7,M,,0000*6F
$GPGSA,A,3,12,05,10,04,25,02,,,,,,,3.3,1.8,2.7*38
$GPRMC,102623.000,A,3353.7546,N,09832.0273,W,0.05,171.71,310312,,,A*7E
$GPGGA,102624.000,3353.7546,N,09832.0273,W,1,06,1.8,306.5,M,-23.7,M,,0000*69
$GPGSA,A,3,12,05,10,04,25,02,,,,,,,3.3,1.8,2.7*38
$GPRMC,102624.000,A,3353.7546,N,09832.0273,W,0.02,188.34,310312,,,A*79
$GPGGA,102625.000,3353.7545,N,09832.0272,W,1,06,1.8,306.5,M,-23.7,M,,0000*6A
$GPGSA,A,3,12,05,10,04,25,02,,,,,,,3.3,1.8,2.7*38
$GPGSV,3,1,09,05,74,139,38,12,53,214,35,02,51,040,38,25,46,286,28*7A
$GPGSV,3,2,09,10,31,047,35,29,26,311,,04,18,062,37,26,06,149,21*7B
$GPGSV,3,3,09,13,03,042,20*45
$GPRMC,102625.000,A,3353.7545,N,09832.0272,W,0.07,157.54,310312,,,A*7B
$GPGGA,102626.000,3353.7545,N,09832.0271,W,1,06,1.8,306.6,M,-23.7,M,,0000*69
$GPGSA,A,3,12,05,10,04,25,02,,,,,,,3.3,1.8,2.7*38
$GPRMC,102626.000,A,3353.7545,N,09832.0271,W,0.03,155.33,310312,,,A*7C
$GPGGA,102627.000,3353.7545,N,09832.0271,W,1,06,1.8,306.7,M,-23.7,M,,0000*69
$GPGSA,A,3,12,05,10,04,25,02,,,,,,,3.3,1.8,2.7*38
$GPRMC,102627.000,A,3353.7545,N,09832.0271,W,0.07,160.24,310312,,,A*79
$GPGGA,102628.000,3353.7544,N,09832.0270,W,1,06,1.8,306.7,M,-23.7,M,,0000*66
$GPGSA,A,3,12,05,10,04,25,02,,,,,,,3.3,1.8,2.7*38
$GPRMC,102628.000,A,3353.7544,N,09832.0270,W,0.07,164.74,310312,,,A*77
$GPGGA,102629.000,3353.7544,N,09832.0269,W,1,06,1.8,306.8,M,-23.7,M,,0000*60
$GPGSA,A,3,12,05,10,04,25,02,,,,,,,3.3,1.8,2.7*38
$GPRMC,102629.000,A,3353.7544,N,09832.0269,W,0.09,150.32,310312,,,A*75
$GPGGA,102630.000,3353.7543,N,09832.0268,W,1,06,1.8,306.9,M,-23.7,M,,0000*6F
$GPGSA,A,3,12,05,10,04,25,02,,,,,,,3.3,1.8,2.7*38
$GPGSV,3,1,09,05,74,139,38,12,53,214,35,02,51,040,38,25,46,286,27*75
$GPGSV,3,2,09,10,31,047,35,29,26,311,,04,18,062,36,26,06,149,21*7A
$GPGSV,3,3,09,13,03,042,20*45
$GPRMC,102630.000,A,3353.7543,N,09832.0268,W,0.07,164.25,310312,,,A*74
$GPGGA,102631.000,3353.7543,N,09832.0267,W,1,06,1.8,306.9,M,-23.7,M,,0000*61
$GPGSA,A,3,12,05,10,04,25,02,,,,,,,3.3,1.8,2.7*38
$GPRMC,102631.000,A,3353.7543,N,09832.0267,W,0.09,151.63,310312,,,A*70
$GPGGA,102632.000,3353.7542,N,09832.0267,W,1,06,1.8,307.0,M,-23.7,M,,0000*6B
$GPGSA,A,3,12,05,10,04,25,02,,,,,,,3.3,1.8,2.7*38
$GPRMC,102632.000,A,3353.7542,N,09832.0267,W,0.05,156.45,310312,,,A*7D
$GPGGA,102633.000,3353.7542,N,09832.0266,W,1,06,1.8,307.1,M,-23.7,M,,0000*6A
$GPGSA,A,3,12,05,10,04,25,02,,,,,,,3.3,1.8,2.7*38
$GPRMC,102633.000,A,3353.7542,N,09832.0266,W,0.07,162.38,310312,,,A*72
$GPGGA,102634.000,3353.7541,N,09832.0265,W,1,06,1.8,307.1,M,-23.7,M,,0000*6D
$GPGSA,A,3,12,05,10,04,25,02,,,,,,,3.3,1.8,2.7*38
$GPRMC,102634.000,A,3353.7541,N,09832.0265,W,0.04,173.94,310312,,,A*70
$GPGGA,102635.000,3353.7541,N,09832.0264,W,1,06,1.8,307.2,M,-23.7,M,,0000*6E
$GPGSA,A,3,12,05,10,04,25,02,,,,,,,3.3,1.8,2.7*38
$GPGSV,3,1,09,05,74,139,38,12,53,214,34,02,51,040,38,25,46,286,26*75
$GPGSV,3,2,09,10,31,047,34,29,26,311,,04,18,062,35,26,06,149,21*78
$GPGSV,3,3,09,13,03,042,21*44
$GPRMC,102635.000,A,3353.7541,N,09832.0264,W,0.07,156.43,310312,,,A*7E
$GPGGA,102636.000,3353.7540,N,09832.0263,W,1,06,1.8,307.2,M,-23.7,M,,0000*6B
$GPGSA,A,3,12,05,10,04,25,02,,,,,,,3.3,1.8,2.7*38
$GPRMC,102636.000,A,3353.7540,N,09832.0263,W,0.07,167.29,310312,,,A*75
$GPGGA,102637.000,3353.7539,N,09832.0262,W,1,06,1.8,307.3,M,-23.7,M,,0000*64
$GPGSA,A,3,12,05,10,04,25,02,,,,,,,3.3,1.8,2.7*38
$GPRMC,102637.000,A,3353.7539,N,09832.0262,W,0.16,141.37,310312,,,A*70
$GPGGA,102638.000,3353.7538,N,09832.0259,W,1,06,1.8,307.4,M,-23.7,M,,0000*65
$GPGSA,A,3,12,05,10,04,25,02,,,,,,,3.3,1.8,2.7*38
$GPRMC,102638.000,A,3353.7538,N,09832.0259,W,0.40,128.99,310312,,,A*7E
$GPGGA,102639.000,3353.7537,N,09832.0257,W,1,06,1.8,307.5,M,-23.7,M,,0000*64
$GPGSA,A,3,12,05,10,04,25,02,,,,,,,3.3,1.8,2.7*38
$GPRMC,102639.000,A,3353.7537,N,09832.0257,W,0.19,135.78,310312,,,A*71
$GPGGA,102640.000,3353.7536,N,09832.0255,W,1,06,1.8,307.6,M,-23.7,M,,0000*6A
$GPGSA,A,3,12,05,10,04,25,02,,,,,,,3.3,1.8,2.7*38
$GPGSV,3,1,09,05,74,139,37,12,53,214,34,02,51,040,38,25,46,286,25*79
$GPGSV,3,2,09,10,31,047,34,29,26,311,,04,18,062,34,26,06,149,20*78
$GPGSV,3,3,09,13,03,042,21*44
$GPRMC,102640.000,A,3353.7536,N,09832.0255,W,0.37,127.30,310312,,,A*7F
$GPGGA,102641.000,3353.7534,N,09832.0252,W,1,06,1.8,307.7,M,-23.7,M,,0000*6F
$GPGSA,A,3,12,05,10,04,25,02,,,,,,,3.3,1.8,2.7*38
$GPRMC,102641.000,A,3353.7534,N,09832.0252,W,0.43,129.47,310312,,,A*76
$GPGGA,102642.000,3353.7532,N,09832.0249,W,1,06,1.8,307.9,M,-23.7,M,,0000*6E
$GPGSA,A,3,12,05,10,04,25,02,,,,,,,3.3,1.8,2.7*38
$GPRMC,102642.000,A,3353.7532,N,09832.0249,W,0.33,128.07,310312,,,A*7B
$GPGGA,102643.000,3353.7531,N,09832.0246,W,1,06,1.8,308.0,M,-23.7,M,,0000*65
$GPGSA,A,3,12,05,10,04,25,02,,,,,,,3.3,1.8,2.7*38
$GPRMC,102643.000,A,3353.7531,N,09832.0246,W,0.22,128.47,310312,,,A*72
$GPGGA,102644.000,3353.7529,N,09832.0243,W,1,06,1.8,308.2,M,-23.7,M,,0000*6C
$GPGSA,A,3,12,05,10,04,25,02,,,,,,,3.3,1.8,2.7*38
$GPRMC,102644.000,A,3353.7529,N,09832.0243,W,0.18,126.48,310312,,,A*71
$GPGGA,102645.000,3353.7527,N,09832.0240,W,1,06,1.8,308.3,M,-23.7,M,,0000*61
$GPGSA,A,3,12,05,10,04,25,02,,,,,,,3.3,1.8,2.7*38
$GPGSV,3,1,10,05,74,139,37,12,53,214,34,02,51,040,38,25,46,286,25*71
$GPGSV,3,2,10,10,31,047,33,29,26,311,,04,18,062,33,26,06,149,18*7B
$GPGSV,3,3,10,13,03,042,21,51,49,195,30*7B
$GPRMC,102645.000,A,3353.7527,N,09832.0240,W,0.15,129.34,310312,,,A*74
$GPGGA,102646.000,3353.7525,N,09832.0237,W,1,06,1.8,308.5,M,-23.7,M,,0000*66
$GPGSA,A,3,12,05,10,04,25,02,,,,,,,3.3,1.8,2.7*38
$GPRMC,102646.000,A,3353.7525,N,09832.0237,W,0.23,127.13,310312,,,A*7B
$GPGGA,102647.000,3353.7523,N,09832.0233,W,1,06,1.8,308.6,M,-23.7,M,,0000*66
$GPGSA,A,3,12,05,10,04,25,02,,,,,,,3.3,1.8,2.7*38
$GPRMC,102647.000,A,3353.7523,N,09832.0233,W,0.31,128.53,310312,,,A*70
$GPGGA,102648.000,3353.7521,N,09832.0229,W,1,06,1.8,308.8,M,-23.7,M,,0000*6E
$GPGSA,A,3,12,05,10,04,25,02,,,,,,,3.3,1.8,2.7*38
$GPRMC,102648.000,A,3353.7521,N,09832.0229,W,0.27,129.23,310312,,,A*77
$GPGGA,102649.000,3353.7518,N,09832.0225,W,1,06,1.8,309.0,M,-23.7,M,,0000*60
$GPGSA,A,3,12,05,10,04,25,02,,,,,,,3.3,1.8,2.7*38
$GPRMC,102649.000,A,3353.7518,N,09832.0225,W,0.27,124.71,310312,,,A*7A
$GPGGA,102650.000,3353.7516,N,09832.0220,W,1,06,1.8,309.2,M,-23.7,M,,0000*61
$GPGSA,A,3,12,05,10,04,25,02,,,,,,,3.3,1.8,2.7*38
$GPGSV,3,1,10,05,74,139,38,12,53,214,33,02,51,040,37,25,46,286,25*76
$GPGSV,3,2,10,10,31,047,33,29,26,311,,04,18,062,33,26,06,149,17*74
$GPGSV,3,3,10,13,03,042,20,51,49,195,31*7B
$GPRMC,102650.000,A,3353.7516,N,09832.0220,W,0.21,124.59,310312,,,A*75
$GPGGA,102651.000,3353.7513,N,09832.0216,W,1,06,1.8,309.4,M,-23.7,M,,0000*66
$GPGSA,A,3,12,05,10,04,25,02,,,,,,,3.3,1.8,2.7*38
$GPRMC,102651.000,A,3353.7513,N,09832.0216,W,0.24,124.97,310312,,,A*73
$GPGGA,102652.000,3353.7511,N,09832.0212,W,1,06,1.8,309.5,M,-23.7,M,,0000*62
$GPGSA,A,3,12,05,10,04,25,02,,,,,,,3.3,1.8,2.7*38
$GPRMC,102652.000,A,3353.7511,N,09832.0212,W,0.04,82.38,310312,,,A*4C
$GPGGA,102653.000,3353.7509,N,09832.0209,W,1,06,1.8,309.7,M,-23.7,M,,0000*62
$GPGSA,A,3,12,05,10,04,25,02,,,,,,,3.3,1.8,2.7*38
$GPRMC,102653.000,A,3353.7509,N,09832.0209,W,0.09,133.00,310312,,,A*73
$GPGGA,102654.000,3353.7507,N,09832.0206,W,1,06,1.8,309.8,M,-23.7,M,,0000*6B
$GPGSA,A,3,12,05,10,04,25,02,,,,,,,3.3,1.8,2.7*38
$GPRMC,102654.000,A,3353.7507,N,09832.0206,W,0.29,305.92,310312,,,A*7B
$GPGGA,102655.000,3353.7507,N,09832.0204,W,1,06,1.8,309.9,M,-23.7,M,,0000*69
$GPGSA,A,3,12,05,10,04,25,02,,,,,,,3.3,1.8,2.7*38
$GPGSV,3,1,10,05,74,139,38,12,53,214,33,02,51,040,37,25,46,286,20*73
$GPGSV,3,2,10,10,31,047,32,29,26,311,,04,18,062,33,26,06,149,15*77
$GPGSV,3,3,10,13,03,042,19,48,36,230,30*7C
$GPRMC,102655.000,A,3353.7507,N,09832.0204,W,0.67,306.39,310312,,,A*70
$GPGGA,102656.000,3353.7505,N,09832.0201,W,1,06,1.8,309.9,M,-23.7,M,,0000*6D
$GPGSA,A,3,12,05,10,04,25,02,,,,,,,3.3,1.8,2.7*38
$GPRMC,102656.000,A,3353.7505,N,09832.0201,W,0.01,19.84,310312,,,A*4F
$GPGGA,102657.000,3353.7502,N,09832.0196,W,1,06,1.8,310.1,M,-23.7,M,,0000*66
$GPGSA,A,3,12,05,10,04,25,02,,,,,,,3.3,1.8,2.7*38
$GPRMC,102657.000,A,3353.7502,N,09832.0196,W,0.74,127.51,310312,,,A*72
$GPGGA,102658.000,3353.7499,N,09832.0192,W,1,06,1.8,310.2,M,-23.7,M,,0000*6D
$GPGSA,A,3,12,05,10,04,25,02,,,,,,,3.3,1.8,2.7*38
$GPRMC,102658.000,A,3353.7499,N,09832.0192,W,0.30,130.28,310312,,,A*72
$GPGGA,102659.000,3353.7497,N,09832.0188,W,1,06,1.8,310.3,M,-23.7,M,,0000*68
$GPGSA,A,3,12,05,10,04,25,02,,,,,,,3.3,1.8,2.7*38
$GPRMC,102659.000,A,3353.7497,N,09832.0188,W,0.12,136.82,310312,,,A*70
$GPGGA,102700.000,3353.7495,N,09832.0184,W,1,06,1.8,310.4,M,-23.7,M,,0000*6C
$GPGSA,A,3,12,05,10,04,25,02,,,,,,,3.3,1.8,2.7*38
$GPGSV,3,1,10,05,74,139,38,12,53,214,32,02,51,040,36,25,46,286,22*71
$GPGSV,3,2,10,10,31,047,33,29,26,311,,04,18,062,33,26,06,149,14*77
$GPGSV,3,3,10,13,03,042,18,48,36,230,30*7D
$GPRMC,102700.000,A,3353.7495,N,09832.0184,W,0.12,319.73,310312,,,A*72
$GPGGA,102701.000,3353.7494,N,09832.0183,W,1,06,1.8,310.4,M,-23.7,M,,0000*6B
$GPGSA,A,3,12,05,10,04,25,02,,,,,,,3.3,1.8,2.7*38
$GPRMC,102701.000,A,3353.7494,N,09832.0183,W,0.57,303.20,310312,,,A*79
$GPGGA,102702.000,3353.7492,N,09832.0180,W,1,06,1.8,310.5,M,-23.7,M,,0000*6C
$GPGSA,A,3,12,05,10,04,25,02,,,,,,,3.3,1.8,2.7*38
$GPRMC,102702.000,A,3353.7492,N,09832.0180,W,0.22,305.47,310312,,,A*7A
$GPGGA,102703.000,3353.7491,N,09832.0178,W,1,06,1.8,310.5,M,-23.7,M,,0000*69
$GPGSA,A,3,12,05,10,04,25,02,,,,,,,3.3,1.8,2.7*38
$GPRMC,102703.000,A,3353.7491,N,09832.0178,W,0.24,299.42,310312,,,A*78
$GPGGA,102704.000,3353.7488,N,09832.0174,W,1,06,1.8,310.6,M,-23.7,M,,0000*69
$GPGSA,A,3,12,05,10,04,25,02,,,,,,,3.3,1.8,2.7*38
$GPRMC,102704.000,A,3353.7488,N,09832.0174,W,0.30,128.40,310312,,,A*75
$GPGGA,102705.000,3353.7486,N,09832.0169,W,1,06,1.8,310.6,M,-23.7,M,,0000*6A
$GPGSA,A,3,12,05,10,04,25,02,,,,,,,3.3,1.8,2.7*38
$GPGSV,3,1,10,05,74,139,38,12,53,214,32,02,51,040,36,25,46,286,22*71
$GPGSV,3,2,10,10,31,047,32,29,26,311,,04,18,062,32,26,06,149,*72
$GPGSV,3,3,10,13,03,042,17,48,36,230,30*72
$GPRMC,102705.000,A,3353.7486,N,09832.0169,W,0.52,127.99,310312,,,A*79
$GPGGA,102706.000,3353.7484,N,09832.0167,W,1,06,1.8,310.6,M,-23.7,M,,0000*65
$GPGSA,A,3,12,05,10,04,25,02,,,,,,,3.3,1.8,2.7*38
$GPRMC,102706.000,A,3353.7484,N,09832.0167,W,0.10,155.21,310312,,,A*76
$GPGGA,102707.000,3353.7483,N,09832.0165,W,1,06,1.8,310.6,M,-23.7,M,,0000*61
$GPGSA,A,3,12,05,10,04,25,02,,,,,,,3.3,1.8,2.7*38
$GPRMC,102707.000,A,3353.7483,N,09832.0165,W,0.48,303.14,310312,,,A*78
$GPGGA,102708.000,3353.7481,N,09832.0163,W,1,06,1.8,310.6,M,-23.7,M,,0000*6A
$GPGSA,A,3,12,05,10,04,25,02,,,,,,,3.3,1.8,2.7*38
$GPRMC,102708.000,A,3353.7481,N,09832.0163,W,0.19,292.16,310312,,,A*7C
$GPGGA,102709.000,3353.7480,N,09832.0161,W,1,06,1.8,310.5,M,-23.7,M,,0000*6B
$GPGSA,A,3,12,05,10,04,25,02,,,,,,,3.3,1.8,2.7*38
$GPRMC,102709.000,A,3353.7480,N,09832.0161,W,0.08,284.01,310312,,,A*7F
$GPGGA,102710.000,3353.7479,N,09832.0160,W,1,06,1.8,310.4,M,-23.7,M,,0000*65
$GPGSA,A,3,12,05,10,04,25,02,,,,,,,3.3,1.8,2.7*38
$GPGSV,3,1,10,05,74,139,38,12,53,214,31,02,51,040,35,25,46,286,22*71
$GPGSV,3,2,10,10,31,047,33,29,26,311,,04,18,062,32,26,06,149,*73
$GPGSV,3,3,10,13,03,042,16,48,36,230,32*71
$GPRMC,102710.000,A,3353.7479,N,09832.0160,W,0.48,300.37,310312,,,A*7C
$GPGGA,102711.000,3353.7479,N,09832.0160,W,1,06,1.8,310.3,M,-23.7,M,,0000*63
$GPGSA,A,3,12,05,10,04,25,02,,,,,,,3.3,1.8,2.7*38
$GPRMC,102711.000,A,3353.7479,N,09832.0160,W,0.54,299.52,310312,,,A*72
$GPGGA,102712.000,3353.7479,N,09832.0160,W,1,06,1.8,310.2,M,-23.7,M,,0000*61
$GPGSA,A,3,12,05,10,04,25,02,,,,,,,3.3,1.8,2.7*38
$GPRMC,102712.000,A,3353.7479,N,09832.0160,W,0.67,300.79,310312,,,A*79
$GPGGA,102713.000,3353.7479,N,09832.0161,W,1,06,1.8,310.1,M,-23.7,M,,0000*62
$GPGSA,A,3,12,05,10,04,25,02,,,,,,,3.3,1.8,2.7*38
$GPRMC,102713.000,A,3353.7479,N,09832.0161,W,0.68,302.64,310312,,,A*78
$GPGGA,102714.000,3353.7479,N,09832.0161,W,1,06,1.8,309.9,M,-23.7,M,,0000*65
$GPGSA,A,3,12,05,10,04,25,02,,,,,,,3.3,1.8,2.7*38
$GPRMC,102714.000,A,3353.7479,N,09832.0161,W,0.64,302.90,310312,,,A*78
$GPGGA,102715.000,3353.7479,N,09832.0162,W,1,06,1.8,309.7,M,-23.7,M,,0000*69
$GPGSA,A,3,12,05,10,04,25,02,,,,,,,3.3,1.8,2.7*38
$GPGSV,3,1,10,05,74,139,38,12,53,214,30,02,51,040,35,25,46,286,23*71
$GPGSV,3,2,10,10,31,047,33,29,26,311,,04,18,062,31,26,06,149,*70
$GPGSV,3,3,10,13,03,042,16,48,36,230,30*73
$GPRMC,102715.000,A,3353.7479,N,09832.0162,W,0.60,301.29,310312,,,A*7F
$GPGGA,102716.000,3353.7480,N,09832.0164,W,1,06,1.8,309.5,M,-23.7,M,,0000*68
$GPGSA,A,3,12,05,10,04,25,02,,,,,,,3.3,1.8,2.7*38
$GPRMC,102716.000,A,3353.7480,N,09832.0164,W,0.93,303.86,310312,,,A*77
$GPGGA,102717.000,3353.7480,N,09832.0164,W,1,06,1.8,309.3,M,-23.7,M,,0000*6F
$GPGSA,A,3,12,05,10,04,25,02,,,,,,,3.3,1.8,2.7*38
$GPRMC,102717.000,A,3353.7480,N,09832.0164,W,0.28,299.33,310312,,,A*7A
$GPGGA,102718.000,3353.7481,N,09832.0166,W,1,06,1.8,309.1,M,-23.7,M,,0000*61
$GPGSA,A,3,12,05,10,04,25,02,,,,,,,3.3,1.8,2.7*38
$GPRMC,102718.000,A,3353.7481,N,09832.0166,W,0.70,302.69,310312,,,A*77
$GPGGA,102719.000,3353.7482,N,09832.0167,W,1,06,1.8,308.9,M,-23.7,M,,0000*6B
$GPGSA,A,3,12,05,10,04,25,02,,,,,,,3.3,1.8,2.7*38
$GPRMC,102719.000,A,3353.7482,N,09832.0167,W,0.57,302.69,310312,,,A*71
$GPGGA,102720.000,3353.7483,N,09832.0170,W,1,06,1.8,308.7,M,-23.7,M,,0000*68
$GPGSA,A,3,12,05,10,04,25,02,,,,,,,3.3,1.8,2.7*38
$GPGSV,3,1,09,05,75,136,38,12,53,214,29,02,50,041,34,25,47,284,23*7D
$GPGSV,3,2,09,10,31,046,33,29,27,312,,04,18,062,31,26,06,148,*7A
$GPGSV,3,3,09,13,02,041,15*41
$GPRMC,102720.000,A,3353.7483,N,09832.0170,W,1.04,303.43,310312,,,A*72
$GPGGA,102721.000,3353.7484,N,09832.0172,W,1,06,1.8,308.4,M,-23.7,M,,0000*6F
$GPGSA,A,3,12,05,10,04,25,02,,,,,,,3.3,1.8,2.7*38
$GPRMC,102721.000,A,3353.7484,N,09832.0172,W,0.46,301.59,310312,,,A*78
$GPGGA,102722.000,3353.7484,N,09832.0173,W,1,06,1.8,308.2,M,-23.7,M,,0000*6B
$GPGSA,A,3,12,05,10,04,25,02,,,,,,,3.3,1.8,2.7*38
$GPRMC,102722.000,A,3353.7484,N,09832.0173,W,0.49,300.37,310312,,,A*7C
$GPGGA,102723.000,3353.7486,N,09832.0176,W,1,06,1.8,307.9,M,-23.7,M,,0000*69
$GPGSA,A,3,12,05,10,04,25,02,,,,,,,3.3,1.8,2.7*38
$GPRMC,102723.000,A,3353.7486,N,09832.0176,W,1.00,303.76,310312,,,A*70
$GPGGA,102724.000,3353.7488,N,09832.0179,W,1,06,1.8,307.7,M,-23.7,M,,0000*61
$GPGSA,A,3,12,05,10,04,25,02,,,,,,,3.3,1.8,2.7*38
$GPRMC,102724.000,A,3353.7488,N,09832.0179,W,1.05,303.96,310312,,,A*7D
$GPGGA,102725.000,3353.7488,N,09832.0181,W,1,06,1.8,307.4,M,-23.7,M,,0000*64
$GPGSA,A,3,12,05,10,04,25,02,,,,,,,3.3,1.8,2.7*38
$GPGSV,3,1,09,05,75,136,37,12,53,214,29,02,50,041,33,25,47,284,22*74
$GPGSV,3,2,09,10,31,046,33,29,27,312,,04,18,062,31,26,06,148,*7A
$GPGSV,3,3,09,13,02,041,14*40
$GPRMC,102725.000,A,3353.7488,N,09832.0181,W,0.40,297.87,310312,,,A*77
$GPGGA,102726.000,3353.7490,N,09832.0184,W,1,06,1.8,307.2,M,-23.7,M,,0000*6D
$GPGSA,A,3,12,05,10,04,25,02,,,,,,,3.3,1.8,2.7*38
$GPRMC,102726.000,A,3353.7490,N,09832.0184,W,0.64,301.24,310312,,,A*79
$GPGGA,102727.000,3353.7490,N,09832.0185,W,1,06,1.8,306.9,M,-23.7,M,,0000*67
$GPGSA,A,3,12,05,10,04,25,02,,,,,,,3.3,1.8,2.7*38
$GPRMC,102727.000,A,3353.7490,N,09832.0185,W,0.43,296.92,310312,,,A*7E
$GPGGA,102728.000,3353.7492,N,09832.0189,W,1,06,1.8,306.7,M,-23.7,M,,0000*68
$GPGSA,A,3,12,05,10,04,25,02,,,,,,,3.3,1.8,2.7*38
$GPRMC,102728.000,A,3353.7492,N,09832.0189,W,0.88,302.84,310312,,,A*73
$GPGGA,102729.000,3353.7493,N,09832.0191,W,1,06,1.8,306.4,M,-23.7,M,,0000*62
$GPGSA,A,3,12,05,10,04,25,02,,,,,,,3.3,1.8,2.7*38
$GPRMC,102729.000,A,3353.7493,N,09832.0191,W,0.37,297.85,310312,,,A*72
$GPGGA,102730.000,3353.7493,N,09832.0191,W,1,06,1.8,306.2,M,-23.7,M,,0000*6C
$GPGSA,A,3,12,05,10,04,25,02,,,,,,,3.3,1.8,2.7*38
$GPGSV,3,1,09,05,75,136,37,12,53,214,29,02,50,041,32,25,47,284,21*76
$GPGSV,3,2,09,10,31,046,33,29,27,312,,04,18,062,31,26,06,148,*7A
$GPGSV,3,3,09,13,02,041,13*47
$GPRMC,102730.000,A,3353.7493,N,09832.0191,W,0.26,147.00,310312,,,A*79
$GPGGA,102731.000,3353.7493,N,09832.0193,W,1,06,1.8,306.0,M,-23.7,M,,0000*6D
$GPGSA,A,3,12,05,10,04,25,02,,,,,,,3.3,1.8,2.7*38
$GPRMC,102731.000,A,3353.7493,N,09832.0193,W,0.28,285.27,310312,,,A*7C
$GPGGA,102732.000,3353.7494,N,09832.0195,W,1,06,1.8,305.8,M,-23.7,M,,0000*64
$GPGSA,A,3,12,05,10,04,25,02,,,,,,,3.3,1.8,2.7*38
$GPRMC,102732.000,A,3353.7494,N,09832.0195,W,0.41,296.69,310312,,,A*79
$GPGGA,102733.000,3353.7496,N,09832.0197,W,1,06,1.8,305.6,M,-23.7,M,,0000*6B
$GPGSA,A,3,12,05,10,04,25,02,,,,,,,3.3,1.8,2.7*38
$GPRMC,102733.000,A,3353.7496,N,09832.0197,W,0.62,300.58,310312,,,A*75
$GPGGA,102734.000,3353.7495,N,09832.0197,W,1,06,1.8,305.5,M,-23.7,M,,0000*6C
$GPGSA,A,3,12,05,10,04,25,02,,,,,,,3.3,1.8,2.7*38
$GPRMC,102734.000,A,3353.7495,N,09832.0197,W,0.11,279.35,310312,,,A*71
$GPGGA,102735.000,3353.7496,N,09832.0199,W,1,06,1.8,305.3,M,-23.7,M,,0000*66
$GPGSA,A,3,12,05,10,04,25,02,,,,,,,3.3,1.8,2.7*38
$GPGSV,3,1,09,05,75,136,37,12,53,214,29,02,50,041,31,25,47,284,21*75
$GPGSV,3,2,09,10,31,046,33,29,27,312,,04,18,062,31,26,06,148,*7A
$GPGSV,3,3,09,13,02,041,13*47
$GPRMC,102735.000,A,3353.7496,N,09832.0199,W,0.55,302.27,310312,,,A*73
$GPGGA,102736.000,3353.7497,N,09832.0201,W,1,06,1.8,305.1,M,-23.7,M,,0000*64
$GPGSA,A,3,12,05,10,04,25,02,,,,,,,3.3,1.8,2.7*38
$GPRMC,102736.000,A,3353.7497,N,09832.0201,W,0.23,293.21,310312,,,A*7D
$GPGGA,102737.000,3353.7498,N,09832.0203,W,1,06,1.8,304.9,M,-23.7,M,,0000*61
$GPGSA,A,3,12,05,10,04,25,02,,,,,,,3.3,1.8,2.7*38
$GPRMC,102737.000,A,3353.7498,N,09832.0203,W,0.06,214.27,310312,,,A*7F
$GPGGA,102738.000,3353.7499,N,09832.0205,W,1,06,1.8,304.7,M,-23.7,M,,0000*67
$GPGSA,A,3,12,05,10,04,25,02,,,,,,,3.3,1.8,2.7*38
$GPRMC,102738.000,A,3353.7499,N,09832.0205,W,0.14,163.71,310312,,,A*74
$GPGGA,102739.000,3353.7500,N,09832.0207,W,1,06,1.8,304.5,M,-23.7,M,,0000*67
$GPGSA,A,3,12,05,10,04,25,02,,,,,,,3.3,1.8,2.7*38
$GPRMC,102739.000,A,3353.7500,N,09832.0207,W,0.09,247.36,310312,,,A*7C
$GPGGA,102740.000,3353.7503,N,09832.0211,W,1,06,1.8,304.3,M,-23.7,M,,0000*6B
$GPGSA,A,3,12,05,10,04,25,02,,,,,,,3.3,1.8,2.7*38
$GPGSV,3,1,09,05,75,136,36,12,53,214,29,02,50,041,30,25,47,284,22*76
$GPGSV,3,2,09,10,31,046,33,29,27,312,,04,18,062,30,26,06,148,18*72
$GPGSV,3,3,09,13,02,041,13*47
$GPRMC,102740.000,A,3353.7503,N,09832.0211,W,0.60,300.28,310312,,,A*74
$GPGGA,102741.000,3353.7505,N,09832.0215,W,1,06,1.8,304.1,M,-23.7,M,,0000*6A
$GPGSA,A,3,12,05,10,04,25,02,,,,,,,3.3,1.8,2.7*38
$GPRMC,102741.000,A,3353.7505,N,09832.0215,W,0.38,297.37,310312,,,A*7B
$GPGGA,102742.000,3353.7508,N,09832.0220,W,1,06,1.8,303.8,M,-23.7,M,,0000*6C
$GPGSA,A,3,12,05,10,04,25,02,,,,,,,3.2,1.8,2.7*39
$GPRMC,102742.000,A,3353.7508,N,09832.0220,W,0.26,297.11,310312,,,A*78
$GPGGA,102743.000,3353.7510,N,09832.0223,W,1,06,1.8,303.6,M,-23.7,M,,0000*69
$GPGSA,A,3,12,05,10,04,25,02,,,,,,,3.2,1.8,2.7*39
$GPRMC,102743.000,A,3353.7510,N,09832.0223,W,0.12,258.30,310312,,,A*74
$GPGGA,102744.000,3353.7511,N,09832.0226,W,1,06,1.8,303.4,M,-23.7,M,,0000*68
$GPGSA,A,3,12,05,10,04,25,02,,,,,,,3.2,1.8,2.7*39
$GPRMC,102744.000,A,3353.7511,N,09832.0226,W,0.09,222.29,310312,,,A*78
$GPGGA,102745.000,3353.7513,N,09832.0229,W,1,06,1.8,303.2,M,-23.7,M,,0000*62
$GPGSA,A,3,12,05,10,04,25,02,,,,,,,3.2,1.8,2.7*39
$GPGSV,3,1,09,05,75,136,36,12,53,214,28,02,50,041,31,25,47,284,27*73
$GPGSV,3,2,09,10,31,046,33,29,27,312,,04,18,062,30,26,06,148,19*73
$GPGSV,3,3,09,13,02,041,12*46
$GPRMC,102745.000,A,3353.7513,N,09832.0229,W,0.08,203.90,310312,,,A*74
$GPGGA,102746.000,3353.7514,N,09832.0231,W,1,06,1.8,303.1,M,-23.7,M,,0000*6C
$GPGSA,A,3,12,05,10,04,25,02,,,,,,,3.2,1.8,2.7*39
$GPRMC,102746.000,A,3353.7514,N,09832.0231,W,0.09,183.00,310312,,,A*7A
$GPGGA,102747.000,3353.7515,N,09832.0233,W,1,06,1.8,303.0,M,-23.7,M,,0000*6F
$GPGSA,A,3,12,05,10,04,25,02,,,,,,,3.2,1.8,2.7*39
$GPRMC,102747.000,A,3353.7515,N,09832.0233,W,0.10,171.41,310312,,,A*78
$GPGGA,102748.000,3353.7516,N,09832.0235,W,1,06,1.8,302.9,M,-23.7,M,,0000*6D
$GPGSA,A,3,12,05,10,04,25,02,,,,,,,3.2,1.8,2.7*39
$GPRMC,102748.000,A,3353.7516,N,09832.0235,W,0.11,174.35,310312,,,A*75
$GPGGA,102749.000,3353.7517,N,09832.0236,W,1,06,1.8,302.8,M,-23.7,M,,0000*6F
$GPGSA,A,3,12,05,10,04,25,02,,,,,,,3.2,1.8,2.7*39
$GPRMC,102749.000,A,3353.7517,N,09832.0236,W,0.08,176.26,310312,,,A*7E
$GPGGA,102750.000,3353.7517,N,09832.0238,W,1,06,1.8,302.7,M,-23.7,M,,0000*66
$GPGSA,A,3,12,05,10,04,25,02,,,,,,,3.2,1.8,2.7*39
$GPGSV,3,1,09,05,75,136,35,12,52,213,29,02,50,041,31,25,47,284,28*78
$GPGSV,3,2,09,10,30,046,33,29,27,312,,04,18,062,30,26,06,148,20*78
$GPGSV,3,3,09,13,02,041,*45
$GPRMC,102750.000,A,3353.7517,N,09832.0238,W,0.07,170.14,310312,,,A*70
$GPGGA,102751.000,3353.7518,N,09832.0239,W,1,06,1.8,302.7,M,-23.7,M,,0000*69
$GPGSA,A,3,12,05,10,04,25,02,,,,,,,3.2,1.8,2.7*39
$GPRMC,102751.000,A,3353.7518,N,09832.0239,W,0.08,179.40,310312,,,A*78
$GPGGA,102752.000,3353.7518,N,09832.0239,W,1,06,1.8,302.7,M,-23.7,M,,0000*6A
$GPGSA,A,3,12,05,10,04,25,02,,,,,,,3.2,1.8,2.7*39
$GPRMC,102752.000,A,3353.7518,N,09832.0239,W,0.07,171.54,310312,,,A*79
$GPGGA,102753.000,3353.7518,N,09832.0240,W,1,06,1.8,302.7,M,-23.7,M,,0000*65
$GPGSA,A,3,12,05,10,04,25,02,,,,,,,3.2,1.8,2.7*39
$GPRMC,102753.000,A,3353.7518,N,09832.0240,W,0.07,160.63,310312,,,A*72
$GPGGA,102754.000,3353.7518,N,09832.0240,W,1,06,1.8,302.7,M,-23.7,M,,0000*62
$GPGSA,A,3,12,05,10,04,25,02,,,,,,,3.2,1.8,2.7*39
$GPRMC,102754.000,A,3353.7518,N,09832.0240,W,0.08,156.21,310312,,,A*79
$GPGGA,102755.000,3353.7519,N,09832.0240,W,1,06,1.8,302.7,M,-23.7,M,,0000*62
$GPGSA,A,3,12,05,10,04,25,02,,,,,,,3.2,1.8,2.7*39
$GPGSV,3,1,09,05,75,136,35,12,52,213,29,02,50,041,31,25,47,284,29*79
$GPGSV,3,2,09,10,30,046,33,29,27,312,,04,18,062,29,26,06,148,21*71
$GPGSV,3,3,09,13,02,041,*45
$GPRMC,102755.000,A,3353.7519,N,09832.0240,W,0.05,169.38,310312,,,A*70
$GPGGA,102756.000,3353.7519,N,09832.0240,W,1,06,1.8,302.7,M,-23.7,M,,0000*61
$GPGSA,A,3,12,05,10,04,25,02,,,,,,,3.2,1.8,2.7*39
$GPRMC,102756.000,A,3353.7519,N,09832.0240,W,0.05,187.45,310312,,,A*79
$GPGGA,102757.000,3353.7519,N,09832.0240,W,1,06,1.8,302.6,M,-23.7,M,,0000*61
$GPGSA,A,3,12,05,10,04,25,02,,,,,,,3.2,1.8,2.7*39
$GPRMC,102757.000,A,3353.7519,N,09832.0240,W,0.06,162.84,310312,,,A*7D
$GPGGA,102758.000,3353.7519,N,09832.0240,W,1,06,1.8,302.5,M,-23.7,M,,0000*6D
$GPGSA,A,3,12,05,10,04,25,02,,,,,,,3.2,1.8,2.7*39
$GPRMC,102758.000,A,3353.7519,N,09832.0240,W,0.06,170.85,310312,,,A*70
$GPGGA,102759.000,3353.7518,N,09832.0240,W,1,06,1.8,302.3,M,-23.7,M,,0000*6B
$GPGSA,A,3,12,05,10,04,25,02,,,,,,,3.2,1.8,2.7*39
$GPRMC,102759.000,A,3353.7518,N,09832.0240,W,0.07,186.38,310312,,,A*7E
$GPGGA,102800.000,3353.7518,N,09832.0240,W,1,06,1.8,302.1,M,-23.7,M,,0000*6A
$GPGSA,A,3,12,05,10,04,25,02,,,,,,,3.2,1.8,2.7*39
$GPGSV,3,1,09,05,75,136,35,12,52,213,29,02,50,041,31,25,47,284,30*71
$GPGSV,3,2,09,10,30,046,33,29,27,312,,04,18,062,29,26,06,148,21*71
$GPGSV,3,3,09,13,02,041,*45
$GPRMC,102800.000,A,3353.7518,N,09832.0240,W,0.07,189.59,310312,,,A*75
$GPGGA,102801.000,3353.7518,N,09832.0240,W,1,06,1.8,301.9,M,-23.7,M,,0000*60
$GPGSA,A,3,12,05,10,04,25,02,,,,,,,3.2,1.8,2.7*39
$GPRMC,102801.000,A,3353.7518,N,09832.0240,W,0.08,204.17,310312,,,A*77
$GPGGA,102802.000,3353.7518,N,09832.0239,W,1,06,1.8,301.6,M,-23.7,M,,0000*62
$GPGSA,A,3,12,05,10,04,25,02,,,,,,,3.2,1.8,2.7*39
$GPRMC,102802.000,A,3353.7518,N,09832.0239,W,0.09,198.33,310312,,,A*7B
$GPGGA,102803.000,3353.7517,N,09832.0239,W,1,06,1.8,301.3,M,-23.7,M,,0000*69
$GPGSA,A,3,12,05,10,04,25,02,,,,,,,3.2,1.8,2.7*39
$GPRMC,102803.000,A,3353.7517,N,09832.0239,W,0.09,188.24,310312,,,A*72
$GPGGA,102804.000,3353.7517,N,09832.0239,W,1,06,1.8,301.0,M,-23.7,M,,0000*6D
$GPGSA,A,3,12,05,10,04,25,02,,,,,,,3.2,1.8,2.7*39
$GPRMC,102804.000,A,3353.7517,N,09832.0239,W,0.11,186.49,310312,,,A*79
$GPGGA,102805.000,3353.7516,N,09832.0238,W,1,06,1.8,300.6,M,-23.7,M,,0000*6B
$GPGSA,A,3,12,05,10,04,25,02,,,,,,,3.2,1.8,2.7*39
$GPGSV,3,1,09,05,75,136,35,12,52,213,29,02,50,041,31,25,47,284,30*71
$GPGSV,3,2,09,10,30,046,33,29,27,312,19,04,18,062,28,26,06,148,21*78
$GPGSV,3,3,09,13,02,041,*45
$GPRMC,102805.000,A,3353.7516,N,09832.0238,W,0.11,189.19,310312,,,A*72
$GPGGA,102806.000,3353.7516,N,09832.0238,W,1,06,1.8,300.2,M,-23.7,M,,0000*6C
$GPGSA,A,3,12,05,10,04,25,02,,,,,,,3.2,1.8,2.7*39
$GPRMC,102806.000,A,3353.7516,N,09832.0238,W,0.10,187.52,310312,,,A*71
$GPGGA,102807.000,3353.7515,N,09832.0238,W,1,06,1.8,299.9,M,-23.7,M,,0000*64
$GPGSA,A,3,12,05,10,04,25,02,,,,,,,3.2,1.8,2.7*39
$GPRMC,102807.000,A,3353.7515,N,09832.0238,W,0.12,210.09,310312,,,A*72
$GPGGA,102808.000,3353.7515,N,09832.0237,W,1,06,1.8,299.5,M,-23.7,M,,0000*68
$GPGSA,A,3,12,05,10,04,25,02,,,,,,,3.2,1.8,2.7*39
$GPRMC,102808.000,A,3353.7515,N,09832.0237,W,0.12,178.14,310312,,,A*73
$GPGGA,102809.000,3353.7514,N,09832.0237,W,1,06,1.8,299.1,M,-23.7,M,,0000*6C
$GPGSA,A,3,12,05,10,04,25,02,,,,,,,3.2,1.8,2.7*39
$GPRMC,102809.000,A,3353.7514,N,09832.0237,W,0.11,207.90,310312,,,A*77
$GPGGA,102810.000,3353.7514,N,09832.0236,W,1,06,1.8,298.7,M,-23.7,M,,0000*62
$GPGSA,A,3,12,05,10,04,25,02,,,,,,,3.2,1.8,2.7*39
$GPGSV,3,1,09,05,75,136,35,12,52,213,28,02,50,041,30,25,47,284,31*70
$GPGSV,3,2,09,10,30,046,33,29,27,312,19,04,18,062,27,26,06,148,21*77
$GPGSV,3,3,09,13,02,041,*45
$GPRMC,102810.000,A,3353.7514,N,09832.0236,W,0.12,183.43,310312,,,A*7C
$GPGGA,102811.000,3353.7513,N,09832.0235,W,1,06,1.8,298.3,M,-23.7,M,,0000*63
$GPGSA,A,3,12,05,10,04,25,02,,,,,,,3.2,1.8,2.7*39
$GPRMC,102811.000,A,3353.7513,N,09832.0235,W,0.11,173.63,310312,,,A*77
$GPGGA,102812.000,3353.7513,N,09832.0235,W,1,06,1.8,297.9,M,-23.7,M,,0000*65
$GPGSA,A,3,12,05,10,04,25,02,,,,,,,3.2,1.8,2.7*39
$GPRMC,102812.000,A,3353.7513,N,09832.0235,W,0.13,160.76,310312,,,A*70
$GPGGA,102813.000,3353.7512,N,09832.0234,W,1,06,1.8,297.5,M,-23.7,M,,0000*68
$GPGSA,A,3,12,05,10,04,25,02,,,,,,,3.2,1.8,2.7*39
$GPRMC,102813.000,A,3353.7512,N,09832.0234,W,0.14,175.42,310312,,,A*75
$GPGGA,102814.000,3353.7512,N,09832.0234,W,1,06,1.8,297.1,M,-23.7,M,,0000*6B
$GPGSA,A,3,12,05,10,04,25,02,,,,,,,3.2,1.8,2.7*39
$GPRMC,102814.000,A,3353.7512,N,09832.0234,W,0.12,206.45,310312,,,A*74
$GPGGA,102815.000,3353.7512,N,09832.0233,W,1,06,1.8,296.7,M,-23.7,M,,0000*6A
$GPGSA,A,3,12,05,10,04,25,02,,,,,,,3.2,1.8,2.7*39
$GPGSV,3,1,09,05,75,136,34,12,52,213,28,02,50,041,30,25,47,284,31*71
$GPGSV,3,2,09,10,30,046,34,29,27,312,19,04,18,062,26,26,06,148,21*71
$GPGSV,3,3,09,13,02,041,*45
$GPRMC,102815.000,A,3353.7512,N,09832.0233,W,0.12,190.90,310312,,,A*76
$GPGGA,102816.000,3353.7511,N,09832.0233,W,1,06,1.8,296.4,M,-23.7,M,,0000*69
$GPGSA,A,3,12,05,10,04,25,02,,,,,,,3.2,1.8,2.7*39
$GPRMC,102816.000,A,3353.7511,N,09832.0233,W,0.12,202.64,310312,,,A*75
$GPGGA,102817.000,3353.7511,N,09832.0233,W,1,06,1.8,296.1,M,-23.7,M,,0000*6D
$GPGSA,A,3,12,05,10,04,25,02,,,,,,,3.2,1.8,2.7*39
$GPRMC,102817.000,A,3353.7511,N,09832.0233,W,0.15,195.34,310312,,,A*7B
$GPGGA,102818.000,3353.7511,N,09832.0232,W,1,06,1.8,295.8,M,-23.7,M,,0000*69
$GPGSA,A,3,12,05,10,04,25,02,,,,,,,3.2,1.8,2.7*39
$GPRMC,102818.000,A,3353.7511,N,09832.0232,W,0.09,190.39,310312,,,A*70
$GPGGA,102819.000,3353.7510,N,09832.0232,W,1,06,1.8,295.6,M,-23.7,M,,0000*67
$GPGSA,A,3,12,05,10,04,25,02,,,,,,,3.2,1.8,2.7*39
$GPRMC,102819.000,A,3353.7510,N,09832.0232,W,0.10,171.14,310312,,,A*78
$GPGGA,102820.000,3353.7511,N,09832.0232,W,1,06,1.8,295.5,M,-23.7,M,,0000*6F
$GPGSA,A,3,12,05,10,04,25,02,,,,,,,3.2,1.8,2.7*39
$GPGSV,3,1,10,05,75,135,34,12,52,213,27,02,50,041,30,25,47,284,31*75
$GPGSV,3,2,10,10,30,046,34,29,27,312,19,04,18,062,25,26,07,148,21*7B
$GPGSV,3,3,10,13,02,041,,51,49,195,33*79
$GPRMC,102820.000,A,3353.7511,N,09832.0232,W,0.10,273.84,310312,,,A*7B
$GPGGA,102821.000,3353.7512,N,09832.0232,W,1,06,1.8,295.8,M,-23.7,M,,0000*60
$GPGSA,A,3,12,05,10,04,25,02,,,,,,,3.2,1.8,2.7*39
$GPRMC,102821.000,A,3353.7512,N,09832.0232,W,0.13,267.16,310312,,,A*74
$GPGGA,102822.000,3353.7513,N,09832.0231,W,1,06,1.8,296.0,M,-23.7,M,,0000*6A
$GPGSA,A,3,12,05,10,04,25,02,,,,,,,3.2,1.8,2.7*39
$GPRMC,102822.000,A,3353.7513,N,09832.0231,W,0.08,283.97,310312,,,A*7C
$GPGGA,102823.000,3353.7514,N,09832.0231,W,1,06,1.8,296.4,M,-23.7,M,,0000*68
$GPGSA,A,3,12,05,10,04,25,02,,,,,,,3.2,1.8,2.7*39
$GPRMC,102823.000,A,3353.7514,N,09832.0231,W,0.07,57.11,310312,,,A*40
$GPGGA,102824.000,3353.7515,N,09832.0231,W,1,06,1.8,296.9,M,-23.7,M,,0000*63
$GPGSA,A,3,12,05,10,04,25,02,,,,,,,3.2,1.8,2.7*39
$GPRMC,102824.000,A,3353.7515,N,09832.0231,W,0.18,316.10,310312,,,A*7F
$GPGGA,102825.000,3353.7518,N,09832.0232,W,1,06,1.8,297.9,M,-23.7,M,,0000*6D
$GPGSA,A,3,12,05,10,04,25,02,,,,,,,3.2,1.8,2.7*39
$GPGSV,3,1,10,05,75,135,33,12,52,213,24,02,50,041,30,25,47,284,32*72
$GPGSV,3,2,10,10,30,046,34,29,27,312,17,04,18,062,24,26,07,148,14*72
$GPGSV,3,3,10,13,02,041,,51,49,195,33*79
$GPRMC,102825.000,A,3353.7518,N,09832.0232,W,0.40,326.54,310312,,,A*7E
$GPGGA,102826.000,3353.7521,N,09832.0232,W,1,06,1.8,298.9,M,-23.7,M,,0000*6B
$GPGSA,A,3,12,05,10,04,25,02,,,,,,,3.2,1.8,2.7*39
$GPRMC,102826.000,A,3353.7521,N,09832.0232,W,0.56,333.04,310312,,,A*71
$GPGGA,102827.000,3353.7524,N,09832.0232,W,1,06,1.8,299.8,M,-23.7,M,,0000*6F
$GPGSA,A,3,12,05,10,04,25,02,,,,,,,3.2,1.8,2.7*39
$GPRMC,102827.000,A,3353.7524,N,09832.0232,W,0.36,9.84,310312,,,A*71
$GPGGA,102828.000,3353.7525,N,09832.0231,W,1,06,1.8,300.4,M,-23.7,M,,0000*6F
$GPGSA,A,3,12,05,10,04,25,02,,,,,,,3.2,1.8,2.7*39
$GPRMC,102828.000,A,3353.7525,N,09832.0231,W,0.14,104.29,310312,,,A*77
$GPGGA,102829.000,3353.7527,N,09832.0230,W,1,06,1.8,301.0,M,-23.7,M,,0000*68
$GPGSA,A,3,12,05,10,04,25,02,,,,,,,3.2,1.8,2.7*39
$GPRMC,102829.000,A,3353.7527,N,09832.0230,W,0.52,22.39,310312,,,A*43
$GPGGA,102830.000,3353.7529,N,09832.0229,W,1,06,1.8,301.6,M,-23.7,M,,0000*60
$GPGSA,A,3,12,05,10,04,25,02,,,,,,,3.2,1.8,2.7*39
$GPGSV,3,1,10,05,75,135,33,12,52,213,23,02,50,041,31,25,47,284,32*74
$GPGSV,3,2,10,10,30,046,35,29,27,312,15,04,18,062,18,26,07,148,*7B
$GPGSV,3,3,10,13,02,041,,51,49,195,33*79
$GPRMC,102830.000,A,3353.7529,N,09832.0229,W,0.32,33.43,310312,,,A*46
$GPGGA,102831.000,3353.7531,N,09832.0228,W,1,06,1.8,302.1,M,-23.7,M,,0000*6D
$GPGSA,A,3,12,05,10,04,25,02,,,,,,,3.2,1.8,2.7*39
$GPRMC,102831.000,A,3353.7531,N,09832.0228,W,0.31,32.01,310312,,,A*4B
$GPGGA,102832.000,3353.7532,N,09832.0228,W,1,06,1.8,302.7,M,-23.7,M,,0000*6B
$GPGSA,A,3,12,05,10,04,25,02,,,,,,,3.2,1.8,2.7*39
$GPRMC,102832.000,A,3353.7532,N,09832.0228,W,0.12,309.00,310312,,,A*70
$GPGGA,102833.000,3353.7533,N,09832.0228,W,1,06,1.8,303.3,M,-23.7,M,,0000*6E
$GPGSA,A,3,12,05,10,04,25,02,,,,,,,3.2,1.8,2.7*39
$GPRMC,102833.000,A,3353.7533,N,09832.0228,W,0.22,236.07,310312,,,A*79
$GPGGA,102834.000,3353.7534,N,09832.0228,W,1,06,1.8,303.7,M,-23.7,M,,0000*6A
$GPGSA,A,3,12,05,10,04,25,02,,,,,,,3.2,1.8,2.7*39
$GPRMC,102834.000,A,3353.7534,N,09832.0228,W,0.18,283.63,310312,,,A*7C
$GPGGA,102835.000,3353.7534,N,09832.0227,W,1,06,1.8,304.0,M,-23.7,M,,0000*64
$GPGSA,A,3,12,05,10,04,25,02,,,,,,,3.2,1.8,2.6*38
$GPGSV,3,1,10,05,75,135,33,12,52,213,22,02,50,041,31,25,47,284,31*76
$GPGSV,3,2,10,10,30,046,35,29,27,312,14,04,18,062,16,26,07,148,*74
$GPGSV,3,3,10,13,02,041,,51,49,195,33*79
$GPRMC,102835.000,A,3353.7534,N,09832.0227,W,0.15,283.11,310312,,,A*7A
$GPGGA,102836.000,3353.7536,N,09832.0227,W,1,06,1.8,304.2,M,-23.7,M,,0000*67
$GPGSA,A,3,12,05,10,04,25,02,,,,,,,3.2,1.8,2.6*38
$GPRMC,102836.000,A,3353.7536,N,09832.0227,W,0.45,339.67,310312,,,A*7F
$GPGGA,102837.000,3353.7537,N,09832.0227,W,1,06,1.8,304.4,M,-23.7,M,,0000*61
$GPGSA,A,3,12,05,10,04,25,02,,,,,,,3.2,1.8,2.6*38
$GPRMC,102837.000,A,3353.7537,N,09832.0227,W,0.25,300.18,310312,,,A*7B
$GPGGA,102838.000,3353.7537,N,09832.0227,W,1,06,1.8,304.6,M,-23.7,M,,0000*6C
$GPGSA,A,3,12,05,10,04,25,02,,,,,,,3.2,1.8,2.6*38
$GPRMC,102838.000,A,3353.7537,N,09832.0227,W,0.15,252.65,310312,,,A*7B
$GPGGA,102839.000,3353.7537,N,09832.0226,W,1,06,1.8,304.9,M,-23.7,M,,0000*63
$GPGSA,A,3,12,05,10,04,25,02,,,,,,,3.2,1.8,2.6*38
$GPRMC,102839.000,A,3353.7537,N,09832.0226,W,0.09,144.10,310312,,,A*70
$GPGGA,102840.000,3353.7539,N,09832.0225,W,1,06,1.8,305.3,M,-23.7,M,,0000*6B
$GPGSA,A,3,12,05,10,04,25,02,,,,,,,3.2,1.8,2.6*38
$GPGSV,3,1,10,05,75,135,33,12,52,213,22,02,50,041,32,25,47,284,30*74
$GPGSV,3,2,10,10,30,046,35,29,27,312,14,04,18,062,17,26,07,148,*75
$GPGSV,3,3,10,13,02,041,,51,49,195,33*79
$GPRMC,102840.000,A,3353.7539,N,09832.0225,W,0.32,29.65,310312,,,A*43
$GPGGA,102841.000,3353.7540,N,09832.0223,W,1,05,2.1,305.7,M,-23.7,M,,0000*6F
$GPGSA,A,3,12,05,10,25,02,,,,,,,,4.7,2.1,4.2*36
$GPRMC,102841.000,A,3353.7540,N,09832.0223,W,0.18,75.72,310312,,,A*4D
$GPGGA,102842.000,3353.7542,N,09832.0223,W,1,05,2.1,306.1,M,-23.7,M,,0000*6B
$GPGSA,A,3,12,05,10,25,02,,,,,,,,4.7,2.1,4.2*36
$GPRMC,102842.000,A,3353.7542,N,09832.0223,W,0.35,13.46,310312,,,A*44
$GPGGA,102843.000,3353.7543,N,09832.0222,W,1,06,1.8,306.3,M,-23.7,M,,0000*61
$GPGSA,A,3,12,05,10,04,25,02,,,,,,,3.2,1.8,2.6*38
$GPRMC,102843.000,A,3353.7543,N,09832.0222,W,0.10,38.49,310312,,,A*44
$GPGGA,102844.000,3353.7542,N,09832.0221,W,1,06,1.8,306.4,M,-23.7,M,,0000*63
$GPGSA,A,3,12,05,10,04,25,02,,,,,,,3.2,1.8,2.6*38
$GPRMC,102844.000,A,3353.7542,N,09832.0221,W,0.07,172.09,310312,,,A*7C
$GPGGA,102845.000,3353.7542,N,09832.0221,W,1,06,1.8,306.3,M,-23.7,M,,0000*65
$GPGSA,A,3,12,05,10,04,25,02,,,,,,,3.2,1.8,2.6*38
$GPGSV,3,1,10,05,75,135,33,12,52,213,22,02,50,041,32,25,47,284,30*74
$GPGSV,3,2,10,10,30,046,35,29,27,312,15,04,18,062,19,26,07,148,*7A
$GPGSV,3,3,10,13,02,041,,51,49,195,33*79
$GPRMC,102845.000,A,3353.7542,N,09832.0221,W,0.18,303.14,310312,,,A*7B
$GPGGA,102846.000,3353.7542,N,09832.0221,W,1,06,1.8,306.3,M,-23.7,M,,0000*66
$GPGSA,A,3,12,05,10,04,25,02,,,,,,,3.2,1.8,2.6*38
$GPRMC,102846.000,A,3353.7542,N,09832.0221,W,0.18,304.28,310312,,,A*70
$GPGGA,102847.000,3353.7542,N,09832.0221,W,1,06,1.8,306.3,M,-23.7,M,,0000*67
$GPGSA,A,3,12,05,10,04,25,02,,,,,,,3.2,1.8,2.6*38
$GPRMC,102847.000,A,3353.7542,N,09832.0221,W,0.45,351.33,310312,,,A*73
$GPGGA,102848.000,3353.7543,N,09832.0221,W,1,06,1.8,306.6,M,-23.7,M,,0000*6C
$GPGSA,A,3,12,05,10,04,25,02,,,,,,,3.2,1.8,2.6*38
$GPRMC,102848.000,A,3353.7543,N,09832.0221,W,0.15,8.60,310312,,,A*71
$GPGGA,102849.000,3353.7543,N,09832.0221,W,1,06,1.8,307.0,M,-23.7,M,,0000*6A
$GPGSA,A,3,12,05,10,04,25,02,,,,,,,3.2,1.8,2.6*38
$GPRMC,102849.000,A,3353.7543,N,09832.0221,W,0.07,325.72,310312,,,A*7C
$GPGGA,102850.000,3353.7543,N,09832.0221,W,1,06,1.8,307.5,M,-23.7,M,,0000*67
$GPGSA,A,3,12,05,10,04,25,02,,,,,,,3.2,1.8,2.6*38
$GPGSV,3,1,10,05,75,134,33,12,52,213,21,02,50,041,33,25,47,283,30*70
$GPGSV,3,2,10,10,30,046,35,29,27,312,14,04,17,063,20,26,07,148,*7F
$GPGSV,3,3,10,13,02,041,,51,49,195,33*79
$GPRMC,102850.000,A,3353.7543,N,09832.0221,W,0.06,239.10,310312,,,A*7D
$GPGGA,102851.000,3353.7544,N,09832.0220,W,1,06,1.8,308.0,M,-23.7,M,,0000*6A
$GPGSA,A,3,12,05,10,04,25,02,,,,,,,3.2,1.8,2.6*38
$GPRMC,102851.000,A,3353.7544,N,09832.0220,W,0.08,127.60,310312,,,A*7F
$GPGGA,102852.000,3353.7545,N,09832.0220,W,1,06,1.8,308.6,M,-23.7,M,,0000*6E
$GPGSA,A,3,12,05,10,04,25,02,,,,,,,3.2,1.8,2.6*38
$GPRMC,102852.000,A,3353.7545,N,09832.0220,W,0.32,4.63,310312,,,A*77
$GPGGA,102853.000,3353.7547,N,09832.0221,W,1,06,1.8,309.4,M,-23.7,M,,0000*6F
$GPGSA,A,3,12,05,10,04,25,02,,,,,,,3.2,1.8,2.6*38
$GPRMC,102853.000,A,3353.7547,N,09832.0221,W,0.41,1.11,310312,,,A*71
$GPGGA,102854.000,3353.7549,N,09832.0221,W,1,06,1.8,310.3,M,-23.7,M,,0000*69
$GPGSA,A,3,12,05,10,04,25,02,,,,,,,3.2,1.8,2.6*38
$GPRMC,102854.000,A,3353.7549,N,09832.0221,W,0.44,353.73,310312,,,A*7D
$GPGGA,102855.000,3353.7551,N,09832.0221,W,1,06,1.8,311.1,M,-23.7,M,,0000*62
$GPGSA,A,3,12,05,10,04,25,02,,,,,,,3.2,1.8,2.6*38
$GPGSV,3,1,10,05,75,134,34,12,52,213,21,02,50,041,33,25,47,283,30*77
$GPGSV,3,2,10,10,30,046,35,29,27,312,14,04,17,063,21,26,07,148,*7E
$GPGSV,3,3,10,13,02,041,,51,49,195,33*79
$GPRMC,102855.000,A,3353.7551,N,09832.0221,W,0.12,325.77,310312,,,A*73
$GPGGA,102856.000,3353.7551,N,09832.0222,W,1,06,1.8,311.7,M,-23.7,M,,0000*64
$GPGSA,A,3,12,05,10,04,25,02,,,,,,,3.2,1.8,2.6*38
$GPRMC,102856.000,A,3353.7551,N,09832.0222,W,0.15,220.70,310312,,,A*77
$GPGGA,102857.000,3353.7550,N,09832.0221,W,1,06,1.8,312.1,M,-23.7,M,,0000*62
$GPGSA,A,3,12,05,10,04,25,02,,,,,,,3.2,1.8,2.6*38
$GPRMC,102857.000,A,3353.7550,N,09832.0221,W,0.28,151.01,310312,,,A*79
$GPGGA,102858.000,3353.7550,N,09832.0222,W,1,06,1.8,312.4,M,-23.7,M,,0000*6B
$GPGSA,A,3,12,05,10,04,25,02,,,,,,,3.2,1.8,2.6*38
$GPRMC,102858.000,A,3353.7550,N,09832.0222,W,0.18,357.23,310312,,,A*72
$GPGGA,102859.000,3353.7549,N,09832.0222,W,1,06,1.8,312.7,M,-23.7,M,,0000*61
$GPGSA,A,3,12,05,10,04,25,02,,,,,,,3.2,1.8,2.6*38
$GPRMC,102859.000,A,3353.7549,N,09832.0222,W,0.24,182.41,310312,,,A*7A
$GPGGA,102900.000,3353.7547,N,09832.0222,W,1,06,1.8,312.8,M,-23.7,M,,0000*6D
$GPGSA,A,3,12,05,10,04,25,02,,,,,,,3.2,1.8,2.6*38
$GPGSV,3,1,10,05,75,134,34,12,52,213,21,02,50,041,33,25,47,283,29*7F
$GPGSV,3,2,10,10,30,046,35,29,27,312,13,04,17,063,23,26,07,148,*7B
$GPGSV,3,3,10,13,02,041,,51,49,195,33*79
$GPRMC,102900.000,A,3353.7547,N,09832.0222,W,0.46,191.01,310312,,,A*7B
$GPGGA,102901.000,3353.7545,N,09832.0223,W,1,06,1.8,312.8,M,-23.7,M,,0000*6F
$GPGSA,A,3,12,05,10,04,25,02,,,,,,,3.2,1.8,2.6*38
$GPRMC,102901.000,A,3353.7545,N,09832.0223,W,0.28,191.05,310312,,,A*75
$GPGGA,102902.000,3353.7543,N,09832.0223,W,1,06,1.8,312.9,M,-23.7,M,,0000*6B
$GPGSA,A,3,12,05,10,04,25,02,,,,,,,3.2,1.8,2.6*38
$GPRMC,102902.000,A,3353.7543,N,09832.0223,W,0.33,190.71,310312,,,A*78
$GPGGA,102903.000,3353.7542,N,09832.0223,W,1,06,1.8,312.9,M,-23.7,M,,0000*6B
$GPGSA,A,3,12,05,10,04,25,02,,,,,,,3.2,1.8,2.6*38
$GPRMC,102903.000,A,3353.7542,N,09832.0223,W,0.09,162.94,310312,,,A*77
$GPGGA,102904.000,3353.7541,N,09832.0224,W,1,06,1.8,312.9,M,-23.7,M,,0000*68
$GPGSA,A,3,12,05,10,04,25,02,,,,,,,3.2,1.8,2.6*38
$GPRMC,102904.000,A,3353.7541,N,09832.0224,W,0.06,73.04,310312,,,A*43
$GPGGA,102905.000,3353.7539,N,09832.0224,W,1,06,1.8,312.8,M,-23.7,M,,0000*67
$GPGSA,A,3,12,05,10,04,25,02,,,,,,,3.2,1.8,2.6*38
$GPGSV,3,1,10,05,75,134,34,12,52,213,22,02,50,041,34,25,47,283,29*7B
$GPGSV,3,2,10,10,30,046,36,29,27,312,13,04,17,063,24,26,07,148,*7F
$GPGSV,3,3,10,13,02,041,,51,49,195,33*79
$GPRMC,102905.000,A,3353.7539,N,09832.0224,W,0.24,178.47,310312,,,A*70
$GPGGA,102906.000,3353.7538,N,09832.0224,W,1,06,1.8,312.8,M,-23.7,M,,0000*65
$GPGSA,A,3,12,05,10,04,25,02,,,,,,,3.2,1.8,2.6*38
$GPRMC,102906.000,A,3353.7538,N,09832.0224,W,0.03,282.21,310312,,,A*71
$GPGGA,102907.000,3353.7537,N,09832.0225,W,1,06,1.8,312.8,M,-23.7,M,,0000*6A
$GPGSA,A,3,12,05,10,04,25,02,,,,,,,3.2,1.8,2.6*38
$GPRMC,102907.000,A,3353.7537,N,09832.0225,W,0.08,184.03,310312,,,A*70
$GPGGA,102908.000,3353.7535,N,09832.0225,W,1,06,1.8,312.6,M,-23.7,M,,0000*69
$GPGSA,A,3,12,05,10,04,25,02,,,,,,,3.2,1.8,2.6*38
$GPRMC,102908.000,A,3353.7535,N,09832.0225,W,0.10,349.44,310312,,,A*74
$GPGGA,102909.000,3353.7535,N,09832.0226,W,1,06,1.8,312.5,M,-23.7,M,,0000*68
$GPGSA,A,3,12,05,10,04,25,02,,,,,,,3.2,1.8,2.6*38
$GPRMC,102909.000,A,3353.7535,N,09832.0226,W,0.10,319.51,310312,,,A*77
$GPGGA,102910.000,3353.7534,N,09832.0227,W,1,06,1.8,312.5,M,-23.7,M,,0000*60
$GPGSA,A,3,12,05,10,04,25,02,,,,,,,3.2,1.8,2.6*38
$GPGSV,3,1,10,05,75,134,34,12,52,213,23,02,50,041,34,25,47,283,28*7B
$GPGSV,3,2,10,10,30,046,36,29,27,312,13,04,17,063,25,26,07,148,*7E
$GPGSV,3,3,10,13,02,041,,51,49,195,33*79
$GPRMC,102910.000,A,3353.7534,N,09832.0227,W,0.09,222.83,310312,,,A*71
$GPGGA,102911.000,3353.7533,N,09832.0227,W,1,06,1.8,312.6,M,-23.7,M,,0000*65
$GPGSA,A,3,12,05,10,04,25,02,,,,,,,3.2,1.8,2.6*38
$GPRMC,102911.000,A,3353.7533,N,09832.0227,W,0.13,198.78,310312,,,A*7A
$GPGGA,102912.000,3353.7533,N,09832.0228,W,1,06,1.8,312.8,M,-23.7,M,,0000*67
$GPGSA,A,3,12,05,10,04,25,02,,,,,,,3.2,1.8,2.6*38
$GPRMC,102912.000,A,3353.7533,N,09832.0228,W,0.17,339.89,310312,,,A*75
$GPGGA,102913.000,3353.7534,N,09832.0229,W,1,06,1.8,313.0,M,-23.7,M,,0000*69
$GPGSA,A,3,12,05,10,04,25,02,,,,,,,3.2,1.8,2.6*38
$GPRMC,102913.000,A,3353.7534,N,09832.0229,W,0.25,355.15,310312,,,A*7C
$GPGGA,102914.000,3353.7534,N,09832.0229,W,1,06,1.8,313.3,M,-23.7,M,,0000*6D
$GPGSA,A,3,12,05,10,04,25,02,,,,,,,3.2,1.8,2.6*38
$GPRMC,102914.000,A,3353.7534,N,09832.0229,W,0.14,353.46,310312,,,A*79
$GPGGA,102915.000,3353.7534,N,09832.0230,W,1,06,1.8,313.5,M,-23.7,M,,0000*62
$GPGSA,A,3,12,05,10,04,25,02,,,,,,,3.2,1.8,2.6*38
$GPGSV,3,1,10,05,75,134,34,12,52,213,24,02,50,041,34,25,47,283,27*73
$GPGSV,3,2,10,10,30,046,36,29,27,312,14,04,17,063,26,26,07,148,*7A
$GPGSV,3,3,10,13,02,041,,51,49,195,33*79
$GPRMC,102915.000,A,3353.7534,N,09832.0230,W,0.09,342.58,310312,,,A*73
$GPGGA,102916.000,3353.7534,N,09832.0231,W,1,06,1.8,313.7,M,-23.7,M,,0000*62
$GPGSA,A,3,12,05,10,04,25,02,,,,,,,3.2,1.8,2.6*38
$GPRMC,102916.000,A,3353.7534,N,09832.0231,W,0.03,181.17,310312,,,A*7D
$GPGGA,102917.000,3353.7535,N,09832.0233,W,1,06,1.8,313.8,M,-23.7,M,,0000*6F
$GPGSA,A,3,12,05,10,04,25,02,,,,,,,3.2,1.8,2.6*38
$GPRMC,102917.000,A,3353.7535,N,09832.0233,W,0.46,300.16,310312,,,A*74
$GPGGA,102918.000,3353.7535,N,09832.0234,W,1,06,1.8,313.9,M,-23.7,M,,0000*66
$GPGSA,A,3,12,05,10,04,25,02,,,,,,,3.2,1.8,2.6*38
$GPRMC,102918.000,A,3353.7535,N,09832.0234,W,0.16,297.40,310312,,,A*75
$GPGGA,102919.000,3353.7535,N,09832.0237,W,1,06,1.8,314.0,M,-23.7,M,,0000*6A
$GPGSA,A,3,12,05,10,04,25,02,,,,,,,3.2,1.8,2.6*38
$GPRMC,102919.000,A,3353.7535,N,09832.0237,W,0.48,302.36,310312,,,A*70
$GPGGA,102920.000,3353.7536,N,09832.0239,W,1,06,1.8,314.1,M,-23.7,M,,0000*6C
$GPGSA,A,3,12,05,10,04,25,02,,,,,,,3.2,1.8,2.6*38
$GPGSV,3,1,10,05,75,133,34,12,52,213,25,02,50,042,35,25,47,283,26*76
$GPGSV,3,2,10,10,30,046,36,29,28,312,15,04,17,063,25,26,07,148,*77
$GPGSV,3,3,10,13,02,040,,51,49,195,33*78
$GPRMC,102920.000,A,3353.7536,N,09832.0239,W,0.29,301.64,310312,,,A*74
$GPGGA,102921.000,3353.7536,N,09832.0240,W,1,06,1.8,314.1,M,-23.7,M,,0000*63
$GPGSA,A,3,12,05,10,04,25,02,,,,,,,3.2,1.8,2.6*38
$GPRMC,102921.000,A,3353.7536,N,09832.0240,W,0.08,67.59,310312,,,A*45
$GPGGA,102922.000,3353.7536,N,09832.0241,W,1,06,1.8,314.3,M,-23.7,M,,0000*63
$GPGSA,A,3,12,05,10,04,25,02,,,,,,,3.2,1.8,2.6*38
$GPRMC,102922.000,A,3353.7536,N,09832.0241,W,0.02,57.13,310312,,,A*40
$GPGGA,102923.000,3353.7535,N,09832.0240,W,1,06,1.8,314.2,M,-23.7,M,,0000*61
$GPGSA,A,3,12,05,10,04,25,02,,,,,,,3.2,1.8,2.6*38
$GPRMC,102923.000,A,3353.7535,N,09832.0240,W,0.53,124.82,310312,,,A*7A
$GPGGA,102924.000,3353.7535,N,09832.0241,W,1,06,1.8,314.2,M,-23.7,M,,0000*67
$GPGSA,A,3,12,05,10,04,25,02,,,,,,,3.2,1.8,2.6*38
$GPRMC,102924.000,A,3353.7535,N,09832.0241,W,0.15,163.25,310312,,,A*70
$GPGGA,102925.000,3353.7533,N,09832.0239,W,1,06,1.8,314.1,M,-23.7,M,,0000*6C
$GPGSA,A,3,12,05,10,04,25,02,,,,,,,3.2,1.8,2.6*38
$GPGSV,3,1,10,05,75,133,34,12,52,213,25,02,50,042,35,25,47,283,26*76
$GPGSV,3,2,10,10,30,046,37,29,28,312,16,04,17,063,25,26,07,148,*75
$GPGSV,3,3,10,13,02,040,,51,49,195,33*78
$GPRMC,102925.000,A,3353.7533,N,09832.0239,W,0.74,130.30,310312,,,A*7D
$GPGGA,102926.000,3353.7530,N,09832.0236,W,1,06,1.8,314.1,M,-23.7,M,,0000*63
$GPGSA,A,3,12,05,10,04,25,02,,,,,,,3.2,1.8,2.6*38
$GPRMC,102926.000,A,3353.7530,N,09832.0236,W,0.59,131.47,310312,,,A*7C
$GPGGA,102927.000,3353.7528,N,09832.0234,W,1,06,1.8,314.0,M,-23.7,M,,0000*68
$GPGSA,A,3,12,05,10,04,25,02,,,,,,,3.2,1.8,2.6*38
$GPRMC,102927.000,A,3353.7528,N,09832.0234,W,0.44,136.86,310312,,,A*70
$GPGGA,102928.000,3353.7526,N,09832.0231,W,1,06,1.8,313.9,M,-23.7,M,,0000*62
$GPGSA,A,3,12,05,10,04,25,02,,,,,,,3.2,1.8,2.6*38
$GPRMC,102928.000,A,3353.7526,N,09832.0231,W,0.33,138.90,310312,,,A*7D
$GPGGA,102929.000,3353.7524,N,09832.0227,W,1,06,1.8,313.9,M,-23.7,M,,0000*66
$GPGSA,A,3,12,05,10,04,25,02,,,,,,,3.2,1.8,2.6*38
$GPRMC,102929.000,A,3353.7524,N,09832.0227,W,0.43,133.20,310312,,,A*7E
$GPGGA,102930.000,3353.7521,N,09832.0223,W,1,06,1.8,313.9,M,-23.7,M,,0000*6F
$GPGSA,A,3,12,05,10,04,25,02,,,,,,,3.2,1.8,2.6*38
$GPGSV,3,1,10,05,75,133,33,12,52,213,26,02,50,042,36,25,47,283,25*72
$GPGSV,3,2,10,10,30,046,37,29,28,312,16,04,17,063,24,26,07,148,*74
$GPGSV,3,3,10,13,02,040,,51,49,195,33*78
$GPRMC,102930.000,A,3353.7521,N,09832.0223,W,0.44,130.31,310312,,,A*73
$GPGGA,102931.000,3353.7518,N,09832.0219,W,1,06,1.8,313.8,M,-23.7,M,,0000*6C
$GPGSA,A,3,12,05,10,04,25,02,,,,,,,3.2,1.8,2.6*38
$GPRMC,102931.000,A,3353.7518,N,09832.0219,W,0.46,127.41,310312,,,A*72
$GPGGA,102932.000,3353.7516,N,09832.0216,W,1,06,1.8,313.7,M,-23.7,M,,0000*61
$GPGSA,A,3,12,05,10,04,25,02,,,,,,,3.2,1.8,2.6*38
$GPRMC,102932.000,A,3353.7516,N,09832.0216,W,0.32,132.78,310312,,,A*7D
$GPGGA,102933.000,3353.7514,N,09832.0213,W,1,06,1.8,313.7,M,-23.7,M,,0000*67
$GPGSA,A,3,12,05,10,04,25,02,,,,,,,3.2,1.8,2.6*38
$GPRMC,102933.000,A,3353.7514,N,09832.0213,W,0.09,149.36,310312,,,A*75
$GPGGA,102934.000,3353.7514,N,09832.0211,W,1,06,1.8,313.8,M,-23.7,M,,0000*6D
$GPGSA,A,3,12,05,10,04,25,02,,,,,,,3.2,1.8,2.6*38
$GPRMC,102934.000,A,3353.7514,N,09832.0211,W,0.27,308.35,310312,,,A*78
$GPGGA,102935.000,3353.7513,N,09832.0210,W,1,06,1.8,314.0,M,-23.7,M,,0000*65
$GPGSA,A,3,12,05,10,04,25,02,,,,,,,3.2,1.8,2.6*38
$GPGSV,3,1,10,05,75,133,33,12,52,213,27,02,50,042,36,25,47,283,19*7C
$GPGSV,3,2,10,10,30,046,36,29,28,312,17,04,17,063,25,26,07,148,17*73
$GPGSV,3,3,10,13,02,040,,51,49,195,33*78
$GPRMC,102935.000,A,3353.7513,N,09832.0210,W,0.10,73.73,310312,,,A*46
$GPGGA,102936.000,3353.7512,N,09832.0207,W,1,06,1.8,314.1,M,-23.7,M,,0000*60
$GPGSA,A,3,12,05,10,04,25,02,,,,,,,3.2,1.8,2.6*38
$GPRMC,102936.000,A,3353.7512,N,09832.0207,W,0.52,117.13,310312,,,A*71
$GPGGA,102937.000,3353.7513,N,09832.0207,W,1,06,1.8,314.2,M,-23.7,M,,0000*63
$GPGSA,A,3,12,05,10,04,25,02,,,,,,,3.2,1.8,2.6*38
$GPRMC,102937.000,A,3353.7513,N,09832.0207,W,0.40,310.23,310312,,,A*74
$GPGGA,102938.000,3353.7516,N,09832.0211,W,1,06,1.8,314.3,M,-23.7,M,,0000*6F
$GPGSA,A,3,12,05,10,04,25,02,,,,,,,3.2,1.8,2.6*38
$GPRMC,102938.000,A,3353.7516,N,09832.0211,W,1.40,306.41,310312,,,A*7B
$GPGGA,102939.000,3353.7519,N,09832.0215,W,1,06,1.8,314.3,M,-23.7,M,,0000*65
$GPGSA,A,3,12,05,10,04,25,02,,,,,,,3.2,1.8,2.6*38
$GPRMC,102939.000,A,3353.7519,N,09832.0215,W,1.29,308.28,310312,,,A*7F
$GPGGA,102940.000,3353.7519,N,09832.0215,W,1,06,1.8,314.4,M,-23.7,M,,0000*6C
$GPGSA,A,3,12,05,10,04,25,02,,,,,,,3.2,1.8,2.6*38
$GPGSV,3,1,10,05,75,133,33,12,52,213,28,02,50,042,36,25,47,283,20*79
$GPGSV,3,2,10,10,30,046,36,29,28,312,17,04,17,063,26,26,07,148,20*74
$GPGSV,3,3,10,13,02,040,,51,49,195,33*78
$GPRMC,102940.000,A,3353.7519,N,09832.0215,W,0.10,85.73,310312,,,A*42
$GPGGA,102941.000,3353.7519,N,09832.0213,W,1,06,1.8,314.5,M,-23.7,M,,0000*6A
$GPGSA,A,3,12,05,10,04,25,02,,,,,,,3.2,1.8,2.6*38
$GPRMC,102941.000,A,3353.7519,N,09832.0213,W,0.52,123.08,310312,,,A*72
$GPGGA,102942.000,3353.7519,N,09832.0212,W,1,06,1.8,314.6,M,-23.7,M,,0000*6B
$GPGSA,A,3,12,05,10,04,25,02,,,,,,,3.2,1.8,2.6*38
$GPRMC,102942.000,A,3353.7519,N,09832.0212,W,0.05,101.01,310312,,,A*7B
$GPGGA,102943.000,3353.7519,N,09832.0211,W,1,06,1.8,314.7,M,-23.7,M,,0000*68
$GPGSA,A,3,12,05,10,04,25,02,,,,,,,3.2,1.8,2.6*38
$GPRMC,102943.000,A,3353.7519,N,09832.0211,W,0.09,115.90,310312,,,A*78
$GPGGA,102944.000,3353.7520,N,09832.0211,W,1,06,1.8,314.8,M,-23.7,M,,0000*6A
$GPGSA,A,3,12,05,10,04,25,02,,,,,,,3.2,1.8,2.6*38
$GPRMC,102944.000,A,3353.7520,N,09832.0211,W,0.21,307.20,310312,,,A*75
$GPGGA,102945.000,3353.7521,N,09832.0212,W,1,06,1.8,314.9,M,-23.7,M,,0000*68
$GPGSA,A,3,12,05,10,04,25,02,,,,,,,3.2,1.8,2.6*38
$GPGSV,3,1,10,05,75,133,33,12,52,213,29,02,50,042,36,25,47,283,20*78
$GPGSV,3,2,10,10,30,046,36,29,28,312,17,04,17,063,26,26,07,148,22*76
$GPGSV,3,3,10,13,02,040,19,51,49,195,33*70
$GPRMC,102945.000,A,3353.7521,N,09832.0212,W,0.65,306.75,310312,,,A*77
$GPGGA,102946.000,3353.7522,N,09832.0213,W,1,06,1.8,315.0,M,-23.7,M,,0000*61
$GPGSA,A,3,12,05,10,04,25,02,,,,,,,3.2,1.8,2.6*38
$GPRMC,102946.000,A,3353.7522,N,09832.0213,W,0.50,308.73,310312,,,A*78
$GPGGA,102947.000,3353.7524,N,09832.0214,W,1,06,1.8,315.1,M,-23.7,M,,0000*60
$GPGSA,A,3,12,05,10,04,25,02,,,,,,,3.2,1.8,2.6*38
$GPRMC,102947.000,A,3353.7524,N,09832.0214,W,0.69,306.96,310312,,,A*77
$GPGGA,102948.000,3353.7525,N,09832.0216,W,1,06,1.8,315.1,M,-23.7,M,,0000*6C
$GPGSA,A,3,12,05,10,04,25,02,,,,,,,3.2,1.8,2.6*38
$GPRMC,102948.000,A,3353.7525,N,09832.0216,W,0.82,307.16,310312,,,A*77
$GPGGA,102949.000,3353.7527,N,09832.0218,W,1,06,1.8,315.2,M,-23.7,M,,0000*62
$GPGSA,A,3,12,05,10,04,25,02,,,,,,,3.2,1.8,2.6*38
$GPRMC,102949.000,A,3353.7527,N,09832.0218,W,1.12,306.06,310312,,,A*72
$GPGGA,102950.000,3353.7529,N,09832.0219,W,1,06,1.8,315.2,M,-23.7,M,,0000*65
$GPGSA,A,3,12,05,10,04,25,02,,,,,,,3.2,1.8,2.6*38
$GPGSV,3,1,10,05,75,133,34,12,52,213,30,02,50,042,37,25,47,283,20*76
$GPGSV,3,2,10,10,30,046,36,29,28,312,16,04,17,063,28,26,07,148,23*78
$GPGSV,3,3,10,13,02,040,17,51,49,195,33*7E
$GPRMC,102950.000,A,3353.7529,N,09832.0219,W,0.68,309.26,310312,,,A*74
$GPGGA,102951.000,3353.7530,N,09832.0220,W,1,06,1.8,315.3,M,-23.7,M,,0000*67
$GPGSA,A,3,12,05,10,04,25,02,,,,,,,3.2,1.8,2.6*38
$GPRMC,102951.000,A,3353.7530,N,09832.0220,W,0.90,306.37,310312,,,A*7F
$GPGGA,102952.000,3353.7533,N,09832.0223,W,1,06,1.8,315.3,M,-23.7,M,,0000*64
$GPGSA,A,3,12,05,10,04,25,02,,,,,,,3.2,1.8,2.6*38
$GPRMC,102952.000,A,3353.7533,N,09832.0223,W,1.21,306.72,310312,,,A*76
$GPGGA,102953.000,3353.7534,N,09832.0224,W,1,06,1.8,315.3,M,-23.7,M,,0000*65
$GPGSA,A,3,12,05,10,04,25,02,,,,,,,3.2,1.8,2.6*38
$GPRMC,102953.000,A,3353.7534,N,09832.0224,W,0.93,307.36,310312,,,A*7E
