$GPGGA,092414.000,3353.7560,N,09832.0248,W,2,06,2.2,317.1,M,-23.7,M,0.8,0000*44
$GPGSA,A,3,12,10,17,02,05,04,,,,,,,4.2,2.2,3.5*35
$GPRMC,092414.000,A,3353.7560,N,09832.0248,W,0.47,88.53,300312,,,D*49
$GPGGA,092415.000,3353.7560,N,09832.0247,W,2,06,2.2,317.1,M,-23.7,M,0.8,0000*4A
$GPGSA,A,3,12,10,17,02,05,04,,,,,,,4.2,2.2,3.5*35
$GPRMC,092415.000,A,3353.7560,N,09832.0247,W,0.23,106.72,300312,,,D*71
$GPGGA,092416.000,3353.7559,N,09832.0247,W,2,06,2.2,317.1,M,-23.7,M,0.8,0000*43
$GPGSA,A,3,12,10,17,02,05,04,,,,,,,4.2,2.2,3.5*35
$GPRMC,092416.000,A,3353.7559,N,09832.0247,W,0.20,114.91,300312,,,D*75
$GPGGA,092417.000,3353.7559,N,09832.0247,W,2,06,2.2,317.3,M,-23.7,M,0.8,0000*40
$GPGSA,A,3,12,10,17,02,05,04,,,,,,,4.2,2.2,3.5*35
$GPGSV,3,1,12,02,72,353,35,12,66,281,33,10,50,077,42,05,44,172,40*73
$GPGSV,3,2,12,04,41,044,32,25,28,314,,17,11,099,32,09,11,225,*7B
$GPGSV,3,3,12,27,05,213,,29,05,295,,13,00,068,,51,49,195,38*79
$GPRMC,092417.000,A,3353.7559,N,09832.0247,W,0.20,71.91,300312,,,D*46
$GPGGA,092418.000,3353.7559,N,09832.0247,W,2,06,2.2,317.4,M,-23.7,M,0.8,0000*48
$GPGSA,A,3,12,10,17,02,05,04,,,,,,,4.2,2.2,3.5*35
$GPRMC,092418.000,A,3353.7559,N,09832.0247,W,0.21,69.07,300312,,,D*4E
$GPGGA,092419.000,3353.7559,N,09832.0246,W,2,06,2.2,317.6,M,-23.7,M,1.8,0000*4B
$GPGSA,A,3,12,10,17,02,05,04,,,,,,,4.2,2.2,3.5*35
$GPRMC,092419.000,A,3353.7559,N,09832.0246,W,0.21,71.32,300312,,,D*41
$GPGGA,092420.000,3353.7559,N,09832.0246,W,2,06,2.2,317.8,M,-23.7,M,2.8,0000*4C
$GPGSA,A,3,12,10,17,02,05,04,,,,,,,4.2,2.2,3.5*35
$GPRMC,092420.000,A,3353.7559,N,09832.0246,W,0.21,72.63,300312,,,D*4C
$GPGGA,092421.000,3353.7559,N,09832.0245,W,2,06,2.2,318.1,M,-23.7,M,0.8,0000*4A
$GPGSA,A,3,12,10,17,02,05,04,,,,,,,4.2,2.2,3.5*35
$GPRMC,092421.000,A,3353.7559,N,09832.0245,W,0.18,65.64,300312,,,D*45
$GPGGA,092422.000,3353.7559,N,09832.0245,W,2,06,2.2,318.3,M,-23.7,M,0.8,0000*4B
$GPGSA,A,3,12,10,17,02,05,04,,,,,,,4.2,2.2,3.5*35
$GPGSV,3,1,12,02,72,353,35,12,66,281,33,10,50,077,42,05,44,172,40*73
$GPGSV,3,2,12,04,41,044,32,25,28,314,,17,11,099,32,09,11,225,*7B
$GPGSV,3,3,12,27,05,213,15,29,05,295,,13,00,068,,51,49,195,38*7D
$GPRMC,092422.000,A,3353.7559,N,09832.0245,W,0.22,66.23,300312,,,D*4F
$GPGGA,092423.000,3353.7559,N,09832.0245,W,2,06,2.2,318.3,M,-23.7,M,0.8,0000*4A
$GPGSA,A,3,12,10,17,02,05,04,,,,,,,4.2,2.2,3.5*35
$GPRMC,092423.000,A,3353.7559,N,09832.0245,W,0.09,92.17,300312,,,D*4B
$GPGGA,092424.000,3353.7559,N,09832.0246,W,2,06,2.2,318.3,M,-23.7,M,1.8,0000*4F
$GPGSA,A,3,12,10,17,02,05,04,,,,,,,4.2,2.2,3.5*35
$GPRMC,092424.000,A,3353.7559,N,09832.0246,W,0.08,112.43,300312,,,D*76
$GPGGA,092425.000,3353.7558,N,09832.0246,W,2,06,2.2,318.2,M,-23.7,M,0.8,0000*4F
$GPGSA,A,3,12,10,17,02,05,04,,,,,,,4.2,2.2,3.5*35
$GPRMC,092425.000,A,3353.7558,N,09832.0246,W,0.07,95.11,300312,,,D*40
$GPGGA,092426.000,3353.7558,N,09832.0246,W,2,06,2.2,318.2,M,-23.7,M,1.8,0000*4D
$GPGSA,A,3,12,10,17,02,05,04,,,,,,,4.2,2.2,3.5*35
$GPRMC,092426.000,A,3353.7558,N,09832.0246,W,0.07,73.46,300312,,,D*49
$GPGGA,092427.000,3353.7558,N,09832.0247,W,2,06,2.2,318.1,M,-23.7,M,0.8,0000*4F
$GPGSA,A,3,12,10,17,02,05,04,,,,,,,4.2,2.2,3.5*35
$GPGSV,3,1,12,02,72,353,35,12,66,281,34,10,50,077,42,05,44,172,39*7A
$GPGSV,3,2,12,04,41,044,32,25,28,314,,17,11,099,32,09,11,225,*7B
$GPGSV,3,3,12,27,05,213,15,29,05,295,,13,00,068,,51,49,195,38*7D
$GPRMC,092427.000,A,3353.7558,N,09832.0247,W,0.07,88.50,300312,,,D*4A
$GPGGA,092428.000,3353.7558,N,09832.0247,W,2,06,2.2,318.0,M,-23.7,M,0.8,0000*41
$GPGSA,A,3,12,10,17,02,05,04,,,,,,,4.2,2.2,3.5*35
$GPRMC,092428.000,A,3353.7558,N,09832.0247,W,0.05,92.58,300312,,,D*44
$GPGGA,092429.000,3353.7558,N,09832.0247,W,2,06,2.2,318.0,M,-23.7,M,0.8,0000*40
$GPGSA,A,3,12,10,17,02,05,04,,,,,,,4.2,2.2,3.5*35
$GPRMC,092429.000,A,3353.7558,N,09832.0247,W,0.20,56.03,300312,,,D*44
$GPGGA,092430.000,3353.7558,N,09832.0247,W,2,06,2.2,318.1,M,-23.7,M,1.8,0000*48
$GPGSA,A,3,12,10,17,02,05,04,,,,,,,4.2,2.2,3.5*35
$GPRMC,092430.000,A,3353.7558,N,09832.0247,W,0.18,57.47,300312,,,D*46
$GPGGA,092431.000,3353.7558,N,09832.0246,W,2,06,2.2,318.2,M,-23.7,M,2.8,0000*48
$GPGSA,A,3,12,10,17,02,05,04,,,,,,,4.2,2.2,3.5*35
$GPRMC,092431.000,A,3353.7558,N,09832.0246,W,0.22,62.51,300312,,,D*4E
$GPGGA,092432.000,3353.7558,N,09832.0246,W,2,06,2.2,318.3,M,-23.7,M,3.8,0000*4B
$GPGSA,A,3,12,10,17,02,05,04,,,,,,,4.2,2.2,3.5*35
$GPGSV,3,1,12,02,72,353,35,12,66,281,34,10,50,077,42,05,44,172,39*7A
$GPGSV,3,2,12,04,41,044,31,25,28,314,,17,11,099,32,09,11,225,*78
$GPGSV,3,3,12,27,05,213,15,29,05,295,,13,00,068,,51,49,195,38*7D
$GPRMC,092432.000,A,3353.7558,N,09832.0246,W,0.21,63.70,300312,,,D*4C
$GPGGA,092433.000,3353.7558,N,09832.0245,W,2,06,2.2,318.5,M,-23.7,M,0.8,0000*4C
$GPGSA,A,3,12,10,17,02,05,04,,,,,,,4.2,2.2,3.5*35
$GPRMC,092433.000,A,3353.7558,N,09832.0245,W,0.19,55.62,300312,,,D*43
$GPGGA,092434.000,3353.7558,N,09832.0244,W,2,06,2.2,318.7,M,-23.7,M,0.8,0000*48
$GPGSA,A,3,12,10,17,02,05,04,,,,,,,4.2,2.2,3.5*35
$GPRMC,092434.000,A,3353.7558,N,09832.0244,W,0.19,62.88,300312,,,D*45
$GPGGA,092435.000,3353.7558,N,09832.0244,W,2,06,2.2,318.7,M,-23.7,M,0.8,0000*49
$GPGSA,A,3,12,10,17,02,05,04,,,,,,,4.2,2.2,3.5*35
$GPRMC,092435.000,A,3353.7558,N,09832.0244,W,0.06,84.11,300312,,,D*42
$GPGGA,092436.000,3353.7558,N,09832.0245,W,2,06,2.2,318.6,M,-23.7,M,1.8,0000*4B
$GPGSA,A,3,12,10,17,02,05,04,,,,,,,4.2,2.2,3.5*35
$GPRMC,092436.000,A,3353.7558,N,09832.0245,W,0.05,69.56,300312,,,D*43
$GPGGA,092437.000,3353.7558,N,09832.0245,W,2,06,2.2,318.6,M,-23.7,M,2.8,0000*49
$GPGSA,A,3,12,10,17,02,05,04,,,,,,,4.2,2.2,3.5*35
$GPGSV,3,1,12,02,72,353,35,12,66,281,34,10,50,077,42,05,44,172,39*7A
$GPGSV,3,2,12,04,41,044,31,25,28,314,,17,11,099,32,09,11,225,*78
$GPGSV,3,3,12,27,05,213,14,29,05,295,,13,00,068,,51,49,195,38*7C
$GPRMC,092437.000,A,3353.7558,N,09832.0245,W,0.04,61.40,300312,,,D*4C
$GPGGA,092438.000,3353.7558,N,09832.0245,W,2,06,2.2,318.5,M,-23.7,M,3.8,0000*44
$GPGSA,A,3,12,10,17,02,05,04,,,,,,,4.2,2.2,3.5*35
$GPRMC,092438.000,A,3353.7558,N,09832.0245,W,0.03,48.67,300312,,,D*4A
$GPGGA,092439.000,3353.7558,N,09832.0246,W,2,06,2.2,318.4,M,-23.7,M,0.8,0000*44
$GPGSA,A,3,12,10,17,02,05,04,,,,,,,4.2,2.2,3.5*35
$GPRMC,092439.000,A,3353.7558,N,09832.0246,W,0.04,59.19,300312,,,D*46
$GPGGA,092440.000,3353.7558,N,09832.0246,W,2,06,2.2,318.3,M,-23.7,M,0.8,0000*4D
$GPGSA,A,3,12,10,17,02,05,04,,,,,,,4.2,2.2,3.5*35
$GPRMC,092440.000,A,3353.7558,N,09832.0246,W,0.04,58.97,300312,,,D*4F
$GPGGA,092441.000,3353.7558,N,09832.0246,W,2,06,2.2,318.4,M,-23.7,M,0.8,0000*4B
$GPGSA,A,3,12,10,17,02,05,04,,,,,,,4.2,2.2,3.5*35
$GPRMC,092441.000,A,3353.7558,N,09832.0246,W,0.20,48.27,300312,,,D*42
$GPGGA,092442.000,3353.7558,N,09832.0245,W,2,06,2.2,318.4,M,-23.7,M,1.8,0000*4A
$GPGSA,A,3,12,10,17,02,05,04,,,,,,,4.2,2.2,3.5*35
$GPGSV,3,1,12,02,71,354,35,12,66,281,35,10,50,077,42,05,44,172,39*7F
$GPGSV,3,2,12,04,41,044,30,25,29,314,,17,11,100,32,09,10,225,*78
$GPGSV,3,3,12,27,05,213,15,29,05,295,,13,00,068,,51,49,195,38*7D
$GPRMC,092442.000,A,3353.7558,N,09832.0245,W,0.19,53.85,300312,,,D*4A
$GPGGA,092443.000,3353.7558,N,09832.0245,W,2,06,2.2,318.5,M,-23.7,M,2.8,0000*49
$GPGSA,A,3,12,10,17,02,05,04,,,,,,,4.2,2.2,3.5*35
$GPRMC,092443.000,A,3353.7558,N,09832.0245,W,0.20,54.15,300312,,,D*4F
$GPGGA,092444.000,3353.7559,N,09832.0244,W,2,06,2.2,318.5,M,-23.7,M,3.8,0000*4F
$GPGSA,A,3,12,10,17,02,05,04,,,,,,,4.2,2.2,3.5*35
$GPRMC,092444.000,A,3353.7559,N,09832.0244,W,0.17,59.68,300312,,,D*4B
$GPGGA,092445.000,3353.7559,N,09832.0244,W,2,06,2.2,318.6,M,-23.7,M,0.8,0000*4E
$GPGSA,A,3,12,10,17,02,05,04,,,,,,,4.2,2.2,3.5*35
$GPRMC,092445.000,A,3353.7559,N,09832.0244,W,0.21,51.52,300312,,,D*4E
$GPGGA,092446.000,3353.7559,N,09832.0244,W,2,06,2.2,318.7,M,-23.7,M,0.8,0000*4C
$GPGSA,A,3,12,10,17,02,05,04,,,,,,,4.2,2.2,3.5*35
$GPRMC,092446.000,A,3353.7559,N,09832.0244,W,0.19,54.56,300312,,,D*47
$GPGGA,092447.000,3353.7559,N,09832.0244,W,2,06,2.2,318.6,M,-23.7,M,0.8,0000*4C
$GPGSA,A,3,12,10,17,02,05,04,,,,,,,4.2,2.2,3.5*35
$GPGSV,3,1,12,02,71,354,35,12,66,281,35,10,50,077,42,05,44,172,39*7F
$GPGSV,3,2,12,04,41,044,30,25,29,314,,17,11,100,32,09,10,225,*78
$GPGSV,3,3,12,27,05,213,16,29,05,295,,13,00,068,,51,49,195,38*7E
$GPRMC,092447.000,A,3353.7559,N,09832.0244,W,0.04,63.53,300312,,,D*4B
$GPGGA,092448.000,3353.7559,N,09832.0244,W,2,06,2.2,318.5,M,-23.7,M,1.8,0000*41
$GPGSA,A,3,12,10,17,02,05,04,,,,,,,4.2,2.2,3.5*35
$GPRMC,092448.000,A,3353.7559,N,09832.0244,W,0.03,72.46,300312,,,D*47
$GPGGA,092449.000,3353.7559,N,09832.0245,W,2,06,2.2,318.4,M,-23.7,M,2.8,0000*43
$GPGSA,A,3,12,10,17,02,05,04,,,,,,,4.2,2.2,3.5*35
$GPRMC,092449.000,A,3353.7559,N,09832.0245,W,0.05,32.77,300312,,,D*47
$GPGGA,092450.000,3353.7559,N,09832.0245,W,2,06,2.2,318.2,M,-23.7,M,0.8,0000*4F
$GPGSA,A,3,12,10,17,02,05,04,,,,,,,4.2,2.2,3.5*35
$GPRMC,092450.000,A,3353.7559,N,09832.0245,W,0.04,26.53,300312,,,D*4D
$GPGGA,092451.000,3353.7559,N,09832.0245,W,2,06,2.2,318.1,M,-23.7,M,0.8,0000*4D
$GPGSA,A,3,12,10,17,02,05,04,,,,,,,4.2,2.2,3.5*35
$GPRMC,092451.000,A,3353.7559,N,09832.0245,W,0.05,11.92,300312,,,D*44
$GPGGA,092452.000,3353.7559,N,09832.0246,W,2,06,2.2,318.0,M,-23.7,M,0.8,0000*4C
$GPGSA,A,3,12,10,17,02,05,04,,,,,,,4.2,2.2,3.5*35
$GPGSV,3,1,12,02,71,354,35,12,66,281,35,10,50,077,41,05,44,172,40*72
$GPGSV,3,2,12,04,41,044,30,25,29,314,,17,11,100,32,09,10,225,*78
$GPGSV,3,3,12,27,05,213,18,29,05,295,,13,00,068,,51,49,195,38*70
$GPRMC,092452.000,A,3353.7559,N,09832.0246,W,0.04,351.47,300312,,,D*7A
$GPGGA,092453.000,3353.7559,N,09832.0245,W,2,06,2.2,318.1,M,-23.7,M,0.8,0000*4F
$GPGSA,A,3,12,10,17,02,05,04,,,,,,,4.2,2.2,3.5*35
$GPRMC,092453.000,A,3353.7559,N,09832.0245,W,0.18,44.17,300312,,,D*47
$GPGGA,092454.000,3353.7559,N,09832.0245,W,2,06,2.2,318.2,M,-23.7,M,1.8,0000*4A
$GPGSA,A,3,12,10,17,02,05,04,,,,,,,4.2,2.2,3.5*35
$GPRMC,092454.000,A,3353.7559,N,09832.0245,W,0.18,41.27,300312,,,D*46
$GPGGA,092455.000,3353.7559,N,09832.0245,W,2,06,2.2,318.3,M,-23.7,M,2.8,0000*49
$GPGSA,A,3,12,10,17,02,05,04,,,,,,,4.2,2.2,3.5*35
$GPRMC,092455.000,A,3353.7559,N,09832.0245,W,0.18,48.59,300312,,,D*47
$GPGGA,092456.000,3353.7559,N,09832.0244,W,2,06,2.2,318.4,M,-23.7,M,3.8,0000*4D
$GPGSA,A,3,12,10,17,02,05,04,,,,,,,4.2,2.2,3.5*35
$GPRMC,092456.000,A,3353.7559,N,09832.0244,W,0.18,51.94,300312,,,D*4C
$GPGGA,092457.000,3353.7559,N,09832.0244,W,2,06,2.2,318.6,M,-23.7,M,0.8,0000*4D
$GPGSA,A,3,12,10,17,02,05,04,,,,,,,4.2,2.2,3.5*35
$GPGSV,3,1,12,02,71,354,35,12,66,281,35,10,50,077,41,05,44,172,40*72
$GPGSV,3,2,12,04,41,044,29,25,29,314,14,17,11,100,32,09,10,225,*75
$GPGSV,3,3,12,27,05,213,18,29,05,295,,13,00,068,,51,49,195,38*70
$GPRMC,092457.000,A,3353.7559,N,09832.0244,W,0.20,50.47,300312,,,D*49
$GPGGA,092458.000,3353.7559,N,09832.0243,W,2,06,2.2,318.7,M,-23.7,M,0.8,0000*44
$GPGSA,A,3,12,10,17,02,05,04,,,,,,,4.2,2.2,3.5*35
$GPRMC,092458.000,A,3353.7559,N,09832.0243,W,0.18,60.88,300312,,,D*4A
$GPGGA,092459.000,3353.7559,N,09832.0243,W,2,06,2.2,318.6,M,-23.7,M,0.8,0000*44
$GPGSA,A,3,12,10,17,02,05,04,,,,,,,4.2,2.2,3.5*35
$GPRMC,092459.000,A,3353.7559,N,09832.0243,W,0.05,58.53,300312,,,D*4A
$GPGGA,092500.000,3353.7559,N,09832.0244,W,2,06,2.2,318.6,M,-23.7,M,0.8,0000*4E
$GPGSA,A,3,12,10,17,02,05,04,,,,,,,4.2,2.2,3.5*35
$GPRMC,092500.000,A,3353.7559,N,09832.0244,W,0.05,23.99,300312,,,D*4A
$GPGGA,092501.000,3353.7559,N,09832.0244,W,2,06,2.2,318.5,M,-23.7,M,0.8,0000*4C
$GPGSA,A,3,12,10,17,02,05,04,,,,,,,4.2,2.2,3.5*35
$GPRMC,092501.000,A,3353.7559,N,09832.0244,W,0.05,357.43,300312,,,D*7C
$GPGGA,092502.000,3353.7559,N,09832.0244,W,2,06,2.2,318.4,M,-23.7,M,1.8,0000*4F
$GPGSA,A,3,12,10,17,02,05,04,,,,,,,4.2,2.2,3.5*35
$GPGSV,3,1,12,02,71,354,34,12,66,281,35,10,50,077,41,05,44,172,40*73
$GPGSV,3,2,12,04,41,044,29,25,29,314,12,17,11,100,32,09,10,225,*73
$GPGSV,3,3,12,27,05,213,18,29,05,295,,13,00,068,,51,49,195,38*70
$GPRMC,092502.000,A,3353.7559,N,09832.0244,W,0.05,14.39,300312,,,D*46
$GPGGA,092503.000,3353.7559,N,09832.0245,W,2,06,2.2,318.4,M,-23.7,M,0.8,0000*4E
$GPGSA,A,3,12,10,17,02,05,04,,,,,,,4.2,2.2,3.5*35
$GPRMC,092503.000,A,3353.7559,N,09832.0245,W,0.05,356.36,300312,,,D*7C
$GPGGA,092504.000,3353.7559,N,09832.0245,W,2,06,2.2,318.4,M,-23.7,M,0.8,0000*49
$GPGSA,A,3,12,10,17,02,05,04,,,,,,,4.2,2.2,3.5*35
$GPRMC,092504.000,A,3353.7559,N,09832.0245,W,0.05,344.90,300312,,,D*74
$GPGGA,092505.000,3353.7559,N,09832.0245,W,2,06,2.2,318.6,M,-23.7,M,0.8,0000*4A
$GPGSA,A,3,12,10,17,02,05,04,,,,,,,4.2,2.2,3.5*35
$GPRMC,092505.000,A,3353.7559,N,09832.0245,W,0.19,36.80,300312,,,D*4F
$GPGGA,092506.000,3353.7559,N,09832.0244,W,2,06,2.2,318.8,M,-23.7,M,1.8,0000*47
$GPGSA,A,3,12,10,17,02,05,04,,,,,,,4.2,2.2,3.5*35
$GPRMC,092506.000,A,3353.7559,N,09832.0244,W,0.20,43.32,300312,,,D*4C
$GPGGA,092507.000,3353.7559,N,09832.0244,W,2,06,2.2,319.0,M,-23.7,M,2.8,0000*4C
$GPGSA,A,3,12,10,17,02,05,04,,,,,,,4.2,2.2,3.5*35
$GPGSV,3,1,12,02,71,354,34,12,66,281,36,10,50,077,41,05,44,172,41*71
$GPGSV,3,2,12,04,41,044,29,25,29,314,,17,11,100,32,09,10,225,*70
$GPGSV,3,3,12,27,05,213,17,29,05,295,,13,00,068,,51,49,195,38*7F
$GPRMC,092507.000,A,3353.7559,N,09832.0244,W,0.18,46.66,300312,,,D*42
$GPGGA,092508.000,3353.7559,N,09832.0242,W,2,07,1.5,319.5,M,-23.7,M,3.8,0000*44
$GPGSA,A,3,12,10,17,02,05,04,09,,,,,,2.2,1.5,1.7*3E
$GPRMC,092508.000,A,3353.7559,N,09832.0242,W,0.26,68.19,300312,,,D*42
$GPGGA,092509.000,3353.7559,N,09832.0242,W,2,07,1.5,319.7,M,-23.7,M,0.8,0000*44
$GPGSA,A,3,12,10,17,02,05,04,09,,,,,,2.2,1.5,1.7*3E
$GPRMC,092509.000,A,3353.7559,N,09832.0242,W,0.20,59.71,300312,,,D*49
$GPGGA,092510.000,3353.7559,N,09832.0242,W,2,07,1.5,319.7,M,-23.7,M,0.8,0000*4C
$GPGSA,A,3,12,10,17,02,05,04,09,,,,,,2.2,1.5,1.7*3E
$GPRMC,092510.000,A,3353.7559,N,09832.0242,W,0.16,28.66,300312,,,D*44
$GPGGA,092511.000,3353.7559,N,09832.0243,W,2,07,1.5,319.5,M,-23.7,M,0.8,0000*4E
$GPGSA,A,3,12,10,17,02,05,04,09,,,,,,2.2,1.5,1.7*3E
$GPRMC,092511.000,A,3353.7559,N,09832.0243,W,0.16,341.73,300312,,,D*7C
$GPGGA,092512.000,3353.7560,N,09832.0243,W,2,07,1.5,319.3,M,-23.7,M,1.8,0000*40
$GPGSA,A,3,12,10,17,02,05,04,09,,,,,,2.2,1.5,1.7*3E
$GPGSV,3,1,12,02,71,354,34,12,66,281,36,10,50,077,41,05,44,172,41*71
$GPGSV,3,2,12,04,41,044,29,25,29,314,,17,11,100,31,09,10,225,16*74
$GPGSV,3,3,12,27,05,213,16,29,05,295,,13,00,068,,51,49,195,38*7E
$GPRMC,092512.000,A,3353.7560,N,09832.0243,W,0.22,330.06,300312,,,D*76
$GPGGA,092513.000,3353.7560,N,09832.0244,W,2,07,1.5,319.5,M,-23.7,M,2.8,0000*43
$GPGSA,A,3,12,10,17,02,05,04,09,,,,,,2.2,1.5,1.7*3E
$GPRMC,092513.000,A,3353.7560,N,09832.0244,W,0.13,25.02,300312,,,D*41
$GPGGA,092514.000,3353.7560,N,09832.0243,W,2,07,1.5,319.7,M,-23.7,M,3.8,0000*40
$GPGSA,A,3,12,10,17,02,05,04,09,,,,,,2.2,1.5,1.7*3E
$GPRMC,092514.000,A,3353.7560,N,09832.0243,W,0.18,44.86,300312,,,D*41
$GPGGA,092515.000,3353.7560,N,09832.0243,W,2,07,1.5,319.9,M,-23.7,M,0.8,0000*4C
$GPGSA,A,3,12,10,17,02,05,04,09,,,,,,2.2,1.5,1.7*3E
$GPRMC,092515.000,A,3353.7560,N,09832.0243,W,0.16,57.86,300312,,,D*4C
$GPGGA,092516.000,3353.7560,N,09832.0242,W,2,07,1.5,320.2,M,-23.7,M,0.8,0000*4F
$GPGSA,A,3,12,10,17,02,05,04,09,,,,,,2.2,1.5,1.7*3E
$GPRMC,092516.000,A,3353.7560,N,09832.0242,W,0.16,60.21,300312,,,D*47
$GPGGA,092517.000,3353.7559,N,09832.0241,W,2,07,1.5,320.7,M,-23.7,M,0.8,0000*42
$GPGSA,A,3,12,10,17,02,05,04,09,,,,,,2.2,1.5,1.7*3E
$GPGSV,3,1,12,02,71,354,33,12,66,281,36,10,50,077,41,05,44,172,41*76
$GPGSV,3,2,12,04,41,044,30,25,29,314,,17,11,100,31,09,10,225,17*7D
$GPGSV,3,3,12,27,05,213,16,29,05,295,,13,00,068,,51,49,195,38*7E
$GPRMC,092517.000,A,3353.7559,N,09832.0241,W,0.24,89.66,300312,,,D*4A
$GPGGA,092518.000,3353.7559,N,09832.0240,W,2,07,1.5,321.2,M,-23.7,M,1.8,0000*49
$GPGSA,A,3,12,10,17,02,05,04,09,,,,,,2.2,1.5,1.7*3E
$GPRMC,092518.000,A,3353.7559,N,09832.0240,W,0.28,96.11,300312,,,D*46
$GPGGA,092519.000,3353.7558,N,09832.0239,W,2,07,1.5,321.6,M,-23.7,M,2.8,0000*40
$GPGSA,A,3,12,10,17,02,05,04,09,,,,,,2.2,1.5,1.7*3E
$GPRMC,092519.000,A,3353.7558,N,09832.0239,W,0.28,98.66,300312,,,D*46
$GPGGA,092520.000,3353.7558,N,09832.0238,W,2,07,1.5,322.0,M,-23.7,M,0.8,0000*4C
$GPGSA,A,3,12,10,17,02,05,04,09,,,,,,2.2,1.5,1.7*3E
$GPRMC,092520.000,A,3353.7558,N,09832.0238,W,0.22,97.93,300312,,,D*42
$GPGGA,092521.000,3353.7557,N,09832.0238,W,2,07,1.5,322.2,M,-23.7,M,0.8,0000*40
$GPGSA,A,3,12,10,17,02,05,04,09,,,,,,2.2,1.5,1.7*3E
$GPRMC,092521.000,A,3353.7557,N,09832.0238,W,0.14,90.58,300312,,,D*49
$GPGGA,092522.000,3353.7557,N,09832.0238,W,2,07,1.5,322.3,M,-23.7,M,0.8,0000*42
$GPGSA,A,3,12,10,17,02,05,04,09,,,,,,2.2,1.5,1.7*3E
$GPGSV,3,1,12,02,71,354,33,12,66,281,37,10,50,077,41,05,44,172,41*77
$GPGSV,3,2,12,04,41,044,30,25,29,314,,17,11,100,30,09,10,225,18*73
$GPGSV,3,3,12,27,05,213,17,29,05,295,,13,00,068,,51,49,195,38*7F
$GPRMC,092522.000,A,3353.7557,N,09832.0238,W,0.10,71.29,300312,,,D*47
$GPGGA,092523.000,3353.7557,N,09832.0238,W,2,07,1.5,322.4,M,-23.7,M,0.8,0000*44
$GPGSA,A,3,12,10,17,02,05,04,09,,,,,,2.2,1.5,1.7*3E
$GPRMC,092523.000,A,3353.7557,N,09832.0238,W,0.06,25.79,300312,,,D*45
$GPGGA,092524.000,3353.7557,N,09832.0239,W,2,07,1.5,322.3,M,-23.7,M,1.8,0000*44
$GPGSA,A,3,12,10,17,02,05,04,09,,,,,,2.2,1.5,1.7*3E
$GPRMC,092524.000,A,3353.7557,N,09832.0239,W,0.11,335.82,300312,,,D*73
$GPGGA,092525.000,3353.7557,N,09832.0239,W,2,07,1.5,322.3,M,-23.7,M,0.8,0000*44
$GPGSA,A,3,12,10,17,02,05,04,09,,,,,,2.2,1.5,1.7*3E
$GPRMC,092525.000,A,3353.7557,N,09832.0239,W,0.14,324.03,300312,,,D*7E
$GPGGA,092526.000,3353.7558,N,09832.0240,W,2,07,1.5,322.2,M,-23.7,M,1.8,0000*46
$GPGSA,A,3,12,10,17,02,05,04,09,,,,,,2.2,1.5,1.7*3E
$GPRMC,092526.000,A,3353.7558,N,09832.0240,W,0.17,327.59,300312,,,D*73
$GPGGA,092527.000,3353.7558,N,09832.0241,W,2,07,1.5,322.1,M,-23.7,M,0.8,0000*44
$GPGSA,A,3,12,10,17,02,05,04,09,,,,,,2.2,1.5,1.7*3E
$GPGSV,3,1,12,02,71,354,33,12,66,281,37,10,50,077,41,05,44,172,41*77
$GPGSV,3,2,12,04,41,044,31,25,29,314,,17,11,100,30,09,10,225,18*72
$GPGSV,3,3,12,27,05,213,17,29,05,295,,13,00,068,,51,49,195,38*7F
$GPRMC,092527.000,A,3353.7558,N,09832.0241,W,0.22,315.77,300312,,,D*78
$GPGGA,092528.000,3353.7558,N,09832.0241,W,2,07,1.5,322.2,M,-23.7,M,0.8,0000*48
$GPGSA,A,3,12,10,17,02,05,04,09,,,,,,2.2,1.5,1.7*3E
$GPRMC,092528.000,A,3353.7558,N,09832.0241,W,0.13,4.25,300312,,,D*71
$GPGGA,092529.000,3353.7557,N,09832.0240,W,2,07,1.5,322.6,M,-23.7,M,0.8,0000*43
$GPGSA,A,3,12,10,17,02,05,04,09,,,,,,2.2,1.5,1.7*3E
$GPRMC,092529.000,A,3353.7557,N,09832.0240,W,0.21,60.98,300312,,,D*4B
$GPGGA,092530.000,3353.7557,N,09832.0240,W,2,07,1.5,322.8,M,-23.7,M,1.8,0000*44
$GPGSA,A,3,12,10,17,02,05,04,09,,,,,,2.2,1.5,1.7*3E
$GPRMC,092530.000,A,3353.7557,N,09832.0240,W,0.15,41.32,300312,,,D*47
$GPGGA,092531.000,3353.7557,N,09832.0240,W,2,07,1.5,322.9,M,-23.7,M,2.8,0000*47
$GPGSA,A,3,12,10,17,02,05,04,09,,,,,,2.2,1.5,1.7*3E
$GPRMC,092531.000,A,3353.7557,N,09832.0240,W,0.13,6.84,300312,,,D*7E
$GPGGA,092532.000,3353.7557,N,09832.0239,W,2,07,1.5,323.1,M,-23.7,M,0.8,0000*41
$GPGSA,A,3,12,10,17,02,05,04,09,,,,,,2.2,1.5,1.7*3E
$GPGSV,3,1,12,02,71,354,33,12,66,281,38,10,50,077,41,05,44,172,41*78
$GPGSV,3,2,12,04,41,044,31,25,29,314,,17,11,100,30,09,10,225,18*72
$GPGSV,3,3,12,27,05,213,17,29,05,295,,13,00,068,,51,49,195,38*7F
$GPRMC,092532.000,A,3353.7557,N,09832.0239,W,0.14,32.76,300312,,,D*4E
$GPGGA,092533.000,3353.7557,N,09832.0239,W,2,07,1.5,323.6,M,-23.7,M,0.8,0000*47
$GPGSA,A,3,12,10,17,02,05,04,09,,,,,,2.2,1.5,1.7*3E
$GPRMC,092533.000,A,3353.7557,N,09832.0239,W,0.23,75.21,300312,,,D*4A
$GPGGA,092534.000,3353.7556,N,09832.0238,W,2,07,1.5,323.9,M,-23.7,M,0.8,0000*4F
$GPGSA,A,3,12,10,17,02,05,04,09,,,,,,2.2,1.5,1.7*3E
$GPRMC,092534.000,A,3353.7556,N,09832.0238,W,0.22,75.65,300312,,,D*4C
$GPGGA,092535.000,3353.7556,N,09832.0238,W,2,07,1.5,324.1,M,-23.7,M,0.8,0000*41
$GPGSA,A,3,12,10,17,02,05,04,09,,,,,,2.2,1.5,1.7*3E
$GPRMC,092535.000,A,3353.7556,N,09832.0238,W,0.04,32.76,300312,,,D*48
$GPGGA,092536.000,3353.7556,N,09832.0238,W,2,07,1.5,324.2,M,-23.7,M,1.8,0000*40
$GPGSA,A,3,12,10,17,02,05,04,09,,,,,,2.2,1.5,1.7*3E
$GPRMC,092536.000,A,3353.7556,N,09832.0238,W,0.03,12.04,300312,,,D*4B
$GPGGA,092537.000,3353.7556,N,09832.0238,W,2,07,1.5,324.3,M,-23.7,M,2.8,0000*43
$GPGSA,A,3,12,10,17,02,05,04,09,,,,,,2.2,1.5,1.7*3E
$GPGSV,3,1,12,02,71,354,33,12,66,281,38,10,50,077,41,05,44,172,41*78
$GPGSV,3,2,12,04,41,044,31,25,29,314,,17,11,100,31,09,10,225,20*78
$GPGSV,3,3,12,27,05,213,17,29,05,295,,13,00,068,,51,49,195,38*7F
$GPRMC,092537.000,A,3353.7556,N,09832.0238,W,0.08,326.10,300312,,,D*70
$GPGGA,092538.000,3353.7555,N,09832.0238,W,2,07,1.5,324.4,M,-23.7,M,3.8,0000*49
$GPGSA,A,3,12,10,17,02,05,04,09,,,,,,2.2,1.5,1.7*3E
$GPRMC,092538.000,A,3353.7555,N,09832.0238,W,0.09,322.84,300312,,,D*74
$GPGGA,092539.000,3353.7555,N,09832.0239,W,2,07,1.5,324.3,M,-23.7,M,0.8,0000*4D
$GPGSA,A,3,12,10,17,02,05,04,09,,,,,,2.2,1.5,1.7*3E
$GPRMC,092539.000,A,3353.7555,N,09832.0239,W,0.13,310.46,300312,,,D*70
$GPGGA,092540.000,3353.7555,N,09832.0239,W,2,07,1.5,324.5,M,-23.7,M,0.8,0000*45
$GPGSA,A,3,12,10,17,02,05,04,09,,,,,,2.2,1.5,1.7*3E
$GPRMC,092540.000,A,3353.7555,N,09832.0239,W,0.06,33.95,300312,,,D*46
$GPGGA,092541.000,3353.7555,N,09832.0239,W,2,07,1.5,324.6,M,-23.7,M,0.8,0000*47
$GPGSA,A,3,12,10,17,02,05,04,09,,,,,,2.2,1.5,1.7*3E
$GPRMC,092541.000,A,3353.7555,N,09832.0239,W,0.20,6.41,300312,,,D*7C
$GPGGA,092542.000,3353.7555,N,09832.0238,W,2,07,1.5,324.8,M,-23.7,M,1.8,0000*4A
$GPGSA,A,3,12,10,17,02,05,04,09,,,,,,2.2,1.5,1.7*3E
$GPGSV,3,1,12,02,71,354,33,12,66,281,38,10,50,077,41,05,44,172,40*79
$GPGSV,3,2,12,04,41,044,31,25,29,314,,17,11,100,31,09,10,225,21*79
$GPGSV,3,3,12,27,05,213,16,29,05,295,,13,00,068,,51,49,195,38*7E
$GPRMC,092542.000,A,3353.7555,N,09832.0238,W,0.18,30.47,300312,,,D*46
$GPGGA,092543.000,3353.7555,N,09832.0238,W,2,07,1.5,324.9,M,-23.7,M,2.8,0000*49
$GPGSA,A,3,12,10,17,02,05,04,09,,,,,,2.2,1.5,1.7*3E
$GPRMC,092543.000,A,3353.7555,N,09832.0238,W,0.18,11.69,300312,,,D*48
$GPGGA,092544.000,3353.7555,N,09832.0238,W,2,07,1.5,325.1,M,-23.7,M,3.8,0000*46
$GPGSA,A,3,12,10,17,02,05,04,09,,,,,,2.2,1.5,1.7*3E
$GPRMC,092544.000,A,3353.7555,N,09832.0238,W,0.17,12.00,300312,,,D*4C
$GPGGA,092545.000,3353.7555,N,09832.0238,W,2,07,1.5,325.2,M,-23.7,M,0.8,0000*47
$GPGSA,A,3,12,10,17,02,05,04,09,,,,,,2.2,1.5,1.7*3E
$GPRMC,092545.000,A,3353.7555,N,09832.0238,W,0.14,14.51,300312,,,D*4C
$GPGGA,092546.000,3353.7555,N,09832.0237,W,2,07,1.5,325.3,M,-23.7,M,0.8,0000*4A
$GPGSA,A,3,12,10,17,02,05,04,09,,,,,,2.2,1.5,1.7*3E
$GPRMC,092546.000,A,3353.7555,N,09832.0237,W,0.14,20.31,300312,,,D*41
$GPGGA,092547.000,3353.7554,N,09832.0237,W,2,07,1.5,325.4,M,-23.7,M,0.8,0000*4D
$GPGSA,A,3,12,10,17,02,05,04,09,,,,,,2.2,1.5,1.7*3E
$GPGSV,3,1,12,02,71,354,33,12,66,281,38,10,50,077,41,05,44,172,40*79
$GPGSV,3,2,12,04,41,044,31,25,29,314,,17,11,100,31,09,10,225,22*7A
$GPGSV,3,3,12,27,05,213,16,29,05,295,,13,00,068,,51,49,195,38*7E
$GPRMC,092547.000,A,3353.7554,N,09832.0237,W,0.08,47.56,300312,,,D*4C
$GPGGA,092548.000,3353.7554,N,09832.0237,W,2,07,1.5,325.5,M,-23.7,M,0.8,0000*43
$GPGSA,A,3,12,10,17,02,05,04,09,,,,,,2.2,1.5,1.7*3E
$GPRMC,092548.000,A,3353.7554,N,09832.0237,W,0.04,21.65,300312,,,D*4F
$GPGGA,092549.000,3353.7553,N,09832.0237,W,2,07,1.5,325.7,M,-23.7,M,0.8,0000*47
$GPGSA,A,3,12,10,17,02,05,04,09,,,,,,2.2,1.5,1.7*3E
$GPRMC,092549.000,A,3353.7553,N,09832.0237,W,0.08,44.20,300312,,,D*47
$GPGGA,092550.000,3353.7553,N,09832.0237,W,2,07,1.5,325.7,M,-23.7,M,1.8,0000*4E
$GPGSA,A,3,12,10,17,02,05,04,09,,,,,,2.2,1.5,1.7*3E
$GPRMC,092550.000,A,3353.7553,N,09832.0237,W,0.08,274.87,300312,,,D*73
$GPGGA,092551.000,3353.7553,N,09832.0237,W,2,07,1.5,325.8,M,-23.7,M,0.8,0000*41
$GPGSA,A,3,12,10,17,02,05,04,09,,,,,,2.2,1.5,1.7*3E
$GPRMC,092551.000,A,3353.7553,N,09832.0237,W,0.06,339.65,300312,,,D*78
$GPGGA,092552.000,3353.7552,N,09832.0237,W,2,07,1.5,326.0,M,-23.7,M,0.8,0000*48
$GPGSA,A,3,12,10,17,02,05,04,09,,,,,,2.2,1.5,1.7*3E
$GPGSV,3,1,12,02,71,354,33,12,66,281,38,10,50,077,41,05,44,172,39*77
$GPGSV,3,2,12,04,41,044,31,25,29,314,,17,11,100,31,09,10,225,23*7B
$GPGSV,3,3,12,27,05,213,14,29,05,295,,13,00,068,,51,49,195,38*7C
$GPRMC,092552.000,A,3353.7552,N,09832.0237,W,0.09,42.27,300312,,,D*4C
$GPGGA,092553.000,3353.7552,N,09832.0237,W,2,07,1.5,326.3,M,-23.7,M,0.8,0000*4A
$GPGSA,A,3,12,10,17,02,05,04,09,,,,,,2.2,1.5,1.7*3E
$GPRMC,092553.000,A,3353.7552,N,09832.0237,W,0.14,45.81,300312,,,D*4A
$GPGGA,092554.000,3353.7551,N,09832.0237,W,2,07,1.5,326.5,M,-23.7,M,1.8,0000*49
$GPGSA,A,3,12,10,17,02,05,04,09,,,,,,2.2,1.5,1.7*3E
$GPRMC,092554.000,A,3353.7551,N,09832.0237,W,0.11,36.02,300312,,,D*44
$GPGGA,092555.000,3353.7551,N,09832.0236,W,2,07,1.5,326.7,M,-23.7,M,2.8,0000*48
$GPGSA,A,3,12,10,17,02,05,04,09,,,,,,2.2,1.5,1.7*3E
$GPRMC,092555.000,A,3353.7551,N,09832.0236,W,0.14,37.67,300312,,,D*43
$GPGGA,092556.000,3353.7551,N,09832.0236,W,2,07,1.5,326.8,M,-23.7,M,3.8,0000*45
$GPGSA,A,3,12,10,17,02,05,04,09,,,,,,2.2,1.5,1.7*3E
$GPRMC,092556.000,A,3353.7551,N,09832.0236,W,0.08,4.08,300312,,,D*74
$GPGGA,092557.000,3353.7550,N,09832.0236,W,2,07,1.5,326.9,M,-23.7,M,0.8,0000*47
$GPGSA,A,3,12,10,17,02,05,04,09,,,,,,2.2,1.5,1.7*3E
$GPGSV,3,1,12,02,71,354,33,12,66,281,38,10,50,077,42,05,44,172,39*74
$GPGSV,3,2,12,04,41,044,31,25,29,314,,17,11,100,31,09,10,225,23*7B
$GPGSV,3,3,12,27,05,213,,29,05,295,,13,00,068,,51,49,195,38*79
$GPRMC,092557.000,A,3353.7550,N,09832.0236,W,0.10,20.64,300312,,,D*41
$GPGGA,092558.000,3353.7550,N,09832.0236,W,2,07,1.5,327.0,M,-23.7,M,0.8,0000*40
$GPGSA,A,3,12,10,17,02,05,04,09,,,,,,2.2,1.5,1.7*3E
$GPRMC,092558.000,A,3353.7550,N,09832.0236,W,0.10,21.04,300312,,,D*49
$GPGGA,092559.000,3353.7550,N,09832.0236,W,2,07,1.5,327.1,M,-23.7,M,0.8,0000*40
$GPGSA,A,3,12,10,17,02,05,04,09,,,,,,2.2,1.5,1.7*3E
$GPRMC,092559.000,A,3353.7550,N,09832.0236,W,0.05,334.36,300312,,,D*7A
$GPGGA,092600.000,3353.7549,N,09832.0236,W,2,07,1.5,327.3,M,-23.7,M,1.8,0000*44
$GPGSA,A,3,12,10,17,02,05,04,09,,,,,,2.2,1.5,1.7*3E
$GPRMC,092600.000,A,3353.7549,N,09832.0236,W,0.08,47.44,300312,,,D*42
$GPGGA,092601.000,3353.7548,N,09832.0236,W,2,07,1.5,327.6,M,-23.7,M,0.8,0000*40
$GPGSA,A,3,12,10,17,02,05,04,09,,,,,,2.2,1.5,1.7*3E
$GPRMC,092601.000,A,3353.7548,N,09832.0236,W,0.18,64.40,300312,,,D*46
$GPGGA,092602.000,3353.7548,N,09832.0236,W,2,07,1.5,327.7,M,-23.7,M,1.8,0000*43
$GPGSA,A,3,12,10,17,02,05,04,09,,,,,,2.2,1.5,1.7*3E
$GPGSV,3,1,12,02,71,354,32,12,66,281,38,10,50,077,42,05,44,172,38*74
$GPGSV,3,2,12,04,41,044,31,25,29,314,,17,11,100,31,09,10,225,23*7B
$GPGSV,3,3,12,27,05,213,,29,05,295,,13,00,068,,51,49,195,38*79
$GPRMC,092602.000,A,3353.7548,N,09832.0236,W,0.03,339.73,300312,,,D*74
$GPGGA,092603.000,3353.7547,N,09832.0235,W,2,07,1.5,327.9,M,-23.7,M,0.8,0000*41
$GPGSA,A,3,12,10,17,02,05,04,09,,,,,,2.2,1.5,1.7*3E
$GPRMC,092603.000,A,3353.7547,N,09832.0235,W,0.10,62.82,300312,,,D*48
$GPGGA,092604.000,3353.7547,N,09832.0236,W,2,07,1.5,328.0,M,-23.7,M,0.8,0000*43
$GPGSA,A,3,12,10,17,02,05,04,09,,,,,,2.2,1.5,1.7*3E
$GPRMC,092604.000,A,3353.7547,N,09832.0236,W,0.04,306.56,300312,,,D*71
$GPGGA,092605.000,3353.7546,N,09832.0236,W,2,07,1.5,328.0,M,-23.7,M,0.8,0000*43
$GPGSA,A,3,12,10,17,02,05,04,09,,,,,,2.2,1.5,1.7*3E
$GPRMC,092605.000,A,3353.7546,N,09832.0236,W,0.10,261.76,300312,,,D*76
$GPGGA,092606.000,3353.7546,N,09832.0236,W,2,07,1.5,328.3,M,-23.7,M,1.8,0000*42
$GPGSA,A,3,12,10,17,02,05,04,09,,,,,,2.2,1.5,1.7*3E
$GPRMC,092606.000,A,3353.7546,N,09832.0236,W,0.17,47.39,300312,,,D*4F
$GPGGA,092607.000,3353.7545,N,09832.0236,W,2,07,1.5,328.5,M,-23.7,M,2.8,0000*45
$GPGSA,A,3,12,10,17,02,05,04,09,,,,,,2.2,1.5,1.7*3E
$GPGSV,3,1,12,02,71,354,33,12,66,281,38,10,50,077,42,05,44,172,38*75
$GPGSV,3,2,12,04,41,044,30,25,29,314,,17,11,100,31,09,10,225,23*7A
$GPGSV,3,3,12,27,05,213,,29,05,295,,13,00,068,,51,49,195,38*79
$GPRMC,092607.000,A,3353.7545,N,09832.0236,W,0.07,33.51,300312,,,D*41
$GPGGA,092608.000,3353.7545,N,09832.0236,W,2,07,1.5,328.6,M,-23.7,M,3.8,0000*48
$GPGSA,A,3,12,10,17,02,05,04,09,,,,,,2.2,1.5,1.7*3E
$GPRMC,092608.000,A,3353.7545,N,09832.0236,W,0.05,267.54,300312,,,D*7A
$GPGGA,092609.000,3353.7544,N,09832.0236,W,2,07,1.5,328.9,M,-23.7,M,0.8,0000*44
$GPGSA,A,3,12,10,17,02,05,04,09,,,,,,2.2,1.5,1.7*3E
$GPRMC,092609.000,A,3353.7544,N,09832.0236,W,0.19,52.99,300312,,,D*42
$GPGGA,092610.000,3353.7544,N,09832.0236,W,2,07,1.5,329.0,M,-23.7,M,0.8,0000*44
$GPGSA,A,3,12,10,17,02,05,04,09,,,,,,2.2,1.5,1.7*3E
$GPRMC,092610.000,A,3353.7544,N,09832.0236,W,0.04,94.25,300312,,,D*4B
$GPGGA,092611.000,3353.7543,N,09832.0236,W,2,07,1.5,329.0,M,-23.7,M,0.8,0000*42
$GPGSA,A,3,12,10,17,02,05,04,09,,,,,,2.2,1.5,1.7*3E
$GPRMC,092611.000,A,3353.7543,N,09832.0236,W,0.04,165.83,300312,,,D*7E
$GPGGA,092612.000,3353.7542,N,09832.0235,W,2,07,1.5,329.2,M,-23.7,M,0.8,0000*41
$GPGSA,A,3,12,10,17,02,05,04,09,,,,,,2.2,1.5,1.7*3E
$GPGSV,3,1,12,02,71,354,33,12,66,281,38,10,50,077,42,05,44,172,38*75
$GPGSV,3,2,12,04,41,044,30,25,29,314,,17,11,100,31,09,10,225,21*78
$GPGSV,3,3,12,27,05,213,,29,05,295,,13,00,068,,51,49,195,38*79
$GPRMC,092612.000,A,3353.7542,N,09832.0235,W,0.14,48.06,300312,,,D*4D
$GPGGA,092613.000,3353.7542,N,09832.0235,W,2,07,1.5,329.6,M,-23.7,M,1.8,0000*45
$GPGSA,A,3,12,10,17,02,05,04,09,,,,,,2.2,1.5,1.7*3E
$GPRMC,092613.000,A,3353.7542,N,09832.0235,W,0.19,46.90,300312,,,D*40
$GPGGA,092614.000,3353.7541,N,09832.0235,W,2,07,1.5,329.6,M,-23.7,M,2.8,0000*42
$GPGSA,A,3,12,10,17,02,05,04,09,,,,,,2.2,1.5,1.7*3E
$GPRMC,092614.000,A,3353.7541,N,09832.0235,W,0.05,137.02,300312,,,D*75
$GPGGA,092615.000,3353.7541,N,09832.0235,W,2,07,1.5,329.7,M,-23.7,M,0.8,0000*40
$GPGSA,A,3,12,10,17,02,05,04,09,,,,,,2.2,1.5,1.7*3E
$GPRMC,092615.000,A,3353.7541,N,09832.0235,W,0.03,1.86,300312,,,D*7A
$GPGGA,092616.000,3353.7540,N,09832.0235,W,2,07,1.5,330.0,M,-23.7,M,0.8,0000*4D
$GPGSA,A,3,12,10,17,02,05,04,09,,,,,,2.2,1.5,1.7*3E
$GPRMC,092616.000,A,3353.7540,N,09832.0235,W,0.15,59.48,300312,,,D*40
$GPGGA,092617.000,3353.7540,N,09832.0235,W,2,07,1.5,330.1,M,-23.7,M,0.8,0000*4D
$GPGSA,A,3,12,10,17,02,05,04,09,,,,,,2.2,1.5,1.7*3E
$GPGSV,3,1,12,02,71,354,33,12,66,281,38,10,50,077,42,05,44,172,38*75
$GPGSV,3,2,12,04,41,044,28,25,29,314,,17,11,100,31,09,10,225,21*71
$GPGSV,3,3,12,27,05,213,13,29,05,295,,13,00,068,,51,49,195,38*7B
$GPRMC,092617.000,A,3353.7540,N,09832.0235,W,0.10,34.06,300312,,,D*45
$GPGGA,092618.000,3353.7540,N,09832.0235,W,2,07,1.5,330.1,M,-23.7,M,0.8,0000*42
$GPGSA,A,3,12,10,17,02,05,04,09,,,,,,2.2,1.5,1.7*3E
$GPRMC,092618.000,A,3353.7540,N,09832.0235,W,0.08,335.03,300312,,,D*74
$GPGGA,092619.000,3353.7539,N,09832.0235,W,2,07,1.5,330.3,M,-23.7,M,1.8,0000*4E
$GPGSA,A,3,12,10,17,02,05,04,09,,,,,,2.2,1.5,1.7*3E
$GPRMC,092619.000,A,3353.7539,N,09832.0235,W,0.11,32.37,300312,,,D*40
$GPGGA,092620.000,3353.7539,N,09832.0235,W,2,07,1.5,330.6,M,-23.7,M,2.8,0000*42
$GPGSA,A,3,12,10,17,02,05,04,09,,,,,,2.2,1.5,1.7*3E
$GPRMC,092620.000,A,3353.7539,N,09832.0235,W,0.17,38.60,300312,,,D*44
$GPGGA,092621.000,3353.7539,N,09832.0234,W,2,07,1.5,330.7,M,-23.7,M,0.8,0000*41
$GPGSA,A,3,12,10,17,02,05,04,09,,,,,,2.2,1.5,1.7*3E
$GPRMC,092621.000,A,3353.7539,N,09832.0234,W,0.10,38.79,300312,,,D*4B
$GPGGA,092622.000,3353.7539,N,09832.0235,W,2,07,1.5,330.6,M,-23.7,M,0.8,0000*42
$GPGSA,A,3,12,10,17,02,05,04,09,,,,,,2.2,1.5,1.7*3E
$GPGSV,3,1,12,02,71,354,33,12,66,281,39,10,50,077,42,05,44,172,38*74
$GPGSV,3,2,12,04,41,044,28,25,29,314,,17,11,100,31,09,10,225,21*71
$GPGSV,3,3,12,27,05,213,15,29,05,295,,13,00,068,,51,49,195,38*7D
$GPRMC,092622.000,A,3353.7539,N,09832.0235,W,0.05,341.92,300312,,,D*75
$GPGGA,092623.000,3353.7538,N,09832.0235,W,2,07,1.5,330.7,M,-23.7,M,0.8,0000*43
$GPGSA,A,3,12,10,17,02,05,04,09,,,,,,2.2,1.5,1.7*3E
$GPRMC,092623.000,A,3353.7538,N,09832.0235,W,0.10,42.28,300312,,,D*40
$GPGGA,092624.000,3353.7538,N,09832.0235,W,2,07,1.5,330.8,M,-23.7,M,1.8,0000*4A
$GPGSA,A,3,12,10,17,02,05,04,09,,,,,,2.2,1.5,1.7*3E
$GPRMC,092624.000,A,3353.7538,N,09832.0235,W,0.08,41.00,300312,,,D*47
$GPGGA,092625.000,3353.7538,N,09832.0234,W,2,07,1.5,331.0,M,-23.7,M,2.8,0000*40
$GPGSA,A,3,12,10,17,02,05,04,09,,,,,,2.2,1.5,1.7*3E
$GPRMC,092625.000,A,3353.7538,N,09832.0234,W,0.15,48.16,300312,,,D*45
$GPGGA,092626.000,3353.7537,N,09832.0234,W,2,07,1.5,331.1,M,-23.7,M,0.8,0000*4F
$GPGSA,A,3,12,10,17,02,05,04,09,,,,,,2.2,1.5,1.7*3E
$GPRMC,092626.000,A,3353.7537,N,09832.0234,W,0.08,46.33,300312,,,D*4C
$GPGGA,092627.000,3353.7537,N,09832.0234,W,2,07,1.5,331.2,M,-23.7,M,0.8,0000*4D
$GPGSA,A,3,12,10,17,02,05,04,09,,,,,,2.2,1.5,1.7*3E
$GPGSV,3,1,12,02,71,354,33,12,66,281,39,10,50,077,42,05,44,172,38*74
$GPGSV,3,2,12,04,41,044,27,25,29,314,21,17,11,100,31,09,10,225,21*7D
$GPGSV,3,3,12,27,05,213,16,29,05,295,,13,00,068,18,51,49,195,38*77
$GPRMC,092627.000,A,3353.7537,N,09832.0234,W,0.07,30.47,300312,,,D*40
$GPGGA,092628.000,3353.7536,N,09832.0234,W,2,07,1.5,331.4,M,-23.7,M,0.8,0000*45
$GPGSA,A,3,12,10,17,02,05,04,09,,,,,,2.2,1.5,1.7*3E
$GPRMC,092628.000,A,3353.7536,N,09832.0234,W,0.13,36.22,300312,,,D*4E
$GPGGA,092629.000,3353.7536,N,09832.0234,W,2,07,1.5,331.5,M,-23.7,M,0.8,0000*45
$GPGSA,A,3,12,10,17,02,05,04,09,,,,,,2.2,1.5,1.7*3E
$GPRMC,092629.000,A,3353.7536,N,09832.0234,W,0.02,353.99,300312,,,D*7F
$GPGGA,092630.000,3353.7536,N,09832.0234,W,2,07,1.5,331.8,M,-23.7,M,1.8,0000*41
$GPGSA,A,3,12,10,17,02,05,04,09,,,,,,2.2,1.5,1.7*3E
$GPRMC,092630.000,A,3353.7536,N,09832.0234,W,0.15,53.50,300312,,,D*47
$GPGGA,092631.000,3353.7535,N,09832.0234,W,2,07,1.5,331.9,M,-23.7,M,2.8,0000*41
$GPGSA,A,3,12,10,17,02,05,04,09,,,,,,2.2,1.5,1.7*3E
$GPRMC,092631.000,A,3353.7535,N,09832.0234,W,0.03,31.17,300312,,,D*45
$GPGGA,092632.000,3353.7535,N,09832.0234,W,2,07,1.5,332.0,M,-23.7,M,3.8,0000*49
$GPGSA,A,3,12,10,17,02,05,04,09,,,,,,2.2,1.5,1.7*3E
$GPGSV,3,1,12,02,71,354,33,12,66,281,39,10,50,077,42,05,44,172,39*75
$GPGSV,3,2,12,04,41,044,27,25,29,314,22,17,11,100,31,09,10,225,21*7E
$GPGSV,3,3,12,27,05,213,18,29,05,295,,13,00,068,17,51,49,195,38*76
$GPRMC,092632.000,A,3353.7535,N,09832.0234,W,0.02,84.79,300312,,,D*41
$GPGGA,092633.000,3353.7534,N,09832.0234,W,2,07,1.5,332.2,M,-23.7,M,0.8,0000*48
$GPGSA,A,3,12,10,17,02,05,04,09,,,,,,2.2,1.5,1.7*3E
$GPRMC,092633.000,A,3353.7534,N,09832.0234,W,0.14,61.06,300312,,,D*45
$GPGGA,092634.000,3353.7534,N,09832.0233,W,2,07,1.5,332.6,M,-23.7,M,0.8,0000*4C
$GPGSA,A,3,12,10,17,02,05,04,09,,,,,,2.2,1.5,1.7*3E
$GPRMC,092634.000,A,3353.7534,N,09832.0233,W,0.16,58.42,300312,,,D*4D
$GPGGA,092635.000,3353.7534,N,09832.0233,W,2,07,1.5,332.7,M,-23.7,M,0.8,0000*4C
$GPGSA,A,3,12,10,17,02,05,04,09,,,,,,2.2,1.5,1.7*3E
$GPRMC,092635.000,A,3353.7534,N,09832.0233,W,0.12,33.30,300312,,,D*40
$GPGGA,092636.000,3353.7534,N,09832.0233,W,2,07,1.5,332.7,M,-23.7,M,1.8,0000*4E
$GPGSA,A,3,12,10,17,02,05,04,09,,,,,,2.2,1.5,1.7*3E
$GPRMC,092636.000,A,3353.7534,N,09832.0233,W,0.07,35.11,300312,,,D*42
$GPGGA,092637.000,3353.7534,N,09832.0234,W,2,07,1.5,332.7,M,-23.7,M,2.8,0000*4B
$GPGSA,A,3,12,10,17,02,05,04,09,,,,,,2.2,1.5,1.7*3E
$GPGSV,3,1,12,02,71,354,33,12,66,281,39,10,50,077,42,05,44,172,39*75
$GPGSV,3,2,12,04,41,044,27,25,29,314,22,17,11,100,31,09,10,225,21*7E
$GPGSV,3,3,12,27,05,213,19,29,05,295,,13,00,068,,51,49,195,38*71
$GPRMC,092637.000,A,3353.7534,N,09832.0234,W,0.08,28.08,300312,,,D*4F
$GPGGA,092638.000,3353.7533,N,09832.0233,W,2,07,1.5,332.9,M,-23.7,M,3.8,0000*4B
$GPGSA,A,3,12,10,17,02,05,04,09,,,,,,2.2,1.5,1.7*3E
$GPRMC,092638.000,A,3353.7533,N,09832.0233,W,0.16,31.67,300312,,,D*4E
$GPGGA,092639.000,3353.7533,N,09832.0233,W,2,07,1.5,333.2,M,-23.7,M,0.8,0000*43
$GPGSA,A,3,12,10,17,02,05,04,09,,,,,,2.2,1.5,1.7*3E
$GPRMC,092639.000,A,3353.7533,N,09832.0233,W,0.21,40.56,300312,,,D*4F
$GPGGA,092640.000,3353.7533,N,09832.0233,W,2,07,1.5,333.4,M,-23.7,M,0.8,0000*4B
$GPGSA,A,3,12,10,17,02,05,04,09,,,,,,2.2,1.5,1.7*3E
$GPRMC,092640.000,A,3353.7533,N,09832.0233,W,0.14,39.81,300312,,,D*43
$GPGGA,092641.000,3353.7532,N,09832.0232,W,2,07,1.5,333.7,M,-23.7,M,0.8,0000*49
$GPGSA,A,3,12,10,17,02,05,04,09,,,,,,2.2,1.5,1.7*3E
$GPRMC,092641.000,A,3353.7532,N,09832.0232,W,0.13,77.85,300312,,,D*4B
$GPGGA,092642.000,3353.7532,N,09832.0232,W,2,07,1.5,334.2,M,-23.7,M,1.8,0000*49
$GPGSA,A,3,12,10,17,02,05,04,09,,,,,,2.2,1.5,1.7*3E
$GPGSV,3,1,12,02,71,354,33,12,66,281,39,10,50,077,42,05,44,172,39*75
$GPGSV,3,2,12,04,41,044,27,25,29,314,22,17,11,100,31,09,10,225,21*7E
$GPGSV,3,3,12,27,05,213,20,29,05,295,,13,00,068,,51,49,195,38*7B
$GPRMC,092642.000,A,3353.7532,N,09832.0232,W,0.16,81.52,300312,,,D*4E
$GPGGA,092643.000,3353.7531,N,09832.0231,W,2,07,1.5,334.5,M,-23.7,M,2.8,0000*4C
$GPGSA,A,3,12,10,17,02,05,04,09,,,,,,2.2,1.5,1.7*3E
$GPRMC,092643.000,A,3353.7531,N,09832.0231,W,0.17,103.83,300312,,,D*79
$GPGGA,092644.000,3353.7530,N,09832.0231,W,2,07,1.5,334.8,M,-23.7,M,3.8,0000*46
$GPGSA,A,3,12,10,17,02,05,04,09,,,,,,2.2,1.5,1.7*3E
$GPRMC,092644.000,A,3353.7530,N,09832.0231,W,0.09,122.74,300312,,,D*7B
$GPGGA,092645.000,3353.7530,N,09832.0231,W,2,07,1.5,334.9,M,-23.7,M,0.8,0000*45
$GPGSA,A,3,12,10,17,02,05,04,09,,,,,,2.2,1.5,1.7*3E
$GPRMC,092645.000,A,3353.7530,N,09832.0231,W,0.09,138.40,300312,,,D*76
$GPGGA,092646.000,3353.7529,N,09832.0231,W,2,07,1.5,335.2,M,-23.7,M,0.8,0000*44
$GPGSA,A,3,12,10,17,02,05,04,09,,,,,,2.2,1.5,1.7*3E
$GPRMC,092646.000,A,3353.7529,N,09832.0231,W,0.20,100.33,300312,,,D*79
$GPGGA,092647.000,3353.7529,N,09832.0230,W,2,07,1.5,335.5,M,-23.7,M,0.8,0000*43
$GPGSA,A,3,12,10,17,02,05,04,09,,,,,,2.2,1.5,1.7*3E
$GPGSV,3,1,12,02,71,356,33,12,67,278,39,10,50,075,42,05,45,171,38*71
$GPGSV,3,2,12,04,40,045,27,25,29,314,22,17,10,100,31,09,10,225,20*7E
$GPGSV,3,3,12,29,06,296,,27,05,212,20,13,00,067,,51,49,195,38*75
$GPRMC,092647.000,A,3353.7529,N,09832.0230,W,0.19,41.37,300312,,,D*43
$GPGGA,092648.000,3353.7529,N,09832.0230,W,2,07,1.5,335.5,M,-23.7,M,1.8,0000*4D
$GPGSA,A,3,12,10,17,02,05,04,09,,,,,,2.2,1.5,1.7*3E
$GPRMC,092648.000,A,3353.7529,N,09832.0230,W,0.11,34.09,300312,,,D*4B
$GPGGA,092649.000,3353.7529,N,09832.0230,W,2,07,1.5,335.6,M,-23.7,M,0.8,0000*4E
$GPGSA,A,3,12,10,17,02,05,04,09,,,,,,2.2,1.5,1.7*3E
$GPRMC,092649.000,A,3353.7529,N,09832.0230,W,0.10,97.48,300312,,,D*47
$GPGGA,092650.000,3353.7528,N,09832.0230,W,2,07,1.5,335.8,M,-23.7,M,0.8,0000*49
$GPGSA,A,3,12,10,17,02,05,04,09,,,,,,2.2,1.5,1.7*3E
$GPRMC,092650.000,A,3353.7528,N,09832.0230,W,0.19,54.17,300312,,,D*42
$GPGGA,092651.000,3353.7528,N,09832.0230,W,2,07,1.5,336.1,M,-23.7,M,0.8,0000*42
$GPGSA,A,3,12,10,17,02,05,04,09,,,,,,2.2,1.5,1.7*3E
$GPRMC,092651.000,A,3353.7528,N,09832.0230,W,0.26,22.25,300312,,,D*4F
$GPGGA,092652.000,3353.7528,N,09832.0230,W,2,07,1.5,336.3,M,-23.7,M,0.8,0000*43
$GPGSA,A,3,12,10,17,02,05,04,09,,,,,,2.2,1.5,1.7*3E
$GPGSV,3,1,12,02,71,356,33,12,67,278,39,10,50,075,42,05,45,171,38*71
$GPGSV,3,2,12,04,40,045,27,25,29,314,23,17,10,100,32,09,10,225,20*7C
$GPGSV,3,3,12,29,06,296,,27,05,212,20,13,00,067,,51,49,195,38*75
$GPRMC,092652.000,A,3353.7528,N,09832.0230,W,0.05,72.93,300312,,,D*45
$GPGGA,092653.000,3353.7527,N,09832.0229,W,2,07,1.5,336.7,M,-23.7,M,0.8,0000*41
$GPGSA,A,3,12,10,17,02,05,04,09,,,,,,2.2,1.5,1.7*3E
$GPRMC,092653.000,A,3353.7527,N,09832.0229,W,0.15,85.23,300312,,,D*41
$GPGGA,092654.000,3353.7526,N,09832.0229,W,2,07,1.5,336.9,M,-23.7,M,1.8,0000*48
$GPGSA,A,3,12,10,17,02,05,04,09,,,,,,2.2,1.5,1.7*3E
$GPRMC,092654.000,A,3353.7526,N,09832.0229,W,0.11,138.01,300312,,,D*74
$GPGGA,092655.000,3353.7526,N,09832.0230,W,2,07,1.5,337.0,M,-23.7,M,2.8,0000*4A
$GPGSA,A,3,12,10,17,02,05,04,09,,,,,,2.2,1.5,1.7*3E
$GPRMC,092655.000,A,3353.7526,N,09832.0230,W,0.16,162.98,300312,,,D*75
$GPGGA,092656.000,3353.7525,N,09832.0230,W,2,07,1.5,337.4,M,-23.7,M,0.8,0000*4C
$GPGSA,A,3,12,10,17,02,05,04,09,,,,,,2.2,1.5,1.7*3E
$GPRMC,092656.000,A,3353.7525,N,09832.0230,W,0.14,74.77,300312,,,D*40
$GPGGA,092657.000,3353.7524,N,09832.0229,W,2,07,1.5,337.8,M,-23.7,M,0.8,0000*48
$GPGSA,A,3,12,10,17,02,05,04,09,,,,,,2.2,1.5,1.7*3E
$GPGSV,3,1,12,02,71,356,32,12,67,278,39,10,50,075,42,05,45,171,38*70
$GPGSV,3,2,12,04,40,045,27,25,29,314,23,17,10,100,32,09,10,225,19*76
$GPGSV,3,3,12,29,06,296,,27,05,212,19,13,00,067,,51,49,195,38*7F
$GPRMC,092657.000,A,3353.7524,N,09832.0229,W,0.15,82.73,300312,,,D*44
$GPGGA,092658.000,3353.7523,N,09832.0230,W,2,07,1.5,338.0,M,-23.7,M,0.8,0000*4F
$GPGSA,A,3,12,10,17,02,05,04,09,,,,,,2.2,1.5,1.7*3E
$GPRMC,092658.000,A,3353.7523,N,09832.0230,W,0.14,154.12,300312,,,D*78
$GPGGA,092659.000,3353.7523,N,09832.0229,W,2,07,1.5,338.3,M,-23.7,M,0.8,0000*45
$GPGSA,A,3,12,10,17,02,05,04,09,,,,,,2.2,1.5,1.7*3E
$GPRMC,092659.000,A,3353.7523,N,09832.0229,W,0.17,51.32,300312,,,D*44
$GPGGA,092700.000,3353.7522,N,09832.0230,W,2,07,1.5,338.4,M,-23.7,M,1.8,0000*47
$GPGSA,A,3,12,10,17,02,05,04,09,,,,,,2.2,1.5,1.7*3E
$GPRMC,092700.000,A,3353.7522,N,09832.0230,W,0.09,82.85,300312,,,D*4D
$GPGGA,092701.000,3353.7522,N,09832.0230,W,2,06,2.3,338.7,M,-23.7,M,2.8,0000*42
$GPGSA,A,3,12,10,17,02,05,04,,,,,,,4.2,2.3,3.5*34
$GPRMC,092701.000,A,3353.7522,N,09832.0230,W,0.12,42.48,300312,,,D*4B
$GPGGA,092702.000,3353.7521,N,09832.0230,W,2,06,2.3,339.0,M,-23.7,M,3.8,0000*45
$GPGSA,A,3,12,10,17,02,05,04,,,,,,,4.2,2.3,3.5*34
$GPGSV,3,1,12,02,71,356,31,12,67,278,39,10,50,075,42,05,45,171,38*73
$GPGSV,3,2,12,04,40,045,27,25,29,314,22,17,10,100,32,09,10,225,07*78
$GPGSV,3,3,12,29,06,296,,27,05,212,19,13,00,067,,51,49,195,38*7F
$GPRMC,092702.000,A,3353.7521,N,09832.0230,W,0.15,62.77,300312,,,D*42
$GPGGA,092703.000,3353.7522,N,09832.0230,W,2,06,2.3,339.1,M,-23.7,M,0.8,0000*45
$GPGSA,A,3,12,10,17,02,05,04,,,,,,,4.2,2.3,3.5*34
$GPRMC,092703.000,A,3353.7522,N,09832.0230,W,0.16,56.16,300312,,,D*43
$GPGGA,092704.000,3353.7522,N,09832.0230,W,2,06,2.3,339.2,M,-23.7,M,0.8,0000*41
$GPGSA,A,3,12,10,17,02,05,04,,,,,,,4.2,2.3,3.5*34
$GPRMC,092704.000,A,3353.7522,N,09832.0230,W,0.13,43.42,300312,,,D*44
$GPGGA,092705.000,3353.7521,N,09832.0230,W,2,06,2.3,339.3,M,-23.7,M,0.8,0000*42
$GPGSA,A,3,12,10,17,02,05,04,,,,,,,4.2,2.3,3.5*34
$GPRMC,092705.000,A,3353.7521,N,09832.0230,W,0.13,106.37,300312,,,D*74
$GPGGA,092706.000,3353.7521,N,09832.0230,W,2,06,2.3,339.3,M,-23.7,M,0.8,0000*41
$GPGSA,A,3,12,10,17,02,05,04,,,,,,,4.2,2.3,3.5*34
$GPRMC,092706.000,A,3353.7521,N,09832.0230,W,0.10,129.48,300312,,,D*71
$GPGGA,092707.000,3353.7521,N,09832.0230,W,2,06,2.3,339.2,M,-23.7,M,0.8,0000*41
$GPGSA,A,3,12,10,17,02,05,04,,,,,,,4.2,2.3,3.5*34
$GPGSV,3,1,12,02,71,356,31,12,67,278,39,10,50,075,42,05,45,171,38*73
$GPGSV,3,2,12,04,40,045,26,25,29,314,21,17,10,100,32,09,10,225,*7D
$GPGSV,3,3,12,29,06,296,,27,05,212,18,13,00,067,,51,49,195,38*7E
$GPRMC,092707.000,A,3353.7521,N,09832.0230,W,0.07,93.02,300312,,,D*48
$GPGGA,092708.000,3353.7521,N,09832.0231,W,2,06,2.3,339.1,M,-23.7,M,1.8,0000*4D
$GPGSA,A,3,12,10,17,02,05,04,,,,,,,4.2,2.3,3.5*34
$GPRMC,092708.000,A,3353.7521,N,09832.0231,W,0.07,90.90,300312,,,D*4E
$GPGGA,092709.000,3353.7522,N,09832.0231,W,2,06,2.3,339.1,M,-23.7,M,0.8,0000*4E
$GPGSA,A,3,12,10,17,02,05,04,,,,,,,4.2,2.3,3.5*34
$GPRMC,092709.000,A,3353.7522,N,09832.0231,W,0.05,62.29,300312,,,D*41
$GPGGA,092710.000,3353.7522,N,09832.0231,W,2,05,2.4,338.8,M,-23.7,M,0.8,0000*4A
$GPGSA,A,3,12,10,17,02,05,,,,,,,,4.4,2.4,3.6*32
$GPRMC,092710.000,A,3353.7522,N,09832.0231,W,0.06,143.11,300312,,,D*73
$GPGGA,092711.000,3353.7523,N,09832.0232,W,2,05,2.4,338.6,M,-23.7,M,0.8,0000*47
$GPGSA,A,3,12,10,17,02,05,,,,,,,,4.4,2.4,3.6*32
$GPRMC,092711.000,A,3353.7523,N,09832.0232,W,0.13,22.67,300312,,,D*43
$GPGGA,092712.000,3353.7525,N,09832.0232,W,2,05,2.4,338.3,M,-23.7,M,1.8,0000*46
$GPGSA,A,3,12,10,17,02,05,,,,,,,,4.4,2.4,3.6*32
$GPGSV,3,1,12,02,71,356,30,12,67,278,39,10,50,075,42,05,45,171,38*72
$GPGSV,3,2,12,04,40,045,15,25,29,314,21,17,10,100,32,09,10,225,*7D
$GPGSV,3,3,12,29,06,296,,27,05,212,17,13,00,067,,51,49,195,38*71
$GPRMC,092712.000,A,3353.7525,N,09832.0232,W,0.16,29.96,300312,,,D*46
$GPGGA,092713.000,3353.7526,N,09832.0233,W,2,05,2.4,338.0,M,-23.7,M,2.8,0000*45
$GPGSA,A,3,12,10,17,02,05,,,,,,,,4.4,2.4,3.6*32
$GPRMC,092713.000,A,3353.7526,N,09832.0233,W,0.18,4.42,300312,,,D*7D
$GPGGA,092714.000,3353.7527,N,09832.0233,W,2,07,1.5,337.8,M,-23.7,M,3.8,0000*45
$GPGSA,A,3,12,10,17,02,05,04,09,,,,,,2.2,1.5,1.7*3E
$GPRMC,092714.000,A,3353.7527,N,09832.0233,W,0.29,23.61,300312,,,D*4D
$GPGGA,092715.000,3353.7529,N,09832.0234,W,2,06,1.7,337.0,M,-23.7,M,0.8,0000*45
$GPGSA,A,3,12,10,17,02,05,09,,,,,,,2.5,1.7,1.8*30
$GPRMC,092715.000,A,3353.7529,N,09832.0234,W,0.16,7.63,300312,,,D*7D
$GPGGA,092716.000,3353.7530,N,09832.0235,W,2,06,1.7,336.8,M,-23.7,M,0.8,0000*46
$GPGSA,A,3,12,10,17,02,05,09,,,,,,,2.5,1.7,1.8*30
$GPRMC,092716.000,A,3353.7530,N,09832.0235,W,0.26,9.88,300312,,,D*7F
$GPGGA,092717.000,3353.7532,N,09832.0236,W,2,06,1.7,336.1,M,-23.7,M,0.8,0000*4F
$GPGSA,A,3,12,10,17,02,05,09,,,,,,,2.5,1.7,1.8*30
$GPGSV,3,1,12,02,71,356,29,12,67,278,39,10,50,075,42,05,45,171,38*7A
$GPGSV,3,2,12,04,40,045,,25,29,314,21,17,10,100,33,09,10,225,19*70
$GPGSV,3,3,12,29,06,296,,27,05,212,15,13,00,067,20,51,49,195,38*71
$GPRMC,092717.000,A,3353.7532,N,09832.0236,W,0.09,322.66,300312,,,D*78
$GPGGA,092718.000,3353.7532,N,09832.0235,W,2,06,1.7,336.4,M,-23.7,M,1.8,0000*47
$GPGSA,A,3,12,10,17,02,05,09,,,,,,,2.5,1.7,1.8*30
$GPRMC,092718.000,A,3353.7532,N,09832.0235,W,0.17,21.61,300312,,,D*4C
$GPGGA,092719.000,3353.7531,N,09832.0234,W,2,06,1.7,336.8,M,-23.7,M,2.8,0000*4B
$GPGSA,A,3,12,10,17,02,05,09,,,,,,,2.5,1.7,1.8*30
$GPRMC,092719.000,A,3353.7531,N,09832.0234,W,0.21,29.81,300312,,,D*4C
$GPGGA,092720.000,3353.7532,N,09832.0233,W,2,06,1.7,337.2,M,-23.7,M,3.8,0000*4F
$GPGSA,A,3,12,10,17,02,05,09,,,,,,,2.5,1.7,1.8*30
$GPRMC,092720.000,A,3353.7532,N,09832.0233,W,0.03,31.38,300312,,,D*49
$GPGGA,092721.000,3353.7532,N,09832.0232,W,2,06,1.7,337.9,M,-23.7,M,0.8,0000*47
$GPGSA,A,3,12,10,17,02,05,09,,,,,,,2.5,1.7,1.8*30
$GPRMC,092721.000,A,3353.7532,N,09832.0232,W,0.13,27.67,300312,,,D*45
$GPGGA,092722.000,3353.7532,N,09832.0231,W,2,06,1.7,338.2,M,-23.7,M,0.8,0000*43
$GPGSA,A,3,12,10,17,02,05,09,,,,,,,2.5,1.7,1.8*30
$GPGSV,3,1,12,02,71,356,28,12,67,278,39,10,50,075,42,05,45,171,38*7B
$GPGSV,3,2,12,04,40,045,,25,29,314,21,17,10,100,33,09,10,225,21*7B
$GPGSV,3,3,12,29,06,296,,27,05,212,14,13,00,067,19,51,49,195,38*7A
$GPRMC,092722.000,A,3353.7532,N,09832.0231,W,0.03,43.38,300312,,,D*4C
$GPGGA,092723.000,3353.7532,N,09832.0231,W,2,06,1.7,338.4,M,-23.7,M,0.8,0000*44
$GPGSA,A,3,12,10,17,02,05,09,,,,,,,2.5,1.7,1.8*30
$GPRMC,092723.000,A,3353.7532,N,09832.0231,W,0.26,19.58,300312,,,D*43
$GPGGA,092724.000,3353.7533,N,09832.0230,W,2,06,1.7,338.7,M,-23.7,M,0.8,0000*40
$GPGSA,A,3,12,10,17,02,05,09,,,,,,,2.5,1.7,1.8*30
$GPRMC,092724.000,A,3353.7533,N,09832.0230,W,0.14,15.75,300312,,,D*46
$GPGGA,092725.000,3353.7533,N,09832.0230,W,2,06,1.7,338.8,M,-23.7,M,1.8,0000*4F
$GPGSA,A,3,12,10,17,02,05,09,,,,,,,2.5,1.7,1.8*30
$GPRMC,092725.000,A,3353.7533,N,09832.0230,W,0.19,3.34,300312,,,D*78
$GPGGA,092726.000,3353.7534,N,09832.0229,W,2,06,1.7,339.2,M,-23.7,M,0.8,0000*49
$GPGSA,A,3,12,10,17,02,05,09,,,,,,,2.5,1.7,1.8*30
$GPRMC,092726.000,A,3353.7534,N,09832.0229,W,0.28,22.23,300312,,,D*43
$GPGGA,092727.000,3353.7535,N,09832.0229,W,2,06,1.7,339.3,M,-23.7,M,0.8,0000*48
$GPGSA,A,3,12,10,17,02,05,09,,,,,,,2.5,1.7,1.8*30
$GPGSV,3,1,12,02,71,356,29,12,67,278,39,10,50,075,42,05,45,171,37*75
$GPGSV,3,2,12,04,40,045,,25,29,314,22,17,10,100,34,09,10,225,22*7C
$GPGSV,3,3,12,29,06,296,,27,05,212,,13,00,067,,51,49,195,38*77
$GPRMC,092727.000,A,3353.7535,N,09832.0229,W,0.25,22.33,300312,,,D*4F
$GPGGA,092728.000,3353.7535,N,09832.0228,W,2,06,1.7,339.6,M,-23.7,M,0.8,0000*43
$GPGSA,A,3,12,10,17,02,05,09,,,,,,,2.5,1.7,1.8*30
$GPRMC,092728.000,A,3353.7535,N,09832.0228,W,0.28,22.21,300312,,,D*4F
$GPGGA,092729.000,3353.7535,N,09832.0227,W,2,06,1.7,340.1,M,-23.7,M,0.8,0000*44
$GPGSA,A,3,12,10,17,02,05,09,,,,,,,2.5,1.7,1.8*30
$GPRMC,092729.000,A,3353.7535,N,09832.0227,W,0.10,61.01,300312,,,D*4F
$GPGGA,092730.000,3353.7535,N,09832.0226,W,2,06,1.7,340.6,M,-23.7,M,1.8,0000*4B
$GPGSA,A,3,12,10,17,02,05,09,,,,,,,2.5,1.7,1.8*30
$GPRMC,092730.000,A,3353.7535,N,09832.0226,W,0.09,142.39,300312,,,D*75
$GPGGA,092731.000,3353.7535,N,09832.0225,W,2,06,1.7,341.3,M,-23.7,M,0.8,0000*4C
$GPGSA,A,3,12,10,17,02,05,09,,,,,,,2.5,1.7,1.8*30
$GPRMC,092731.000,A,3353.7535,N,09832.0225,W,0.07,139.19,300312,,,D*77
$GPGGA,092732.000,3353.7534,N,09832.0224,W,2,06,1.7,341.6,M,-23.7,M,1.8,0000*4B
$GPGSA,A,3,12,10,17,02,05,09,,,,,,,2.5,1.7,1.8*30
$GPGSV,3,1,12,02,71,356,30,12,67,278,39,10,50,075,42,05,45,171,37*7D
$GPGSV,3,2,12,04,40,045,,25,29,314,22,17,10,100,34,09,10,225,23*7D
$GPGSV,3,3,12,29,06,296,,27,05,212,,13,00,067,,51,49,195,38*77
$GPRMC,092732.000,A,3353.7534,N,09832.0224,W,0.06,143.10,300312,,,D*71
$GPGGA,092733.000,3353.7534,N,09832.0223,W,2,06,1.7,342.2,M,-23.7,M,0.8,0000*4B
$GPGSA,A,3,12,10,17,02,05,09,,,,,,,2.5,1.7,1.8*30
$GPRMC,092733.000,A,3353.7534,N,09832.0223,W,0.10,58.37,300312,,,D*4E
$GPGGA,092734.000,3353.7534,N,09832.0223,W,2,06,1.7,342.6,M,-23.7,M,0.8,0000*48
$GPGSA,A,3,12,10,17,02,05,09,,,,,,,2.5,1.7,1.8*30
$GPRMC,092734.000,A,3353.7534,N,09832.0223,W,0.10,51.92,300312,,,D*4F
$GPGGA,092735.000,3353.7533,N,09832.0221,W,2,06,1.7,343.5,M,-23.7,M,0.8,0000*4E
$GPGSA,A,3,12,10,17,02,05,09,,,,,,,2.5,1.7,1.8*30
$GPRMC,092735.000,A,3353.7533,N,09832.0221,W,0.28,34.62,300312,,,D*4C
$GPGGA,092736.000,3353.7534,N,09832.0220,W,2,06,1.7,343.9,M,-23.7,M,1.8,0000*46
$GPGSA,A,3,12,10,17,02,05,09,,,,,,,2.5,1.7,1.8*30
$GPRMC,092736.000,A,3353.7534,N,09832.0220,W,0.09,33.56,300312,,,D*4A
$GPGGA,092737.000,3353.7534,N,09832.0219,W,2,06,1.7,344.4,M,-23.7,M,0.8,0000*46
$GPGSA,A,3,12,10,17,02,05,09,,,,,,,2.5,1.7,1.8*30
$GPGSV,3,1,12,02,71,356,30,12,67,278,38,10,50,075,42,05,45,171,37*7C
$GPGSV,3,2,12,04,40,045,,25,29,314,23,17,10,100,33,09,10,225,24*7C
$GPGSV,3,3,12,29,06,296,,27,05,212,,13,00,067,,51,49,195,38*77
$GPRMC,092737.000,A,3353.7534,N,09832.0219,W,0.24,36.19,300312,,,D*40
$GPGGA,092738.000,3353.7534,N,09832.0218,W,2,06,1.7,344.8,M,-23.7,M,0.8,0000*44
$GPGSA,A,3,12,10,17,02,05,09,,,,,,,2.5,1.7,1.8*30
$GPRMC,092738.000,A,3353.7534,N,09832.0218,W,0.19,38.40,300312,,,D*42
$GPGGA,092739.000,3353.7534,N,09832.0218,W,2,06,1.7,345.1,M,-23.7,M,0.8,0000*4D
$GPGSA,A,3,12,10,17,02,05,09,,,,,,,2.5,1.7,1.8*30
$GPRMC,092739.000,A,3353.7534,N,09832.0218,W,0.09,56.83,300312,,,D*45
$GPGGA,092740.000,3353.7534,N,09832.0217,W,2,06,1.7,345.6,M,-23.7,M,0.8,0000*4B
$GPGSA,A,3,12,10,17,02,05,09,,,,,,,2.5,1.7,1.8*30
$GPRMC,092740.000,A,3353.7534,N,09832.0217,W,0.20,44.79,300312,,,D*49
$GPGGA,092741.000,3353.7534,N,09832.0217,W,2,06,1.7,345.5,M,-23.7,M,0.8,0000*49
$GPGSA,A,3,12,10,17,02,05,09,,,,,,,2.5,1.7,1.8*30
$GPRMC,092741.000,A,3353.7534,N,09832.0217,W,0.12,157.37,300312,,,D*70
$GPGGA,092742.000,3353.7534,N,09832.0218,W,2,06,1.7,345.0,M,-23.7,M,1.8,0000*41
$GPGSA,A,3,12,10,17,02,05,09,,,,,,,2.5,1.7,1.8*30
$GPGSV,3,1,12,02,71,356,31,12,67,278,38,10,50,075,42,05,45,171,37*7D
$GPGSV,3,2,12,04,40,045,,25,29,314,22,17,10,100,33,09,10,225,24*7D
$GPGSV,3,3,12,29,06,296,,27,05,212,18,13,00,067,,51,49,195,38*7E
$GPRMC,092742.000,A,3353.7534,N,09832.0218,W,0.09,175.39,300312,,,D*78
$GPGGA,092743.000,3353.7534,N,09832.0218,W,2,06,1.7,344.9,M,-23.7,M,2.8,0000*4B
$GPGSA,A,3,12,10,17,02,05,09,,,,,,,2.5,1.7,1.8*30
$GPRMC,092743.000,A,3353.7534,N,09832.0218,W,0.09,210.48,300312,,,D*7F
$GPGGA,092744.000,3353.7534,N,09832.0218,W,2,06,1.7,344.9,M,-23.7,M,3.8,0000*4D
$GPGSA,A,3,12,10,17,02,05,09,,,,,,,2.5,1.7,1.8*30
$GPRMC,092744.000,A,3353.7534,N,09832.0218,W,0.09,205.51,300312,,,D*74
$GPGGA,092745.000,3353.7534,N,09832.0219,W,2,06,1.7,344.6,M,-23.7,M,0.8,0000*41
$GPGSA,A,3,12,10,17,02,05,09,,,,,,,2.5,1.7,1.8*30
$GPRMC,092745.000,A,3353.7534,N,09832.0219,W,0.04,223.89,300312,,,D*78
$GPGGA,092746.000,3353.7534,N,09832.0220,W,2,06,1.7,344.3,M,-23.7,M,0.8,0000*4D
$GPGSA,A,3,12,10,17,02,05,09,,,,,,,2.5,1.7,1.8*30
$GPRMC,092746.000,A,3353.7534,N,09832.0220,W,0.11,266.80,300312,,,D*7D
$GPGGA,092747.000,3353.7534,N,09832.0220,W,2,07,1.5,344.4,M,-23.7,M,0.8,0000*48
$GPGSA,A,3,12,10,17,02,05,04,09,,,,,,2.2,1.5,1.7*3E
$GPGSV,3,1,12,02,71,356,31,12,67,278,38,10,50,075,42,05,45,171,37*7D
$GPGSV,3,2,12,04,40,045,18,25,29,314,22,17,10,100,32,09,10,225,23*72
$GPGSV,3,3,12,29,06,296,,27,05,212,19,13,00,067,,51,49,195,38*7F
$GPRMC,092747.000,A,3353.7534,N,09832.0220,W,0.22,329.27,300312,,,D*7B
$GPGGA,092748.000,3353.7535,N,09832.0221,W,2,07,1.5,344.0,M,-23.7,M,1.8,0000*42
$GPGSA,A,3,12,10,17,02,05,04,09,,,,,,2.2,1.5,1.7*3E
$GPRMC,092748.000,A,3353.7535,N,09832.0221,W,0.26,323.99,300312,,,D*7F
$GPGGA,092749.000,3353.7539,N,09832.0222,W,2,07,1.5,342.7,M,-23.7,M,2.8,0000*4E
$GPGSA,A,3,12,10,17,02,05,04,09,,,,,,2.2,1.5,1.7*3E
$GPRMC,092749.000,A,3353.7539,N,09832.0222,W,0.20,313.50,300312,,,D*71
$GPGGA,092750.000,3353.7542,N,09832.0223,W,2,07,1.5,341.6,M,-23.7,M,3.8,0000*48
$GPGSA,A,3,12,10,17,02,05,04,09,,,,,,2.2,1.5,1.7*3E
$GPRMC,092750.000,A,3353.7542,N,09832.0223,W,0.42,347.49,300312,,,D*79
$GPGGA,092751.000,3353.7547,N,09832.0224,W,2,07,1.5,340.4,M,-23.7,M,0.8,0000*4B
$GPGSA,A,3,12,10,17,02,05,04,09,,,,,,2.2,1.5,1.7*3E
$GPRMC,092751.000,A,3353.7547,N,09832.0224,W,0.49,356.00,300312,,,D*7C
$GPGGA,092752.000,3353.7548,N,09832.0226,W,2,07,1.5,339.6,M,-23.7,M,0.8,0000*49
$GPGSA,A,3,12,10,17,02,05,04,09,,,,,,2.2,1.5,1.7*3E
$GPGSV,3,1,12,02,71,356,31,12,67,278,38,10,50,075,42,05,45,171,38*72
$GPGSV,3,2,12,04,40,045,21,25,29,314,22,17,10,100,31,09,10,225,18*73
$GPGSV,3,3,12,29,06,296,,27,05,212,20,13,00,067,,51,49,195,38*75
$GPRMC,092752.000,A,3353.7548,N,09832.0226,W,0.44,353.13,300312,,,D*78
$GPGGA,092753.000,3353.7550,N,09832.0227,W,2,07,1.5,338.7,M,-23.7,M,0.8,0000*40
$GPGSA,A,3,12,10,17,02,05,04,09,,,,,,2.2,1.5,1.7*3E
$GPRMC,092753.000,A,3353.7550,N,09832.0227,W,0.21,314.54,300312,,,D*72
$GPGGA,092754.000,3353.7550,N,09832.0229,W,2,07,1.5,337.8,M,-23.7,M,1.8,0000*48
$GPGSA,A,3,12,10,17,02,05,04,09,,,,,,2.2,1.5,1.7*3E
$GPRMC,092754.000,A,3353.7550,N,09832.0229,W,0.17,291.39,300312,,,D*79
$GPGGA,092755.000,3353.7551,N,09832.0230,W,2,07,1.5,336.9,M,-23.7,M,2.8,0000*43
$GPGSA,A,3,12,10,17,02,05,04,09,,,,,,2.2,1.5,1.7*3E
$GPRMC,092755.000,A,3353.7551,N,09832.0230,W,0.19,284.10,300312,,,D*70
$GPGGA,092756.000,3353.7554,N,09832.0232,W,2,07,1.5,335.5,M,-23.7,M,3.8,0000*49
$GPGSA,A,3,12,10,17,02,05,04,09,,,,,,2.2,1.5,1.7*3E
$GPRMC,092756.000,A,3353.7554,N,09832.0232,W,0.34,314.40,300312,,,D*76
$GPGGA,092757.000,3353.7555,N,09832.0232,W,2,07,1.5,335.1,M,-23.7,M,0.8,0000*4E
$GPGSA,A,3,12,10,17,02,05,04,09,,,,,,2.2,1.5,1.7*3E
$GPGSV,3,1,12,02,71,356,30,12,67,278,38,10,50,075,42,05,45,171,38*73
$GPGSV,3,2,12,04,40,045,23,25,29,314,22,17,10,100,31,09,10,225,18*71
$GPGSV,3,3,12,29,06,296,,27,05,212,20,13,00,067,,51,49,195,38*75
$GPRMC,092757.000,A,3353.7555,N,09832.0232,W,0.39,345.04,300312,,,D*7F
$GPGGA,092758.000,3353.7557,N,09832.0233,W,2,07,1.5,334.4,M,-23.7,M,0.8,0000*46
$GPGSA,A,3,12,10,17,02,05,04,09,,,,,,2.2,1.5,1.7*3E
$GPRMC,092758.000,A,3353.7557,N,09832.0233,W,0.33,345.20,300312,,,D*7F
$GPGGA,092759.000,3353.7560,N,09832.0234,W,2,07,1.5,333.4,M,-23.7,M,0.8,0000*43
$GPGSA,A,3,12,10,17,02,05,04,09,,,,,,2.2,1.5,1.7*3E
$GPRMC,092759.000,A,3353.7560,N,09832.0234,W,0.43,352.85,300312,,,D*73
$GPGGA,092800.000,3353.7564,N,09832.0235,W,2,07,1.5,332.1,M,-23.7,M,1.8,0000*40
$GPGSA,A,3,12,10,17,02,05,04,09,,,,,,2.2,1.5,1.6*3F
$GPRMC,092800.000,A,3353.7564,N,09832.0235,W,0.55,352.11,300312,,,D*7F
$GPGGA,092801.000,3353.7568,N,09832.0236,W,2,07,1.5,330.8,M,-23.7,M,2.8,0000*46
$GPGSA,A,3,12,10,17,02,05,04,09,,,,,,2.2,1.5,1.6*3F
$GPRMC,092801.000,A,3353.7568,N,09832.0236,W,0.35,329.53,300312,,,D*7D
$GPGGA,092802.000,3353.7569,N,09832.0237,W,2,07,1.5,329.9,M,-23.7,M,0.8,0000*4E
$GPGSA,A,3,12,10,17,02,05,04,09,,,,,,2.2,1.5,1.6*3F
$GPGSV,3,1,12,02,71,356,31,12,67,278,38,10,50,075,42,05,45,171,38*72
$GPGSV,3,2,12,04,40,045,24,25,29,314,21,17,10,100,30,09,10,225,18*74
$GPGSV,3,3,12,29,06,296,,27,05,212,18,13,00,067,,51,49,195,38*7E
$GPRMC,092802.000,A,3353.7569,N,09832.0237,W,0.41,323.20,300312,,,D*73
$GPGGA,092803.000,3353.7572,N,09832.0239,W,2,07,1.5,328.6,M,-23.7,M,0.8,0000*45
$GPGSA,A,3,12,10,17,02,05,04,09,,,,,,2.2,1.5,1.6*3F
$GPRMC,092803.000,A,3353.7572,N,09832.0239,W,0.36,322.72,300312,,,D*70
$GPGGA,092804.000,3353.7574,N,09832.0240,W,2,07,1.5,327.8,M,-23.7,M,0.8,0000*4B
$GPGSA,A,3,12,10,17,02,05,04,09,,,,,,2.2,1.5,1.6*3F
$GPRMC,092804.000,A,3353.7574,N,09832.0240,W,0.41,336.56,300312,,,D*7C
$GPGGA,092805.000,3353.7575,N,09832.0240,W,2,07,1.5,327.3,M,-23.7,M,0.8,0000*40
$GPGSA,A,3,12,10,17,02,05,04,09,,,,,,2.2,1.5,1.6*3F
$GPRMC,092805.000,A,3353.7575,N,09832.0240,W,0.37,347.02,300312,,,D*7A
$GPGGA,092806.000,3353.7575,N,09832.0241,W,2,07,1.5,326.9,M,-23.7,M,1.8,0000*48
$GPGSA,A,3,12,10,17,02,05,04,09,,,,,,2.2,1.5,1.6*3F
$GPRMC,092806.000,A,3353.7575,N,09832.0241,W,0.35,346.61,300312,,,D*7E
$GPGGA,092807.000,3353.7575,N,09832.0241,W,2,07,1.5,326.6,M,-23.7,M,2.8,0000*45
$GPGSA,A,3,12,10,17,02,05,04,09,,,,,,2.2,1.5,1.6*3F
$GPGSV,3,1,12,02,71,356,30,12,67,278,38,10,50,075,42,05,45,171,37*7C
$GPGSV,3,2,12,04,40,045,26,25,29,314,20,17,10,100,30,09,10,225,17*78
$GPGSV,3,3,12,29,06,296,,27,05,212,17,13,00,067,,51,49,195,38*71
$GPRMC,092807.000,A,3353.7575,N,09832.0241,W,0.30,349.74,300312,,,D*71
$GPGGA,092808.000,3353.7576,N,09832.0241,W,2,07,1.5,326.3,M,-23.7,M,3.8,0000*4D
$GPGSA,A,3,12,10,17,02,05,04,09,,,,,,2.2,1.5,1.6*3F
$GPRMC,092808.000,A,3353.7576,N,09832.0241,W,0.23,337.10,300312,,,D*74
$GPGGA,092809.000,3353.7575,N,09832.0242,W,2,07,1.5,326.2,M,-23.7,M,0.8,0000*4E
$GPGSA,A,3,12,10,17,02,05,04,09,,,,,,2.2,1.5,1.6*3F
$GPRMC,092809.000,A,3353.7575,N,09832.0242,W,0.29,356.13,300312,,,D*7B
$GPGGA,092810.000,3353.7575,N,09832.0242,W,2,07,1.5,326.1,M,-23.7,M,0.8,0000*45
$GPGSA,A,3,12,10,17,02,05,04,09,,,,,,2.2,1.5,1.6*3F
$GPRMC,092810.000,A,3353.7575,N,09832.0242,W,0.22,351.21,300312,,,D*7E
$GPGGA,092811.000,3353.7575,N,09832.0242,W,2,07,1.5,326.0,M,-23.7,M,0.8,0000*45
$GPGSA,A,3,12,10,17,02,05,04,09,,,,,,2.2,1.5,1.6*3F
$GPRMC,092811.000,A,3353.7575,N,09832.0242,W,0.20,3.00,300312,,,D*7A
$GPGGA,092812.000,3353.7575,N,09832.0242,W,2,07,1.5,326.0,M,-23.7,M,1.8,0000*47
$GPGSA,A,3,12,10,17,02,05,04,09,,,,,,2.2,1.5,1.6*3F
$GPGSV,3,1,12,02,71,356,31,12,67,278,38,10,50,075,41,05,45,171,37*7E
$GPGSV,3,2,12,04,40,045,28,25,29,314,20,17,10,100,30,09,10,225,15*74
$GPGSV,3,3,12,29,06,296,,27,05,212,15,13,00,067,,51,49,195,38*73
$GPRMC,092812.000,A,3353.7575,N,09832.0242,W,0.16,0.38,300312,,,D*74
$GPGGA,092813.000,3353.7574,N,09832.0242,W,2,07,1.5,326.0,M,-23.7,M,2.8,0000*44
$GPGSA,A,3,12,10,17,02,05,04,09,,,,,,2.2,1.5,1.6*3F
$GPRMC,092813.000,A,3353.7574,N,09832.0242,W,0.16,357.46,300312,,,D*7C
$GPGGA,092814.000,3353.7573,N,09832.0242,W,2,06,2.3,326.0,M,-23.7,M,3.8,0000*41
$GPGSA,A,3,12,10,17,02,05,04,,,,,,,4.2,2.3,3.5*34
$GPRMC,092814.000,A,3353.7573,N,09832.0242,W,0.10,18.11,300312,,,D*40
$GPGGA,092815.000,3353.7573,N,09832.0242,W,2,06,2.3,326.0,M,-23.7,M,0.8,0000*43
$GPGSA,A,3,12,10,17,02,05,04,,,,,,,4.2,2.3,3.5*34
$GPRMC,092815.000,A,3353.7573,N,09832.0242,W,0.08,48.65,300312,,,D*4E
$GPGGA,092816.000,3353.7572,N,09832.0242,W,2,06,2.3,326.0,M,-23.7,M,0.8,0000*41
$GPGSA,A,3,12,10,17,02,05,04,,,,,,,4.2,2.3,3.5*34
$GPRMC,092816.000,A,3353.7572,N,09832.0242,W,0.09,44.07,300312,,,D*45
$GPGGA,092817.000,3353.7572,N,09832.0242,W,2,06,2.3,326.0,M,-23.7,M,0.8,0000*40
$GPGSA,A,3,12,10,17,02,05,04,,,,,,,4.2,2.3,3.5*34
$GPGSV,3,1,12,02,71,356,32,12,67,278,38,10,50,075,41,05,45,171,37*7D
$GPGSV,3,2,12,04,40,045,29,25,29,314,20,17,10,100,31,09,10,225,*70
$GPGSV,3,3,12,29,06,296,,27,05,212,,13,00,067,,51,49,195,38*77
$GPRMC,092817.000,A,3353.7572,N,09832.0242,W,0.11,27.36,300312,,,D*4A
$GPGGA,092818.000,3353.7571,N,09832.0242,W,2,06,2.3,326.0,M,-23.7,M,1.8,0000*4D
$GPGSA,A,3,12,10,17,02,05,04,,,,,,,4.2,2.3,3.5*34
