$GPGGA,151904.000,3352.3723,N,09831.1646,W,2,08,1.7,289.2,M,-23.7,M,1.8,0000*42
$GPGSA,A,3,18,15,22,06,27,21,03,09,,,,,2.5,1.7,1.7*32
$GPGSV,3,1,12,21,82,067,27,18,65,343,41,15,44,046,38,22,35,283,23*7D
$GPGSV,3,2,12,09,30,110,36,06,29,294,38,27,29,081,40,14,20,213,16*7E
$GPGSV,3,3,12,03,20,303,34,29,16,178,,26,02,038,,51,49,195,36*72
$GPRMC,151904.000,A,3352.3723,N,09831.1646,W,0.31,5.84,290312,,,D*75
$GPGGA,151905.000,3352.3724,N,09831.1646,W,2,08,1.7,288.9,M,-23.7,M,0.8,0000*4F
$GPGSA,A,3,18,15,22,06,27,21,03,09,,,,,2.5,1.7,1.7*32
$GPRMC,151905.000,A,3352.3724,N,09831.1646,W,0.17,25.55,290312,,,D*49
$GPGGA,151906.000,3352.3724,N,09831.1646,W,2,08,1.7,288.7,M,-23.7,M,1.8,0000*43
$GPGSA,A,3,18,15,22,06,27,21,03,09,,,,,2.5,1.7,1.7*32
$GPRMC,151906.000,A,3352.3724,N,09831.1646,W,0.12,27.05,290312,,,D*48
$GPGGA,151907.000,3352.3723,N,09831.1647,W,2,08,1.7,288.5,M,-23.7,M,0.8,0000*47
$GPGSA,A,3,18,15,22,06,27,21,03,09,,,,,2.5,1.7,1.7*32
$GPRMC,151907.000,A,3352.3723,N,09831.1647,W,0.01,197.03,290312,,,D*71
$GPGGA,151908.000,3352.3723,N,09831.1647,W,2,08,1.7,288.3,M,-23.7,M,0.8,0000*4E
$GPGSA,A,3,18,15,22,06,27,21,03,09,,,,,2.5,1.7,1.7*32
$GPRMC,151908.000,A,3352.3723,N,09831.1647,W,0.11,25.88,290312,,,D*44
$GPGGA,151909.000,3352.3724,N,09831.1646,W,2,08,1.7,288.3,M,-23.7,M,0.8,0000*49
$GPGSA,A,3,18,15,22,06,27,21,03,09,,,,,2.5,1.7,1.7*32
$GPGSV,3,1,12,21,82,067,28,18,65,343,41,15,44,046,39,22,35,283,23*73
$GPGSV,3,2,12,09,30,110,36,06,29,294,38,27,29,081,40,14,20,213,16*7E
$GPGSV,3,3,12,03,20,303,34,29,16,178,,26,02,038,,51,49,195,36*72
$GPRMC,151909.000,A,3352.3724,N,09831.1646,W,0.28,21.56,290312,,,D*4E
$GPGGA,151910.000,3352.3724,N,09831.1646,W,2,08,1.7,288.2,M,-23.7,M,1.8,0000*41
$GPGSA,A,3,18,15,22,06,27,21,03,09,,,,,2.5,1.7,1.7*32
$GPRMC,151910.000,A,3352.3724,N,09831.1646,W,0.30,23.10,290312,,,D*4F
$GPGGA,151911.000,3352.3725,N,09831.1646,W,2,08,1.7,288.1,M,-23.7,M,2.8,0000*41
$GPGSA,A,3,18,15,22,06,27,21,03,09,,,,,2.5,1.7,1.7*32
$GPRMC,151911.000,A,3352.3725,N,09831.1646,W,0.21,19.88,290312,,,D*47
$GPGGA,151912.000,3352.3725,N,09831.1646,W,2,08,1.7,288.0,M,-23.7,M,3.8,0000*42
$GPGSA,A,3,18,15,22,06,27,21,03,09,,,,,2.5,1.7,1.7*32
$GPRMC,151912.000,A,3352.3725,N,09831.1646,W,0.14,17.49,290312,,,D*41
$GPGGA,151913.000,3352.3725,N,09831.1646,W,2,08,1.7,288.0,M,-23.7,M,0.8,0000*40
$GPGSA,A,3,18,15,22,06,27,21,03,09,,,,,2.5,1.7,1.7*32
$GPRMC,151913.000,A,3352.3725,N,09831.1646,W,0.26,16.79,290312,,,D*43
$GPGGA,151914.000,3352.3725,N,09831.1646,W,2,08,1.7,288.0,M,-23.7,M,0.8,0000*47
$GPGSA,A,3,18,15,22,06,27,21,03,09,,,,,2.5,1.7,1.7*32
$GPGSV,3,1,12,21,82,067,28,18,65,343,41,15,44,046,39,22,35,283,24*74
$GPGSV,3,2,12,09,30,110,36,06,29,294,38,27,29,081,40,14,20,213,17*7F
$GPGSV,3,3,12,03,20,303,34,29,16,178,,26,02,038,,51,49,195,36*72
$GPRMC,151914.000,A,3352.3725,N,09831.1646,W,0.24,20.84,290312,,,D*41
$GPGGA,151915.000,3352.3725,N,09831.1646,W,2,08,1.7,287.9,M,-23.7,M,0.8,0000*40
$GPGSA,A,3,18,15,22,06,27,21,03,09,,,,,2.5,1.7,1.7*32
$GPRMC,151915.000,A,3352.3725,N,09831.1646,W,0.09,201.72,290312,,,D*77
$GPGGA,151916.000,3352.3725,N,09831.1646,W,2,08,1.7,287.7,M,-23.7,M,1.8,0000*4C
$GPGSA,A,3,18,15,22,06,27,21,03,09,,,,,2.5,1.7,1.7*32
$GPRMC,151916.000,A,3352.3725,N,09831.1646,W,0.04,184.71,290312,,,D*74
$GPGGA,151917.000,3352.3724,N,09831.1647,W,2,08,1.7,287.6,M,-23.7,M,2.8,0000*4F
$GPGSA,A,3,18,15,22,06,27,21,03,09,,,,,2.5,1.7,1.7*32
$GPRMC,151917.000,A,3352.3724,N,09831.1647,W,0.05,189.34,290312,,,D*78
$GPGGA,151918.000,3352.3723,N,09831.1647,W,2,08,1.7,287.5,M,-23.7,M,3.8,0000*45
$GPGSA,A,3,18,15,22,06,27,21,03,09,,,,,2.5,1.7,1.7*32
$GPRMC,151918.000,A,3352.3723,N,09831.1647,W,0.02,174.85,290312,,,D*7F
$GPGGA,151919.000,3352.3723,N,09831.1647,W,2,08,1.7,287.3,M,-23.7,M,0.8,0000*41
$GPGSA,A,3,18,15,22,06,27,21,03,09,,,,,2.5,1.7,1.7*32
$GPGSV,3,1,12,21,82,077,29,18,65,346,41,15,42,046,39,22,36,284,25*72
$GPGSV,3,2,12,09,31,109,36,06,29,293,38,27,29,079,40,14,22,213,19*7A
$GPGSV,3,3,12,03,20,302,34,29,14,178,,26,00,038,,51,49,195,36*73
$GPRMC,151919.000,A,3352.3723,N,09831.1647,W,0.05,77.43,290312,,,D*41
$GPGGA,151920.000,3352.3723,N,09831.1647,W,2,08,1.7,287.2,M,-23.7,M,0.8,0000*4A
$GPGSA,A,3,18,15,22,06,27,21,03,09,,,,,2.5,1.7,1.7*32
$GPRMC,151920.000,A,3352.3723,N,09831.1647,W,0.11,37.76,290312,,,D*4C
$GPGGA,151921.000,3352.3723,N,09831.1647,W,2,08,1.7,287.2,M,-23.7,M,0.8,0000*4B
$GPGSA,A,3,18,15,22,06,27,21,03,09,,,,,2.5,1.7,1.7*32
$GPRMC,151921.000,A,3352.3723,N,09831.1647,W,0.17,19.84,290312,,,D*4A
$GPGGA,151922.000,3352.3724,N,09831.1647,W,2,08,1.7,287.1,M,-23.7,M,0.8,0000*4C
$GPGSA,A,3,18,15,22,06,27,21,03,09,,,,,2.5,1.7,1.7*32
$GPRMC,151922.000,A,3352.3724,N,09831.1647,W,0.25,18.82,290312,,,D*48
$GPGGA,151923.000,3352.3724,N,09831.1646,W,2,08,1.7,287.1,M,-23.7,M,1.8,0000*4D
$GPGSA,A,3,18,15,22,06,27,21,03,09,,,,,2.5,1.7,1.7*32
$GPRMC,151923.000,A,3352.3724,N,09831.1646,W,0.19,22.92,290312,,,D*4F
$GPGGA,151924.000,3352.3725,N,09831.1646,W,2,08,1.7,287.1,M,-23.7,M,0.8,0000*4A
$GPGSA,A,3,18,15,22,06,27,21,03,09,,,,,2.5,1.7,1.7*32
$GPGSV,3,1,12,21,82,077,29,18,65,346,41,15,42,046,39,22,36,284,26*71
$GPGSV,3,2,12,09,31,109,37,06,29,293,38,27,29,079,40,14,22,213,20*71
$GPGSV,3,3,12,03,20,302,34,29,14,178,,26,00,038,,51,49,195,36*73
$GPRMC,151924.000,A,3352.3725,N,09831.1646,W,0.24,19.63,290312,,,D*41
$GPGGA,151925.000,3352.3725,N,09831.1646,W,2,08,1.7,287.1,M,-23.7,M,0.8,0000*4B
$GPGSA,A,3,18,15,22,06,27,21,03,09,,,,,2.5,1.7,1.7*32
$GPRMC,151925.000,A,3352.3725,N,09831.1646,W,0.20,11.42,290312,,,D*4F
$GPGGA,151926.000,3352.3726,N,09831.1646,W,2,08,1.7,287.1,M,-23.7,M,0.8,0000*4B
$GPGSA,A,3,18,15,22,06,27,21,03,09,,,,,2.5,1.7,1.7*32
$GPRMC,151926.000,A,3352.3726,N,09831.1646,W,0.14,6.76,290312,,,D*79
$GPGGA,151927.000,3352.3726,N,09831.1647,W,2,08,1.7,287.1,M,-23.7,M,0.8,0000*4B
$GPGSA,A,3,18,15,22,06,27,21,03,09,,,,,2.5,1.7,1.7*32
$GPRMC,151927.000,A,3352.3726,N,09831.1647,W,0.02,72.29,290312,,,D*47
$GPGGA,151928.000,3352.3726,N,09831.1647,W,2,08,1.7,287.0,M,-23.7,M,1.8,0000*44
$GPGSA,A,3,18,15,22,06,27,21,03,09,,,,,2.5,1.7,1.7*32
$GPRMC,151928.000,A,3352.3726,N,09831.1647,W,0.26,10.89,290312,,,D*40
$GPGGA,151929.000,3352.3726,N,09831.1647,W,2,08,1.7,287.0,M,-23.7,M,2.8,0000*46
$GPGSA,A,3,18,15,22,06,27,21,03,09,,,,,2.5,1.7,1.7*32
$GPGSV,3,1,12,21,82,077,29,18,65,346,41,15,42,046,39,22,36,284,26*71
$GPGSV,3,2,12,09,31,109,37,06,29,293,38,27,29,079,40,14,22,213,20*71
$GPGSV,3,3,12,03,20,302,34,29,14,178,21,26,00,038,,51,49,195,36*70
$GPRMC,151929.000,A,3352.3726,N,09831.1647,W,0.18,13.48,290312,,,D*42
$GPGGA,151930.000,3352.3726,N,09831.1647,W,2,08,1.7,286.9,M,-23.7,M,0.8,0000*44
$GPGSA,A,3,18,15,22,06,27,21,03,09,,,,,2.5,1.7,1.7*32
$GPRMC,151930.000,A,3352.3726,N,09831.1647,W,0.11,190.29,290312,,,D*7E
$GPGGA,151931.000,3352.3726,N,09831.1647,W,2,08,1.7,286.8,M,-23.7,M,0.8,0000*44
$GPGSA,A,3,18,15,22,06,27,21,03,09,,,,,2.5,1.7,1.7*32
$GPRMC,151931.000,A,3352.3726,N,09831.1647,W,0.08,33.02,290312,,,D*46
$GPGGA,151932.000,3352.3725,N,09831.1647,W,2,08,1.7,286.7,M,-23.7,M,0.8,0000*4B
$GPGSA,A,3,18,15,22,06,27,21,03,09,,,,,2.5,1.7,1.7*32
$GPRMC,151932.000,A,3352.3725,N,09831.1647,W,0.14,173.37,290312,,,D*78
$GPGGA,151933.000,3352.3726,N,09831.1647,W,2,09,1.1,286.7,M,-23.7,M,0.8,0000*4E
$GPGSA,A,3,18,29,15,22,06,27,21,03,09,,,,2.0,1.1,1.7*3A
$GPRMC,151933.000,A,3352.3726,N,09831.1647,W,0.17,21.76,290312,,,D*4A
$GPGGA,151934.000,3352.3726,N,09831.1647,W,2,09,1.1,286.8,M,-23.7,M,1.8,0000*47
$GPGSA,A,3,18,29,15,22,06,27,21,03,09,,,,2.0,1.1,1.7*3A
$GPGSV,3,1,12,21,82,077,29,18,65,346,40,15,42,046,39,22,36,284,27*71
$GPGSV,3,2,12,09,31,109,37,06,29,293,38,27,29,079,40,14,22,213,20*71
$GPGSV,3,3,12,03,20,302,34,29,14,178,22,26,00,038,,51,49,195,36*73
$GPRMC,151934.000,A,3352.3726,N,09831.1647,W,0.03,148.34,290312,,,D*70
$GPGGA,151935.000,3352.3726,N,09831.1647,W,2,09,1.1,286.8,M,-23.7,M,2.8,0000*45
$GPGSA,A,3,18,29,15,22,06,27,21,03,09,,,,2.0,1.1,1.7*3A
$GPRMC,151935.000,A,3352.3726,N,09831.1647,W,0.09,28.03,290312,,,D*48
$GPGGA,151936.000,3352.3726,N,09831.1647,W,2,09,1.1,286.8,M,-23.7,M,3.8,0000*47
$GPGSA,A,3,18,29,15,22,06,27,21,03,09,,,,2.0,1.1,1.7*3A
$GPRMC,151936.000,A,3352.3726,N,09831.1647,W,0.22,18.22,290312,,,D*42
$GPGGA,151937.000,3352.3727,N,09831.1647,W,2,09,1.1,286.9,M,-23.7,M,0.8,0000*45
$GPGSA,A,3,18,29,15,22,06,27,21,03,09,,,,2.0,1.1,1.7*3A
$GPRMC,151937.000,A,3352.3727,N,09831.1647,W,0.06,19.48,290312,,,D*49
$GPGGA,151938.000,3352.3727,N,09831.1647,W,2,09,1.1,287.0,M,-23.7,M,0.8,0000*42
$GPGSA,A,3,18,29,15,22,06,27,21,03,09,,,,2.0,1.1,1.7*3A
$GPRMC,151938.000,A,3352.3727,N,09831.1647,W,0.15,11.90,290312,,,D*49
$GPGGA,151939.000,3352.3727,N,09831.1647,W,2,09,1.1,287.0,M,-23.7,M,0.8,0000*43
$GPGSA,A,3,18,29,15,22,06,27,21,03,09,,,,2.0,1.1,1.7*3A
$GPGSV,3,1,12,21,82,077,29,18,65,346,40,15,42,046,39,22,36,284,27*71
$GPGSV,3,2,12,09,31,109,37,06,29,293,38,27,29,079,40,14,22,213,20*71
$GPGSV,3,3,12,03,20,302,34,29,14,178,22,26,00,038,,51,49,195,37*72
$GPRMC,151939.000,A,3352.3727,N,09831.1647,W,0.23,7.92,290312,,,D*78
$GPGGA,151940.000,3352.3727,N,09831.1647,W,2,09,1.1,287.0,M,-23.7,M,0.8,0000*4D
$GPGSA,A,3,18,29,15,22,06,27,21,03,09,,,,2.0,1.1,1.7*3A
$GPRMC,151940.000,A,3352.3727,N,09831.1647,W,0.16,188.11,290312,,,D*7D
$GPGGA,151941.000,3352.3726,N,09831.1648,W,2,09,1.1,287.1,M,-23.7,M,1.8,0000*42
$GPGSA,A,3,18,29,15,22,06,27,21,03,09,,,,2.0,1.1,1.7*3A
$GPRMC,151941.000,A,3352.3726,N,09831.1648,W,0.10,191.12,290312,,,D*7F
$GPGGA,151942.000,3352.3726,N,09831.1648,W,2,09,1.1,287.1,M,-23.7,M,2.8,0000*42
$GPGSA,A,3,18,29,15,22,06,27,21,03,09,,,,2.0,1.1,1.7*3A
$GPRMC,151942.000,A,3352.3726,N,09831.1648,W,0.04,173.37,290312,,,D*72
$GPGGA,151943.000,3352.3725,N,09831.1648,W,2,09,1.1,287.1,M,-23.7,M,0.8,0000*42
$GPGSA,A,3,18,29,15,22,06,27,21,03,09,,,,2.0,1.1,1.7*3A
$GPRMC,151943.000,A,3352.3725,N,09831.1648,W,0.17,177.53,290312,,,D*74
$GPGGA,151944.000,3352.3725,N,09831.1648,W,2,09,1.1,287.1,M,-23.7,M,0.8,0000*45
$GPGSA,A,3,18,29,15,22,06,27,21,03,09,,,,2.0,1.1,1.7*3A
$GPGSV,3,1,12,21,82,077,29,18,65,346,40,15,42,046,38,22,36,284,27*70
$GPGSV,3,2,12,09,31,109,37,06,29,293,38,27,29,079,40,14,22,213,19*7B
$GPGSV,3,3,12,03,20,302,34,29,14,178,23,26,00,038,,51,49,195,36*72
$GPRMC,151944.000,A,3352.3725,N,09831.1648,W,0.04,76.98,290312,,,D*46
$GPGGA,151945.000,3352.3725,N,09831.1648,W,2,09,1.1,287.1,M,-23.7,M,0.8,0000*44
$GPGSA,A,3,18,29,15,22,06,27,21,03,09,,,,2.0,1.1,1.7*3A
$GPRMC,151945.000,A,3352.3725,N,09831.1648,W,0.10,169.57,290312,,,D*7E
$GPGGA,151946.000,3352.3725,N,09831.1648,W,2,09,1.1,287.2,M,-23.7,M,1.8,0000*45
$GPGSA,A,3,18,29,15,22,06,27,21,03,09,,,,2.0,1.1,1.7*3A
$GPRMC,151946.000,A,3352.3725,N,09831.1648,W,0.21,16.44,290312,,,D*44
$GPGGA,151947.000,3352.3726,N,09831.1648,W,2,09,1.1,287.3,M,-23.7,M,0.8,0000*47
$GPGSA,A,3,18,29,15,22,06,27,21,03,09,,,,2.0,1.1,1.7*3A
$GPRMC,151947.000,A,3352.3726,N,09831.1648,W,0.26,21.56,290312,,,D*46
$GPGGA,151948.000,3352.3726,N,09831.1648,W,2,09,1.1,287.5,M,-23.7,M,0.8,0000*4E
$GPGSA,A,3,18,29,15,22,06,27,21,03,09,,,,2.0,1.1,1.7*3A
$GPRMC,151948.000,A,3352.3726,N,09831.1648,W,0.04,71.56,290312,,,D*4C
$GPGGA,151949.000,3352.3726,N,09831.1648,W,2,09,1.1,287.6,M,-23.7,M,0.8,0000*4C
$GPGSA,A,3,18,29,15,22,06,27,21,03,09,,,,2.0,1.1,1.7*3A
$GPGSV,3,1,12,21,82,077,30,18,65,346,40,15,42,046,38,22,36,284,26*79
$GPGSV,3,2,12,09,31,109,37,06,29,293,38,27,29,079,40,14,22,213,17*75
$GPGSV,3,3,12,03,20,302,34,29,14,178,24,26,00,038,,51,49,195,37*74
$GPRMC,151949.000,A,3352.3726,N,09831.1648,W,0.20,9.58,290312,,,D*7A
$GPGGA,151950.000,3352.3726,N,09831.1648,W,2,09,1.1,287.7,M,-23.7,M,0.8,0000*45
$GPGSA,A,3,18,29,15,22,06,27,21,03,09,,,,2.0,1.1,1.7*3A
$GPRMC,151950.000,A,3352.3726,N,09831.1648,W,0.05,13.40,290312,,,D*47
$GPGGA,151951.000,3352.3726,N,09831.1648,W,2,09,1.1,287.8,M,-23.7,M,0.8,0000*4B
$GPGSA,A,3,18,29,15,22,06,27,21,03,09,,,,2.0,1.1,1.7*3A
$GPRMC,151951.000,A,3352.3726,N,09831.1648,W,0.10,359.16,290312,,,D*7C
$GPGGA,151952.000,3352.3726,N,09831.1649,W,2,09,1.1,287.9,M,-23.7,M,1.8,0000*49
$GPGSA,A,3,18,29,15,22,06,27,21,03,09,,,,2.0,1.1,1.7*3A
$GPRMC,151952.000,A,3352.3726,N,09831.1649,W,0.16,191.10,290312,,,D*78
$GPGGA,151953.000,3352.3726,N,09831.1649,W,2,09,1.1,287.9,M,-23.7,M,2.8,0000*4B
$GPGSA,A,3,18,29,15,22,06,27,21,03,09,,,,2.0,1.1,1.7*3A
$GPRMC,151953.000,A,3352.3726,N,09831.1649,W,0.03,350.39,290312,,,D*79
$GPGGA,151954.000,3352.3725,N,09831.1649,W,2,09,1.1,288.0,M,-23.7,M,0.8,0000*4B
$GPGSA,A,3,18,29,15,22,06,27,21,03,09,,,,2.0,1.1,1.7*3A
$GPGSV,3,1,12,21,82,077,30,18,65,346,40,15,42,046,38,22,36,284,26*79
$GPGSV,3,2,12,09,31,109,37,06,29,293,38,27,29,079,40,14,22,213,18*7A
$GPGSV,3,3,12,03,20,302,34,29,14,178,24,26,00,038,,51,49,195,35*76
$GPRMC,151954.000,A,3352.3725,N,09831.1649,W,0.20,191.04,290312,,,D*7D
$GPGGA,151955.000,3352.3725,N,09831.1649,W,2,09,1.1,288.0,M,-23.7,M,0.8,0000*4A
$GPGSA,A,3,18,29,15,22,06,27,21,03,09,,,,2.0,1.1,1.7*3A
$GPRMC,151955.000,A,3352.3725,N,09831.1649,W,0.04,44.79,290312,,,D*49
$GPGGA,151956.000,3352.3725,N,09831.1649,W,2,09,1.1,288.1,M,-23.7,M,0.8,0000*48
$GPGSA,A,3,18,29,15,22,06,27,21,03,09,,,,2.0,1.1,1.7*3A
$GPRMC,151956.000,A,3352.3725,N,09831.1649,W,0.08,51.65,290312,,,D*4F
$GPGGA,151957.000,3352.3725,N,09831.1649,W,2,09,1.1,288.3,M,-23.7,M,0.8,0000*4B
$GPGSA,A,3,18,29,15,22,06,27,21,03,09,,,,2.0,1.1,1.7*3A
$GPRMC,151957.000,A,3352.3725,N,09831.1649,W,0.08,30.53,290312,,,D*4C
$GPGGA,151958.000,3352.3725,N,09831.1649,W,2,09,1.1,288.4,M,-23.7,M,1.8,0000*42
$GPGSA,A,3,18,29,15,22,06,27,21,03,09,,,,2.0,1.1,1.7*3A
$GPRMC,151958.000,A,3352.3725,N,09831.1649,W,0.08,40.79,290312,,,D*4C
$GPGGA,151959.000,3352.3726,N,09831.1649,W,2,09,1.1,288.6,M,-23.7,M,2.8,0000*41
$GPGSA,A,3,18,29,15,22,06,27,21,03,09,,,,2.0,1.1,1.7*3A
$GPGSV,3,1,12,21,82,077,30,18,65,346,40,15,42,046,38,22,36,284,25*7A
$GPGSV,3,2,12,09,31,109,37,06,29,293,39,27,29,079,40,14,22,213,18*7B
$GPGSV,3,3,12,03,20,302,33,29,14,178,25,26,00,038,,51,49,195,36*73
$GPRMC,151959.000,A,3352.3726,N,09831.1649,W,0.22,21.07,290312,,,D*48
$GPGGA,152000.000,3352.3726,N,09831.1649,W,2,09,1.1,288.7,M,-23.7,M,3.8,0000*47
$GPGSA,A,3,18,29,15,22,06,27,21,03,09,,,,2.0,1.1,1.7*3A
$GPRMC,152000.000,A,3352.3726,N,09831.1649,W,0.30,19.73,290312,,,D*45
$GPGGA,152001.000,3352.3727,N,09831.1648,W,2,09,1.1,288.8,M,-23.7,M,4.8,0000*4E
$GPGSA,A,3,18,29,15,22,06,27,21,03,09,,,,2.0,1.1,1.7*3A
$GPRMC,152001.000,A,3352.3727,N,09831.1648,W,0.24,23.68,290312,,,D*42
$GPGGA,152002.000,3352.3728,N,09831.1648,W,2,09,1.1,289.0,M,-23.7,M,0.8,0000*4F
$GPGSA,A,3,18,29,15,22,06,27,21,03,09,,,,2.0,1.1,1.7*3A
$GPRMC,152002.000,A,3352.3728,N,09831.1648,W,0.28,16.25,290312,,,D*4D
$GPGGA,152003.000,3352.3728,N,09831.1648,W,2,09,1.1,289.0,M,-23.7,M,0.8,0000*4E
$GPGSA,A,3,18,29,15,22,06,27,21,03,09,,,,2.0,1.1,1.7*3A
$GPRMC,152003.000,A,3352.3728,N,09831.1648,W,0.07,46.34,290312,,,D*44
$GPGGA,152004.000,3352.3727,N,09831.1648,W,2,09,1.1,289.0,M,-23.7,M,1.8,0000*47
$GPGSA,A,3,18,29,15,22,06,27,21,03,09,,,,2.0,1.1,1.7*3A
$GPGSV,3,1,12,21,82,077,30,18,65,346,40,15,42,046,39,22,36,284,25*7B
$GPGSV,3,2,12,09,31,109,37,06,29,293,39,27,29,079,40,14,22,213,18*7B
$GPGSV,3,3,12,03,20,302,33,29,14,178,25,26,00,038,,51,49,195,36*73
$GPRMC,152004.000,A,3352.3727,N,09831.1648,W,0.10,166.47,290312,,,D*7D
$GPGGA,152005.000,3352.3727,N,09831.1648,W,2,09,1.1,289.0,M,-23.7,M,2.8,0000*45
$GPGSA,A,3,18,29,15,22,06,27,21,03,09,,,,2.0,1.1,1.7*3A
$GPRMC,152005.000,A,3352.3727,N,09831.1648,W,0.05,110.11,290312,,,D*7A
$GPGGA,152006.000,3352.3727,N,09831.1648,W,2,09,1.1,289.1,M,-23.7,M,3.8,0000*46
$GPGSA,A,3,18,29,15,22,06,27,21,03,09,,,,2.0,1.1,1.7*3A
$GPRMC,152006.000,A,3352.3727,N,09831.1648,W,0.09,33.13,290312,,,D*47
$GPGGA,152007.000,3352.3727,N,09831.1648,W,2,09,1.1,289.1,M,-23.7,M,0.8,0000*44
$GPGSA,A,3,18,29,15,22,06,27,21,03,09,,,,2.0,1.1,1.7*3A
$GPRMC,152007.000,A,3352.3727,N,09831.1648,W,0.15,191.25,290312,,,D*77
$GPGGA,152008.000,3352.3726,N,09831.1648,W,2,09,1.1,289.1,M,-23.7,M,0.8,0000*4A
$GPGSA,A,3,18,29,15,22,06,27,21,03,09,,,,2.0,1.1,1.7*3A
$GPRMC,152008.000,A,3352.3726,N,09831.1648,W,0.06,164.48,290312,,,D*7A
$GPGGA,152009.000,3352.3726,N,09831.1648,W,2,09,1.1,289.3,M,-23.7,M,0.8,0000*49
$GPGSA,A,3,18,29,15,22,06,27,21,03,09,,,,2.0,1.1,1.7*3A
$GPGSV,3,1,12,21,82,077,29,18,65,346,40,15,42,046,39,22,36,284,24*72
$GPGSV,3,2,12,09,31,109,37,06,29,293,39,27,29,079,40,14,22,213,19*7A
$GPGSV,3,3,12,03,20,302,33,29,14,178,25,26,00,038,,51,49,195,36*73
$GPRMC,152009.000,A,3352.3726,N,09831.1648,W,0.09,12.66,290312,,,D*48
$GPGGA,152010.000,3352.3726,N,09831.1648,W,2,09,1.1,289.4,M,-23.7,M,1.8,0000*47
$GPGSA,A,3,18,29,15,22,06,27,21,03,09,,,,2.0,1.1,1.7*3A
$GPRMC,152010.000,A,3352.3726,N,09831.1648,W,0.09,19.79,290312,,,D*45
$GPGGA,152011.000,3352.3726,N,09831.1648,W,2,09,1.1,289.6,M,-23.7,M,2.8,0000*47
$GPGSA,A,3,18,29,15,22,06,27,21,03,09,,,,2.0,1.1,1.7*3A
$GPRMC,152011.000,A,3352.3726,N,09831.1648,W,0.09,28.18,290312,,,D*41
$GPGGA,152012.000,3352.3726,N,09831.1648,W,2,09,1.1,289.8,M,-23.7,M,0.8,0000*48
$GPGSA,A,3,18,29,15,22,06,27,21,03,09,,,,2.0,1.1,1.7*3A
$GPRMC,152012.000,A,3352.3726,N,09831.1648,W,0.11,21.32,290312,,,D*4A
$GPGGA,152013.000,3352.3726,N,09831.1648,W,2,09,1.1,289.9,M,-23.7,M,0.8,0000*48
$GPGSA,A,3,18,29,15,22,06,27,21,03,09,,,,2.0,1.1,1.7*3A
$GPRMC,152013.000,A,3352.3726,N,09831.1648,W,0.03,91.85,290312,,,D*4F
$GPGGA,152014.000,3352.3726,N,09831.1648,W,2,09,1.1,290.1,M,-23.7,M,0.8,0000*4F
$GPGSA,A,3,18,29,15,22,06,27,21,03,09,,,,2.0,1.1,1.7*3A
$GPGSV,3,1,12,21,82,077,29,18,65,346,40,15,42,046,39,22,36,284,25*73
$GPGSV,3,2,12,09,31,109,37,06,29,293,39,27,29,079,40,14,22,213,19*7A
$GPGSV,3,3,12,03,20,302,33,29,14,178,26,26,00,038,,51,49,195,36*70
$GPRMC,152014.000,A,3352.3726,N,09831.1648,W,0.07,11.22,290312,,,D*49
$GPGGA,152015.000,3352.3726,N,09831.1648,W,2,09,1.1,290.1,M,-23.7,M,0.8,0000*4E
$GPGSA,A,3,18,29,15,22,06,27,21,03,09,,,,2.0,1.1,1.7*3A
$GPRMC,152015.000,A,3352.3726,N,09831.1648,W,0.03,55.72,290312,,,D*49
$GPGGA,152016.000,3352.3726,N,09831.1648,W,2,09,1.1,290.2,M,-23.7,M,1.8,0000*4F
$GPGSA,A,3,18,29,15,22,06,27,21,03,09,,,,2.0,1.1,1.7*3A
$GPRMC,152016.000,A,3352.3726,N,09831.1648,W,0.05,36.30,290312,,,D*4F
$GPGGA,152017.000,3352.3726,N,09831.1648,W,2,09,1.1,290.2,M,-23.7,M,0.8,0000*4F
$GPGSA,A,3,18,29,15,22,06,27,21,03,09,,,,2.0,1.1,1.7*3A
$GPRMC,152017.000,A,3352.3726,N,09831.1648,W,0.05,30.17,290312,,,D*4D
$GPGGA,152018.000,3352.3725,N,09831.1648,W,2,09,1.1,290.3,M,-23.7,M,1.8,0000*43
$GPGSA,A,3,18,29,15,22,06,27,21,03,09,,,,2.0,1.1,1.7*3A
$GPRMC,152018.000,A,3352.3725,N,09831.1648,W,0.04,35.20,290312,,,D*41
$GPGGA,152019.000,3352.3725,N,09831.1648,W,2,09,1.1,290.3,M,-23.7,M,0.8,0000*43
$GPGSA,A,3,18,29,15,22,06,27,21,03,09,,,,2.0,1.1,1.7*3A
$GPGSV,3,1,12,21,82,077,29,18,65,346,40,15,42,046,39,22,36,284,25*73
$GPGSV,3,2,12,09,31,109,36,06,29,293,39,27,29,079,40,14,22,213,20*71
$GPGSV,3,3,12,03,20,302,33,29,14,178,27,26,00,038,,51,49,195,36*71
$GPRMC,152019.000,A,3352.3725,N,09831.1648,W,0.03,51.07,290312,,,D*40
$GPGGA,152020.000,3352.3725,N,09831.1648,W,2,09,1.1,290.3,M,-23.7,M,0.8,0000*49
$GPGSA,A,3,18,29,15,22,06,27,21,03,09,,,,2.0,1.1,1.7*3A
$GPRMC,152020.000,A,3352.3725,N,09831.1648,W,0.08,13.99,290312,,,D*40
$GPGGA,152021.000,3352.3725,N,09831.1649,W,2,09,1.1,290.4,M,-23.7,M,0.8,0000*4E
$GPGSA,A,3,18,29,15,22,06,27,21,03,09,,,,2.0,1.1,1.7*3A
$GPRMC,152021.000,A,3352.3725,N,09831.1649,W,0.04,3.90,290312,,,D*74
$GPGGA,152022.000,3352.3725,N,09831.1649,W,2,09,1.1,290.5,M,-23.7,M,1.8,0000*4D
$GPGSA,A,3,18,29,15,22,06,27,21,03,09,,,,2.0,1.1,1.7*3A
$GPRMC,152022.000,A,3352.3725,N,09831.1649,W,0.09,14.21,290312,,,D*46
$GPGGA,152023.000,3352.3725,N,09831.1649,W,2,09,1.1,290.6,M,-23.7,M,2.8,0000*4C
$GPGSA,A,3,18,29,15,22,06,27,21,03,09,,,,2.0,1.1,1.7*3A
$GPRMC,152023.000,A,3352.3725,N,09831.1649,W,0.05,3.09,290312,,,D*77
$GPGGA,152024.000,3352.3725,N,09831.1649,W,2,09,1.1,290.7,M,-23.7,M,3.8,0000*4B
$GPGSA,A,3,18,29,15,22,06,27,21,03,09,,,,2.0,1.1,1.7*3A
$GPGSV,3,1,12,21,82,077,29,18,65,346,40,15,42,046,39,22,36,284,25*73
$GPGSV,3,2,12,09,31,109,36,06,29,293,39,27,29,079,41,14,22,213,20*70
$GPGSV,3,3,12,03,20,302,33,29,14,178,28,26,00,038,,51,49,195,36*7E
$GPRMC,152024.000,A,3352.3725,N,09831.1649,W,0.07,357.73,290312,,,D*7D
$GPGGA,152025.000,3352.3725,N,09831.1649,W,2,09,1.1,290.7,M,-23.7,M,0.8,0000*49
$GPGSA,A,3,18,29,15,22,06,27,21,03,09,,,,2.0,1.1,1.7*3A
$GPRMC,152025.000,A,3352.3725,N,09831.1649,W,0.09,27.99,290312,,,D*42
$GPGGA,152026.000,3352.3725,N,09831.1649,W,2,09,1.1,290.8,M,-23.7,M,0.8,0000*45
$GPGSA,A,3,18,29,15,22,06,27,21,03,09,,,,2.0,1.1,1.7*3A
$GPRMC,152026.000,A,3352.3725,N,09831.1649,W,0.03,14.15,290312,,,D*4F
$GPGGA,152027.000,3352.3725,N,09831.1649,W,2,09,1.1,290.8,M,-23.7,M,0.8,0000*44
$GPGSA,A,3,18,29,15,22,06,27,21,03,09,,,,2.0,1.1,1.7*3A
$GPRMC,152027.000,A,3352.3725,N,09831.1649,W,0.09,50.94,290312,,,D*4D
$GPGGA,152028.000,3352.3725,N,09831.1649,W,2,09,1.1,290.8,M,-23.7,M,0.8,0000*4B
$GPGSA,A,3,18,29,15,22,06,27,21,03,09,,,,2.0,1.1,1.7*3A
$GPRMC,152028.000,A,3352.3725,N,09831.1649,W,0.09,48.66,290312,,,D*46
$GPGGA,152029.000,3352.3724,N,09831.1649,W,2,09,1.1,290.8,M,-23.7,M,1.8,0000*4A
$GPGSA,A,3,18,29,15,22,06,27,21,03,09,,,,2.0,1.1,1.7*3A
$GPGSV,3,1,12,21,82,077,29,18,65,346,40,15,42,046,39,22,36,284,24*72
$GPGSV,3,2,12,09,31,109,36,06,29,293,39,27,29,079,41,14,22,213,21*71
$GPGSV,3,3,12,03,20,302,32,29,14,178,29,26,00,038,,51,49,195,36*7E
$GPRMC,152029.000,A,3352.3724,N,09831.1649,W,0.06,42.60,290312,,,D*45
$GPGGA,152030.000,3352.3724,N,09831.1649,W,2,09,1.1,290.8,M,-23.7,M,2.8,0000*41
$GPGSA,A,3,18,29,15,22,06,27,21,03,09,,,,2.0,1.1,1.7*3A
$GPRMC,152030.000,A,3352.3724,N,09831.1649,W,0.06,52.78,290312,,,D*45
$GPGGA,152031.000,3352.3724,N,09831.1649,W,2,09,1.1,290.9,M,-23.7,M,0.8,0000*43
$GPGSA,A,3,18,29,15,22,06,27,21,03,09,,,,2.0,1.1,1.7*3A
$GPRMC,152031.000,A,3352.3724,N,09831.1649,W,0.03,33.53,290312,,,D*4F
$GPGGA,152032.000,3352.3724,N,09831.1649,W,2,09,1.1,290.9,M,-23.7,M,0.8,0000*40
$GPGSA,A,3,18,29,15,22,06,27,21,03,09,,,,2.0,1.1,1.7*3A
$GPRMC,152032.000,A,3352.3724,N,09831.1649,W,0.03,6.59,290312,,,D*70
$GPGGA,152033.000,3352.3724,N,09831.1649,W,2,09,1.1,290.9,M,-23.7,M,1.8,0000*40
$GPGSA,A,3,18,29,15,22,06,27,21,03,09,,,,2.0,1.1,1.7*3A
$GPRMC,152033.000,A,3352.3724,N,09831.1649,W,0.03,342.16,290312,,,D*79
$GPGGA,152034.000,3352.3724,N,09831.1649,W,2,09,1.1,290.9,M,-23.7,M,2.8,0000*44
$GPGSA,A,3,18,29,15,22,06,27,21,03,09,,,,2.0,1.1,1.7*3A
$GPGSV,3,1,12,21,82,077,28,18,65,346,40,15,42,046,39,22,36,284,24*73
$GPGSV,3,2,12,09,31,109,36,06,29,293,38,27,29,079,41,14,22,213,21*70
$GPGSV,3,3,12,03,20,302,32,29,14,178,29,26,00,038,,51,49,195,36*7E
$GPRMC,152034.000,A,3352.3724,N,09831.1649,W,0.05,342.33,290312,,,D*7F
$GPGGA,152035.000,3352.3723,N,09831.1649,W,2,09,1.1,291.0,M,-23.7,M,0.8,0000*48
$GPGSA,A,3,18,29,15,22,06,27,21,03,09,,,,2.0,1.1,1.7*3A
$GPRMC,152035.000,A,3352.3723,N,09831.1649,W,0.03,47.12,290312,,,D*4A
$GPGGA,152036.000,3352.3723,N,09831.1649,W,2,09,1.1,291.0,M,-23.7,M,0.8,0000*4B
$GPGSA,A,3,18,29,15,22,06,27,21,03,09,,,,2.0,1.1,1.7*3A
$GPRMC,152036.000,A,3352.3723,N,09831.1649,W,0.03,335.35,290312,,,D*7A
$GPGGA,152037.000,3352.3723,N,09831.1649,W,2,09,1.1,291.0,M,-23.7,M,0.8,0000*4A
$GPGSA,A,3,18,29,15,22,06,27,21,03,09,,,,2.0,1.1,1.7*3A
$GPRMC,152037.000,A,3352.3723,N,09831.1649,W,0.13,43.33,290312,,,D*4E
$GPGGA,152038.000,3352.3723,N,09831.1649,W,2,09,1.1,290.9,M,-23.7,M,0.8,0000*4D
$GPGSA,A,3,18,29,15,22,06,27,21,03,09,,,,2.0,1.1,1.7*3A
$GPRMC,152038.000,A,3352.3723,N,09831.1649,W,0.04,23.17,290312,,,D*47
$GPGGA,152039.000,3352.3723,N,09831.1649,W,2,09,1.1,290.9,M,-23.7,M,0.8,0000*4C
$GPGSA,A,3,18,29,15,22,06,27,21,03,09,,,,2.0,1.1,1.7*3A
$GPGSV,3,1,12,21,82,077,28,18,65,346,40,15,42,046,39,22,36,284,24*73
$GPGSV,3,2,12,09,31,109,36,06,29,293,38,27,29,079,41,14,22,213,20*71
$GPGSV,3,3,12,03,20,302,32,29,14,178,29,26,00,038,,51,49,195,36*7E
$GPRMC,152039.000,A,3352.3723,N,09831.1649,W,0.10,30.60,290312,,,D*41
$GPGGA,152040.000,3352.3723,N,09831.1649,W,2,09,1.1,290.9,M,-23.7,M,1.8,0000*43
$GPGSA,A,3,18,29,15,22,06,27,21,03,09,,,,2.0,1.1,1.7*3A
$GPRMC,152040.000,A,3352.3723,N,09831.1649,W,0.10,29.94,290312,,,D*4C
$GPGGA,152041.000,3352.3723,N,09831.1649,W,2,09,1.1,290.9,M,-23.7,M,0.8,0000*43
$GPGSA,A,3,18,29,15,22,06,27,21,03,09,,,,2.0,1.1,1.7*3A
$GPRMC,152041.000,A,3352.3723,N,09831.1649,W,0.08,32.20,290312,,,D*41
$GPGGA,152042.000,3352.3723,N,09831.1649,W,2,09,1.1,290.9,M,-23.7,M,1.8,0000*41
$GPGSA,A,3,18,29,15,22,06,27,21,03,09,,,,2.0,1.1,1.7*3A
$GPRMC,152042.000,A,3352.3723,N,09831.1649,W,0.09,36.64,290312,,,D*47
$GPGGA,152043.000,3352.3723,N,09831.1649,W,2,09,1.1,290.9,M,-23.7,M,0.8,0000*41
$GPGSA,A,3,18,29,15,22,06,27,21,03,09,,,,2.0,1.1,1.7*3A
$GPRMC,152043.000,A,3352.3723,N,09831.1649,W,0.04,338.39,290312,,,D*7E
$GPGGA,152044.000,3352.3723,N,09831.1649,W,2,09,1.1,290.9,M,-23.7,M,0.8,0000*46
$GPGSA,A,3,18,29,15,22,06,27,21,03,09,,,,2.0,1.1,1.7*3A
$GPGSV,3,1,12,21,82,077,28,18,65,346,40,15,42,046,39,22,36,284,25*72
$GPGSV,3,2,12,09,31,109,37,06,29,293,38,27,29,079,41,14,22,213,20*70
$GPGSV,3,3,12,03,20,302,31,29,14,178,29,26,00,038,,51,49,195,36*7D
$GPRMC,152044.000,A,3352.3723,N,09831.1649,W,0.08,15.24,290312,,,D*45
$GPGGA,152045.000,3352.3723,N,09831.1649,W,2,09,1.1,291.0,M,-23.7,M,0.8,0000*4F
$GPGSA,A,3,18,29,15,22,06,27,21,03,09,,,,2.0,1.1,1.7*3A
$GPRMC,152045.000,A,3352.3723,N,09831.1649,W,0.07,3.64,290312,,,D*78
$GPGGA,152046.000,3352.3722,N,09831.1649,W,2,09,1.1,291.0,M,-23.7,M,1.8,0000*4C
$GPGSA,A,3,18,29,15,22,06,27,21,03,09,,,,2.0,1.1,1.7*3A
$GPRMC,152046.000,A,3352.3722,N,09831.1649,W,0.07,359.48,290312,,,D*78
$GPGGA,152047.000,3352.3722,N,09831.1649,W,2,09,1.1,291.1,M,-23.7,M,2.8,0000*4F
$GPGSA,A,3,18,29,15,22,06,27,21,03,09,,,,2.0,1.1,1.7*3A
$GPRMC,152047.000,A,3352.3722,N,09831.1649,W,0.07,14.20,290312,,,D*4D
$GPGGA,152048.000,3352.3722,N,09831.1649,W,2,09,1.1,291.2,M,-23.7,M,0.8,0000*41
$GPGSA,A,3,18,29,15,22,06,27,21,03,09,,,,2.0,1.1,1.7*3A
$GPRMC,152048.000,A,3352.3722,N,09831.1649,W,0.05,8.33,290312,,,D*7F
$GPGGA,152049.000,3352.3722,N,09831.1649,W,2,09,1.1,291.2,M,-23.7,M,0.8,0000*40
$GPGSA,A,3,18,29,15,22,06,27,21,03,09,,,,2.0,1.1,1.7*3A
$GPGSV,3,1,12,21,82,077,28,18,65,346,40,15,42,046,38,22,36,284,27*71
$GPGSV,3,2,12,09,31,109,37,06,29,293,39,27,29,079,41,14,22,213,20*71
$GPGSV,3,3,12,03,20,302,32,29,14,178,29,26,00,038,,51,49,195,36*7E
$GPRMC,152049.000,A,3352.3722,N,09831.1649,W,0.06,44.98,290312,,,D*44
$GPGGA,152050.000,3352.3722,N,09831.1649,W,2,09,1.1,291.2,M,-23.7,M,0.8,0000*48
$GPGSA,A,3,18,29,15,22,06,27,21,03,09,,,,2.0,1.1,1.7*3A
$GPRMC,152050.000,A,3352.3722,N,09831.1649,W,0.07,32.11,290312,,,D*4D
$GPGGA,152051.000,3352.3722,N,09831.1649,W,2,09,1.1,291.2,M,-23.7,M,0.8,0000*49
$GPGSA,A,3,18,29,15,22,06,27,21,03,09,,,,2.0,1.1,1.7*3A
$GPRMC,152051.000,A,3352.3722,N,09831.1649,W,0.06,73.64,290312,,,D*4A
$GPGGA,152052.000,3352.3722,N,09831.1649,W,2,09,1.1,291.1,M,-23.7,M,1.8,0000*48
$GPGSA,A,3,18,29,15,22,06,27,21,03,09,,,,2.0,1.1,1.7*3A
$GPRMC,152052.000,A,3352.3722,N,09831.1649,W,0.08,44.86,290312,,,D*4F
$GPGGA,152053.000,3352.3722,N,09831.1649,W,2,09,1.1,291.1,M,-23.7,M,2.8,0000*4A
$GPGSA,A,3,18,29,15,22,06,27,21,03,09,,,,2.0,1.1,1.7*3A
$GPRMC,152053.000,A,3352.3722,N,09831.1649,W,0.06,57.60,290312,,,D*4A
$GPGGA,152054.000,3352.3722,N,09831.1649,W,2,09,1.1,291.0,M,-23.7,M,3.8,0000*4D
$GPGSA,A,3,18,29,15,22,06,27,21,03,09,,,,2.0,1.1,1.7*3A
$GPGSV,3,1,12,21,82,077,27,18,65,346,40,15,42,046,38,22,36,284,28*71
$GPGSV,3,2,12,09,31,109,37,06,29,293,39,27,29,079,41,14,22,213,21*70
$GPGSV,3,3,12,03,20,302,31,29,14,178,28,26,00,038,,51,49,195,36*7C
$GPRMC,152054.000,A,3352.3722,N,09831.1649,W,0.08,41.57,290312,,,D*40
$GPGGA,152055.000,3352.3722,N,09831.1649,W,2,09,1.1,290.9,M,-23.7,M,0.8,0000*47
$GPGSA,A,3,18,29,15,22,06,27,21,03,09,,,,2.0,1.1,1.7*3A
$GPRMC,152055.000,A,3352.3722,N,09831.1649,W,0.05,357.02,290312,,,D*78
$GPGGA,152056.000,3352.3722,N,09831.1649,W,2,09,1.1,290.8,M,-23.7,M,1.8,0000*44
$GPGSA,A,3,18,29,15,22,06,27,21,03,09,,,,2.0,1.1,1.7*3A
$GPRMC,152056.000,A,3352.3722,N,09831.1649,W,0.05,2.90,290312,,,D*73
$GPGGA,152057.000,3352.3722,N,09831.1650,W,2,09,1.1,290.8,M,-23.7,M,2.8,0000*4E
$GPGSA,A,3,18,29,15,22,06,27,21,03,09,,,,2.0,1.1,1.7*3A
$GPRMC,152057.000,A,3352.3722,N,09831.1650,W,0.04,10.04,290312,,,D*45
$GPGGA,152058.000,3352.3722,N,09831.1650,W,2,09,1.1,290.8,M,-23.7,M,3.8,0000*40
$GPGSA,A,3,18,29,15,22,06,27,21,03,09,,,,2.0,1.1,1.7*3A
$GPRMC,152058.000,A,3352.3722,N,09831.1650,W,0.03,358.45,290312,,,D*77
$GPGGA,152059.000,3352.3722,N,09831.1650,W,2,09,1.1,290.7,M,-23.7,M,4.8,0000*49
$GPGSA,A,3,18,29,15,22,06,27,21,03,09,,,,2.0,1.1,1.7*3A
$GPGSV,3,1,12,21,82,077,27,18,65,346,40,15,42,046,38,22,36,284,28*71
$GPGSV,3,2,12,09,31,109,37,06,29,293,39,27,29,079,41,14,22,213,21*70
$GPGSV,3,3,12,03,20,302,31,29,14,178,28,26,00,038,,51,49,195,36*7C
$GPRMC,152059.000,A,3352.3722,N,09831.1650,W,0.06,14.57,290312,,,D*4B
$GPGGA,152100.000,3352.3722,N,09831.1650,W,2,09,1.1,290.7,M,-23.7,M,5.8,0000*45
$GPGSA,A,3,18,29,15,22,06,27,21,03,09,,,,2.0,1.1,1.7*3A
$GPRMC,152100.000,A,3352.3722,N,09831.1650,W,0.03,0.71,290312,,,D*72
$GPGGA,152101.000,3352.3722,N,09831.1650,W,2,09,1.1,290.6,M,-23.7,M,0.8,0000*40
$GPGSA,A,3,18,29,15,22,06,27,21,03,09,,,,2.0,1.1,1.7*3A
$GPRMC,152101.000,A,3352.3722,N,09831.1650,W,0.11,27.49,290312,,,D*4E
$GPGGA,152102.000,3352.3722,N,09831.1650,W,2,09,1.1,290.5,M,-23.7,M,0.8,0000*40
$GPGSA,A,3,18,29,15,22,06,27,21,03,09,,,,2.0,1.1,1.7*3A
$GPRMC,152102.000,A,3352.3722,N,09831.1650,W,0.13,35.53,290312,,,D*47
$GPGGA,152103.000,3352.3722,N,09831.1650,W,2,09,1.1,290.4,M,-23.7,M,0.8,0000*40
$GPGSA,A,3,18,29,15,22,06,27,21,03,09,,,,2.0,1.1,1.7*3A
$GPRMC,152103.000,A,3352.3722,N,09831.1650,W,0.10,29.95,290312,,,D*42
$GPGGA,152104.000,3352.3722,N,09831.1649,W,2,09,1.1,290.4,M,-23.7,M,1.8,0000*4E
$GPGSA,A,3,18,29,15,22,06,27,21,03,09,,,,2.0,1.1,1.7*3A
$GPGSV,3,1,12,21,82,077,27,18,65,346,40,15,42,046,38,22,36,284,28*71
$GPGSV,3,2,12,09,31,109,37,06,29,293,40,27,29,079,40,14,22,213,21*7F
$GPGSV,3,3,12,03,20,302,30,29,14,178,28,26,00,038,,51,49,195,36*7D
$GPRMC,152104.000,A,3352.3722,N,09831.1649,W,0.11,31.85,290312,,,D*44
$GPGGA,152105.000,3352.3722,N,09831.1649,W,2,09,1.1,290.4,M,-23.7,M,2.8,0000*4C
$GPGSA,A,3,18,29,15,22,06,27,21,03,09,,,,2.0,1.1,1.7*3A
$GPRMC,152105.000,A,3352.3722,N,09831.1649,W,0.10,27.24,290312,,,D*48
$GPGGA,152106.000,3352.3722,N,09831.1649,W,2,09,1.1,290.3,M,-23.7,M,0.8,0000*4A
$GPGSA,A,3,18,29,15,22,06,27,21,03,09,,,,2.0,1.1,1.7*3A
$GPRMC,152106.000,A,3352.3722,N,09831.1649,W,0.15,25.18,290312,,,D*43
$GPGGA,152107.000,3352.3722,N,09831.1649,W,2,09,1.1,290.3,M,-23.7,M,0.8,0000*4B
$GPGSA,A,3,18,29,15,22,06,27,21,03,09,,,,2.0,1.1,1.7*3A
$GPRMC,152107.000,A,3352.3722,N,09831.1649,W,0.02,348.96,290312,,,D*7A
$GPGGA,152108.000,3352.3722,N,09831.1649,W,2,09,1.1,290.4,M,-23.7,M,0.8,0000*43
$GPGSA,A,3,18,29,15,22,06,27,21,03,09,,,,2.0,1.1,1.7*3A
$GPRMC,152108.000,A,3352.3722,N,09831.1649,W,0.01,328.31,290312,,,D*7D
$GPGGA,152109.000,3352.3722,N,09831.1649,W,2,09,1.1,290.5,M,-23.7,M,0.8,0000*43
$GPGSA,A,3,18,29,15,22,06,27,21,03,09,,,,2.0,1.1,1.7*3A
$GPGSV,3,1,12,21,82,077,27,18,65,346,39,15,42,046,38,22,36,284,28*7F
$GPGSV,3,2,12,09,31,109,37,06,29,293,40,27,29,079,40,14,22,213,21*7F
$GPGSV,3,3,12,03,20,302,30,29,14,178,29,26,00,038,,51,49,195,36*7C
$GPRMC,152109.000,A,3352.3722,N,09831.1649,W,0.03,16.01,290312,,,D*43
$GPGGA,152110.000,3352.3722,N,09831.1649,W,2,09,1.1,290.6,M,-23.7,M,1.8,0000*49
$GPGSA,A,3,18,29,15,22,06,27,21,03,09,,,,2.0,1.1,1.7*3A
$GPRMC,152110.000,A,3352.3722,N,09831.1649,W,0.02,13.32,290312,,,D*4F
$GPGGA,152111.000,3352.3722,N,09831.1649,W,2,09,1.1,290.7,M,-23.7,M,2.8,0000*4A
$GPGSA,A,3,18,29,15,22,06,27,21,03,09,,,,2.0,1.1,1.7*3A
$GPRMC,152111.000,A,3352.3722,N,09831.1649,W,0.04,10.21,290312,,,D*49
$GPGGA,152112.000,3352.3722,N,09831.1649,W,2,09,1.1,290.8,M,-23.7,M,3.8,0000*47
$GPGSA,A,3,18,29,15,22,06,27,21,03,09,,,,2.0,1.1,1.7*3A
$GPRMC,152112.000,A,3352.3722,N,09831.1649,W,0.00,192.34,290312,,,D*71
$GPGGA,152113.000,3352.3722,N,09831.1649,W,2,09,1.1,290.9,M,-23.7,M,0.8,0000*44
$GPGSA,A,3,18,29,15,22,06,27,21,03,09,,,,2.0,1.1,1.7*3A
$GPRMC,152113.000,A,3352.3722,N,09831.1649,W,0.06,59.55,290312,,,D*47
$GPGGA,152114.000,3352.3722,N,09831.1649,W,2,09,1.1,290.9,M,-23.7,M,0.8,0000*43
$GPGSA,A,3,18,29,15,22,06,27,21,03,09,,,,2.0,1.1,1.7*3A
$GPGSV,3,1,12,21,82,077,28,18,65,346,39,15,42,046,38,22,36,284,28*70
$GPGSV,3,2,12,09,31,109,37,06,29,293,40,27,29,079,40,14,22,213,20*7E
$GPGSV,3,3,12,03,20,302,30,29,14,178,30,26,00,038,,51,49,195,38*7A
$GPRMC,152114.000,A,3352.3722,N,09831.1649,W,0.06,39.47,290312,,,D*45
$GPGGA,152115.000,3352.3722,N,09831.1649,W,2,09,1.1,290.9,M,-23.7,M,0.8,0000*42
$GPGSA,A,3,18,29,15,22,06,27,21,03,09,,,,2.0,1.1,1.7*3A
$GPRMC,152115.000,A,3352.3722,N,09831.1649,W,0.04,53.98,290312,,,D*48
$GPGGA,152116.000,3352.3722,N,09831.1649,W,2,09,1.1,290.8,M,-23.7,M,0.8,0000*40
$GPGSA,A,3,18,29,15,22,06,27,21,03,09,,,,2.0,1.1,1.7*3A
$GPRMC,152116.000,A,3352.3722,N,09831.1649,W,0.05,40.60,290312,,,D*4F
$GPGGA,152117.000,3352.3722,N,09831.1649,W,2,09,1.1,290.8,M,-23.7,M,0.8,0000*41
$GPGSA,A,3,18,29,15,22,06,27,21,03,09,,,,2.0,1.1,1.7*3A
$GPRMC,152117.000,A,3352.3722,N,09831.1649,W,0.04,32.24,290312,,,D*4A
$GPGGA,152118.000,3352.3722,N,09831.1649,W,2,09,1.1,290.7,M,-23.7,M,1.8,0000*40
$GPGSA,A,3,18,29,15,22,06,27,21,03,09,,,,2.0,1.1,1.7*3A
$GPRMC,152118.000,A,3352.3722,N,09831.1649,W,0.06,27.00,290312,,,D*45
$GPGGA,152119.000,3352.3722,N,09831.1649,W,2,09,1.1,290.7,M,-23.7,M,0.8,0000*40
$GPGSA,A,3,18,29,15,22,06,27,21,03,09,,,,2.0,1.1,1.7*3A
$GPGSV,3,1,12,21,82,077,28,18,65,346,39,15,42,046,38,22,36,284,27*7F
$GPGSV,3,2,12,09,31,109,37,06,29,293,40,27,29,079,40,14,22,213,19*74
$GPGSV,3,3,12,03,20,302,30,29,14,178,30,26,00,038,,51,49,195,36*74
$GPRMC,152119.000,A,3352.3722,N,09831.1649,W,0.08,6.07,290312,,,D*7E
$GPGGA,152120.000,3352.3722,N,09831.1649,W,2,09,1.1,290.6,M,-23.7,M,0.8,0000*4B
$GPGSA,A,3,18,29,15,22,06,27,21,03,09,,,,2.0,1.1,1.7*3A
$GPRMC,152120.000,A,3352.3722,N,09831.1649,W,0.06,14.23,290312,,,D*4F
$GPGGA,152121.000,3352.3722,N,09831.1649,W,2,09,1.1,290.7,M,-23.7,M,0.8,0000*4B
$GPGSA,A,3,18,29,15,22,06,27,21,03,09,,,,2.0,1.1,1.7*3A
$GPRMC,152121.000,A,3352.3722,N,09831.1649,W,0.05,5.32,290312,,,D*7D
$GPGGA,152122.000,3352.3722,N,09831.1649,W,2,09,1.1,290.8,M,-23.7,M,1.8,0000*46
$GPGSA,A,3,18,29,15,22,06,27,21,03,09,,,,2.0,1.1,1.7*3A
$GPRMC,152122.000,A,3352.3722,N,09831.1649,W,0.09,6.10,290312,,,D*71
$GPGGA,152123.000,3352.3723,N,09831.1649,W,2,09,1.1,290.9,M,-23.7,M,0.8,0000*46
$GPGSA,A,3,18,29,15,22,06,27,21,03,09,,,,2.0,1.1,1.7*3A
$GPRMC,152123.000,A,3352.3723,N,09831.1649,W,0.06,0.32,290312,,,D*78
$GPGGA,152124.000,3352.3723,N,09831.1649,W,2,09,1.1,291.0,M,-23.7,M,1.8,0000*48
$GPGSA,A,3,18,29,15,22,06,27,21,03,09,,,,2.0,1.1,1.7*3A
$GPGSV,3,1,12,21,82,077,28,18,65,346,39,15,42,046,38,22,36,284,27*7F
$GPGSV,3,2,12,09,31,109,37,06,29,293,40,27,29,079,40,14,22,213,12*7F
$GPGSV,3,3,12,03,20,302,30,29,14,178,31,26,00,038,,51,49,195,36*75
$GPRMC,152124.000,A,3352.3723,N,09831.1649,W,0.02,358.58,290312,,,D*79
$GPGGA,152125.000,3352.3723,N,09831.1649,W,2,09,1.1,291.0,M,-23.7,M,0.8,0000*48
$GPGSA,A,3,18,29,15,22,06,27,21,03,09,,,,2.0,1.1,1.7*3A
$GPRMC,152125.000,A,3352.3723,N,09831.1649,W,0.05,30.30,290312,,,D*4C
$GPGGA,152126.000,3352.3723,N,09831.1649,W,2,09,1.1,291.1,M,-23.7,M,0.8,0000*4A
$GPGSA,A,3,18,29,15,22,06,27,21,03,09,,,,2.0,1.1,1.7*3A
$GPRMC,152126.000,A,3352.3723,N,09831.1649,W,0.02,107.53,290312,,,D*78
$GPGGA,152127.000,3352.3723,N,09831.1649,W,2,09,1.1,291.0,M,-23.7,M,0.8,0000*4A
$GPGSA,A,3,18,29,15,22,06,27,21,03,09,,,,2.0,1.1,1.7*3A
$GPRMC,152127.000,A,3352.3723,N,09831.1649,W,0.03,72.67,290312,,,D*4C
$GPGGA,152128.000,3352.3723,N,09831.1649,W,2,09,1.1,290.9,M,-23.7,M,1.8,0000*4C
$GPGSA,A,3,18,29,15,22,06,27,21,03,09,,,,2.0,1.1,1.7*3A
$GPRMC,152128.000,A,3352.3723,N,09831.1649,W,0.04,92.60,290312,,,D*4D
$GPGGA,152129.000,3352.3723,N,09831.1649,W,2,09,1.1,290.8,M,-23.7,M,0.8,0000*4D
$GPGSA,A,3,18,29,15,22,06,27,21,03,09,,,,2.0,1.1,1.7*3A
$GPGSV,3,1,12,21,82,077,29,18,65,346,38,15,42,046,38,22,36,284,28*70
$GPGSV,3,2,12,09,31,109,38,06,29,293,40,27,29,079,40,14,22,213,*73
$GPGSV,3,3,12,03,20,302,31,29,14,178,31,26,00,038,,51,49,195,36*74
$GPRMC,152129.000,A,3352.3723,N,09831.1649,W,0.05,48.76,290312,,,D*4D
$GPGGA,152130.000,3352.3723,N,09831.1649,W,2,09,1.1,290.7,M,-23.7,M,1.8,0000*4B
$GPGSA,A,3,18,29,15,22,06,27,21,03,09,,,,2.0,1.1,1.7*3A
$GPRMC,152130.000,A,3352.3723,N,09831.1649,W,0.06,48.99,290312,,,D*47
$GPGGA,152131.000,3352.3724,N,09831.1649,W,2,09,1.1,290.7,M,-23.7,M,0.8,0000*4C
$GPGSA,A,3,18,29,15,22,06,27,21,03,09,,,,2.0,1.1,1.7*3A
$GPRMC,152131.000,A,3352.3724,N,09831.1649,W,0.05,355.57,290312,,,D*7F
$GPGGA,152132.000,3352.3724,N,09831.1649,W,2,09,1.1,290.6,M,-23.7,M,0.8,0000*4E
$GPGSA,A,3,18,29,15,22,06,27,21,03,09,,,,2.0,1.1,1.7*3A
$GPRMC,152132.000,A,3352.3724,N,09831.1649,W,0.08,21.91,290312,,,D*4B
$GPGGA,152133.000,3352.3724,N,09831.1648,W,2,09,1.1,290.6,M,-23.7,M,1.8,0000*4F
$GPGSA,A,3,18,29,15,22,06,27,21,03,09,,,,2.0,1.1,1.7*3A
$GPRMC,152133.000,A,3352.3724,N,09831.1648,W,0.06,9.92,290312,,,D*7C
$GPGGA,152134.000,3352.3724,N,09831.1648,W,2,09,1.1,290.5,M,-23.7,M,2.8,0000*48
$GPGSA,A,3,18,29,15,22,06,27,21,03,09,,,,2.0,1.1,1.7*3A
$GPGSV,3,1,12,21,82,077,29,18,65,346,38,15,42,046,38,22,36,284,29*71
$GPGSV,3,2,12,09,31,109,38,06,29,293,40,27,29,079,40,14,22,213,*73
$GPGSV,3,3,12,03,20,302,32,29,14,178,31,26,00,038,,51,49,195,36*77
$GPRMC,152134.000,A,3352.3724,N,09831.1648,W,0.09,14.11,290312,,,D*43
$GPGGA,152135.000,3352.3725,N,09831.1648,W,2,09,1.1,290.5,M,-23.7,M,3.8,0000*49
$GPGSA,A,3,18,29,15,22,06,27,21,03,09,,,,2.0,1.1,1.7*3A
$GPRMC,152135.000,A,3352.3725,N,09831.1648,W,0.07,18.08,290312,,,D*49
$GPGGA,152136.000,3352.3725,N,09831.1648,W,2,09,1.1,290.5,M,-23.7,M,4.8,0000*4D
$GPGSA,A,3,18,29,15,22,06,27,21,03,09,,,,2.0,1.1,1.7*3A
$GPRMC,152136.000,A,3352.3725,N,09831.1648,W,0.05,16.15,290312,,,D*4A
$GPGGA,152137.000,3352.3725,N,09831.1648,W,2,09,1.1,290.4,M,-23.7,M,5.8,0000*4C
$GPGSA,A,3,18,29,15,22,06,27,21,03,09,,,,2.0,1.1,1.7*3A
$GPRMC,152137.000,A,3352.3725,N,09831.1648,W,0.10,20.71,290312,,,D*48
$GPGGA,152138.000,3352.3725,N,09831.1648,W,2,09,1.1,290.4,M,-23.7,M,0.8,0000*46
$GPGSA,A,3,18,29,15,22,06,27,21,03,09,,,,2.0,1.1,1.7*3A
$GPRMC,152138.000,A,3352.3725,N,09831.1648,W,0.06,13.89,290312,,,D*47
$GPGGA,152139.000,3352.3725,N,09831.1648,W,2,09,1.1,290.4,M,-23.7,M,0.8,0000*47
$GPGSA,A,3,18,29,15,22,06,27,21,03,09,,,,2.0,1.1,1.7*3A
$GPGSV,3,1,12,21,82,077,29,18,65,346,38,15,42,046,38,22,36,284,29*71
$GPGSV,3,2,12,09,31,109,38,06,29,293,40,27,29,079,40,14,22,213,*73
$GPGSV,3,3,12,03,20,302,32,29,14,178,31,26,00,038,,51,49,195,36*77
$GPRMC,152139.000,A,3352.3725,N,09831.1648,W,0.05,352.74,290312,,,D*71
$GPGGA,152140.000,3352.3725,N,09831.1648,W,2,09,1.1,290.4,M,-23.7,M,0.8,0000*49
$GPGSA,A,3,18,29,15,22,06,27,21,03,09,,,,2.0,1.1,1.7*3A
$GPRMC,152140.000,A,3352.3725,N,09831.1648,W,0.05,351.49,290312,,,D*72
$GPGGA,152141.000,3352.3726,N,09831.1648,W,2,09,1.1,290.4,M,-23.7,M,1.8,0000*4A
$GPGSA,A,3,18,29,15,22,06,27,21,03,09,,,,2.0,1.1,1.7*3A
$GPRMC,152141.000,A,3352.3726,N,09831.1648,W,0.06,0.01,290312,,,D*78
$GPGGA,152142.000,3352.3726,N,09831.1648,W,2,09,1.1,290.4,M,-23.7,M,2.8,0000*4A
$GPGSA,A,3,18,29,15,22,06,27,21,03,09,,,,2.0,1.1,1.7*3A
$GPRMC,152142.000,A,3352.3726,N,09831.1648,W,0.06,356.85,290312,,,D*77
$GPGGA,152143.000,3352.3726,N,09831.1648,W,2,09,1.1,290.4,M,-23.7,M,0.8,0000*49
$GPGSA,A,3,18,29,15,22,06,27,21,03,09,,,,2.0,1.1,1.7*3A
$GPRMC,152143.000,A,3352.3726,N,09831.1648,W,0.04,47.90,290312,,,D*43
$GPGGA,152144.000,3352.3726,N,09831.1648,W,2,09,1.1,290.3,M,-23.7,M,0.8,0000*49
$GPGSA,A,3,18,29,15,22,06,27,21,03,09,,,,2.0,1.1,1.7*3A
$GPGSV,3,1,12,21,82,077,29,18,65,346,38,15,42,046,38,22,36,284,28*70
$GPGSV,3,2,12,09,31,109,38,06,29,293,40,27,29,079,41,14,22,213,*72
$GPGSV,3,3,12,03,20,302,32,29,14,178,30,26,00,038,,51,49,195,36*76
$GPRMC,152144.000,A,3352.3726,N,09831.1648,W,0.11,33.72,290312,,,D*4F
$GPGGA,152145.000,3352.3726,N,09831.1648,W,2,09,1.1,290.4,M,-23.7,M,0.8,0000*4F
$GPGSA,A,3,18,29,15,22,06,27,21,03,09,,,,2.0,1.1,1.7*3A
$GPRMC,152145.000,A,3352.3726,N,09831.1648,W,0.08,39.30,290312,,,D*4A
$GPGGA,152146.000,3352.3726,N,09831.1648,W,2,09,1.1,290.4,M,-23.7,M,0.8,0000*4C
$GPGSA,A,3,18,29,15,22,06,27,21,03,09,,,,2.0,1.1,1.7*3A
$GPRMC,152146.000,A,3352.3726,N,09831.1648,W,0.07,30.18,290312,,,D*45
$GPGGA,152147.000,3352.3727,N,09831.1648,W,2,09,1.1,290.4,M,-23.7,M,1.8,0000*4D
$GPGSA,A,3,18,29,15,22,06,27,21,03,09,,,,2.0,1.1,1.7*3A
$GPRMC,152147.000,A,3352.3727,N,09831.1648,W,0.07,40.14,290312,,,D*4E
$GPGGA,152148.000,3352.3727,N,09831.1648,W,2,09,1.1,290.5,M,-23.7,M,2.8,0000*40
$GPGSA,A,3,18,29,15,22,06,27,21,03,09,,,,2.0,1.1,1.7*3A
$GPRMC,152148.000,A,3352.3727,N,09831.1648,W,0.08,29.29,290312,,,D*4F
$GPGGA,152149.000,3352.3727,N,09831.1647,W,2,09,1.1,290.5,M,-23.7,M,3.8,0000*4F
$GPGSA,A,3,18,29,15,22,06,27,21,03,09,,,,2.0,1.1,1.7*3A
$GPGSV,3,1,12,21,82,077,28,18,65,346,37,15,42,046,38,22,36,284,28*7E
$GPGSV,3,2,12,09,31,109,38,06,29,293,40,27,29,079,41,14,22,213,*72
$GPGSV,3,3,12,03,20,302,32,29,14,178,30,26,00,038,,51,49,195,36*76
$GPRMC,152149.000,A,3352.3727,N,09831.1647,W,0.06,42.42,290312,,,D*4F
$GPGGA,152150.000,3352.3727,N,09831.1647,W,2,09,1.1,290.5,M,-23.7,M,0.8,0000*44
$GPGSA,A,3,18,29,15,22,06,27,21,03,09,,,,2.0,1.1,1.7*3A
$GPRMC,152150.000,A,3352.3727,N,09831.1647,W,0.04,32.55,290312,,,D*44
$GPGGA,152151.000,3352.3727,N,09831.1647,W,2,09,1.1,290.5,M,-23.7,M,0.8,0000*45
$GPGSA,A,3,18,29,15,22,06,27,21,03,09,,,,2.0,1.1,1.7*3A
$GPRMC,152151.000,A,3352.3727,N,09831.1647,W,0.09,22.27,290312,,,D*4C
$GPGGA,152152.000,3352.3728,N,09831.1647,W,2,09,1.1,290.5,M,-23.7,M,1.8,0000*48
$GPGSA,A,3,18,29,15,22,06,27,21,03,09,,,,2.0,1.1,1.7*3A
$GPRMC,152152.000,A,3352.3728,N,09831.1647,W,0.08,24.82,290312,,,D*48
$GPGGA,152153.000,3352.3728,N,09831.1647,W,2,09,1.1,290.4,M,-23.7,M,2.8,0000*4B
$GPGSA,A,3,18,29,15,22,06,27,21,03,09,,,,2.0,1.1,1.7*3A
$GPRMC,152153.000,A,3352.3728,N,09831.1647,W,0.05,32.71,290312,,,D*4F
$GPGGA,152154.000,3352.3728,N,09831.1647,W,2,09,1.1,290.4,M,-23.7,M,3.8,0000*4D
$GPGSA,A,3,18,29,15,22,06,27,21,03,09,,,,2.0,1.1,1.7*3A
$GPGSV,3,1,12,21,82,077,28,18,65,346,37,15,42,046,37,22,36,284,27*7E
$GPGSV,3,2,12,09,31,109,37,06,29,293,40,27,29,079,41,14,22,213,*7D
$GPGSV,3,3,12,03,20,302,31,29,14,178,30,26,00,038,,51,49,195,36*75
$GPRMC,152154.000,A,3352.3728,N,09831.1647,W,0.08,26.63,290312,,,D*43
$GPGGA,152155.000,3352.3728,N,09831.1647,W,2,09,1.1,290.3,M,-23.7,M,0.8,0000*48
$GPGSA,A,3,18,29,15,22,06,27,21,03,09,,,,2.0,1.1,1.7*3A
$GPRMC,152155.000,A,3352.3728,N,09831.1647,W,0.08,17.14,290312,,,D*40
$GPGGA,152156.000,3352.3728,N,09831.1647,W,2,09,1.1,290.3,M,-23.7,M,0.8,0000*4B
$GPGSA,A,3,18,29,15,22,06,27,21,03,09,,,,2.0,1.1,1.7*3A
$GPRMC,152156.000,A,3352.3728,N,09831.1647,W,0.07,47.88,290312,,,D*4C
$GPGGA,152157.000,3352.3728,N,09831.1647,W,2,09,1.1,290.4,M,-23.7,M,0.8,0000*4D
$GPGSA,A,3,18,29,15,22,06,27,21,03,09,,,,2.0,1.1,1.7*3A
$GPRMC,152157.000,A,3352.3728,N,09831.1647,W,0.05,46.83,290312,,,D*45
$GPGGA,152158.000,3352.3728,N,09831.1647,W,2,09,1.1,290.5,M,-23.7,M,1.8,0000*42
$GPGSA,A,3,18,29,15,22,06,27,21,03,09,,,,2.0,1.1,1.7*3A
$GPRMC,152158.000,A,3352.3728,N,09831.1647,W,0.04,73.15,290312,,,D*42
$GPGGA,152159.000,3352.3728,N,09831.1647,W,2,09,1.1,290.6,M,-23.7,M,2.8,0000*43
$GPGSA,A,3,18,29,15,22,06,27,21,03,09,,,,2.0,1.1,1.7*3A
$GPGSV,3,1,12,21,82,077,27,18,65,346,36,15,42,046,37,22,36,284,27*70
$GPGSV,3,2,12,09,31,109,37,06,29,293,40,27,29,079,41,14,22,213,*7D
$GPGSV,3,3,12,03,20,302,31,29,14,178,30,26,00,038,,51,49,195,36*75
$GPRMC,152159.000,A,3352.3728,N,09831.1647,W,0.03,81.43,290312,,,D*4A
$GPGGA,152200.000,3352.3728,N,09831.1647,W,2,09,1.1,290.8,M,-23.7,M,0.8,0000*40
$GPGSA,A,3,18,29,15,22,06,27,21,03,09,,,,2.0,1.1,1.7*3A
$GPRMC,152200.000,A,3352.3728,N,09831.1647,W,0.05,53.34,290312,,,D*4C
$GPGGA,152201.000,3352.3728,N,09831.1647,W,2,09,1.1,290.9,M,-23.7,M,0.8,0000*40
$GPGSA,A,3,18,29,15,22,06,27,21,03,09,,,,2.0,1.1,1.7*3A
$GPRMC,152201.000,A,3352.3728,N,09831.1647,W,0.03,120.56,290312,,,D*7A
$GPGGA,152202.000,3352.3728,N,09831.1647,W,2,09,1.1,290.9,M,-23.7,M,0.8,0000*43
$GPGSA,A,3,18,29,15,22,06,27,21,03,09,,,,2.0,1.1,1.7*3A
$GPRMC,152202.000,A,3352.3728,N,09831.1647,W,0.04,356.31,290312,,,D*7C
$GPGGA,152203.000,3352.3728,N,09831.1647,W,2,09,1.1,290.9,M,-23.7,M,0.8,0000*42
$GPGSA,A,3,18,29,15,22,06,27,21,03,09,,,,2.0,1.1,1.7*3A
$GPRMC,152203.000,A,3352.3728,N,09831.1647,W,0.02,18.75,290312,,,D*42
$GPGGA,152204.000,3352.3728,N,09831.1647,W,2,09,1.1,290.8,M,-23.7,M,1.8,0000*45
$GPGSA,A,3,18,29,15,22,06,27,21,03,09,,,,2.0,1.1,1.7*3A
$GPGSV,3,1,12,21,82,077,26,18,65,346,36,15,42,046,37,22,36,284,27*71
$GPGSV,3,2,12,09,31,109,37,06,29,293,40,27,29,079,40,14,22,213,*7C
$GPGSV,3,3,12,03,20,302,30,29,14,178,30,26,00,038,,51,49,195,36*74
$GPRMC,152204.000,A,3352.3728,N,09831.1647,W,0.05,17.62,290312,,,D*4B
$GPGGA,152205.000,3352.3729,N,09831.1647,W,2,09,1.1,290.7,M,-23.7,M,0.8,0000*4B
$GPGSA,A,3,18,29,15,22,06,27,21,03,09,,,,2.0,1.1,1.7*3A
$GPRMC,152205.000,A,3352.3729,N,09831.1647,W,0.11,11.83,290312,,,D*47
$GPGGA,152206.000,3352.3729,N,09831.1647,W,2,09,1.1,290.6,M,-23.7,M,1.8,0000*48
$GPGSA,A,3,18,29,15,22,06,27,21,03,09,,,,2.0,1.1,1.7*3A
$GPRMC,152206.000,A,3352.3729,N,09831.1647,W,0.07,15.73,290312,,,D*48
$GPGGA,152207.000,3352.3729,N,09831.1647,W,2,09,1.1,290.6,M,-23.7,M,0.8,0000*48
$GPGSA,A,3,18,29,15,22,06,27,21,03,09,,,,2.0,1.1,1.7*3A
$GPRMC,152207.000,A,3352.3729,N,09831.1647,W,0.10,5.56,290312,,,D*79
$GPGGA,152208.000,3352.3730,N,09831.1647,W,2,09,1.1,290.6,M,-23.7,M,0.8,0000*4F
$GPGSA,A,3,18,29,15,22,06,27,21,03,09,,,,2.0,1.1,1.7*3A
$GPRMC,152208.000,A,3352.3730,N,09831.1647,W,0.10,31.36,290312,,,D*4F
$GPGGA,152209.000,3352.3730,N,09831.1646,W,2,09,1.1,290.6,M,-23.7,M,1.8,0000*4E
$GPGSA,A,3,18,29,15,22,06,27,21,03,09,,,,2.0,1.1,1.7*3A
$GPGSV,3,1,12,21,82,077,26,18,65,346,36,15,42,046,37,22,36,284,27*71
$GPGSV,3,2,12,09,31,109,37,06,29,293,40,27,29,079,40,14,22,213,*7C
$GPGSV,3,3,12,03,20,302,30,29,14,178,31,26,00,038,,51,49,195,36*75
$GPRMC,152209.000,A,3352.3730,N,09831.1646,W,0.08,38.90,290312,,,D*43
$GPGGA,152210.000,3352.3730,N,09831.1646,W,2,09,1.1,290.6,M,-23.7,M,0.8,0000*47
$GPGSA,A,3,18,29,15,22,06,27,21,03,09,,,,2.0,1.1,1.7*3A
$GPRMC,152210.000,A,3352.3730,N,09831.1646,W,0.11,36.75,290312,,,D*46
$GPGGA,152211.000,3352.3730,N,09831.1646,W,2,09,1.1,290.6,M,-23.7,M,1.8,0000*47
$GPGSA,A,3,18,29,15,22,06,27,21,03,09,,,,2.0,1.1,1.7*3A
$GPRMC,152211.000,A,3352.3730,N,09831.1646,W,0.07,47.70,290312,,,D*43
$GPGGA,152212.000,3352.3730,N,09831.1646,W,2,09,1.1,290.6,M,-23.7,M,2.8,0000*47
$GPGSA,A,3,18,29,15,22,06,27,21,03,09,,,,2.0,1.1,1.7*3A
$GPRMC,152212.000,A,3352.3730,N,09831.1646,W,0.10,38.71,290312,,,D*4F
$GPGGA,152213.000,3352.3730,N,09831.1646,W,2,09,1.1,290.6,M,-23.7,M,0.8,0000*44
$GPGSA,A,3,18,29,15,22,06,27,21,03,09,,,,2.0,1.1,1.7*3A
$GPRMC,152213.000,A,3352.3730,N,09831.1646,W,0.07,55.15,290312,,,D*41
$GPGGA,152214.000,3352.3730,N,09831.1646,W,2,09,1.1,290.5,M,-23.7,M,0.8,0000*40
$GPGSA,A,3,18,29,15,22,06,27,21,03,09,,,,2.0,1.1,1.7*3A
$GPGSV,3,1,12,21,82,077,25,18,65,346,36,15,42,046,37,22,36,284,27*72
$GPGSV,3,2,12,09,31,109,36,06,29,293,40,27,29,079,40,14,22,213,*7D
$GPGSV,3,3,12,03,20,302,30,29,14,178,31,26,00,038,,51,49,195,36*75
$GPRMC,152214.000,A,3352.3730,N,09831.1646,W,0.07,9.02,290312,,,D*79
$GPGGA,152215.000,3352.3730,N,09831.1646,W,2,09,1.1,290.5,M,-23.7,M,0.8,0000*41
$GPGSA,A,3,18,29,15,22,06,27,21,03,09,,,,2.0,1.1,1.7*3A
$GPRMC,152215.000,A,3352.3730,N,09831.1646,W,0.07,358.58,290312,,,D*70
$GPGGA,152216.000,3352.3730,N,09831.1646,W,2,09,1.1,290.4,M,-23.7,M,1.8,0000*42
$GPGSA,A,3,18,29,15,22,06,27,21,03,09,,,,2.0,1.1,1.7*3A
$GPRMC,152216.000,A,3352.3730,N,09831.1646,W,0.04,345.05,290312,,,D*74
$GPGGA,152217.000,3352.3730,N,09831.1646,W,2,09,1.1,290.4,M,-23.7,M,0.8,0000*42
$GPGSA,A,3,18,29,15,22,06,27,21,03,09,,,,2.0,1.1,1.7*3A
$GPRMC,152217.000,A,3352.3730,N,09831.1646,W,0.05,355.90,290312,,,D*79
$GPGGA,152218.000,3352.3730,N,09831.1646,W,2,09,1.1,290.4,M,-23.7,M,1.8,0000*4C
$GPGSA,A,3,18,29,15,22,06,27,21,03,09,,,,2.0,1.1,1.7*3A
$GPRMC,152218.000,A,3352.3730,N,09831.1646,W,0.05,349.59,290312,,,D*7E
$GPGGA,152219.000,3352.3731,N,09831.1646,W,2,09,1.1,290.5,M,-23.7,M,0.8,0000*4C
$GPGSA,A,3,18,29,15,22,06,27,21,03,09,,,,2.0,1.1,1.7*3A
$GPGSV,3,1,12,21,81,087,25,18,65,349,36,15,41,045,37,22,37,285,27*71
$GPGSV,3,2,12,09,32,107,36,06,30,292,40,27,29,078,40,14,23,214,*7E
$GPGSV,3,3,12,03,21,300,30,29,13,177,31,19,00,327,,51,49,195,35*7C
$GPRMC,152219.000,A,3352.3731,N,09831.1646,W,0.09,0.27,290312,,,D*75
$GPGGA,152220.000,3352.3731,N,09831.1646,W,2,09,1.1,290.5,M,-23.7,M,0.8,0000*46
$GPGSA,A,3,18,29,15,22,06,27,21,03,09,,,,2.0,1.1,1.7*3A
$GPRMC,152220.000,A,3352.3731,N,09831.1646,W,0.08,28.20,290312,,,D*43
$GPGGA,152221.000,3352.3731,N,09831.1646,W,2,09,1.1,290.5,M,-23.7,M,0.8,0000*47
$GPGSA,A,3,18,29,15,22,06,27,21,03,09,,,,2.0,1.1,1.7*3A
$GPRMC,152221.000,A,3352.3731,N,09831.1646,W,0.06,41.85,290312,,,D*4C
$GPGGA,152222.000,3352.3731,N,09831.1646,W,2,09,1.1,290.5,M,-23.7,M,1.8,0000*45
$GPGSA,A,3,18,29,15,22,06,27,21,03,09,,,,2.0,1.1,1.7*3A
$GPRMC,152222.000,A,3352.3731,N,09831.1646,W,0.05,38.98,290312,,,D*4E
$GPGGA,152223.000,3352.3731,N,09831.1646,W,2,09,1.1,290.6,M,-23.7,M,2.8,0000*44
$GPGSA,A,3,18,29,15,22,06,27,21,03,09,,,,2.0,1.1,1.7*3A
$GPRMC,152223.000,A,3352.3731,N,09831.1646,W,0.03,42.42,290312,,,D*43
$GPGGA,152224.000,3352.3730,N,09831.1646,W,2,09,1.1,290.7,M,-23.7,M,3.8,0000*42
$GPGSA,A,3,18,29,15,22,06,27,21,03,09,,,,2.0,1.1,1.7*3A
$GPGSV,3,1,12,21,81,087,25,18,65,349,35,15,41,045,37,22,37,285,27*72
$GPGSV,3,2,12,09,32,107,36,06,30,292,40,27,29,078,40,14,23,214,*7E
$GPGSV,3,3,12,03,21,300,31,29,13,177,31,19,00,327,,51,49,195,35*7D
$GPRMC,152224.000,A,3352.3730,N,09831.1646,W,0.04,45.07,290312,,,D*44
$GPGGA,152225.000,3352.3730,N,09831.1646,W,2,09,1.1,290.8,M,-23.7,M,0.8,0000*4F
$GPGSA,A,3,18,29,15,22,06,27,21,03,09,,,,2.0,1.1,1.7*3A
$GPRMC,152225.000,A,3352.3730,N,09831.1646,W,0.03,111.22,290312,,,D*75
$GPGGA,152226.000,3352.3730,N,09831.1646,W,2,09,1.1,290.9,M,-23.7,M,0.8,0000*4D
$GPGSA,A,3,18,29,15,22,06,27,21,03,09,,,,2.0,1.1,1.7*3A
$GPRMC,152226.000,A,3352.3730,N,09831.1646,W,0.02,256.01,290312,,,D*76
$GPGGA,152227.000,3352.3730,N,09831.1646,W,2,09,1.1,290.9,M,-23.7,M,0.8,0000*4C
$GPGSA,A,3,18,29,15,22,06,27,21,03,09,,,,2.0,1.1,1.7*3A
$GPRMC,152227.000,A,3352.3730,N,09831.1646,W,0.03,8.09,290312,,,D*77
$GPGGA,152228.000,3352.3730,N,09831.1646,W,2,09,1.1,290.8,M,-23.7,M,1.8,0000*43
$GPGSA,A,3,18,29,15,22,06,27,21,03,09,,,,2.0,1.1,1.7*3A
$GPRMC,152228.000,A,3352.3730,N,09831.1646,W,0.05,2.51,290312,,,D*79
$GPGGA,152229.000,3352.3730,N,09831.1646,W,2,09,1.1,290.9,M,-23.7,M,2.8,0000*40
$GPGSA,A,3,18,29,15,22,06,27,21,03,09,,,,2.0,1.1,1.7*3A
$GPGSV,3,1,12,21,81,087,26,18,65,349,35,15,41,045,37,22,37,285,28*7E
$GPGSV,3,2,12,09,32,107,36,06,30,292,40,27,29,078,40,14,23,214,21*7D
$GPGSV,3,3,12,03,21,300,30,29,13,177,31,19,00,327,,51,49,195,35*7C
$GPRMC,152229.000,A,3352.3730,N,09831.1646,W,0.04,349.31,290312,,,D*73
$GPGGA,152230.000,3352.3730,N,09831.1646,W,2,09,1.1,290.9,M,-23.7,M,3.8,0000*49
$GPGSA,A,3,18,29,15,22,06,27,21,03,09,,,,2.0,1.1,1.7*3A
$GPRMC,152230.000,A,3352.3730,N,09831.1646,W,0.05,355.03,290312,,,D*76
$GPGGA,152231.000,3352.3730,N,09831.1646,W,2,09,1.1,290.8,M,-23.7,M,0.8,0000*4A
$GPGSA,A,3,18,29,15,22,06,27,21,03,09,,,,2.0,1.1,1.7*3A
$GPRMC,152231.000,A,3352.3730,N,09831.1646,W,0.09,5.49,290312,,,D*73
$GPGGA,152232.000,3352.3730,N,09831.1646,W,2,09,1.1,290.9,M,-23.7,M,0.8,0000*48
$GPGSA,A,3,18,29,15,22,06,27,21,03,09,,,,2.0,1.1,1.7*3A
$GPRMC,152232.000,A,3352.3730,N,09831.1646,W,0.08,45.98,290312,,,D*49
$GPGGA,152233.000,3352.3730,N,09831.1646,W,2,09,1.1,291.0,M,-23.7,M,0.8,0000*41
$GPGSA,A,3,18,29,15,22,06,27,21,03,09,,,,2.0,1.1,1.7*3A
$GPRMC,152233.000,A,3352.3730,N,09831.1646,W,0.06,37.82,290312,,,D*48
$GPGGA,152234.000,3352.3730,N,09831.1646,W,2,09,1.1,291.1,M,-23.7,M,1.8,0000*46
$GPGSA,A,3,18,29,15,22,06,27,21,03,09,,,,2.0,1.1,1.7*3A
$GPGSV,3,1,12,21,81,087,27,18,65,349,34,15,41,045,37,22,37,285,28*7E
$GPGSV,3,2,12,09,32,107,36,06,30,292,40,27,29,078,40,14,23,214,21*7D
$GPGSV,3,3,12,03,21,300,30,29,13,177,30,19,00,327,,51,49,195,36*7E
$GPRMC,152234.000,A,3352.3730,N,09831.1646,W,0.04,47.61,290312,,,D*47
$GPGGA,152235.000,3352.3730,N,09831.1646,W,2,09,1.1,291.2,M,-23.7,M,2.8,0000*47
$GPGSA,A,3,18,29,15,22,06,27,21,03,09,,,,2.0,1.1,1.7*3A
$GPRMC,152235.000,A,3352.3730,N,09831.1646,W,0.04,77.01,290312,,,D*43
$GPGGA,152236.000,3352.3729,N,09831.1646,W,2,09,1.1,291.4,M,-23.7,M,0.8,0000*48
$GPGSA,A,3,18,29,15,22,06,27,21,03,09,,,,2.0,1.1,1.7*3A
$GPRMC,152236.000,A,3352.3729,N,09831.1646,W,0.05,60.72,290312,,,D*4B
$GPGGA,152237.000,3352.3729,N,09831.1646,W,2,09,1.1,291.5,M,-23.7,M,0.8,0000*48
$GPGSA,A,3,18,29,15,22,06,27,21,03,09,,,,2.0,1.1,1.7*3A
$GPRMC,152237.000,A,3352.3729,N,09831.1646,W,0.04,130.11,290312,,,D*7A
$GPGGA,152238.000,3352.3729,N,09831.1646,W,2,09,1.1,291.6,M,-23.7,M,0.8,0000*44
$GPGSA,A,3,18,29,15,22,06,27,21,03,09,,,,2.0,1.1,1.7*3A
$GPRMC,152238.000,A,3352.3729,N,09831.1646,W,0.02,346.66,290312,,,D*70
$GPGGA,152239.000,3352.3729,N,09831.1646,W,2,09,1.1,291.5,M,-23.7,M,0.8,0000*46
$GPGSA,A,3,18,29,15,22,06,27,21,03,09,,,,2.0,1.1,1.7*3A
$GPGSV,3,1,12,21,81,087,28,18,65,349,34,15,41,045,37,22,37,285,29*70
$GPGSV,3,2,12,09,32,107,36,06,30,292,40,27,29,078,40,14,23,214,22*7E
$GPGSV,3,3,12,03,21,300,30,29,13,177,30,19,00,327,,51,49,195,36*7E
$GPRMC,152239.000,A,3352.3729,N,09831.1646,W,0.05,14.21,290312,,,D*41
$GPGGA,152240.000,3352.3729,N,09831.1646,W,2,09,1.1,291.5,M,-23.7,M,1.8,0000*49
$GPGSA,A,3,18,29,15,22,06,27,21,03,09,,,,2.0,1.1,1.7*3A
$GPRMC,152240.000,A,3352.3729,N,09831.1646,W,0.07,9.95,290312,,,D*7E
$GPGGA,152241.000,3352.3729,N,09831.1646,W,2,09,1.1,291.4,M,-23.7,M,2.8,0000*4A
$GPGSA,A,3,18,29,15,22,06,27,21,03,09,,,,2.0,1.1,1.7*3A
$GPRMC,152241.000,A,3352.3729,N,09831.1646,W,0.04,18.25,290312,,,D*47
$GPGGA,152242.000,3352.3730,N,09831.1646,W,2,09,1.1,291.4,M,-23.7,M,3.8,0000*40
$GPGSA,A,3,18,29,15,22,06,27,21,03,09,,,,2.0,1.1,1.7*3A
$GPRMC,152242.000,A,3352.3730,N,09831.1646,W,0.07,13.51,290312,,,D*47
$GPGGA,152243.000,3352.3730,N,09831.1646,W,2,09,1.1,291.3,M,-23.7,M,0.8,0000*45
$GPGSA,A,3,18,29,15,22,06,27,21,03,09,,,,2.0,1.1,1.7*3A
$GPRMC,152243.000,A,3352.3730,N,09831.1646,W,0.12,7.13,290312,,,D*71
$GPGGA,152244.000,3352.3730,N,09831.1646,W,2,09,1.1,291.3,M,-23.7,M,0.8,0000*42
$GPGSA,A,3,18,29,15,22,06,27,21,03,09,,,,2.0,1.1,1.7*3A
$GPGSV,3,1,12,21,81,087,28,18,65,349,34,15,41,045,38,22,37,285,29*7F
$GPGSV,3,2,12,09,32,107,36,06,30,292,40,27,29,078,40,14,23,214,23*7F
$GPGSV,3,3,12,03,21,300,30,29,13,177,29,19,00,327,,51,49,195,36*76
$GPRMC,152244.000,A,3352.3730,N,09831.1646,W,0.11,36.82,290312,,,D*4F
$GPGGA,152245.000,3352.3730,N,09831.1645,W,2,09,1.1,291.4,M,-23.7,M,0.8,0000*47
$GPGSA,A,3,18,29,15,22,06,27,21,03,09,,,,2.0,1.1,1.7*3A
$GPRMC,152245.000,A,3352.3730,N,09831.1645,W,0.05,45.28,290312,,,D*4C
$GPGGA,152246.000,3352.3730,N,09831.1645,W,2,09,1.1,291.5,M,-23.7,M,1.8,0000*44
$GPGSA,A,3,18,29,15,22,06,27,21,03,09,,,,2.0,1.1,1.7*3A
$GPRMC,152246.000,A,3352.3730,N,09831.1645,W,0.04,60.26,290312,,,D*47
$GPGGA,152247.000,3352.3730,N,09831.1645,W,2,09,1.1,291.5,M,-23.7,M,2.8,0000*46
$GPGSA,A,3,18,29,15,22,06,27,21,03,09,,,,2.0,1.1,1.7*3A
$GPRMC,152247.000,A,3352.3730,N,09831.1645,W,0.06,60.81,290312,,,D*49
$GPGGA,152248.000,3352.3730,N,09831.1645,W,2,09,1.1,291.6,M,-23.7,M,3.8,0000*4B
$GPGSA,A,3,18,29,15,22,06,27,21,03,09,,,,2.0,1.1,1.7*3A
$GPRMC,152248.000,A,3352.3730,N,09831.1645,W,0.06,49.70,290312,,,D*43
$GPGGA,152249.000,3352.3729,N,09831.1645,W,2,09,1.1,291.7,M,-23.7,M,0.8,0000*40
$GPGSA,A,3,18,29,15,22,06,27,21,03,09,,,,2.0,1.1,1.7*3A
$GPGSV,3,1,12,21,81,087,28,18,65,349,34,15,41,045,38,22,37,285,29*7F
$GPGSV,3,2,12,09,32,107,36,06,30,292,40,27,29,078,40,14,23,214,23*7F
$GPGSV,3,3,12,03,21,300,30,29,13,177,29,19,00,327,,51,49,195,36*76
$GPRMC,152249.000,A,3352.3729,N,09831.1645,W,0.04,136.14,290312,,,D*73
$GPGGA,152250.000,3352.3729,N,09831.1645,W,2,09,1.1,291.7,M,-23.7,M,0.8,0000*48
$GPGSA,A,3,18,29,15,22,06,27,21,03,09,,,,2.0,1.1,1.7*3A
$GPRMC,152250.000,A,3352.3729,N,09831.1645,W,0.02,335.67,290312,,,D*78
$GPGGA,152251.000,3352.3730,N,09831.1645,W,2,09,1.1,291.7,M,-23.7,M,0.8,0000*41
$GPGSA,A,3,18,29,15,22,06,27,21,03,09,,,,2.0,1.1,1.7*3A
$GPRMC,152251.000,A,3352.3730,N,09831.1645,W,0.05,7.16,290312,,,D*72
$GPGGA,152252.000,3352.3730,N,09831.1645,W,2,09,1.1,291.6,M,-23.7,M,0.8,0000*43
$GPGSA,A,3,18,29,15,22,06,27,21,03,09,,,,2.0,1.1,1.7*3A
$GPRMC,152252.000,A,3352.3730,N,09831.1645,W,0.08,12.59,290312,,,D*43
$GPGGA,152253.000,3352.3730,N,09831.1645,W,2,09,1.1,291.5,M,-23.7,M,0.8,0000*41
$GPGSA,A,3,18,29,15,22,06,27,21,03,09,,,,2.0,1.1,1.7*3A
$GPRMC,152253.000,A,3352.3730,N,09831.1645,W,0.07,8.32,290312,,,D*7B
$GPGGA,152254.000,3352.3730,N,09831.1645,W,2,09,1.1,291.4,M,-23.7,M,1.8,0000*46
$GPGSA,A,3,18,29,15,22,06,27,21,03,09,,,,2.0,1.1,1.7*3A
$GPGSV,3,1,12,21,81,087,28,18,65,349,33,15,41,045,38,22,37,285,29*78
$GPGSV,3,2,12,09,32,107,37,06,30,292,39,27,29,078,40,14,23,214,24*77
$GPGSV,3,3,12,03,21,300,30,29,13,177,29,19,00,327,,51,49,195,36*76
$GPRMC,152254.000,A,3352.3730,N,09831.1645,W,0.07,16.99,290312,,,D*42
$GPGGA,152255.000,3352.3731,N,09831.1645,W,2,09,1.1,291.3,M,-23.7,M,0.8,0000*40
$GPGSA,A,3,18,29,15,22,06,27,21,03,09,,,,2.0,1.1,1.7*3A
$GPRMC,152255.000,A,3352.3731,N,09831.1645,W,0.13,13.74,290312,,,D*41
$GPGGA,152256.000,3352.3731,N,09831.1645,W,2,09,1.1,291.3,M,-23.7,M,0.8,0000*43
$GPGSA,A,3,18,29,15,22,06,27,21,03,09,,,,2.0,1.1,1.7*3A
$GPRMC,152256.000,A,3352.3731,N,09831.1645,W,0.12,41.92,290312,,,D*4C
$GPGGA,152257.000,3352.3731,N,09831.1645,W,2,09,1.1,291.3,M,-23.7,M,0.8,0000*42
$GPGSA,A,3,18,29,15,22,06,27,21,03,09,,,,2.0,1.1,1.7*3A
$GPRMC,152257.000,A,3352.3731,N,09831.1645,W,0.08,51.81,290312,,,D*45
$GPGGA,152258.000,3352.3731,N,09831.1645,W,2,09,1.1,291.3,M,-23.7,M,0.8,0000*4D
$GPGSA,A,3,18,29,15,22,06,27,21,03,09,,,,2.0,1.1,1.7*3A
$GPRMC,152258.000,A,3352.3731,N,09831.1645,W,0.08,50.06,290312,,,D*44
$GPGGA,152259.000,3352.3731,N,09831.1645,W,2,09,1.1,291.4,M,-23.7,M,0.8,0000*4B
$GPGSA,A,3,18,29,15,22,06,27,21,03,09,,,,2.0,1.1,1.7*3A
$GPGSV,3,1,12,21,81,087,28,18,65,349,32,15,41,045,38,22,37,285,29*79
$GPGSV,3,2,12,09,32,107,37,06,30,292,40,27,29,078,40,14,23,214,25*78
$GPGSV,3,3,12,03,21,300,30,29,13,177,29,19,00,327,,51,49,195,36*76
$GPRMC,152259.000,A,3352.3731,N,09831.1645,W,0.09,47.14,290312,,,D*41
$GPGGA,152300.000,3352.3731,N,09831.1644,W,2,09,1.1,291.4,M,-23.7,M,1.8,0000*46
$GPGSA,A,3,18,29,15,22,06,27,21,03,09,,,,2.0,1.1,1.7*3A
$GPRMC,152300.000,A,3352.3731,N,09831.1644,W,0.08,51.77,290312,,,D*4E
$GPGGA,152301.000,3352.3731,N,09831.1644,W,2,09,1.1,291.5,M,-23.7,M,0.8,0000*47
$GPGSA,A,3,18,29,15,22,06,27,21,03,09,,,,2.0,1.1,1.7*3A
$GPRMC,152301.000,A,3352.3731,N,09831.1644,W,0.04,159.64,290312,,,D*78
$GPGGA,152302.000,3352.3731,N,09831.1645,W,2,09,1.1,291.6,M,-23.7,M,0.8,0000*46
$GPGSA,A,3,18,29,15,22,06,27,21,03,09,,,,2.0,1.1,1.7*3A
$GPRMC,152302.000,A,3352.3731,N,09831.1645,W,0.03,302.35,290312,,,D*75
$GPGGA,152303.000,3352.3731,N,09831.1645,W,2,09,1.1,291.6,M,-23.7,M,0.8,0000*47
