$GPGGA,205513.000,3351.1462,N,09829.0851,W,2,07,1.2,303.3,M,-23.7,M,1.8,0000*45
$GPGSA,A,3,20,14,31,16,30,25,32,,,,,,2.3,1.2,1.9*3F
$GPGSV,3,1,12,32,70,297,32,31,55,031,33,30,53,149,35,20,41,308,16*77
$GPGSV,3,2,12,16,29,171,27,14,25,083,24,01,22,251,,23,16,295,*75
$GPGSV,3,3,12,25,10,038,26,22,09,145,29,11,08,233,16,48,36,230,37*70
$GPRMC,205513.000,A,3351.1462,N,09829.0851,W,0.33,303.34,290312,,,D*76
$GPGGA,205514.000,3351.1460,N,09829.0852,W,2,07,1.2,302.4,M,-23.7,M,2.8,0000*46
$GPGSA,A,3,20,14,31,16,30,25,32,,,,,,2.3,1.2,1.9*3F
$GPRMC,205514.000,A,3351.1460,N,09829.0852,W,0.18,323.06,290312,,,D*7A
$GPGGA,205515.000,3351.1459,N,09829.0854,W,2,07,1.2,301.6,M,-23.7,M,0.8,0000*48
$GPGSA,A,3,20,14,31,16,30,25,32,,,,,,2.3,1.2,1.9*3F
$GPRMC,205515.000,A,3351.1459,N,09829.0854,W,0.45,290.18,290312,,,D*79
$GPGGA,205516.000,3351.1458,N,09829.0856,W,2,07,1.2,300.8,M,-23.7,M,0.8,0000*47
$GPGSA,A,3,20,14,31,16,30,25,32,,,,,,2.3,1.2,1.9*3F
$GPRMC,205516.000,A,3351.1458,N,09829.0856,W,0.39,285.55,290312,,,D*7F
$GPGGA,205517.000,3351.1456,N,09829.0858,W,2,07,1.2,300.1,M,-23.7,M,0.8,0000*4F
$GPGSA,A,3,20,14,31,16,30,25,32,,,,,,2.3,1.2,1.9*3F
$GPRMC,205517.000,A,3351.1456,N,09829.0858,W,0.15,260.77,290312,,,D*7B
$GPGGA,205518.000,3351.1455,N,09829.0858,W,2,08,0.9,299.6,M,-23.7,M,1.8,0000*41
$GPGSA,A,3,20,14,31,01,16,30,25,32,,,,,1.8,0.9,1.5*30
$GPGSV,3,1,12,32,70,297,35,31,55,031,35,30,53,149,38,20,41,308,17*7A
$GPGSV,3,2,12,16,29,171,28,14,25,083,26,01,22,251,19,23,16,295,*70
$GPGSV,3,3,12,25,10,038,27,22,09,145,31,11,08,233,15,48,36,230,37*7B
$GPRMC,205518.000,A,3351.1455,N,09829.0858,W,0.22,111.55,290312,,,D*76
$GPGGA,205519.000,3351.1454,N,09829.0858,W,2,08,0.9,298.9,M,-23.7,M,2.8,0000*4C
$GPGSA,A,3,20,14,31,01,16,30,25,32,,,,,1.8,0.9,1.5*30
$GPRMC,205519.000,A,3351.1454,N,09829.0858,W,0.21,240.35,290312,,,D*74
$GPGGA,205520.000,3351.1453,N,09829.0859,W,2,08,0.9,298.5,M,-23.7,M,3.8,0000*4D
$GPGSA,A,3,20,14,31,01,16,30,25,32,,,,,1.8,0.9,1.5*30
$GPRMC,205520.000,A,3351.1453,N,09829.0859,W,0.21,119.95,290312,,,D*7D
$GPGGA,205521.000,3351.1452,N,09829.0857,W,2,08,0.9,298.3,M,-23.7,M,0.8,0000*46
$GPGSA,A,3,20,14,31,01,16,30,25,32,,,,,1.8,0.9,1.5*30
$GPRMC,205521.000,A,3351.1452,N,09829.0857,W,0.56,99.15,290312,,,D*42
$GPGGA,205522.000,3351.1453,N,09829.0856,W,2,09,0.9,298.3,M,-23.7,M,0.8,0000*44
$GPGSA,A,3,20,14,31,01,16,23,30,25,32,,,,1.6,0.9,1.4*3E
$GPRMC,205522.000,A,3351.1453,N,09829.0856,W,0.23,71.14,290312,,,D*44
$GPGGA,205523.000,3351.1453,N,09829.0855,W,2,09,0.9,298.6,M,-23.7,M,0.8,0000*43
$GPGSA,A,3,20,14,31,01,16,23,30,25,32,,,,1.6,0.9,1.4*3E
$GPGSV,3,1,12,32,70,297,35,31,55,031,35,30,53,149,38,20,41,308,17*7A
$GPGSV,3,2,12,16,29,171,29,14,25,083,26,01,22,251,19,23,16,295,33*71
$GPGSV,3,3,12,25,10,038,28,22,09,145,31,11,08,233,,48,36,230,38*7F
$GPRMC,205523.000,A,3351.1453,N,09829.0855,W,0.12,74.48,290312,,,D*48
$GPGGA,205524.000,3351.1453,N,09829.0854,W,2,09,0.9,298.8,M,-23.7,M,0.8,0000*4B
$GPGSA,A,3,20,14,31,01,16,23,30,25,32,,,,1.6,0.9,1.4*3E
$GPRMC,205524.000,A,3351.1453,N,09829.0854,W,0.06,86.59,290312,,,D*46
$GPGGA,205525.000,3351.1454,N,09829.0853,W,2,09,0.9,299.1,M,-23.7,M,1.8,0000*43
$GPGSA,A,3,20,14,31,01,16,23,30,25,32,,,,1.6,0.9,1.4*3E
$GPRMC,205525.000,A,3351.1454,N,09829.0853,W,0.22,71.10,290312,,,D*44
$GPGGA,205526.000,3351.1455,N,09829.0852,W,2,09,0.9,299.4,M,-23.7,M,0.8,0000*44
$GPGSA,A,3,20,14,31,01,16,23,30,25,32,,,,1.6,0.9,1.4*3E
$GPRMC,205526.000,A,3351.1455,N,09829.0852,W,0.33,48.69,290312,,,D*43
$GPGGA,205527.000,3351.1456,N,09829.0851,W,2,09,0.9,299.7,M,-23.7,M,0.8,0000*46
$GPGSA,A,3,20,14,31,01,16,23,30,25,32,,,,1.6,0.9,1.4*3E
$GPRMC,205527.000,A,3351.1456,N,09829.0851,W,0.24,42.50,290312,,,D*44
$GPGGA,205528.000,3351.1457,N,09829.0850,W,2,09,0.9,300.2,M,-23.7,M,0.8,0000*4D
$GPGSA,A,3,20,14,31,01,16,23,30,25,32,,,,1.6,0.9,1.4*3E
$GPGSV,3,1,12,32,70,297,35,31,55,031,35,30,53,149,38,20,41,308,18*75
$GPGSV,3,2,12,16,29,171,30,14,25,083,26,01,22,251,18,23,16,295,33*78
$GPGSV,3,3,12,25,10,038,28,22,09,145,31,11,08,233,,48,36,230,37*70
$GPRMC,205528.000,A,3351.1457,N,09829.0850,W,0.14,358.34,290312,,,D*72
$GPGGA,205529.000,3351.1457,N,09829.0850,W,2,09,0.9,300.5,M,-23.7,M,0.8,0000*4B
$GPGSA,A,3,20,14,31,01,16,23,30,25,32,,,,1.6,0.9,1.4*3E
$GPRMC,205529.000,A,3351.1457,N,09829.0850,W,0.10,309.67,290312,,,D*75
$GPGGA,205530.000,3351.1457,N,09829.0850,W,2,09,0.9,300.8,M,-23.7,M,1.8,0000*4F
$GPGSA,A,3,20,14,31,01,16,23,30,25,32,,,,1.6,0.9,1.4*3E
$GPRMC,205530.000,A,3351.1457,N,09829.0850,W,0.05,82.51,290312,,,D*4C
$GPGGA,205531.000,3351.1458,N,09829.0850,W,2,09,0.9,301.2,M,-23.7,M,0.8,0000*4B
$GPGSA,A,3,20,14,31,01,16,23,30,25,32,,,,1.6,0.9,1.4*3E
$GPRMC,205531.000,A,3351.1458,N,09829.0850,W,0.09,58.10,290312,,,D*4C
$GPGGA,205532.000,3351.1458,N,09829.0849,W,2,09,0.9,301.5,M,-23.7,M,1.8,0000*46
$GPGSA,A,3,20,14,31,01,16,23,30,25,32,,,,1.6,0.9,1.4*3E
$GPRMC,205532.000,A,3351.1458,N,09829.0849,W,0.07,308.51,290312,,,D*7A
$GPGGA,205533.000,3351.1458,N,09829.0849,W,2,09,0.9,301.8,M,-23.7,M,0.8,0000*4B
$GPGSA,A,3,20,14,31,01,16,23,30,25,32,,,,1.6,0.9,1.4*3E
$GPGSV,3,1,12,32,70,297,35,31,55,031,35,30,53,149,38,20,41,308,19*74
$GPGSV,3,2,12,16,29,171,30,14,25,083,26,01,22,251,18,23,16,295,33*78
$GPGSV,3,3,12,25,10,038,29,22,09,145,32,11,08,233,,48,36,230,37*72
$GPRMC,205533.000,A,3351.1458,N,09829.0849,W,0.14,20.01,290312,,,D*45
$GPGGA,205534.000,3351.1459,N,09829.0849,W,2,09,0.9,302.0,M,-23.7,M,0.8,0000*46
$GPGSA,A,3,20,14,31,01,16,23,30,25,32,,,,1.6,0.9,1.4*3E
$GPRMC,205534.000,A,3351.1459,N,09829.0849,W,0.19,31.76,290312,,,D*4E
$GPGGA,205535.000,3351.1459,N,09829.0849,W,2,09,0.9,302.2,M,-23.7,M,0.8,0000*45
$GPGSA,A,3,20,14,31,01,16,23,30,25,32,,,,1.6,0.9,1.4*3E
$GPRMC,205535.000,A,3351.1459,N,09829.0849,W,0.29,52.53,290312,,,D*4E
$GPGGA,205536.000,3351.1460,N,09829.0848,W,2,09,0.9,302.4,M,-23.7,M,1.8,0000*4A
$GPGSA,A,3,20,14,31,01,16,23,30,25,32,,,,1.6,0.9,1.4*3E
$GPRMC,205536.000,A,3351.1460,N,09829.0848,W,0.27,60.31,290312,,,D*4D
$GPGGA,205537.000,3351.1461,N,09829.0848,W,2,09,0.9,302.5,M,-23.7,M,2.8,0000*48
$GPGSA,A,3,20,14,31,01,16,23,30,25,32,,,,1.6,0.9,1.4*3E
$GPRMC,205537.000,A,3351.1461,N,09829.0848,W,0.18,339.27,290312,,,D*79
$GPGGA,205538.000,3351.1461,N,09829.0848,W,2,09,0.9,302.6,M,-23.7,M,3.8,0000*45
$GPGSA,A,3,20,14,31,01,16,23,30,25,32,,,,1.6,0.9,1.4*3E
$GPGSV,3,1,12,32,70,297,35,31,55,031,35,30,53,149,39,20,41,308,21*7E
$GPGSV,3,2,12,16,29,171,30,14,25,083,25,01,22,251,19,23,16,295,33*7A
$GPGSV,3,3,12,25,10,038,29,22,09,145,32,11,08,233,,48,36,230,37*72
$GPRMC,205538.000,A,3351.1461,N,09829.0848,W,0.16,333.39,290312,,,D*7D
$GPGGA,205539.000,3351.1462,N,09829.0849,W,2,09,0.9,302.6,M,-23.7,M,0.8,0000*45
$GPGSA,A,3,20,14,31,01,16,23,30,25,32,,,,1.6,0.9,1.4*3E
$GPRMC,205539.000,A,3351.1462,N,09829.0849,W,0.13,310.82,290312,,,D*7A
$GPGGA,205540.000,3351.1462,N,09829.0849,W,2,09,0.9,302.8,M,-23.7,M,0.8,0000*45
$GPGSA,A,3,20,14,31,01,16,23,30,25,32,,,,1.6,0.9,1.4*3E
$GPRMC,205540.000,A,3351.1462,N,09829.0849,W,0.15,5.84,290312,,,D*73
$GPGGA,205541.000,3351.1462,N,09829.0849,W,2,09,0.9,302.9,M,-23.7,M,0.8,0000*45
$GPGSA,A,3,20,14,31,01,16,23,30,25,32,,,,1.6,0.9,1.4*3E
$GPRMC,205541.000,A,3351.1462,N,09829.0849,W,0.21,88.56,290312,,,D*4F
$GPGGA,205542.000,3351.1462,N,09829.0849,W,2,09,0.9,302.9,M,-23.7,M,1.8,0000*47
$GPGSA,A,3,20,14,31,01,16,23,30,25,32,,,,1.6,0.9,1.4*3E
$GPRMC,205542.000,A,3351.1462,N,09829.0849,W,0.05,65.30,290312,,,D*49
$GPGGA,205543.000,3351.1462,N,09829.0849,W,2,09,0.9,303.0,M,-23.7,M,2.8,0000*4D
$GPGSA,A,3,20,14,31,01,16,23,30,25,32,,,,1.6,0.9,1.4*3E
$GPGSV,3,1,12,32,70,297,35,31,55,031,35,30,53,149,38,20,41,308,21*7F
$GPGSV,3,2,12,16,29,171,30,14,25,083,25,01,22,251,21,23,16,295,33*71
$GPGSV,3,3,12,25,10,038,29,22,09,145,32,11,08,233,,48,36,230,37*72
$GPRMC,205543.000,A,3351.1462,N,09829.0849,W,0.18,77.26,290312,,,D*40
$GPGGA,205544.000,3351.1463,N,09829.0849,W,2,09,0.9,303.1,M,-23.7,M,3.8,0000*4B
$GPGSA,A,3,20,14,31,01,16,23,30,25,32,,,,1.6,0.9,1.4*3E
$GPRMC,205544.000,A,3351.1463,N,09829.0849,W,0.17,54.63,290312,,,D*49
$GPGGA,205545.000,3351.1463,N,09829.0849,W,2,09,0.9,303.3,M,-23.7,M,0.8,0000*4B
$GPGSA,A,3,20,14,31,01,16,23,30,25,32,,,,1.6,0.9,1.4*3E
$GPRMC,205545.000,A,3351.1463,N,09829.0849,W,0.18,38.49,290312,,,D*45
$GPGGA,205546.000,3351.1463,N,09829.0849,W,2,09,0.9,303.3,M,-23.7,M,0.8,0000*48
$GPGSA,A,3,20,14,31,01,16,23,30,25,32,,,,1.6,0.9,1.4*3E
$GPRMC,205546.000,A,3351.1463,N,09829.0849,W,0.08,86.82,290312,,,D*45
$GPGGA,205547.000,3351.1463,N,09829.0849,W,2,09,0.9,303.3,M,-23.7,M,0.8,0000*49
$GPGSA,A,3,20,14,31,01,16,23,30,25,32,,,,1.6,0.9,1.4*3E
$GPRMC,205547.000,A,3351.1463,N,09829.0849,W,0.05,40.97,290312,,,D*47
$GPGGA,205548.000,3351.1463,N,09829.0848,W,2,09,0.9,303.4,M,-23.7,M,1.8,0000*41
$GPGSA,A,3,20,14,31,01,16,23,30,25,32,,,,1.6,0.9,1.4*3E
$GPGSV,3,1,12,32,70,297,35,31,55,031,35,30,53,149,38,20,41,308,22*7C
$GPGSV,3,2,12,16,29,171,30,14,25,083,24,01,22,251,22,23,16,295,33*73
$GPGSV,3,3,12,25,10,038,29,22,09,145,32,11,08,233,,48,36,230,38*7D
$GPRMC,205548.000,A,3351.1463,N,09829.0848,W,0.24,51.60,290312,,,D*42
$GPGGA,205549.000,3351.1464,N,09829.0848,W,2,09,0.9,303.5,M,-23.7,M,2.8,0000*45
$GPGSA,A,3,20,14,31,01,16,23,30,25,32,,,,1.6,0.9,1.4*3E
$GPRMC,205549.000,A,3351.1464,N,09829.0848,W,0.28,42.33,290312,,,D*4C
$GPGGA,205550.000,3351.1464,N,09829.0848,W,2,09,0.9,303.5,M,-23.7,M,3.8,0000*4C
$GPGSA,A,3,20,14,31,01,16,23,30,25,32,,,,1.6,0.9,1.4*3E
$GPRMC,205550.000,A,3351.1464,N,09829.0848,W,0.15,63.98,290312,,,D*48
$GPGGA,205551.000,3351.1464,N,09829.0848,W,2,09,0.9,303.6,M,-23.7,M,0.8,0000*4D
$GPGSA,A,3,20,14,31,01,16,23,30,25,32,,,,1.6,0.9,1.4*3E
$GPRMC,205551.000,A,3351.1464,N,09829.0848,W,0.13,314.06,290312,,,D*7B
$GPGGA,205552.000,3351.1465,N,09829.0848,W,2,09,0.9,303.6,M,-23.7,M,0.8,0000*4F
$GPGSA,A,3,20,14,31,01,16,23,30,25,32,,,,1.6,0.9,1.4*3E
$GPRMC,205552.000,A,3351.1465,N,09829.0848,W,0.08,313.58,290312,,,D*7F
$GPGGA,205553.000,3351.1465,N,09829.0849,W,2,09,0.9,303.6,M,-23.7,M,0.8,0000*4F
$GPGSA,A,3,20,14,31,01,16,23,30,25,32,,,,1.6,0.9,1.4*3E
$GPGSV,3,1,12,32,70,297,35,31,55,031,35,30,53,149,38,20,41,308,22*7C
$GPGSV,3,2,12,16,29,171,31,14,25,083,23,01,22,251,23,23,16,295,33*74
$GPGSV,3,3,12,25,10,038,28,22,09,145,32,11,08,233,,48,36,230,38*7C
$GPRMC,205553.000,A,3351.1465,N,09829.0849,W,0.28,267.27,290312,,,D*77
$GPGGA,205554.000,3351.1464,N,09829.0850,W,2,09,0.9,303.5,M,-23.7,M,0.8,0000*42
$GPGSA,A,3,20,14,31,01,16,23,30,25,32,,,,1.6,0.9,1.4*3E
$GPRMC,205554.000,A,3351.1464,N,09829.0850,W,0.08,281.56,290312,,,D*75
$GPGGA,205555.000,3351.1464,N,09829.0850,W,2,09,0.9,303.5,M,-23.7,M,1.8,0000*42
$GPGSA,A,3,20,14,31,01,16,23,30,25,32,,,,1.6,0.9,1.4*3E
$GPRMC,205555.000,A,3351.1464,N,09829.0850,W,0.08,128.70,290312,,,D*70
$GPGGA,205556.000,3351.1464,N,09829.0850,W,2,09,0.9,303.4,M,-23.7,M,0.8,0000*41
$GPGSA,A,3,20,14,31,01,16,23,30,25,32,,,,1.6,0.9,1.4*3E
$GPRMC,205556.000,A,3351.1464,N,09829.0850,W,0.15,99.64,290312,,,D*41
$GPGGA,205557.000,3351.1464,N,09829.0850,W,2,09,0.9,303.4,M,-23.7,M,0.8,0000*40
$GPGSA,A,3,20,14,31,01,16,23,30,25,32,,,,1.6,0.9,1.4*3E
$GPRMC,205557.000,A,3351.1464,N,09829.0850,W,0.08,47.57,290312,,,D*4F
$GPGGA,205558.000,3351.1464,N,09829.0851,W,2,09,0.9,303.4,M,-23.7,M,0.8,0000*4E
$GPGSA,A,3,20,14,31,01,16,23,30,25,32,,,,1.6,0.9,1.4*3E
$GPGSV,3,1,12,32,70,297,35,31,55,031,36,30,53,149,38,20,41,308,22*7F
$GPGSV,3,2,12,16,29,171,31,14,25,083,23,01,22,251,28,23,16,295,33*7F
$GPGSV,3,3,12,25,10,038,22,22,09,145,32,11,08,233,,48,36,230,37*79
$GPRMC,205558.000,A,3351.1464,N,09829.0851,W,0.11,222.86,290312,,,D*74
$GPGGA,205559.000,3351.1464,N,09829.0851,W,2,09,0.9,303.6,M,-23.7,M,0.8,0000*4D
$GPGSA,A,3,20,14,31,01,16,23,30,25,32,,,,1.6,0.9,1.4*3E
$GPRMC,205559.000,A,3351.1464,N,09829.0851,W,0.21,233.40,290312,,,D*7C
$GPGGA,205600.000,3351.1463,N,09829.0852,W,2,09,0.9,303.8,M,-23.7,M,1.8,0000*49
$GPGSA,A,3,20,14,31,01,16,23,30,25,32,,,,1.6,0.9,1.4*3E
$GPRMC,205600.000,A,3351.1463,N,09829.0852,W,0.28,241.20,290312,,,D*7D
$GPGGA,205601.000,3351.1463,N,09829.0853,W,2,09,0.9,303.8,M,-23.7,M,2.8,0000*4A
$GPGSA,A,3,20,14,31,01,16,23,30,25,32,,,,1.6,0.9,1.4*3E
$GPRMC,205601.000,A,3351.1463,N,09829.0853,W,0.15,8.57,290312,,,D*7C
$GPGGA,205602.000,3351.1464,N,09829.0853,W,2,09,0.9,303.8,M,-23.7,M,3.8,0000*4F
$GPGSA,A,3,20,14,31,01,16,23,30,25,32,,,,1.6,0.9,1.4*3E
$GPRMC,205602.000,A,3351.1464,N,09829.0853,W,0.08,107.35,290312,,,D*7E
$GPGGA,205603.000,3351.1463,N,09829.0853,W,2,09,0.9,303.9,M,-23.7,M,0.8,0000*4B
$GPGSA,A,3,20,14,31,01,16,23,30,25,32,,,,1.6,0.9,1.4*3E
$GPGSV,3,1,12,32,70,297,34,31,55,031,36,30,53,149,38,20,41,308,17*78
$GPGSV,3,2,12,16,29,171,31,14,25,083,23,01,22,251,31,23,16,295,33*77
$GPGSV,3,3,12,25,10,038,21,22,09,145,32,11,08,233,,48,36,230,36*7B
$GPRMC,205603.000,A,3351.1463,N,09829.0853,W,0.15,222.14,290312,,,D*73
$GPGGA,205604.000,3351.1463,N,09829.0853,W,2,09,0.9,304.0,M,-23.7,M,0.8,0000*42
$GPGSA,A,3,20,14,31,01,16,23,30,25,32,,,,1.6,0.9,1.4*3E
$GPRMC,205604.000,A,3351.1463,N,09829.0853,W,0.22,218.60,290312,,,D*7A
$GPGGA,205605.000,3351.1463,N,09829.0854,W,2,09,0.9,304.1,M,-23.7,M,0.8,0000*45
$GPGSA,A,3,20,14,31,01,16,23,30,25,32,,,,1.6,0.9,1.4*3E
$GPRMC,205605.000,A,3351.1463,N,09829.0854,W,0.20,265.41,290312,,,D*77
$GPGGA,205606.000,3351.1463,N,09829.0855,W,2,09,0.9,304.3,M,-23.7,M,1.8,0000*44
$GPGSA,A,3,20,14,31,01,16,23,30,25,32,,,,1.6,0.9,1.4*3E
$GPRMC,205606.000,A,3351.1463,N,09829.0855,W,0.29,250.63,290312,,,D*7A
$GPGGA,205607.000,3351.1463,N,09829.0855,W,2,09,0.9,304.4,M,-23.7,M,2.8,0000*41
$GPGSA,A,3,20,14,31,01,16,23,30,25,32,,,,1.6,0.9,1.4*3E
$GPRMC,205607.000,A,3351.1463,N,09829.0855,W,0.17,17.40,290312,,,D*46
$GPGGA,205608.000,3351.1463,N,09829.0855,W,2,09,0.9,304.3,M,-23.7,M,3.8,0000*48
$GPGSA,A,3,20,14,31,01,16,23,30,25,32,,,,1.6,0.9,1.4*3E
$GPGSV,3,1,12,32,70,297,35,31,55,031,37,30,53,149,37,20,41,308,21*72
$GPGSV,3,2,12,16,29,171,31,14,25,083,19,01,22,251,24,23,16,295,33*7A
$GPGSV,3,3,12,25,10,038,22,22,09,145,32,11,08,233,,48,36,230,36*78
$GPRMC,205608.000,A,3351.1463,N,09829.0855,W,0.10,30.43,290312,,,D*48
$GPGGA,205609.000,3351.1463,N,09829.0855,W,2,09,0.9,304.4,M,-23.7,M,0.8,0000*4D
$GPGSA,A,3,20,14,31,01,16,23,30,25,32,,,,1.6,0.9,1.4*3E
$GPRMC,205609.000,A,3351.1463,N,09829.0855,W,0.06,27.54,290312,,,D*4E
$GPGGA,205610.000,3351.1463,N,09829.0854,W,2,08,0.9,304.3,M,-23.7,M,0.8,0000*42
$GPGSA,A,3,14,31,01,16,23,30,25,32,,,,,1.7,0.9,1.4*3D
$GPRMC,205610.000,A,3351.1463,N,09829.0854,W,0.38,92.27,290312,,,D*40
$GPGGA,205611.000,3351.1463,N,09829.0854,W,2,09,0.9,304.2,M,-23.7,M,0.8,0000*43
$GPGSA,A,3,20,14,31,01,16,23,30,25,32,,,,1.6,0.9,1.4*3E
$GPRMC,205611.000,A,3351.1463,N,09829.0854,W,0.10,130.92,290312,,,D*7C
$GPGGA,205612.000,3351.1463,N,09829.0856,W,2,09,0.9,304.8,M,-23.7,M,1.8,0000*49
$GPGSA,A,3,20,14,31,01,16,23,30,25,32,,,,1.6,0.9,1.4*3E
$GPRMC,205612.000,A,3351.1463,N,09829.0856,W,0.64,225.11,290312,,,D*72
$GPGGA,205613.000,3351.1462,N,09829.0857,W,2,09,0.9,305.0,M,-23.7,M,0.8,0000*40
$GPGSA,A,3,20,14,31,01,16,23,30,25,32,,,,1.6,0.9,1.4*3E
$GPGSV,3,1,12,32,70,297,34,31,55,031,27,30,53,149,33,20,41,308,25*72
$GPGSV,3,2,12,16,29,171,27,14,25,083,24,01,22,251,24,23,16,295,34*74
$GPGSV,3,3,12,25,10,038,26,22,09,145,32,11,08,233,,48,36,230,34*7E
$GPRMC,205613.000,A,3351.1462,N,09829.0857,W,0.57,201.39,290312,,,D*7F
$GPGGA,205614.000,3351.1462,N,09829.0857,W,2,09,0.9,305.4,M,-23.7,M,0.8,0000*43
$GPGSA,A,3,20,14,31,01,16,23,30,25,32,,,,1.6,0.9,1.4*3E
$GPRMC,205614.000,A,3351.1462,N,09829.0857,W,0.26,32.51,290312,,,D*42
$GPGGA,205615.000,3351.1463,N,09829.0858,W,2,09,0.9,305.0,M,-23.7,M,0.8,0000*48
$GPGSA,A,3,20,14,31,01,16,23,30,25,32,,,,1.6,0.9,1.4*3E
$GPRMC,205615.000,A,3351.1463,N,09829.0858,W,0.20,327.89,290312,,,D*79
$GPGGA,205616.000,3351.1463,N,09829.0858,W,2,09,0.9,305.0,M,-23.7,M,0.8,0000*4B
$GPGSA,A,3,20,14,31,01,16,23,30,25,32,,,,1.6,0.9,1.4*3E
$GPRMC,205616.000,A,3351.1463,N,09829.0858,W,0.19,42.87,290312,,,D*4E
$GPGGA,205617.000,3351.1467,N,09829.0857,W,2,09,0.9,305.2,M,-23.7,M,0.8,0000*43
$GPGSA,A,3,20,14,31,01,16,23,30,25,32,,,,1.6,0.9,1.4*3E
$GPRMC,205617.000,A,3351.1467,N,09829.0857,W,0.30,19.81,290312,,,D*47
$GPGGA,205618.000,3351.1470,N,09829.0856,W,2,09,0.9,305.3,M,-23.7,M,1.8,0000*4B
$GPGSA,A,3,20,14,31,01,16,23,30,25,32,,,,1.6,0.9,1.4*3E
$GPGSV,3,1,12,32,70,297,18,31,55,031,28,30,53,149,33,20,41,308,15*70
$GPGSV,3,2,12,16,29,171,30,14,25,083,32,01,22,251,28,23,16,295,30*7D
$GPGSV,3,3,12,25,10,038,20,22,09,145,15,11,08,233,,48,36,230,33*7A
$GPRMC,205618.000,A,3351.1470,N,09829.0856,W,0.29,6.31,290312,,,D*72
$GPGGA,205619.000,3351.1472,N,09829.0857,W,2,09,0.9,305.5,M,-23.7,M,0.8,0000*4E
$GPGSA,A,3,20,14,31,01,16,23,30,25,32,,,,1.6,0.9,1.4*3E
$GPRMC,205619.000,A,3351.1472,N,09829.0857,W,0.20,349.09,290312,,,D*7A
$GPGGA,205620.000,3351.1473,N,09829.0856,W,2,09,0.9,305.1,M,-23.7,M,1.8,0000*41
$GPGSA,A,3,20,14,31,01,16,23,30,25,32,,,,1.6,0.9,1.4*3E
$GPRMC,205620.000,A,3351.1473,N,09829.0856,W,0.20,15.87,290312,,,D*4C
$GPGGA,205621.000,3351.1472,N,09829.0856,W,2,09,0.9,304.3,M,-23.7,M,0.8,0000*43
$GPGSA,A,3,20,14,31,01,16,23,30,25,32,,,,1.6,0.9,1.4*3E
$GPRMC,205621.000,A,3351.1472,N,09829.0856,W,0.04,116.64,290312,,,D*75
$GPGGA,205622.000,3351.1471,N,09829.0855,W,2,09,0.9,303.9,M,-23.7,M,0.8,0000*4D
$GPGSA,A,3,20,14,31,01,16,23,30,25,32,,,,1.6,0.9,1.4*3E
$GPRMC,205622.000,A,3351.1471,N,09829.0855,W,0.13,127.61,290312,,,D*77
$GPGGA,205623.000,3351.1472,N,09829.0854,W,2,09,0.9,303.5,M,-23.7,M,0.8,0000*42
$GPGSA,A,3,20,14,31,01,16,23,30,25,32,,,,1.6,0.9,1.4*3E
$GPGSV,3,1,12,32,70,296,20,31,55,032,29,30,53,149,25,20,42,307,20*75
$GPGSV,3,2,12,16,30,171,22,14,25,084,32,01,22,250,29,23,16,295,30*71
$GPGSV,3,3,12,25,10,038,25,11,08,233,,22,08,146,25,48,36,230,31*7C
$GPRMC,205623.000,A,3351.1472,N,09829.0854,W,0.46,158.26,290312,,,D*7F
$GPGGA,205624.000,3351.1472,N,09829.0853,W,2,09,0.9,303.2,M,-23.7,M,1.8,0000*44
$GPGSA,A,3,20,14,31,01,16,23,30,25,32,,,,1.6,0.9,1.4*3E
$GPRMC,205624.000,A,3351.1472,N,09829.0853,W,0.23,126.61,290312,,,D*76
$GPGGA,205625.000,3351.1472,N,09829.0852,W,2,09,0.9,303.2,M,-23.7,M,0.8,0000*45
$GPGSA,A,3,20,14,31,01,16,23,30,25,32,,,,1.6,0.9,1.4*3E
$GPRMC,205625.000,A,3351.1472,N,09829.0852,W,0.04,151.70,290312,,,D*73
$GPGGA,205626.000,3351.1472,N,09829.0852,W,2,09,0.9,303.3,M,-23.7,M,0.8,0000*47
$GPGSA,A,3,20,14,31,01,16,23,30,25,32,,,,1.6,0.9,1.4*3E
$GPRMC,205626.000,A,3351.1472,N,09829.0852,W,0.26,357.14,290312,,,D*76
$GPGGA,205627.000,3351.1472,N,09829.0851,W,2,09,0.9,303.3,M,-23.7,M,0.8,0000*45
$GPGSA,A,3,20,14,31,01,16,23,30,25,32,,,,1.6,0.9,1.4*3E
$GPRMC,205627.000,A,3351.1472,N,09829.0851,W,0.11,181.66,290312,,,D*7C
$GPGGA,205628.000,3351.1472,N,09829.0851,W,2,09,0.9,303.4,M,-23.7,M,0.8,0000*4D
$GPGSA,A,3,20,14,31,01,16,23,30,25,32,,,,1.6,0.9,1.4*3E
$GPGSV,3,1,12,32,70,296,21,31,55,032,29,30,53,149,27,20,42,307,20*76
$GPGSV,3,2,12,16,30,171,22,14,25,084,32,01,22,250,30,23,16,295,30*79
$GPGSV,3,3,12,25,10,038,25,11,08,233,,22,08,146,28,48,36,230,34*74
$GPRMC,205628.000,A,3351.1472,N,09829.0851,W,0.04,227.26,290312,,,D*7C
$GPGGA,205629.000,3351.1471,N,09829.0850,W,2,09,0.9,303.4,M,-23.7,M,0.8,0000*4E
$GPGSA,A,3,20,14,31,01,16,23,30,25,32,,,,1.6,0.9,1.4*3E
$GPRMC,205629.000,A,3351.1471,N,09829.0850,W,0.16,152.78,290312,,,D*76
$GPGGA,205630.000,3351.1469,N,09829.0850,W,2,09,0.9,302.9,M,-23.7,M,1.8,0000*42
$GPGSA,A,3,20,14,31,01,16,23,30,25,32,,,,1.6,0.9,1.4*3E
$GPRMC,205630.000,A,3351.1469,N,09829.0850,W,0.12,13.14,290312,,,D*4D
$GPGGA,205631.000,3351.1468,N,09829.0849,W,2,09,0.9,303.1,M,-23.7,M,2.8,0000*40
$GPGSA,A,3,20,14,31,01,16,23,30,25,32,,,,1.6,0.9,1.4*3E
$GPRMC,205631.000,A,3351.1468,N,09829.0849,W,0.20,52.34,290312,,,D*43
$GPGGA,205632.000,3351.1466,N,09829.0848,W,2,09,0.9,303.1,M,-23.7,M,3.8,0000*4D
$GPGSA,A,3,20,14,31,01,16,23,30,25,32,,,,1.6,0.9,1.4*3E
$GPRMC,205632.000,A,3351.1466,N,09829.0848,W,0.29,337.25,290312,,,D*76
$GPGGA,205633.000,3351.1470,N,09829.0850,W,2,09,0.9,303.4,M,-23.7,M,4.8,0000*40
$GPGSA,A,3,20,14,31,01,16,23,30,25,32,,,,1.6,0.9,1.4*3E
$GPGSV,3,1,12,32,70,296,25,31,55,032,26,30,53,149,31,20,42,307,25*7F
$GPGSV,3,2,12,16,30,171,24,14,25,084,32,01,22,250,31,23,16,295,26*79
$GPGSV,3,3,12,25,10,038,24,11,08,233,,22,08,146,28,48,36,230,27*77
$GPRMC,205633.000,A,3351.1470,N,09829.0850,W,1.12,314.10,290312,,,D*77
$GPGGA,205634.000,3351.1473,N,09829.0853,W,2,09,0.9,302.8,M,-23.7,M,5.8,0000*4B
$GPGSA,A,3,20,14,31,01,16,23,30,25,32,,,,1.6,0.9,1.4*3E
$GPRMC,205634.000,A,3351.1473,N,09829.0853,W,2.32,320.62,290312,,,D*73
$GPGGA,205635.000,3351.1479,N,09829.0860,W,2,09,0.9,303.0,M,-23.7,M,0.8,0000*4C
$GPGSA,A,3,20,14,31,01,16,23,30,25,32,,,,1.6,0.9,1.4*3E
$GPRMC,205635.000,A,3351.1479,N,09829.0860,W,3.32,313.16,290312,,,D*7A
$GPGGA,205636.000,3351.1485,N,09829.0869,W,2,09,0.9,303.1,M,-23.7,M,1.8,0000*45
$GPGSA,A,3,20,14,31,01,16,23,30,25,32,,,,1.6,0.9,1.4*3E
$GPRMC,205636.000,A,3351.1485,N,09829.0869,W,3.44,299.54,290312,,,D*77
$GPGGA,205637.000,3351.1489,N,09829.0879,W,2,08,1.0,303.0,M,-23.7,M,2.8,0000*42
$GPGSA,A,3,20,14,31,01,16,23,30,32,,,,,1.9,1.0,1.7*3D
$GPRMC,205637.000,A,3351.1489,N,09829.0879,W,2.96,286.91,290312,,,D*72
$GPGGA,205638.000,3351.1490,N,09829.0885,W,2,08,1.0,302.9,M,-23.7,M,3.8,0000*4F
$GPGSA,A,3,20,14,31,01,16,23,30,32,,,,,1.9,1.0,1.7*3D
$GPGSV,3,1,12,32,70,296,17,31,55,032,32,30,53,149,32,20,42,307,34*78
$GPGSV,3,2,12,16,30,171,33,14,25,084,32,01,22,250,31,23,16,295,30*78
$GPGSV,3,3,12,25,10,038,,11,08,233,27,22,08,146,28,48,36,230,29*7A
$GPRMC,205638.000,A,3351.1490,N,09829.0885,W,1.49,269.91,290312,,,D*76
$GPGGA,205639.000,3351.1491,N,09829.0888,W,2,07,1.1,302.8,M,-23.7,M,0.8,0000*4E
$GPGSA,A,3,20,14,31,16,23,30,32,,,,,,2.0,1.1,1.7*37
$GPRMC,205639.000,A,3351.1491,N,09829.0888,W,0.19,3.64,290312,,,D*7B
$GPGGA,205640.000,3351.1493,N,09829.0884,W,2,08,1.0,302.9,M,-23.7,M,1.8,0000*40
$GPGSA,A,3,20,14,31,01,16,23,30,32,,,,,1.9,1.0,1.7*3D
$GPRMC,205640.000,A,3351.1493,N,09829.0884,W,2.33,62.16,290312,,,D*43
$GPGGA,205641.000,3351.1499,N,09829.0871,W,2,08,1.0,302.8,M,-23.7,M,2.8,0000*43
$GPGSA,A,3,20,14,31,01,16,23,30,32,,,,,1.9,1.0,1.7*3D
$GPRMC,205641.000,A,3351.1499,N,09829.0871,W,5.55,56.27,290312,,,D*40
$GPGGA,205642.000,3351.1511,N,09829.0854,W,2,08,1.0,303.3,M,-23.7,M,3.8,0000*4D
$GPGSA,A,3,20,14,31,01,16,23,30,32,,,,,1.9,1.0,1.7*3D
$GPRMC,205642.000,A,3351.1511,N,09829.0854,W,7.40,50.46,290312,,,D*42
$GPGGA,205643.000,3351.1526,N,09829.0836,W,2,08,1.0,303.6,M,-23.7,M,4.8,0000*4E
$GPGSA,A,3,20,14,31,01,16,23,30,32,,,,,1.9,1.0,1.7*3D
$GPGSV,3,1,12,32,70,296,31,31,55,032,38,30,53,149,33,20,42,307,32*71
$GPGSV,3,2,12,16,30,171,28,14,25,084,25,01,22,250,24,23,16,295,34*74
$GPGSV,3,3,12,25,10,038,,11,08,233,27,22,08,146,30,48,36,230,29*73
$GPRMC,205643.000,A,3351.1526,N,09829.0836,W,8.11,42.08,290312,,,D*41
$GPGGA,205644.000,3351.1545,N,09829.0822,W,2,08,1.0,304.1,M,-23.7,M,5.8,0000*48
$GPGSA,A,3,20,14,31,01,16,23,30,32,,,,,1.9,1.0,1.7*3D
$GPRMC,205644.000,A,3351.1545,N,09829.0822,W,8.68,23.08,290312,,,D*4F
$GPGGA,205645.000,3351.1570,N,09829.0817,W,2,08,1.0,304.2,M,-23.7,M,6.8,0000*49
$GPGSA,A,3,20,14,31,01,16,23,30,32,,,,,1.9,1.0,1.7*3D
$GPRMC,205645.000,A,3351.1570,N,09829.0817,W,9.38,0.91,290312,,,D*7B
$GPGGA,205646.000,3351.1595,N,09829.0824,W,2,08,1.0,304.1,M,-23.7,M,7.8,0000*43
$GPGSA,A,3,20,14,31,01,16,23,30,32,,,,,1.9,1.0,1.7*3D
$GPRMC,205646.000,A,3351.1595,N,09829.0824,W,9.28,340.03,290312,,,D*7E
$GPGGA,205647.000,3351.1616,N,09829.0839,W,2,08,1.0,303.8,M,-23.7,M,8.8,0000*47
$GPGSA,A,3,20,14,31,01,16,23,30,32,,,,,1.9,1.0,1.7*3D
$GPRMC,205647.000,A,3351.1616,N,09829.0839,W,8.13,329.05,290312,,,D*7B
$GPGGA,205648.000,3351.1636,N,09829.0852,W,2,08,1.0,303.7,M,-23.7,M,9.8,0000*49
$GPGSA,A,3,20,14,31,01,16,23,30,32,,,,,1.9,1.0,1.7*3D
$GPGSV,3,1,11,32,70,296,33,31,55,032,36,30,53,149,31,20,42,307,36*78
$GPGSV,3,2,11,16,30,171,30,14,25,084,36,01,22,250,32,23,16,295,37*78
$GPGSV,3,3,11,25,10,038,,11,08,233,27,22,08,146,25*47
$GPRMC,205648.000,A,3351.1636,N,09829.0852,W,8.15,336.40,290312,,,D*72
$GPGGA,205649.000,3351.1661,N,09829.0860,W,2,09,0.9,303.4,M,-23.7,M,10.8,0000*79
$GPGSA,A,3,20,14,31,01,25,16,23,30,32,,,,1.6,0.9,1.4*3E
$GPRMC,205649.000,A,3351.1661,N,09829.0860,W,8.98,352.39,290312,,,D*79
$GPGGA,205650.000,3351.1690,N,09829.0854,W,2,09,0.9,303.4,M,-23.7,M,11.8,0000*79
$GPGSA,A,3,20,14,31,01,25,16,23,30,32,,,,1.6,0.9,1.4*3E
$GPRMC,205650.000,A,3351.1690,N,09829.0854,W,10.67,20.61,290312,,,D*7A
$GPGGA,205651.000,3351.1718,N,09829.0835,W,2,08,1.0,303.7,M,-23.7,M,12.8,0000*77
$GPGSA,A,3,20,14,31,01,16,23,30,32,,,,,1.9,1.0,1.7*3D
$GPRMC,205651.000,A,3351.1718,N,09829.0835,W,12.36,35.06,290312,,,D*7E
$GPGGA,205652.000,3351.1751,N,09829.0803,W,2,08,1.1,303.1,M,-23.7,M,13.8,0000*7A
$GPGSA,A,3,20,14,31,01,25,23,30,32,,,,,1.8,1.1,1.4*3E
$GPRMC,205652.000,A,3351.1751,N,09829.0803,W,15.32,39.74,290312,,,D*7F
$GPGGA,205653.000,3351.1786,N,09829.0767,W,2,08,1.1,302.8,M,-23.7,M,14.8,0000*73
$GPGSA,A,3,20,14,31,01,25,23,30,32,,,,,1.8,1.1,1.4*3E
$GPGSV,3,1,11,32,70,296,33,31,55,032,30,30,53,149,32,20,42,307,37*7C
$GPGSV,3,2,11,16,30,171,,14,25,084,30,01,22,250,30,23,16,295,35*7D
$GPGSV,3,3,11,25,10,038,21,11,08,233,22,22,08,146,30*45
$GPRMC,205653.000,A,3351.1786,N,09829.0767,W,16.89,39.46,290312,,,D*7B
$GPGGA,205654.000,3351.1826,N,09829.0729,W,2,09,0.9,302.5,M,-23.7,M,15.8,0000*7F
$GPGSA,A,3,20,14,31,01,25,16,23,30,32,,,,1.6,0.9,1.4*3E
$GPRMC,205654.000,A,3351.1826,N,09829.0729,W,18.36,38.05,290312,,,D*7F
$GPGGA,205655.000,3351.1871,N,09829.0692,W,2,09,0.9,302.8,M,-23.7,M,16.8,0000*73
$GPGSA,A,3,20,14,31,01,25,16,23,30,32,,,,1.6,0.9,1.4*3E
$GPRMC,205655.000,A,3351.1871,N,09829.0692,W,19.66,33.07,290312,,,D*70
$GPGGA,205656.000,3351.1918,N,09829.0656,W,2,09,0.9,302.5,M,-23.7,M,17.8,0000*7A
$GPGSA,A,3,20,14,31,01,25,16,23,30,32,,,,1.6,0.9,1.4*3E
$GPRMC,205656.000,A,3351.1918,N,09829.0656,W,20.56,30.11,290312,,,D*78
$GPGGA,205657.000,3351.1970,N,09829.0621,W,1,09,0.9,302.3,M,-23.7,M,18.8,0000*7F
$GPGSA,A,3,20,14,31,01,25,16,23,30,32,,,,1.6,0.9,1.4*3E
$GPRMC,205657.000,A,3351.1970,N,09829.0621,W,21.11,28.38,290312,,,A*72
$GPGGA,205658.000,3351.2024,N,09829.0588,W,1,09,0.9,302.3,M,-23.7,M,18.8,0000*7B
$GPGSA,A,3,20,14,31,01,25,16,23,30,32,,,,1.6,0.9,1.4*3E
$GPGSV,3,1,11,32,70,296,33,31,55,032,38,30,53,149,36,20,42,307,43*73
$GPGSV,3,2,11,16,30,171,,14,25,084,27,01,22,250,31,23,16,295,32*7D
$GPGSV,3,3,11,25,10,038,28,11,08,233,25,22,08,146,21*4B
$GPRMC,205658.000,A,3351.2024,N,09829.0588,W,21.75,27.02,290312,,,A*72
$GPGGA,205659.000,3351.2081,N,09829.0558,W,1,09,0.9,302.2,M,-23.7,M,18.8,0000*79
$GPGSA,A,3,20,14,31,01,25,16,23,30,32,,,,1.6,0.9,1.4*3E
$GPRMC,205659.000,A,3351.2081,N,09829.0558,W,22.42,23.93,290312,,,A*7A
$GPGGA,205700.000,3351.2142,N,09829.0531,W,1,09,0.9,302.2,M,-23.7,M,18.8,0000*75
$GPGSA,A,3,20,14,31,01,25,16,23,30,32,,,,1.6,0.9,1.4*3E
$GPRMC,205700.000,A,3351.2142,N,09829.0531,W,23.20,20.04,290312,,,A*7E
$GPGGA,205701.000,3351.2206,N,09829.0508,W,1,09,0.9,302.3,M,-23.7,M,18.8,0000*7C
$GPGSA,A,3,20,14,31,01,25,16,23,30,32,,,,1.6,0.9,1.4*3E
$GPRMC,205701.000,A,3351.2206,N,09829.0508,W,23.93,16.49,290312,,,A*72
$GPGGA,205702.000,3351.2274,N,09829.0488,W,1,09,0.9,302.2,M,-23.7,M,18.8,0000*72
$GPGSA,A,3,20,14,31,01,25,16,23,30,32,,,,1.6,0.9,1.4*3E
$GPRMC,205702.000,A,3351.2274,N,09829.0488,W,25.12,13.61,290312,,,A*7D
$GPGGA,205703.000,3351.2345,N,09829.0472,W,1,09,0.9,302.2,M,-23.7,M,18.8,0000*75
$GPGSA,A,3,20,14,31,01,25,16,23,30,32,,,,1.6,0.9,1.4*3E
$GPGSV,3,1,11,32,70,296,30,31,55,032,31,30,53,149,33,20,42,307,42*7D
$GPGSV,3,2,11,16,30,171,,14,25,084,32,01,22,250,30,23,16,295,29*72
$GPGSV,3,3,11,25,10,038,27,11,08,233,33,22,08,146,37*44
$GPRMC,205703.000,A,3351.2345,N,09829.0472,W,25.89,10.11,290312,,,A*7C
$GPGGA,205704.000,3351.2420,N,09829.0463,W,1,09,0.9,302.2,M,-23.7,M,18.8,0000*76
$GPGSA,A,3,20,14,31,01,25,16,23,30,32,,,,1.6,0.9,1.4*3E
$GPRMC,205704.000,A,3351.2420,N,09829.0463,W,27.00,5.64,290312,,,A*4A
$GPGGA,205705.000,3351.2497,N,09829.0459,W,1,09,0.9,302.2,M,-23.7,M,18.8,0000*72
$GPGSA,A,3,20,14,31,01,25,16,23,30,32,,,,1.6,0.9,1.4*3E
$GPRMC,205705.000,A,3351.2497,N,09829.0459,W,27.58,1.74,290312,,,A*46
$GPGGA,205706.000,3351.2577,N,09829.0461,W,1,09,0.9,302.2,M,-23.7,M,18.8,0000*75
$GPGSA,A,3,20,14,31,01,25,16,23,30,32,,,,1.6,0.9,1.4*3E
$GPRMC,205706.000,A,3351.2577,N,09829.0461,W,28.44,358.80,290312,,,A*47
$GPGGA,205707.000,3351.2659,N,09829.0468,W,1,09,0.9,302.1,M,-23.7,M,18.8,0000*71
$GPGSA,A,3,20,14,31,01,25,16,23,30,32,,,,1.6,0.9,1.4*3E
$GPRMC,205707.000,A,3351.2659,N,09829.0468,W,29.67,355.41,290312,,,A*40
$GPGGA,205708.000,3351.2745,N,09829.0481,W,1,09,0.9,301.8,M,-23.7,M,18.8,0000*7F
$GPGSA,A,3,20,14,31,01,25,16,23,30,32,,,,1.6,0.9,1.4*3E
$GPGSV,3,1,11,32,70,296,30,31,55,032,33,30,53,149,28,20,42,307,36*76
$GPGSV,3,2,11,16,30,171,,14,25,084,32,01,22,250,30,23,16,295,26*7D
$GPGSV,3,3,11,25,10,038,26,11,08,233,25,22,08,146,24*40
$GPRMC,205708.000,A,3351.2745,N,09829.0481,W,30.92,352.58,290312,,,A*49
$GPGGA,205709.000,3351.2833,N,09829.0497,W,1,09,0.9,301.6,M,-23.7,M,18.8,0000*79
$GPGSA,A,3,20,14,31,01,25,16,23,30,32,,,,1.6,0.9,1.4*3E
$GPRMC,205709.000,A,3351.2833,N,09829.0497,W,32.12,351.13,290312,,,A*47
$GPGGA,205710.000,3351.2923,N,09829.0518,W,1,09,0.9,301.2,M,-23.7,M,18.8,0000*73
$GPGSA,A,3,20,14,31,01,25,16,23,30,32,,,,1.6,0.9,1.4*3E
$GPRMC,205710.000,A,3351.2923,N,09829.0518,W,32.77,348.60,290312,,,A*46
$GPGGA,205711.000,3351.3012,N,09829.0543,W,1,09,0.9,300.8,M,-23.7,M,18.8,0000*7D
$GPGSA,A,3,20,14,31,01,25,16,23,30,32,,,,1.6,0.9,1.4*3E
$GPRMC,205711.000,A,3351.3012,N,09829.0543,W,32.66,346.69,290312,,,A*44
$GPGGA,205712.000,3351.3103,N,09829.0576,W,1,08,0.9,300.4,M,-23.7,M,18.8,0000*74
$GPGSA,A,3,20,14,01,25,16,23,30,32,,,,,1.8,0.9,1.5*33
$GPRMC,205712.000,A,3351.3103,N,09829.0576,W,33.72,342.61,290312,,,A*48
$GPGGA,205713.000,3351.3194,N,09829.0617,W,1,09,0.9,300.1,M,-23.7,M,18.8,0000*7B
$GPGSA,A,3,20,14,31,01,25,16,23,30,32,,,,1.6,0.9,1.4*3E
$GPGSV,3,1,11,32,70,296,33,31,55,032,,30,53,149,30,20,42,307,34*7E
$GPGSV,3,2,11,16,30,171,32,14,25,084,37,01,22,250,33,23,16,295,37*7A
$GPGSV,3,3,11,25,10,038,30,11,08,233,24,22,08,146,25*47
$GPRMC,205713.000,A,3351.3194,N,09829.0617,W,34.59,338.74,290312,,,A*44
$GPGGA,205714.000,3351.3284,N,09829.0666,W,1,09,0.9,299.9,M,-23.7,M,18.8,0000*71
$GPGSA,A,3,20,14,31,01,25,16,23,30,32,,,,1.6,0.9,1.4*3E
$GPRMC,205714.000,A,3351.3284,N,09829.0666,W,35.32,335.47,290312,,,A*46
$GPGGA,205715.000,3351.3376,N,09829.0716,W,1,09,0.9,299.7,M,-23.7,M,18.8,0000*74
$GPGSA,A,3,20,14,31,01,25,16,23,30,32,,,,1.6,0.9,1.4*3E
$GPRMC,205715.000,A,3351.3376,N,09829.0716,W,36.08,334.84,290312,,,A*49
$GPGGA,205716.000,3351.3471,N,09829.0764,W,1,08,0.9,299.5,M,-23.7,M,18.8,0000*71
$GPGSA,A,3,20,14,31,01,25,16,23,30,,,,,1.9,0.9,1.7*33
$GPRMC,205716.000,A,3351.3471,N,09829.0764,W,36.77,336.87,290312,,,A*46
$GPGGA,205717.000,3351.3570,N,09829.0807,W,1,09,0.9,299.4,M,-23.7,M,18.8,0000*7A
$GPGSA,A,3,20,14,31,01,25,16,23,30,32,,,,1.6,0.9,1.4*3E
$GPRMC,205717.000,A,3351.3570,N,09829.0807,W,37.52,339.85,290312,,,A*46
$GPGGA,205718.000,3351.3672,N,09829.0846,W,1,09,0.9,299.3,M,-23.7,M,18.8,0000*76
$GPGSA,A,3,20,14,31,01,25,16,23,30,32,,,,1.6,0.9,1.4*3E
$GPGSV,3,1,11,32,70,296,28,31,55,032,,30,53,149,32,20,42,307,32*70
$GPGSV,3,2,11,16,30,171,31,14,25,084,32,01,22,250,33,23,16,295,34*7F
$GPGSV,3,3,11,25,10,038,31,11,08,233,22,22,08,146,25*40
$GPRMC,205718.000,A,3351.3672,N,09829.0846,W,38.35,342.34,290312,,,A*45
$GPGGA,205719.000,3351.3778,N,09829.0881,W,1,09,0.9,299.2,M,-23.7,M,18.8,0000*76
$GPGSA,A,3,20,14,31,01,25,16,23,30,32,,,,1.6,0.9,1.4*3E
$GPRMC,205719.000,A,3351.3778,N,09829.0881,W,39.08,344.82,290312,,,A*40
$GPGGA,205720.000,3351.3886,N,09829.0910,W,1,09,0.9,299.0,M,-23.7,M,18.8,0000*79
$GPGSA,A,3,20,14,31,01,25,16,23,30,32,,,,1.6,0.9,1.4*3E
$GPRMC,205720.000,A,3351.3886,N,09829.0910,W,39.42,347.53,290312,,,A*4C
$GPGGA,205721.000,3351.3996,N,09829.0936,W,1,09,0.9,298.8,M,-23.7,M,18.8,0000*75
$GPGSA,A,3,20,14,31,01,25,16,23,30,32,,,,1.6,0.9,1.4*3E
$GPRMC,205721.000,A,3351.3996,N,09829.0936,W,40.12,348.94,290312,,,A*46
$GPGGA,205722.000,3351.4110,N,09829.0961,W,1,09,0.9,298.5,M,-23.7,M,18.8,0000*78
$GPGSA,A,3,20,14,31,01,25,16,23,30,32,,,,1.6,0.9,1.4*3E
$GPRMC,205722.000,A,3351.4110,N,09829.0961,W,41.42,349.97,290312,,,A*40
$GPGGA,205723.000,3351.4227,N,09829.0983,W,1,09,0.9,298.2,M,-23.7,M,18.8,0000*75
$GPGSA,A,3,20,14,31,01,25,16,23,30,32,,,,1.6,0.9,1.4*3E
$GPGSV,3,1,11,32,70,296,31,31,55,032,,30,53,149,32,20,42,307,32*78
$GPGSV,3,2,11,16,30,171,21,14,25,084,30,01,22,250,20,23,16,295,25*7E
$GPGSV,3,3,11,25,10,038,28,11,08,233,30,22,08,146,27*49
$GPRMC,205723.000,A,3351.4227,N,09829.0983,W,42.41,351.16,290312,,,A*4A
$GPGGA,205724.000,3351.4346,N,09829.1002,W,1,08,1.0,297.9,M,-23.7,M,18.8,0000*78
$GPGSA,A,3,20,14,31,01,16,23,30,32,,,,,1.9,1.0,1.7*3D
$GPRMC,205724.000,A,3351.4346,N,09829.1002,W,43.00,352.73,290312,,,A*4E
$GPGGA,205725.000,3351.4466,N,09829.1017,W,1,09,0.9,297.6,M,-23.7,M,18.8,0000*7E
$GPGSA,A,3,20,14,31,01,25,16,23,30,32,,,,1.6,0.9,1.4*3E
$GPRMC,205725.000,A,3351.4466,N,09829.1017,W,43.29,354.16,290312,,,A*40
$GPGGA,205726.000,3351.4588,N,09829.1030,W,1,09,0.9,297.5,M,-23.7,M,18.8,0000*7A
$GPGSA,A,3,20,14,31,01,25,16,23,30,32,,,,1.6,0.9,1.4*3E
$GPRMC,205726.000,A,3351.4588,N,09829.1030,W,43.92,355.29,290312,,,A*4A
$GPGGA,205727.000,3351.4713,N,09829.1040,W,1,09,0.9,297.4,M,-23.7,M,18.8,0000*7D
$GPGSA,A,3,20,14,31,01,25,16,23,30,32,,,,1.6,0.9,1.4*3E
$GPRMC,205727.000,A,3351.4713,N,09829.1040,W,44.48,356.58,290312,,,A*49
$GPGGA,205728.000,3351.4839,N,09829.1046,W,1,08,0.9,297.5,M,-23.7,M,18.8,0000*73
$GPGSA,A,3,20,14,01,25,16,23,30,32,,,,,1.8,0.9,1.5*33
$GPGSV,3,1,11,32,70,296,36,31,55,032,,30,53,149,26,20,42,307,36*7E
$GPGSV,3,2,11,16,30,171,29,14,25,084,31,01,22,250,29,23,16,295,27*7C
$GPGSV,3,3,11,25,10,038,17,11,08,233,30,22,08,146,36*45
$GPRMC,205728.000,A,3351.4839,N,09829.1046,W,44.99,357.85,290312,,,A*4A
$GPGGA,205729.000,3351.4967,N,09829.1050,W,1,09,0.9,297.6,M,-23.7,M,18.8,0000*7D
$GPGSA,A,3,20,14,31,01,25,16,23,30,32,,,,1.6,0.9,1.4*3E
$GPRMC,205729.000,A,3351.4967,N,09829.1050,W,45.67,358.87,290312,,,A*4B
$GPGGA,205730.000,3351.5096,N,09829.1056,W,1,09,0.9,297.7,M,-23.7,M,18.8,0000*74
$GPGSA,A,3,20,14,31,01,25,16,23,30,32,,,,1.6,0.9,1.4*3E
$GPRMC,205730.000,A,3351.5096,N,09829.1056,W,46.06,358.04,290312,,,A*4C
$GPGGA,205731.000,3351.5227,N,09829.1064,W,1,09,0.9,297.7,M,-23.7,M,18.8,0000*7C
$GPGSA,A,3,20,14,31,01,25,16,23,30,32,,,,1.6,0.9,1.4*3E
$GPRMC,205731.000,A,3351.5227,N,09829.1064,W,46.65,357.08,290312,,,A*42
$GPGGA,205732.000,3351.5358,N,09829.1074,W,1,09,0.9,297.8,M,-23.7,M,18.8,0000*78
$GPGSA,A,3,20,14,31,01,25,16,23,30,32,,,,1.6,0.9,1.4*3E
$GPRMC,205732.000,A,3351.5358,N,09829.1074,W,46.96,356.46,290312,,,A*4E
$GPGGA,205733.000,3351.5491,N,09829.1083,W,1,09,0.9,297.8,M,-23.7,M,18.8,0000*73
$GPGSA,A,3,20,14,31,01,25,16,23,30,32,,,,1.6,0.9,1.4*3E
$GPGSV,3,1,11,32,70,296,35,31,55,032,,30,53,149,27,20,42,307,37*7D
$GPGSV,3,2,11,16,30,171,29,14,25,084,30,01,22,250,29,23,16,295,30*7B
$GPGSV,3,3,11,25,10,038,22,11,08,233,30,22,08,146,35*40
$GPRMC,205733.000,A,3351.5491,N,09829.1083,W,47.42,356.74,290312,,,A*4C
$GPGGA,205734.000,3351.5625,N,09829.1091,W,1,09,0.9,297.9,M,-23.7,M,18.8,0000*7B
$GPGSA,A,3,20,14,31,01,25,16,23,30,32,,,,1.6,0.9,1.4*3E
$GPRMC,205734.000,A,3351.5625,N,09829.1091,W,47.86,357.29,290312,,,A*44
$GPGGA,205735.000,3351.5760,N,09829.1097,W,1,09,0.9,298.0,M,-23.7,M,18.8,0000*7A
$GPGSA,A,3,20,14,31,01,25,16,23,30,32,,,,1.6,0.9,1.4*3E
$GPRMC,205735.000,A,3351.5760,N,09829.1097,W,48.50,357.90,290312,,,A*45
$GPGGA,205736.000,3351.5896,N,09829.1103,W,1,08,1.1,298.0,M,-23.7,M,18.8,0000*7B
$GPGSA,A,3,20,14,31,01,25,23,30,32,,,,,1.8,1.1,1.4*3E
$GPRMC,205736.000,A,3351.5896,N,09829.1103,W,48.76,358.03,290312,,,A*4D
$GPGGA,205737.000,3351.6034,N,09829.1108,W,1,09,0.9,298.0,M,-23.7,M,18.8,0000*7A
$GPGSA,A,3,20,14,31,01,25,16,23,30,32,,,,1.6,0.9,1.4*3E
$GPRMC,205737.000,A,3351.6034,N,09829.1108,W,49.23,358.28,290312,,,A*4C
$GPGGA,205738.000,3351.6172,N,09829.1111,W,1,09,0.9,298.0,M,-23.7,M,18.8,0000*7E
$GPGSA,A,3,20,14,31,01,25,16,23,30,32,,,,1.6,0.9,1.4*3E
$GPGSV,3,1,11,32,71,294,35,31,54,032,,30,54,148,28,20,42,307,38*79
$GPGSV,3,2,11,16,30,171,32,14,24,084,30,01,22,250,30,23,16,295,31*79
$GPGSV,3,3,11,25,09,037,22,11,08,233,25,22,08,146,36*40
$GPRMC,205738.000,A,3351.6172,N,09829.1111,W,49.64,358.83,290312,,,A*4A
$GPGGA,205739.000,3351.6311,N,09829.1113,W,1,09,0.9,298.0,M,-23.7,M,18.8,0000*7A
$GPGSA,A,3,20,14,31,01,25,16,23,30,32,,,,1.6,0.9,1.4*3E
$GPRMC,205739.000,A,3351.6311,N,09829.1113,W,49.77,359.27,290312,,,A*43
$GPGGA,205740.000,3351.6449,N,09829.1115,W,1,09,0.9,298.0,M,-23.7,M,18.8,0000*78
$GPGSA,A,3,20,14,31,01,25,16,23,30,32,,,,1.6,0.9,1.4*3E
$GPRMC,205740.000,A,3351.6449,N,09829.1115,W,49.50,359.57,290312,,,A*43
$GPGGA,205741.000,3351.6587,N,09829.1115,W,1,08,1.0,298.2,M,-23.7,M,18.8,0000*71
$GPGSA,A,3,20,14,31,01,16,23,30,32,,,,,1.9,1.0,1.7*3D
$GPRMC,205741.000,A,3351.6587,N,09829.1115,W,49.32,359.91,290312,,,A*4F
$GPGGA,205742.000,3351.6724,N,09829.1114,W,1,08,1.0,298.3,M,-23.7,M,18.8,0000*79
$GPGSA,A,3,20,14,31,01,16,23,30,32,,,,,1.9,1.0,1.7*3D
$GPRMC,205742.000,A,3351.6724,N,09829.1114,W,49.27,0.33,290312,,,A*45
$GPGGA,205743.000,3351.6860,N,09829.1113,W,1,08,1.0,298.4,M,-23.7,M,18.8,0000*77
$GPGSA,A,3,20,14,31,01,16,23,30,32,,,,,1.9,1.0,1.7*3D
$GPGSV,3,1,11,32,71,294,30,31,54,032,,30,54,148,34,20,42,307,38*71
$GPGSV,3,2,11,16,30,171,33,14,24,084,23,01,22,250,26,23,16,295,30*7C
$GPGSV,3,3,11,25,09,037,,11,08,233,32,22,08,146,36*46
$GPRMC,205743.000,A,3351.6860,N,09829.1113,W,49.02,0.44,290312,,,A*4B
$GPGGA,205744.000,3351.6997,N,09829.1111,W,1,09,0.9,298.5,M,-23.7,M,18.8,0000*73
$GPGSA,A,3,20,14,31,01,25,16,23,30,32,,,,1.6,0.9,1.4*3E
$GPRMC,205744.000,A,3351.6997,N,09829.1111,W,48.98,0.69,290312,,,A*4A
$GPGGA,205745.000,3351.7132,N,09829.1111,W,1,09,0.9,298.5,M,-23.7,M,18.8,0000*74
$GPGSA,A,3,20,14,31,01,25,16,23,30,32,,,,1.6,0.9,1.4*3E
$GPRMC,205745.000,A,3351.7132,N,09829.1111,W,48.79,0.27,290312,,,A*48
$GPGGA,205746.000,3351.7268,N,09829.1110,W,1,09,0.9,298.5,M,-23.7,M,18.8,0000*7A
$GPGSA,A,3,20,14,31,01,25,16,23,30,32,,,,1.6,0.9,1.4*3E
$GPRMC,205746.000,A,3351.7268,N,09829.1110,W,48.69,0.14,290312,,,A*47
$GPGGA,205747.000,3351.7403,N,09829.1110,W,1,09,0.9,298.5,M,-23.7,M,18.8,0000*70
$GPGSA,A,3,20,14,31,01,25,16,23,30,32,,,,1.6,0.9,1.4*3E
$GPRMC,205747.000,A,3351.7403,N,09829.1110,W,48.61,0.15,290312,,,A*44
$GPGGA,205748.000,3351.7538,N,09829.1110,W,1,09,0.9,298.5,M,-23.7,M,18.8,0000*76
$GPGSA,A,3,20,14,31,01,25,16,23,30,32,,,,1.6,0.9,1.4*3E
$GPGSV,3,1,11,32,71,294,35,31,54,032,,30,54,148,35,20,42,307,38*75
$GPGSV,3,2,11,16,30,171,33,14,24,084,25,01,22,250,31,23,16,295,30*7C
$GPGSV,3,3,11,25,09,037,20,11,08,233,33,22,08,146,36*45
$GPRMC,205748.000,A,3351.7538,N,09829.1110,W,48.65,359.95,290312,,,A*41
$GPGGA,205749.000,3351.7673,N,09829.1110,W,1,09,0.9,298.5,M,-23.7,M,18.8,0000*7B
$GPGSA,A,3,20,14,31,01,25,16,23,30,32,,,,1.6,0.9,1.4*3E
$GPRMC,205749.000,A,3351.7673,N,09829.1110,W,48.68,0.15,290312,,,A*46
$GPGGA,205750.000,3351.7809,N,09829.1109,W,1,09,0.9,298.4,M,-23.7,M,18.8,0000*79
$GPGSA,A,3,20,14,31,01,25,16,23,30,32,,,,1.6,0.9,1.4*3E
$GPRMC,205750.000,A,3351.7809,N,09829.1109,W,48.88,0.33,290312,,,A*4F
$GPGGA,205751.000,3351.7946,N,09829.1108,W,1,09,0.9,298.3,M,-23.7,M,18.8,0000*74
$GPGSA,A,3,20,14,31,01,25,16,23,30,32,,,,1.6,0.9,1.4*3E
$GPRMC,205751.000,A,3351.7946,N,09829.1108,W,49.32,0.39,290312,,,A*4F
$GPGGA,205752.000,3351.8084,N,09829.1106,W,1,09,0.9,298.2,M,-23.7,M,18.8,0000*70
$GPGSA,A,3,20,14,31,01,25,16,23,30,32,,,,1.6,0.9,1.4*3E
$GPRMC,205752.000,A,3351.8084,N,09829.1106,W,49.78,0.67,290312,,,A*4F
$GPGGA,205753.000,3351.8223,N,09829.1103,W,1,09,0.9,298.0,M,-23.7,M,18.8,0000*79
$GPGSA,A,3,20,14,31,01,25,16,23,30,32,,,,1.6,0.9,1.4*3E
$GPGSV,3,1,11,32,71,294,34,31,54,032,,30,54,148,36,20,42,307,37*78
$GPGSV,3,2,11,16,30,171,32,14,24,084,26,01,22,250,19,23,16,295,31*75
$GPGSV,3,3,11,25,09,037,22,11,08,233,34,22,08,146,35*43
$GPRMC,205753.000,A,3351.8223,N,09829.1103,W,50.16,0.87,290312,,,A*4A
$GPGGA,205754.000,3351.8363,N,09829.1101,W,1,09,0.9,297.9,M,-23.7,M,18.8,0000*7F
$GPGSA,A,3,20,14,31,01,25,16,23,30,32,,,,1.6,0.9,1.4*3E
$GPRMC,205754.000,A,3351.8363,N,09829.1101,W,50.46,0.82,290312,,,A*4A
$GPGGA,205755.000,3351.8505,N,09829.1098,W,1,09,0.9,297.7,M,-23.7,M,18.8,0000*77
$GPGSA,A,3,20,14,31,01,25,16,23,30,32,,,,1.6,0.9,1.3*39
$GPRMC,205755.000,A,3351.8505,N,09829.1098,W,50.87,0.79,290312,,,A*45
$GPGGA,205756.000,3351.8646,N,09829.1097,W,1,09,0.9,297.6,M,-23.7,M,18.8,0000*7E
$GPGSA,A,3,20,14,31,01,25,16,23,30,32,,,,1.6,0.9,1.3*39
$GPRMC,205756.000,A,3351.8646,N,09829.1097,W,51.09,0.39,290312,,,A*4E
$GPGGA,205757.000,3351.8790,N,09829.1096,W,1,09,0.9,297.4,M,-23.7,M,18.8,0000*76
$GPGSA,A,3,20,14,31,01,25,16,23,30,32,,,,1.6,0.9,1.3*39
$GPRMC,205757.000,A,3351.8790,N,09829.1096,W,51.54,0.28,290312,,,A*4C
$GPGGA,205758.000,3351.8934,N,09829.1095,W,1,09,0.9,297.2,M,-23.7,M,18.8,0000*7C
$GPGSA,A,3,20,14,31,01,25,16,23,30,32,,,,1.6,0.9,1.3*39
$GPGSV,3,1,11,32,71,294,34,31,54,032,,30,54,148,36,20,42,307,37*78
$GPGSV,3,2,11,16,30,171,32,14,24,084,26,01,22,250,31,23,16,295,31*7F
$GPGSV,3,3,11,25,09,037,23,11,08,233,34,22,08,146,35*42
$GPRMC,205758.000,A,3351.8934,N,09829.1095,W,51.92,0.36,290312,,,A*45
$GPGGA,205759.000,3351.9079,N,09829.1093,W,1,08,1.0,296.9,M,-23.7,M,18.8,0000*79
$GPGSA,A,3,20,14,31,01,16,23,30,32,,,,,1.9,1.0,1.7*3D
$GPRMC,205759.000,A,3351.9079,N,09829.1093,W,52.21,0.38,290312,,,A*46
$GPGGA,205800.000,3351.9225,N,09829.1092,W,1,08,1.0,296.7,M,-23.7,M,18.8,0000*7E
$GPGSA,A,3,20,14,31,01,16,23,30,32,,,,,1.9,1.0,1.7*3D
$GPRMC,205800.000,A,3351.9225,N,09829.1092,W,52.51,0.29,290312,,,A*48
$GPGGA,205801.000,3351.9372,N,09829.1091,W,1,08,1.0,296.5,M,-23.7,M,18.8,0000*7D
$GPGSA,A,3,20,14,31,01,16,23,30,32,,,,,1.9,1.0,1.7*3D
$GPRMC,205801.000,A,3351.9372,N,09829.1091,W,52.87,0.55,290312,,,A*49
$GPGGA,205802.000,3351.9519,N,09829.1088,W,1,08,1.0,296.2,M,-23.7,M,18.8,0000*7A
$GPGSA,A,3,20,14,31,01,16,23,30,32,,,,,1.9,1.0,1.7*3D
$GPRMC,205802.000,A,3351.9519,N,09829.1088,W,53.18,0.90,290312,,,A*47
$GPGGA,205803.000,3351.9668,N,09829.1084,W,1,08,1.0,296.1,M,-23.7,M,18.8,0000*71
$GPGSA,A,3,20,14,31,01,16,23,30,32,,,,,1.9,1.0,1.7*3D
$GPGSV,3,1,11,32,71,294,34,31,54,032,,30,54,148,36,20,42,307,37*78
$GPGSV,3,2,11,16,30,171,31,14,24,084,27,01,22,250,27,23,16,295,31*7A
$GPGSV,3,3,11,25,09,037,24,11,08,233,35,22,08,146,35*44
$GPRMC,205803.000,A,3351.9668,N,09829.1084,W,53.48,1.01,290312,,,A*43
$GPGGA,205804.000,3351.9817,N,09829.1080,W,1,08,1.0,296.0,M,-23.7,M,18.8,0000*75
$GPGSA,A,3,20,14,31,01,16,23,30,32,,,,,1.9,1.0,1.7*3D
$GPRMC,205804.000,A,3351.9817,N,09829.1080,W,53.75,1.30,290312,,,A*4A
$GPGGA,205805.000,3351.9967,N,09829.1072,W,1,08,1.0,296.1,M,-23.7,M,18.8,0000*7E
$GPGSA,A,3,20,14,31,01,16,23,30,32,,,,,1.9,1.0,1.7*3D
$GPRMC,205805.000,A,3351.9967,N,09829.1072,W,53.77,2.59,290312,,,A*4E
$GPGGA,205806.000,3352.0117,N,09829.1061,W,1,08,1.0,296.2,M,-23.7,M,18.8,0000*79
$GPGSA,A,3,20,14,31,01,16,23,30,32,,,,,1.9,1.0,1.7*3D
$GPRMC,205806.000,A,3352.0117,N,09829.1061,W,53.71,3.41,290312,,,A*44
$GPGGA,205807.000,3352.0267,N,09829.1049,W,1,08,1.0,296.3,M,-23.7,M,18.8,0000*77
$GPGSA,A,3,20,14,31,01,16,23,30,32,,,,,1.9,1.0,1.7*3D
$GPRMC,205807.000,A,3352.0267,N,09829.1049,W,53.78,4.10,290312,,,A*41
$GPGGA,205808.000,3352.0417,N,09829.1032,W,1,08,1.0,296.4,M,-23.7,M,18.8,0000*72
$GPGSA,A,3,20,14,31,01,16,23,30,32,,,,,1.9,1.0,1.7*3D
$GPGSV,3,1,11,32,71,294,35,31,54,032,,30,54,148,24,20,42,307,31*7C
$GPGSV,3,2,11,16,30,171,32,14,24,084,23,01,22,250,34,23,16,295,32*7C
$GPGSV,3,3,11,25,09,037,30,11,08,233,28,22,08,146,34*4C
$GPRMC,205808.000,A,3352.0417,N,09829.1032,W,53.90,5.32,290312,,,A*44
$GPGGA,205809.000,3352.0568,N,09829.1012,W,1,08,1.0,296.5,M,-23.7,M,18.8,0000*79
$GPGSA,A,3,20,14,31,01,16,23,30,32,,,,,1.9,1.0,1.7*3D
$GPRMC,205809.000,A,3352.0568,N,09829.1012,W,54.27,6.38,290312,,,A*4C
$GPGGA,205810.000,3352.0719,N,09829.0990,W,1,08,1.0,296.6,M,-23.7,M,18.8,0000*74
$GPGSA,A,3,20,14,31,01,16,23,30,32,,,,,1.9,1.0,1.7*3D
$GPRMC,205810.000,A,3352.0719,N,09829.0990,W,54.51,6.97,290312,,,A*46
$GPGGA,205811.000,3352.0871,N,09829.0965,W,1,08,1.0,296.7,M,-23.7,M,18.8,0000*7F
$GPGSA,A,3,20,14,31,01,16,23,30,32,,,,,1.9,1.0,1.7*3D
$GPRMC,205811.000,A,3352.0871,N,09829.0965,W,54.83,7.86,290312,,,A*42
$GPGGA,205812.000,3352.1024,N,09829.0937,W,1,08,1.0,296.7,M,-23.7,M,18.8,0000*72
$GPGSA,A,3,20,14,31,01,16,23,30,32,,,,,1.9,1.0,1.7*3D
$GPRMC,205812.000,A,3352.1024,N,09829.0937,W,55.09,8.74,290312,,,A*4E
$GPGGA,205813.000,3352.1177,N,09829.0905,W,1,08,1.0,296.7,M,-23.7,M,18.8,0000*75
$GPGSA,A,3,20,14,31,01,16,23,30,32,,,,,1.9,1.0,1.7*3D
$GPGSV,3,1,11,32,71,294,32,31,54,032,,30,54,148,26,20,42,307,38*70
$GPGSV,3,2,11,16,30,171,26,14,24,084,30,01,22,250,22,23,16,295,28*77
$GPGSV,3,3,11,25,09,037,26,11,08,233,29,22,08,146,34*4A
$GPRMC,205813.000,A,3352.1177,N,09829.0905,W,55.45,9.73,290312,,,A*47
$GPGGA,205814.000,3352.1329,N,09829.0870,W,1,08,1.0,296.6,M,-23.7,M,18.8,0000*79
$GPGSA,A,3,20,14,31,01,16,23,30,32,,,,,1.9,1.0,1.7*3D
$GPRMC,205814.000,A,3352.1329,N,09829.0870,W,55.53,10.92,290312,,,A*7A
$GPGGA,205815.000,3352.1481,N,09829.0833,W,1,08,1.0,296.6,M,-23.7,M,18.8,0000*7A
$GPGSA,A,3,20,14,31,01,16,23,30,32,,,,,1.9,1.0,1.7*3D
$GPRMC,205815.000,A,3352.1481,N,09829.0833,W,55.58,11.62,290312,,,A*7C
$GPGGA,205816.000,3352.1634,N,09829.0793,W,1,08,1.0,296.5,M,-23.7,M,18.8,0000*73
$GPGSA,A,3,20,14,31,01,16,23,30,32,,,,,1.9,1.0,1.7*3D
$GPRMC,205816.000,A,3352.1634,N,09829.0793,W,55.75,12.23,290312,,,A*7F
$GPGGA,205817.000,3352.1786,N,09829.0751,W,1,08,1.0,296.5,M,-23.7,M,18.8,0000*74
$GPGSA,A,3,20,14,31,01,16,23,30,32,,,,,1.9,1.0,1.7*3D
$GPRMC,205817.000,A,3352.1786,N,09829.0751,W,55.83,13.33,290312,,,A*71
$GPGGA,205818.000,3352.1936,N,09829.0704,W,1,08,1.0,296.4,M,-23.7,M,18.8,0000*7F
$GPGSA,A,3,20,14,31,01,16,23,30,32,,,,,1.9,1.0,1.7*3D
$GPGSV,3,1,11,32,71,294,23,31,54,032,,30,54,148,33,20,42,307,38*74
$GPGSV,3,2,11,16,30,171,31,14,24,084,21,01,22,250,35,23,16,295,24*7B
$GPGSV,3,3,11,25,09,037,33,11,08,233,22,22,08,146,12*41
$GPRMC,205818.000,A,3352.1936,N,09829.0704,W,55.71,14.47,290312,,,A*72
$GPGGA,205819.000,3352.2086,N,09829.0657,W,1,08,1.0,296.3,M,-23.7,M,18.8,0000*7F
$GPGSA,A,3,20,14,31,01,16,23,30,32,,,,,1.9,1.0,1.7*3D
$GPRMC,205819.000,A,3352.2086,N,09829.0657,W,55.39,14.92,290312,,,A*71
$GPGGA,205820.000,3352.2234,N,09829.0606,W,1,08,1.0,296.4,M,-23.7,M,18.8,0000*7D
$GPGSA,A,3,20,14,31,01,16,23,30,32,,,,,1.9,1.0,1.7*3D
$GPRMC,205820.000,A,3352.2234,N,09829.0606,W,55.21,16.07,290312,,,A*73
$GPGGA,205821.000,3352.2381,N,09829.0552,W,1,07,1.0,296.4,M,-23.7,M,18.8,0000*7E
$GPGSA,A,3,20,14,31,01,16,23,30,,,,,,2.3,1.0,2.1*30
$GPRMC,205821.000,A,3352.2381,N,09829.0552,W,54.85,17.08,290312,,,A*7E
$GPGGA,205822.000,3352.2525,N,09829.0495,W,1,07,1.0,296.6,M,-23.7,M,18.8,0000*7D
$GPGSA,A,3,20,14,31,01,16,23,30,,,,,,2.3,1.0,2.1*30
$GPRMC,205822.000,A,3352.2525,N,09829.0495,W,54.36,18.23,290312,,,A*71
$GPGGA,205823.000,3352.2667,N,09829.0436,W,1,07,1.0,296.6,M,-23.7,M,18.8,0000*70
$GPGSA,A,3,20,14,31,01,16,23,30,,,,,,2.3,1.0,2.1*30
$GPGSV,3,1,11,32,71,294,10,31,54,032,,30,54,148,29,20,42,307,38*7F
$GPGSV,3,2,11,16,30,171,29,14,24,084,28,01,22,250,29,23,16,295,35*76
$GPGSV,3,3,11,25,09,037,23,11,08,233,26,22,08,146,32*46
$GPRMC,205823.000,A,3352.2667,N,09829.0436,W,53.71,19.41,290312,,,A*7D
$GPGGA,205824.000,3352.2806,N,09829.0374,W,1,07,1.0,296.5,M,-23.7,M,18.8,0000*7C
$GPGSA,A,3,20,14,31,01,16,23,30,,,,,,2.3,1.0,2.1*30
$GPRMC,205824.000,A,3352.2806,N,09829.0374,W,53.16,20.44,290312,,,A*7C
$GPGGA,205825.000,3352.2944,N,09829.0309,W,1,07,1.0,296.4,M,-23.7,M,18.8,0000*71
$GPGSA,A,3,20,14,31,01,16,23,30,,,,,,2.3,1.0,2.1*30
$GPRMC,205825.000,A,3352.2944,N,09829.0309,W,52.96,21.34,290312,,,A*7F
$GPGGA,205826.000,3352.3081,N,09829.0243,W,1,08,1.0,296.2,M,-23.7,M,18.8,0000*75
$GPGSA,A,3,20,14,31,01,16,23,30,32,,,,,1.9,1.0,1.7*3D
$GPRMC,205826.000,A,3352.3081,N,09829.0243,W,52.84,22.05,290312,,,A*70
$GPGGA,205827.000,3352.3218,N,09829.0174,W,1,07,1.2,296.0,M,-23.7,M,18.8,0000*7E
$GPGSA,A,3,20,14,31,01,23,30,32,,,,,,2.1,1.2,1.7*33
$GPRMC,205827.000,A,3352.3218,N,09829.0174,W,53.16,22.79,290312,,,A*75
$GPGGA,205828.000,3352.3355,N,09829.0102,W,1,08,1.0,295.8,M,-23.7,M,18.8,0000*7E
$GPGSA,A,3,20,14,31,01,16,23,30,32,,,,,1.9,1.0,1.6*3C
$GPGSV,3,1,11,32,71,294,26,31,54,032,,30,54,148,35,20,42,307,38*77
$GPGSV,3,2,11,16,30,171,13,14,24,084,30,01,22,250,30,23,16,295,27*7D
$GPGSV,3,3,11,25,09,037,25,11,08,233,26,22,08,146,32*40
$GPRMC,205828.000,A,3352.3355,N,09829.0102,W,53.42,23.77,290312,,,A*7D
$GPGGA,205829.000,3352.3491,N,09829.0027,W,1,08,1.0,295.5,M,-23.7,M,18.8,0000*7B
$GPGSA,A,3,20,14,31,01,16,23,30,32,,,,,1.9,1.0,1.6*3C
$GPRMC,205829.000,A,3352.3491,N,09829.0027,W,53.74,24.74,290312,,,A*74
$GPGGA,205830.000,3352.3628,N,09828.9949,W,1,08,1.0,295.3,M,-23.7,M,18.8,0000*7C
$GPGSA,A,3,20,14,31,01,16,23,30,32,,,,,1.9,1.0,1.6*3C
$GPRMC,205830.000,A,3352.3628,N,09828.9949,W,53.99,25.54,290312,,,A*75
$GPGGA,205831.000,3352.3763,N,09828.9870,W,1,08,1.0,295.0,M,-23.7,M,18.8,0000*7B
$GPGSA,A,3,20,14,31,01,16,23,30,32,,,,,1.9,1.0,1.6*3C
$GPRMC,205831.000,A,3352.3763,N,09828.9870,W,54.04,25.98,290312,,,A*72
$GPGGA,205832.000,3352.3897,N,09828.9788,W,1,08,1.0,294.6,M,-23.7,M,18.8,0000*73
$GPGSA,A,3,20,14,31,01,16,23,30,32,,,,,1.9,1.0,1.6*3C
$GPRMC,205832.000,A,3352.3897,N,09828.9788,W,53.95,27.11,290312,,,A*71
$GPGGA,205833.000,3352.4029,N,09828.9704,W,1,08,1.0,294.3,M,-23.7,M,18.8,0000*79
$GPGSA,A,3,20,14,31,01,16,23,30,32,,,,,1.9,1.0,1.6*3C
$GPGSV,3,1,11,32,71,294,27,31,54,032,,30,54,148,36,20,42,307,38*75
$GPGSV,3,2,11,16,30,171,33,14,24,084,23,01,22,250,36,23,16,295,29*75
$GPGSV,3,3,11,25,09,037,20,11,08,233,26,22,08,146,25*43
$GPRMC,205833.000,A,3352.4029,N,09828.9704,W,53.85,27.90,290312,,,A*76
$GPGGA,205834.000,3352.4161,N,09828.9619,W,1,08,1.0,293.9,M,-23.7,M,18.8,0000*73
$GPGSA,A,3,20,14,31,01,16,23,30,32,,,,,1.9,1.0,1.6*3C
$GPRMC,205834.000,A,3352.4161,N,09828.9619,W,53.67,28.17,290312,,,A*7D
$GPGGA,205835.000,3352.4291,N,09828.9534,W,1,08,1.0,293.6,M,-23.7,M,18.8,0000*7D
$GPGSA,A,3,20,14,31,01,16,23,30,32,,,,,1.9,1.0,1.6*3C
$GPRMC,205835.000,A,3352.4291,N,09828.9534,W,53.40,28.33,290312,,,A*7F
$GPGGA,205836.000,3352.4422,N,09828.9449,W,1,08,1.0,293.3,M,-23.7,M,18.8,0000*7E
$GPGSA,A,3,20,14,31,01,16,23,30,32,,,,,1.9,1.0,1.6*3C
$GPRMC,205836.000,A,3352.4422,N,09828.9449,W,53.52,28.57,290312,,,A*78
$GPGGA,205837.000,3352.4552,N,09828.9363,W,1,07,1.5,292.9,M,-23.7,M,18.8,0000*77
$GPGSA,A,3,20,31,01,16,23,30,32,,,,,,2.9,1.5,2.5*3F
$GPRMC,205837.000,A,3352.4552,N,09828.9363,W,53.55,28.71,290312,,,A*73
$GPGGA,205838.000,3352.4683,N,09828.9277,W,1,08,1.0,292.4,M,-23.7,M,18.8,0000*74
$GPGSA,A,3,20,14,31,01,16,23,30,32,,,,,1.9,1.0,1.6*3C
$GPGSV,3,1,11,32,71,293,28,30,54,148,27,31,54,032,,20,42,306,38*7C
$GPGSV,3,2,11,16,31,171,34,14,24,084,14,01,21,249,35,23,17,296,25*71
$GPGSV,3,3,11,25,09,037,32,11,08,232,25,22,07,146,23*4B
$GPRMC,205838.000,A,3352.4683,N,09828.9277,W,53.43,28.57,290312,,,A*74
$GPGGA,205839.000,3352.4814,N,09828.9191,W,1,08,1.0,291.8,M,-23.7,M,18.8,0000*71
$GPGSA,A,3,20,14,31,01,16,23,30,32,,,,,1.9,1.0,1.6*3C
$GPRMC,205839.000,A,3352.4814,N,09828.9191,W,53.83,28.63,290312,,,A*75
$GPGGA,205840.000,3352.4946,N,09828.9106,W,1,08,1.0,291.3,M,-23.7,M,18.8,0000*7C
$GPGSA,A,3,20,14,31,01,16,23,30,32,,,,,1.9,1.0,1.6*3C
$GPRMC,205840.000,A,3352.4946,N,09828.9106,W,53.78,28.29,290312,,,A*79
$GPGGA,205841.000,3352.5077,N,09828.9021,W,1,08,1.0,290.8,M,-23.7,M,18.8,0000*79
$GPGSA,A,3,20,14,31,01,16,23,30,32,,,,,1.9,1.0,1.6*3C
$GPRMC,205841.000,A,3352.5077,N,09828.9021,W,53.73,28.06,290312,,,A*70
$GPGGA,205842.000,3352.5208,N,09828.8937,W,1,08,1.0,290.3,M,-23.7,M,18.8,0000*74
$GPGSA,A,3,20,14,31,01,16,23,30,32,,,,,1.9,1.0,1.6*3C
$GPRMC,205842.000,A,3352.5208,N,09828.8937,W,53.63,28.11,290312,,,A*71
$GPGGA,205843.000,3352.5340,N,09828.8850,W,1,08,1.0,289.8,M,-23.7,M,18.8,0000*7B
$GPGSA,A,3,20,14,31,01,16,23,30,32,,,,,1.9,1.0,1.6*3C
$GPGSV,3,1,11,32,71,293,29,30,54,148,27,31,54,032,,20,42,306,39*7C
$GPGSV,3,2,11,16,31,171,34,14,24,084,17,01,21,249,34,23,17,296,25*73
$GPGSV,3,3,11,25,09,037,32,11,08,232,25,22,07,146,22*4A
$GPRMC,205843.000,A,3352.5340,N,09828.8850,W,54.15,28.64,290312,,,A*79
$GPGGA,205844.000,3352.5473,N,09828.8762,W,1,08,1.0,289.3,M,-23.7,M,18.8,0000*7E
$GPGSA,A,3,20,14,31,01,16,23,30,32,,,,,1.9,1.0,1.6*3C
$GPRMC,205844.000,A,3352.5473,N,09828.8762,W,54.51,28.75,290312,,,A*77
$GPGGA,205845.000,3352.5606,N,09828.8674,W,1,08,1.0,288.7,M,-23.7,M,18.8,0000*7C
$GPGSA,A,3,20,14,31,01,16,23,30,32,,,,,1.9,1.0,1.6*3C
$GPRMC,205845.000,A,3352.5606,N,09828.8674,W,54.42,28.52,290312,,,A*77
$GPGGA,205846.000,3352.5739,N,09828.8588,W,1,08,1.0,288.1,M,-23.7,M,18.8,0000*74
$GPGSA,A,3,20,14,31,01,16,23,30,32,,,,,1.9,1.0,1.6*3C
$GPRMC,205846.000,A,3352.5739,N,09828.8588,W,54.23,28.19,290312,,,A*71
$GPGGA,205847.000,3352.5873,N,09828.8501,W,1,08,1.0,287.6,M,-23.7,M,18.8,0000*7D
$GPGSA,A,3,20,14,31,01,16,23,30,32,,,,,1.9,1.0,1.6*3C
$GPRMC,205847.000,A,3352.5873,N,09828.8501,W,54.27,28.20,290312,,,A*7E
$GPGGA,205848.000,3352.6005,N,09828.8414,W,1,08,1.0,287.1,M,-23.7,M,18.8,0000*7A
$GPGSA,A,3,20,14,31,01,16,23,30,32,,,,,1.9,1.0,1.6*3C
$GPGSV,3,1,11,32,71,293,29,30,54,148,36,31,54,032,,20,42,306,39*7C
$GPGSV,3,2,11,16,31,171,35,14,24,084,18,01,21,249,33,23,17,296,26*79
$GPGSV,3,3,11,25,09,037,23,11,08,232,24,22,07,146,30*48
$GPRMC,205848.000,A,3352.6005,N,09828.8414,W,54.14,28.46,290312,,,A*7E
$GPGGA,205849.000,3352.6139,N,09828.8328,W,1,08,1.0,286.6,M,-23.7,M,18.8,0000*7B
$GPGSA,A,3,20,14,31,01,16,23,30,32,,,,,1.9,1.0,1.6*3C
$GPRMC,205849.000,A,3352.6139,N,09828.8328,W,54.13,28.19,290312,,,A*74
$GPGGA,205850.000,3352.6272,N,09828.8242,W,1,08,1.0,286.1,M,-23.7,M,18.8,0000*75
$GPGSA,A,3,20,14,31,01,16,23,30,32,,,,,1.9,1.0,1.6*3C
$GPRMC,205850.000,A,3352.6272,N,09828.8242,W,54.23,28.14,290312,,,A*73
$GPGGA,205851.000,3352.6405,N,09828.8155,W,1,08,1.0,285.4,M,-23.7,M,18.8,0000*71
$GPGSA,A,3,20,14,31,01,16,23,30,32,,,,,1.9,1.0,1.6*3C
$GPRMC,205851.000,A,3352.6405,N,09828.8155,W,54.24,28.26,290312,,,A*77
$GPGGA,205852.000,3352.6538,N,09828.8068,W,1,08,1.0,284.7,M,-23.7,M,18.8,0000*70
$GPGSA,A,3,20,14,31,01,16,23,30,32,,,,,1.9,1.0,1.6*3C
$GPRMC,205852.000,A,3352.6538,N,09828.8068,W,54.30,28.32,290312,,,A*74
$GPGGA,205853.000,3352.6672,N,09828.7981,W,1,08,1.0,283.9,M,-23.7,M,18.8,0000*74
$GPGSA,A,3,20,14,31,01,16,23,30,32,,,,,1.9,1.0,1.6*3C
$GPGSV,3,1,11,32,71,293,20,30,54,148,37,31,54,032,,20,43,306,39*75
$GPGSV,3,2,11,16,31,171,34,14,24,085,17,01,21,249,34,23,17,296,26*71
$GPGSV,3,3,11,25,09,037,29,11,08,232,23,22,07,146,27*43
$GPRMC,205853.000,A,3352.6672,N,09828.7981,W,54.35,28.26,290312,,,A*79
$GPGGA,205854.000,3352.6806,N,09828.7895,W,1,08,1.0,283.0,M,-23.7,M,18.8,0000*73
$GPGSA,A,3,20,14,31,01,16,23,30,32,,,,,1.9,1.0,1.6*3C
$GPRMC,205854.000,A,3352.6806,N,09828.7895,W,54.38,28.16,290312,,,A*79
$GPGGA,205855.000,3352.6939,N,09828.7809,W,1,08,1.0,282.0,M,-23.7,M,18.8,0000*7B
$GPGSA,A,3,20,14,31,01,16,23,30,32,,,,,1.9,1.0,1.6*3C
$GPRMC,205855.000,A,3352.6939,N,09828.7809,W,54.29,28.17,290312,,,A*71
$GPGGA,205856.000,3352.7072,N,09828.7723,W,1,08,1.0,281.1,M,-23.7,M,18.8,0000*7A
$GPGSA,A,3,20,14,31,01,16,23,30,32,,,,,1.9,1.0,1.6*3C
$GPRMC,205856.000,A,3352.7072,N,09828.7723,W,53.91,28.27,290312,,,A*75
$GPGGA,205857.000,3352.7203,N,09828.7637,W,1,08,1.0,280.5,M,-23.7,M,18.8,0000*7E
$GPGSA,A,3,20,14,31,01,16,23,30,32,,,,,1.9,1.0,1.6*3C
$GPRMC,205857.000,A,3352.7203,N,09828.7637,W,53.59,28.41,290312,,,A*70
$GPGGA,205858.000,3352.7334,N,09828.7551,W,1,08,1.0,279.9,M,-23.7,M,18.8,0000*7D
$GPGSA,A,3,20,14,31,01,16,23,30,32,,,,,1.9,1.0,1.6*3C
$GPGSV,3,1,11,32,71,293,30,30,54,148,37,31,54,032,,20,43,306,39*74
$GPGSV,3,2,11,16,31,171,34,14,24,085,17,01,21,249,34,23,17,296,26*71
$GPGSV,3,3,11,25,09,037,28,11,08,232,23,22,07,146,27*42
$GPRMC,205858.000,A,3352.7334,N,09828.7551,W,53.46,28.30,290312,,,A*71
$GPGGA,205859.000,3352.7466,N,09828.7466,W,1,08,1.0,279.3,M,-23.7,M,18.8,0000*73
$GPGSA,A,3,20,14,31,01,16,23,30,32,,,,,1.9,1.0,1.6*3C
$GPRMC,205859.000,A,3352.7466,N,09828.7466,W,53.62,28.30,290312,,,A*73
$GPGGA,205900.000,3352.7597,N,09828.7380,W,1,08,1.0,278.8,M,-23.7,M,18.8,0000*74
$GPGSA,A,3,20,14,31,01,16,23,30,32,,,,,1.9,1.0,1.6*3C
$GPRMC,205900.000,A,3352.7597,N,09828.7380,W,53.76,28.32,290312,,,A*79
$GPGGA,205901.000,3352.7729,N,09828.7295,W,1,08,1.0,278.3,M,-23.7,M,18.8,0000*7C
$GPGSA,A,3,20,14,31,01,16,23,30,32,,,,,1.9,1.0,1.6*3C
$GPRMC,205901.000,A,3352.7729,N,09828.7295,W,53.86,28.32,290312,,,A*75
$GPGGA,205902.000,3352.7862,N,09828.7209,W,1,08,1.0,277.8,M,-23.7,M,18.8,0000*7E
$GPGSA,A,3,20,14,31,01,16,23,30,32,,,,,1.9,1.0,1.6*3C
$GPRMC,205902.000,A,3352.7862,N,09828.7209,W,53.89,28.27,290312,,,A*78
$GPGGA,205903.000,3352.7994,N,09828.7123,W,1,08,1.0,277.2,M,-23.7,M,18.8,0000*76
$GPGSA,A,3,20,14,31,01,16,23,30,32,,,,,1.9,1.0,1.6*3C
$GPGSV,3,1,11,32,71,293,32,30,54,148,36,31,54,032,,20,43,306,39*77
$GPGSV,3,2,11,16,31,171,35,14,24,085,18,01,21,249,34,23,17,296,27*7E
$GPGSV,3,3,11,25,09,037,28,11,08,232,28,22,07,146,27*49
$GPRMC,205903.000,A,3352.7994,N,09828.7123,W,54.06,28.31,290312,,,A*7D
$GPGGA,205904.000,3352.8126,N,09828.7037,W,1,08,1.0,276.7,M,-23.7,M,18.8,0000*7F
$GPGSA,A,3,20,14,31,01,16,23,30,32,,,,,1.9,1.0,1.6*3C
$GPRMC,205904.000,A,3352.8126,N,09828.7037,W,54.03,28.30,290312,,,A*74
$GPGGA,205905.000,3352.8258,N,09828.6951,W,1,08,1.0,276.2,M,-23.7,M,18.8,0000*79
$GPGSA,A,3,20,14,31,01,16,23,30,32,,,,,1.9,1.0,1.6*3C
$GPRMC,205905.000,A,3352.8258,N,09828.6951,W,53.94,28.29,290312,,,A*76
$GPGGA,205906.000,3352.8391,N,09828.6865,W,1,08,1.0,275.8,M,-23.7,M,18.8,0000*71
$GPGSA,A,3,20,14,31,01,16,23,30,32,,,,,1.9,1.0,1.6*3C
$GPRMC,205906.000,A,3352.8391,N,09828.6865,W,54.00,28.32,290312,,,A*77
$GPGGA,205907.000,3352.8523,N,09828.6780,W,1,08,1.0,275.4,M,-23.7,M,18.8,0000*77
$GPGSA,A,3,20,14,31,01,16,23,30,32,,,,,1.9,1.0,1.6*3C
$GPRMC,205907.000,A,3352.8523,N,09828.6780,W,53.96,27.82,290312,,,A*71
$GPGGA,205908.000,3352.8658,N,09828.6700,W,1,08,1.0,275.0,M,-23.7,M,18.8,0000*7B
$GPGSA,A,3,20,14,31,01,16,23,30,32,,,,,1.9,1.0,1.6*3C
$GPGSV,3,1,11,32,71,293,32,30,54,148,35,31,54,032,31,20,43,306,39*76
$GPGSV,3,2,11,16,31,171,32,14,24,085,25,01,21,249,34,23,17,296,34*75
$GPGSV,3,3,11,25,09,037,28,11,08,232,28,22,07,146,*4C
$GPRMC,205908.000,A,3352.8658,N,09828.6700,W,53.93,26.03,290312,,,A*74
$GPGGA,205909.000,3352.8796,N,09828.6630,W,1,07,1.0,274.8,M,-23.7,M,18.8,0000*7D
$GPGSA,A,3,20,14,31,01,16,23,30,,,,,,2.3,1.0,2.1*30
$GPRMC,205909.000,A,3352.8796,N,09828.6630,W,53.95,22.80,290312,,,A*7D
$GPGGA,205910.000,3352.8937,N,09828.6570,W,1,08,1.0,274.9,M,-23.7,M,18.8,0000*79
$GPGSA,A,3,20,14,31,01,16,23,30,32,,,,,1.9,1.0,1.6*3C
$GPRMC,205910.000,A,3352.8937,N,09828.6570,W,53.73,19.35,290312,,,A*79
$GPGGA,205911.000,3352.9081,N,09828.6521,W,1,08,1.0,275.1,M,-23.7,M,18.8,0000*70
$GPGSA,A,3,20,14,31,01,16,23,30,32,,,,,1.9,1.0,1.6*3C
$GPRMC,205911.000,A,3352.9081,N,09828.6521,W,53.94,15.71,290312,,,A*7C
$GPGGA,205912.000,3352.9228,N,09828.6483,W,1,08,1.0,275.3,M,-23.7,M,18.8,0000*79
$GPGSA,A,3,20,14,31,01,16,23,30,32,,,,,1.9,1.0,1.6*3C
$GPRMC,205912.000,A,3352.9228,N,09828.6483,W,54.04,12.01,290312,,,A*79
$GPGGA,205913.000,3352.9376,N,09828.6457,W,1,08,1.0,275.8,M,-23.7,M,18.8,0000*70
$GPGSA,A,3,20,14,31,01,16,23,30,32,,,,,1.9,1.0,1.6*3C
