$GPGGA,224848.000,3353.7503,N,09832.0274,W,2,07,1.6,305.6,M,-23.7,M,0.8,0000*46
$GPGSA,A,3,16,23,31,03,32,06,30,,,,,,2.9,1.6,2.4*3B
$GPGSV,3,1,12,16,70,060,37,23,65,330,37,30,42,044,34,20,41,220,*79
$GPGSV,3,2,12,13,33,317,23,32,32,188,27,03,30,138,33,06,30,119,30*7C
$GPGSV,3,3,12,07,17,273,18,31,10,069,21,10,09,320,,19,06,164,*7F
$GPRMC,224848.000,A,3353.7503,N,09832.0274,W,0.31,35.28,030412,,,D*45
$GPGGA,224849.000,3353.7505,N,09832.0273,W,2,07,1.6,306.1,M,-23.7,M,0.8,0000*42
$GPGSA,A,3,16,23,31,03,32,06,30,,,,,,2.9,1.6,2.4*3B
$GPRMC,224849.000,A,3353.7505,N,09832.0273,W,0.13,339.71,030412,,,D*76
$GPGGA,224850.000,3353.7506,N,09832.0273,W,2,07,1.6,306.5,M,-23.7,M,0.8,0000*4D
$GPGSA,A,3,16,23,31,03,32,06,30,,,,,,2.9,1.6,2.4*3B
$GPRMC,224850.000,A,3353.7506,N,09832.0273,W,0.14,21.13,030412,,,D*44
$GPGGA,224851.000,3353.7507,N,09832.0273,W,2,07,1.6,307.0,M,-23.7,M,1.8,0000*48
$GPGSA,A,3,16,23,31,03,32,06,30,,,,,,2.9,1.6,2.4*3B
$GPRMC,224851.000,A,3353.7507,N,09832.0273,W,0.15,278.04,030412,,,D*7D
$GPGGA,224852.000,3353.7508,N,09832.0274,W,2,07,1.6,307.0,M,-23.7,M,0.8,0000*42
$GPGSA,A,3,16,23,31,03,32,06,30,,,,,,2.9,1.6,2.4*3B
$GPRMC,224852.000,A,3353.7508,N,09832.0274,W,0.20,44.50,030412,,,D*4C
$GPGGA,224853.000,3353.7509,N,09832.0275,W,2,07,1.6,307.3,M,-23.7,M,1.8,0000*41
$GPGSA,A,3,16,23,31,03,32,06,30,,,,,,2.9,1.6,2.4*3B
$GPGSV,3,1,12,16,70,060,37,23,65,330,37,30,42,044,34,20,41,220,*79
$GPGSV,3,2,12,13,33,317,23,32,32,188,28,03,30,138,33,06,30,119,29*7B
$GPGSV,3,3,12,07,17,273,18,31,10,069,20,10,09,320,,19,06,164,*7E
$GPRMC,224853.000,A,3353.7509,N,09832.0275,W,0.07,15.93,030412,,,D*43
$GPGGA,224854.000,3353.7510,N,09832.0275,W,2,07,1.6,307.3,M,-23.7,M,0.8,0000*4F
$GPGSA,A,3,16,23,31,03,32,06,30,,,,,,2.9,1.6,2.4*3B
$GPRMC,224854.000,A,3353.7510,N,09832.0275,W,0.12,61.43,030412,,,D*46
$GPGGA,224855.000,3353.7510,N,09832.0276,W,2,07,1.6,307.5,M,-23.7,M,0.8,0000*4B
$GPGSA,A,3,16,23,31,03,32,06,30,,,,,,2.9,1.6,2.4*3B
$GPRMC,224855.000,A,3353.7510,N,09832.0276,W,0.14,231.94,030412,,,D*7F
$GPGGA,224856.000,3353.7510,N,09832.0277,W,2,07,1.6,307.8,M,-23.7,M,0.8,0000*44
$GPGSA,A,3,16,23,31,03,32,06,30,,,,,,2.9,1.6,2.4*3B
$GPRMC,224856.000,A,3353.7510,N,09832.0277,W,0.18,235.10,030412,,,D*79
$GPGGA,224857.000,3353.7510,N,09832.0277,W,2,07,1.6,308.0,M,-23.7,M,1.8,0000*43
$GPGSA,A,3,16,23,31,03,32,06,30,,,,,,2.9,1.6,2.4*3B
$GPRMC,224857.000,A,3353.7510,N,09832.0277,W,0.17,223.06,030412,,,D*77
$GPGGA,224858.000,3353.7510,N,09832.0278,W,2,07,1.6,308.3,M,-23.7,M,2.8,0000*43
$GPGSA,A,3,16,23,31,03,32,06,30,,,,,,2.9,1.6,2.4*3B
$GPGSV,3,1,12,16,70,060,37,23,65,330,37,30,42,044,34,20,41,220,*79
$GPGSV,3,2,12,13,33,317,22,32,32,188,28,03,30,138,33,06,30,119,29*7A
$GPGSV,3,3,12,07,17,273,18,31,10,069,19,10,09,320,,19,06,164,*74
$GPRMC,224858.000,A,3353.7510,N,09832.0278,W,0.19,224.08,030412,,,D*70
$GPGGA,224859.000,3353.7510,N,09832.0279,W,2,07,1.6,308.2,M,-23.7,M,0.8,0000*40
$GPGSA,A,3,16,23,31,03,32,06,30,,,,,,2.9,1.6,2.4*3B
$GPRMC,224859.000,A,3353.7510,N,09832.0279,W,0.17,89.54,030412,,,D*42
$GPGGA,224900.000,3353.7511,N,09832.0279,W,2,07,1.6,308.2,M,-23.7,M,0.8,0000*4C
$GPGSA,A,3,16,23,31,03,32,06,30,,,,,,2.9,1.6,2.4*3B
$GPRMC,224900.000,A,3353.7511,N,09832.0279,W,0.18,59.55,030412,,,D*4D
$GPGGA,224901.000,3353.7511,N,09832.0279,W,2,07,1.6,308.1,M,-23.7,M,0.8,0000*4E
$GPGSA,A,3,16,23,31,03,32,06,30,,,,,,2.9,1.6,2.4*3B
$GPRMC,224901.000,A,3353.7511,N,09832.0279,W,0.26,54.60,030412,,,D*4A
$GPGGA,224902.000,3353.7512,N,09832.0279,W,2,07,1.6,308.0,M,-23.7,M,0.8,0000*4F
$GPGSA,A,3,16,23,31,03,32,06,30,,,,,,2.9,1.6,2.4*3B
$GPRMC,224902.000,A,3353.7512,N,09832.0279,W,0.27,52.22,030412,,,D*4B
$GPGGA,224903.000,3353.7513,N,09832.0279,W,2,07,1.6,308.0,M,-23.7,M,1.8,0000*4E
$GPGSA,A,3,16,23,31,03,32,06,30,,,,,,2.9,1.6,2.4*3B
$GPGSV,3,1,12,16,70,060,37,23,65,330,37,30,42,044,34,20,41,220,*79
$GPGSV,3,2,12,13,33,317,22,32,32,188,28,03,30,138,33,06,30,119,29*7A
$GPGSV,3,3,12,07,17,273,18,31,10,069,18,10,09,320,,19,06,164,*75
$GPRMC,224903.000,A,3353.7513,N,09832.0279,W,0.28,49.41,030412,,,D*4B
$GPGGA,224904.000,3353.7513,N,09832.0279,W,2,07,1.6,307.9,M,-23.7,M,0.8,0000*4E
$GPGSA,A,3,16,23,31,03,32,06,30,,,,,,2.9,1.6,2.4*3B
$GPRMC,224904.000,A,3353.7513,N,09832.0279,W,0.30,43.43,030412,,,D*4D
$GPGGA,224905.000,3353.7513,N,09832.0279,W,2,07,1.6,308.1,M,-23.7,M,1.8,0000*49
$GPGSA,A,3,16,23,31,03,32,06,30,,,,,,2.9,1.6,2.3*3C
$GPRMC,224905.000,A,3353.7513,N,09832.0279,W,0.09,294.04,030412,,,D*7D
$GPGGA,224906.000,3353.7513,N,09832.0279,W,2,07,1.6,308.4,M,-23.7,M,0.8,0000*4E
$GPGSA,A,3,16,23,31,03,32,06,30,,,,,,2.9,1.6,2.3*3C
$GPRMC,224906.000,A,3353.7513,N,09832.0279,W,0.13,237.76,030412,,,D*79
$GPGGA,224907.000,3353.7512,N,09832.0280,W,2,07,1.6,308.6,M,-23.7,M,0.8,0000*4A
$GPGSA,A,3,16,23,31,03,32,06,30,,,,,,2.9,1.6,2.3*3C
$GPRMC,224907.000,A,3353.7512,N,09832.0280,W,0.22,239.93,030412,,,D*78
$GPGGA,224908.000,3353.7512,N,09832.0281,W,2,07,1.6,308.4,M,-23.7,M,0.8,0000*46
$GPGSA,A,3,16,23,31,03,32,06,30,,,,,,2.9,1.6,2.3*3C
$GPGSV,3,1,12,16,70,060,37,23,65,330,38,30,42,044,34,20,41,220,*76
$GPGSV,3,2,12,13,33,317,21,32,32,188,27,03,30,138,33,06,30,119,28*77
$GPGSV,3,3,12,07,17,273,17,31,10,069,17,10,09,320,,19,06,164,*75
$GPRMC,224908.000,A,3353.7512,N,09832.0281,W,0.16,73.75,030412,,,D*45
$GPGGA,224909.000,3353.7512,N,09832.0281,W,2,07,1.6,308.1,M,-23.7,M,1.8,0000*43
$GPGSA,A,3,16,23,31,03,32,06,30,,,,,,2.9,1.6,2.3*3C
$GPRMC,224909.000,A,3353.7512,N,09832.0281,W,0.20,66.08,030412,,,D*4F
$GPGGA,224910.000,3353.7511,N,09832.0286,W,2,07,1.6,307.0,M,-23.7,M,2.8,0000*42
$GPGSA,A,3,16,23,31,03,32,06,30,,,,,,2.9,1.6,2.3*3C
$GPRMC,224910.000,A,3353.7511,N,09832.0286,W,0.17,63.86,030412,,,D*44
$GPGGA,224911.000,3353.7510,N,09832.0292,W,2,07,1.6,305.8,M,-23.7,M,3.8,0000*4C
$GPGSA,A,3,16,23,31,03,32,06,30,,,,,,2.9,1.6,2.3*3C
$GPRMC,224911.000,A,3353.7510,N,09832.0292,W,0.08,6.15,030412,,,D*76
$GPGGA,224912.000,3353.7508,N,09832.0297,W,2,07,1.6,305.0,M,-23.7,M,0.8,0000*48
$GPGSA,A,3,16,23,31,03,32,06,30,,,,,,2.9,1.6,2.3*3C
$GPRMC,224912.000,A,3353.7508,N,09832.0297,W,0.36,265.90,030412,,,D*7E
$GPGGA,224913.000,3353.7507,N,09832.0302,W,2,07,1.6,304.1,M,-23.7,M,1.8,0000*4A
$GPGSA,A,3,16,23,31,03,32,06,30,,,,,,2.9,1.6,2.3*3C
$GPGSV,3,1,12,16,70,060,37,23,65,330,38,30,42,044,34,20,41,220,*76
$GPGSV,3,2,12,13,33,317,21,32,32,188,27,03,30,138,32,06,30,119,28*76
$GPGSV,3,3,12,07,17,273,16,31,10,069,16,10,09,320,,19,06,164,*75
$GPRMC,224913.000,A,3353.7507,N,09832.0302,W,0.20,307.39,030412,,,D*7C
$GPGGA,224914.000,3353.7507,N,09832.0302,W,2,07,1.6,304.0,M,-23.7,M,0.8,0000*4D
$GPGSA,A,3,16,23,31,03,32,06,30,,,,,,2.9,1.6,2.3*3C
$GPRMC,224914.000,A,3353.7507,N,09832.0302,W,0.21,321.34,030412,,,D*73
$GPGGA,224915.000,3353.7506,N,09832.0307,W,2,07,1.6,303.0,M,-23.7,M,1.8,0000*4E
$GPGSA,A,3,16,23,31,03,32,06,30,,,,,,2.9,1.6,2.3*3C
$GPRMC,224915.000,A,3353.7506,N,09832.0307,W,0.28,262.31,030412,,,D*7C
$GPGGA,224916.000,3353.7506,N,09832.0307,W,2,07,1.6,302.8,M,-23.7,M,2.8,0000*47
$GPGSA,A,3,16,23,31,03,32,06,30,,,,,,2.9,1.6,2.3*3C
$GPRMC,224916.000,A,3353.7506,N,09832.0307,W,0.30,305.99,030412,,,D*74
$GPGGA,224917.000,3353.7504,N,09832.0313,W,2,07,1.6,301.6,M,-23.7,M,0.8,0000*4E
$GPGSA,A,3,16,23,31,03,32,06,30,,,,,,2.9,1.6,2.3*3C
$GPRMC,224917.000,A,3353.7504,N,09832.0313,W,0.33,264.71,030412,,,D*71
$GPGGA,224918.000,3353.7504,N,09832.0317,W,2,06,2.0,300.7,M,-23.7,M,0.8,0000*41
$GPGSA,A,3,16,23,03,32,06,30,,,,,,,4.8,2.0,4.4*3D
$GPGSV,3,1,12,16,70,060,37,23,65,330,38,30,42,044,34,20,41,220,*76
$GPGSV,3,2,12,13,33,317,21,32,32,188,26,03,30,138,32,06,30,119,28*77
$GPGSV,3,3,12,07,17,273,16,31,10,069,17,10,09,320,,19,06,164,*74
$GPRMC,224918.000,A,3353.7504,N,09832.0317,W,0.26,301.53,030412,,,D*7C
$GPGGA,224919.000,3353.7503,N,09832.0318,W,2,06,2.0,300.2,M,-23.7,M,0.8,0000*4D
$GPGSA,A,3,16,23,03,32,06,30,,,,,,,4.8,2.0,4.4*3D
$GPRMC,224919.000,A,3353.7503,N,09832.0318,W,0.23,322.33,030412,,,D*77
$GPGGA,224920.000,3353.7503,N,09832.0321,W,2,06,2.0,299.5,M,-23.7,M,0.8,0000*4B
$GPGSA,A,3,16,23,03,32,06,30,,,,,,,4.8,2.0,4.4*3D
$GPRMC,224920.000,A,3353.7503,N,09832.0321,W,0.22,309.79,030412,,,D*71
$GPGGA,224921.000,3353.7502,N,09832.0324,W,2,06,2.0,298.8,M,-23.7,M,1.8,0000*43
$GPGSA,A,3,16,23,03,32,06,30,,,,,,,4.8,2.0,4.4*3D
$GPRMC,224921.000,A,3353.7502,N,09832.0324,W,0.22,300.49,030412,,,D*7E
$GPGGA,224922.000,3353.7501,N,09832.0326,W,2,06,2.0,298.2,M,-23.7,M,2.8,0000*48
$GPGSA,A,3,16,23,03,32,06,30,,,,,,,4.8,2.0,4.4*3D
$GPRMC,224922.000,A,3353.7501,N,09832.0326,W,0.22,315.69,030412,,,D*7A
$GPGGA,224923.000,3353.7500,N,09832.0328,W,2,08,1.4,298.0,M,-23.7,M,0.8,0000*4F
$GPGSA,A,3,20,16,23,31,03,32,06,30,,,,,2.5,1.4,2.1*32
$GPGSV,3,1,12,16,70,060,37,23,65,330,38,30,42,044,34,20,41,220,22*76
$GPGSV,3,2,12,13,33,317,21,32,32,188,26,03,30,138,32,06,30,119,28*77
$GPGSV,3,3,12,07,17,273,16,31,10,069,20,10,09,320,,19,06,164,*70
$GPRMC,224923.000,A,3353.7500,N,09832.0328,W,0.19,320.39,030412,,,D*7F
$GPGGA,224924.000,3353.7500,N,09832.0328,W,2,08,1.4,297.7,M,-23.7,M,0.8,0000*40
$GPGSA,A,3,20,16,23,31,03,32,06,30,,,,,2.5,1.4,2.1*32
$GPRMC,224924.000,A,3353.7500,N,09832.0328,W,0.26,4.38,030412,,,D*70
$GPGGA,224925.000,3353.7500,N,09832.0329,W,2,08,1.4,297.6,M,-23.7,M,0.8,0000*41
$GPGSA,A,3,20,16,23,31,03,32,06,30,,,,,2.5,1.4,2.1*32
$GPRMC,224925.000,A,3353.7500,N,09832.0329,W,0.21,349.67,030412,,,D*77
$GPGGA,224926.000,3353.7501,N,09832.0329,W,2,08,1.4,297.3,M,-23.7,M,0.8,0000*46
$GPGSA,A,3,20,16,23,31,03,32,06,30,,,,,2.5,1.4,2.1*32
$GPRMC,224926.000,A,3353.7501,N,09832.0329,W,0.38,26.33,030412,,,D*46
$GPGGA,224927.000,3353.7501,N,09832.0329,W,2,08,1.4,297.3,M,-23.7,M,1.8,0000*46
$GPGSA,A,3,20,16,23,31,03,32,06,30,,,,,2.5,1.4,2.1*32
$GPRMC,224927.000,A,3353.7501,N,09832.0329,W,0.24,299.94,030412,,,D*71
$GPGGA,224928.000,3353.7501,N,09832.0329,W,2,08,1.4,297.1,M,-23.7,M,2.8,0000*48
$GPGSA,A,3,20,16,23,31,03,32,06,30,,,,,2.5,1.4,2.1*32
$GPGSV,3,1,12,16,70,060,37,23,65,330,38,30,42,044,34,20,41,220,22*76
$GPGSV,3,2,12,13,33,317,21,32,32,188,26,03,30,138,31,06,30,119,28*74
$GPGSV,3,3,12,07,17,273,15,31,10,069,21,10,09,320,,19,06,164,*72
$GPRMC,224928.000,A,3353.7501,N,09832.0329,W,0.24,1.56,030412,,,D*73
$GPGGA,224929.000,3353.7501,N,09832.0329,W,2,08,1.4,297.2,M,-23.7,M,0.8,0000*48
$GPGSA,A,3,20,16,23,31,03,32,06,30,,,,,2.5,1.4,2.1*32
$GPRMC,224929.000,A,3353.7501,N,09832.0329,W,0.22,0.51,030412,,,D*72
$GPGGA,224930.000,3353.7502,N,09832.0329,W,2,08,1.4,297.2,M,-23.7,M,0.8,0000*43
$GPGSA,A,3,20,16,23,31,03,32,06,30,,,,,2.5,1.4,2.1*32
$GPRMC,224930.000,A,3353.7502,N,09832.0329,W,0.35,39.93,030412,,,D*4B
$GPGGA,224931.000,3353.7502,N,09832.0329,W,2,07,1.6,297.1,M,-23.7,M,0.8,0000*4C
$GPGSA,A,3,16,23,31,03,32,06,30,,,,,,2.9,1.6,2.3*3C
$GPRMC,224931.000,A,3353.7502,N,09832.0329,W,0.10,326.74,030412,,,D*79
$GPGGA,224932.000,3353.7502,N,09832.0329,W,2,07,1.6,296.9,M,-23.7,M,0.8,0000*46
$GPGSA,A,3,16,23,31,03,32,06,30,,,,,,2.9,1.6,2.3*3C
$GPRMC,224932.000,A,3353.7502,N,09832.0329,W,0.17,31.46,030412,,,D*49
$GPGGA,224933.000,3353.7502,N,09832.0329,W,2,07,1.6,296.9,M,-23.7,M,0.8,0000*47
$GPGSA,A,3,16,23,31,03,32,06,30,,,,,,2.9,1.6,2.3*3C
$GPGSV,3,1,12,16,70,060,37,23,65,330,38,30,42,044,34,20,41,220,*76
$GPGSV,3,2,12,13,33,317,21,32,32,188,26,03,30,138,32,06,30,119,28*77
$GPGSV,3,3,12,07,17,273,15,31,10,069,22,10,09,320,,19,06,164,*71
$GPRMC,224933.000,A,3353.7502,N,09832.0329,W,0.10,281.48,030412,,,D*78
$GPGGA,224934.000,3353.7501,N,09832.0329,W,2,07,1.6,297.0,M,-23.7,M,0.8,0000*4B
$GPGSA,A,3,16,23,31,03,32,06,30,,,,,,2.9,1.6,2.3*3C
$GPRMC,224934.000,A,3353.7501,N,09832.0329,W,0.17,259.32,030412,,,D*73
$GPGGA,224935.000,3353.7501,N,09832.0330,W,2,07,1.6,296.9,M,-23.7,M,1.8,0000*4B
$GPGSA,A,3,16,23,31,03,32,06,30,,,,,,2.9,1.6,2.3*3C
$GPRMC,224935.000,A,3353.7501,N,09832.0330,W,0.05,353.57,030412,,,D*71
$GPGGA,224936.000,3353.7502,N,09832.0327,W,2,07,1.6,297.3,M,-23.7,M,0.8,0000*47
$GPGSA,A,3,16,23,31,03,32,06,30,,,,,,2.9,1.6,2.3*3C
$GPRMC,224936.000,A,3353.7502,N,09832.0327,W,0.20,30.08,030412,,,D*4C
$GPGGA,224937.000,3353.7503,N,09832.0327,W,2,07,1.6,297.2,M,-23.7,M,0.8,0000*46
$GPGSA,A,3,16,23,31,03,32,06,30,,,,,,2.9,1.6,2.3*3C
$GPRMC,224937.000,A,3353.7503,N,09832.0327,W,0.19,45.65,030412,,,D*4F
$GPGGA,224938.000,3353.7502,N,09832.0327,W,2,07,1.6,297.2,M,-23.7,M,0.8,0000*48
$GPGSA,A,3,16,23,31,03,32,06,30,,,,,,2.9,1.6,2.3*3C
$GPGSV,3,1,12,16,70,060,37,23,65,330,38,30,42,044,34,20,41,220,*76
$GPGSV,3,2,12,13,33,317,21,32,32,188,26,03,30,138,32,06,30,119,29*76
$GPGSV,3,3,12,07,17,273,16,31,10,069,22,10,09,320,,19,06,164,*72
$GPRMC,224938.000,A,3353.7502,N,09832.0327,W,0.15,309.53,030412,,,D*73
$GPGGA,224939.000,3353.7503,N,09832.0327,W,2,07,1.6,297.2,M,-23.7,M,1.8,0000*49
$GPGSA,A,3,16,23,31,03,32,06,30,,,,,,2.9,1.6,2.3*3C
$GPRMC,224939.000,A,3353.7503,N,09832.0327,W,0.09,339.69,030412,,,D*74
$GPGGA,224940.000,3353.7503,N,09832.0327,W,2,07,1.6,297.4,M,-23.7,M,2.8,0000*42
$GPGSA,A,3,16,23,31,03,32,06,30,,,,,,2.9,1.6,2.3*3C
$GPRMC,224940.000,A,3353.7503,N,09832.0327,W,0.19,281.79,030412,,,D*78
$GPGGA,224941.000,3353.7503,N,09832.0327,W,2,07,1.6,297.5,M,-23.7,M,3.8,0000*43
$GPGSA,A,3,16,23,31,03,32,06,30,,,,,,2.9,1.6,2.3*3C
$GPRMC,224941.000,A,3353.7503,N,09832.0327,W,0.16,276.57,030412,,,D*72
$GPGGA,224942.000,3353.7503,N,09832.0327,W,2,07,1.6,297.7,M,-23.7,M,0.8,0000*41
$GPGSA,A,3,16,23,31,03,32,06,30,,,,,,2.9,1.6,2.3*3C
$GPRMC,224942.000,A,3353.7503,N,09832.0327,W,0.17,35.55,030412,,,D*47
$GPGGA,224943.000,3353.7504,N,09832.0326,W,2,07,1.6,297.7,M,-23.7,M,0.8,0000*46
$GPGSA,A,3,16,23,31,03,32,06,30,,,,,,2.9,1.6,2.3*3C
$GPGSV,3,1,12,16,70,060,37,23,65,330,38,30,42,044,34,20,41,220,*76
$GPGSV,3,2,12,13,33,317,21,32,32,188,26,03,30,138,32,06,30,119,28*77
$GPGSV,3,3,12,07,17,273,18,31,10,069,22,10,09,320,,19,06,164,*7C
$GPRMC,224943.000,A,3353.7504,N,09832.0326,W,0.22,38.62,030412,,,D*4F
$GPGGA,224944.000,3353.7504,N,09832.0325,W,2,07,1.6,297.9,M,-23.7,M,0.8,0000*4C
$GPGSA,A,3,16,23,31,03,32,06,30,,,,,,2.9,1.6,2.3*3C
$GPRMC,224944.000,A,3353.7504,N,09832.0325,W,0.07,58.77,030412,,,D*4E
$GPGGA,224945.000,3353.7504,N,09832.0324,W,2,07,1.6,298.2,M,-23.7,M,1.8,0000*49
$GPGSA,A,3,16,23,31,03,32,06,30,,,,,,2.9,1.6,2.3*3C
$GPRMC,224945.000,A,3353.7504,N,09832.0324,W,0.06,249.29,030412,,,D*76
$GPGGA,224946.000,3353.7504,N,09832.0323,W,2,07,1.6,298.6,M,-23.7,M,2.8,0000*4A
$GPGSA,A,3,16,23,31,03,32,06,30,,,,,,2.9,1.6,2.3*3C
$GPRMC,224946.000,A,3353.7504,N,09832.0323,W,0.15,231.78,030412,,,D*7B
$GPGGA,224947.000,3353.7504,N,09832.0322,W,2,07,1.6,298.7,M,-23.7,M,0.8,0000*49
$GPGSA,A,3,16,23,31,03,32,06,30,,,,,,2.9,1.6,2.3*3C
$GPRMC,224947.000,A,3353.7504,N,09832.0322,W,0.23,75.75,030412,,,D*41
$GPGGA,224948.000,3353.7504,N,09832.0321,W,2,07,1.6,298.6,M,-23.7,M,0.8,0000*44
$GPGSA,A,3,16,23,31,03,32,06,30,,,,,,2.9,1.6,2.3*3C
$GPGSV,3,1,12,16,70,060,37,23,65,330,37,30,42,044,34,20,41,220,*79
$GPGSV,3,2,12,13,33,317,21,32,32,188,26,03,30,138,32,06,30,119,28*77
$GPGSV,3,3,12,07,17,273,19,31,10,069,21,10,09,320,,19,06,164,*7E
$GPRMC,224948.000,A,3353.7504,N,09832.0321,W,0.29,73.36,030412,,,D*46
$GPGGA,224949.000,3353.7505,N,09832.0320,W,2,07,1.6,298.6,M,-23.7,M,0.8,0000*45
$GPGSA,A,3,16,23,31,03,32,06,30,,,,,,2.9,1.6,2.3*3C
$GPRMC,224949.000,A,3353.7505,N,09832.0320,W,0.35,68.43,030412,,,D*42
$GPGGA,224950.000,3353.7506,N,09832.0319,W,2,07,1.6,298.5,M,-23.7,M,0.8,0000*47
$GPGSA,A,3,16,23,31,03,32,06,30,,,,,,2.9,1.6,2.3*3C
$GPRMC,224950.000,A,3353.7506,N,09832.0319,W,0.36,55.42,030412,,,D*4F
$GPGGA,224951.000,3353.7506,N,09832.0316,W,2,07,1.8,298.8,M,-23.7,M,1.8,0000*4B
$GPGSA,A,3,20,16,23,03,32,06,30,,,,,,4.6,1.8,4.2*3C
$GPRMC,224951.000,A,3353.7506,N,09832.0316,W,0.07,263.17,030412,,,D*74
$GPGGA,224952.000,3353.7506,N,09832.0316,W,2,07,1.8,298.9,M,-23.7,M,2.8,0000*4A
$GPGSA,A,3,20,16,23,03,32,06,30,,,,,,4.6,1.8,4.2*3C
$GPRMC,224952.000,A,3353.7506,N,09832.0316,W,0.07,286.27,030412,,,D*7F
$GPGGA,224953.000,3353.7506,N,09832.0315,W,2,07,1.8,299.1,M,-23.7,M,3.8,0000*40
$GPGSA,A,3,20,16,23,03,32,06,30,,,,,,4.6,1.8,4.2*3C
$GPGSV,3,1,12,16,70,060,37,23,65,330,37,30,42,044,35,20,41,220,20*7A
$GPGSV,3,2,12,13,33,317,21,32,32,188,27,03,30,138,32,06,30,119,23*7D
$GPGSV,3,3,12,07,17,273,20,31,10,069,,10,09,320,,19,06,164,*77
$GPRMC,224953.000,A,3353.7506,N,09832.0315,W,0.32,75.87,030412,,,D*4F
$GPGGA,224954.000,3353.7506,N,09832.0314,W,2,07,1.8,299.3,M,-23.7,M,0.8,0000*47
$GPGSA,A,3,20,16,23,03,32,06,30,,,,,,4.6,1.8,4.2*3C
$GPRMC,224954.000,A,3353.7506,N,09832.0314,W,0.07,248.85,030412,,,D*71
$GPGGA,224955.000,3353.7506,N,09832.0314,W,2,07,1.8,299.4,M,-23.7,M,0.8,0000*41
$GPGSA,A,3,20,16,23,03,32,06,30,,,,,,4.6,1.8,4.2*3C
$GPRMC,224955.000,A,3353.7506,N,09832.0314,W,0.10,213.55,030412,,,D*75
$GPGGA,224956.000,3353.7506,N,09832.0313,W,2,07,1.8,299.7,M,-23.7,M,0.8,0000*46
$GPGSA,A,3,20,16,23,03,32,06,30,,,,,,4.6,1.8,4.2*3C
$GPRMC,224956.000,A,3353.7506,N,09832.0313,W,0.21,57.92,030412,,,D*4A
$GPGGA,224957.000,3353.7507,N,09832.0312,W,2,07,1.8,299.9,M,-23.7,M,1.8,0000*48
$GPGSA,A,3,20,16,23,03,32,06,30,,,,,,4.6,1.8,4.2*3C
$GPRMC,224957.000,A,3353.7507,N,09832.0312,W,0.33,56.91,030412,,,D*4A
$GPGGA,224958.000,3353.7507,N,09832.0310,W,2,07,1.8,300.3,M,-23.7,M,2.8,0000*4D
$GPGSA,A,3,20,16,23,03,32,06,30,,,,,,4.6,1.8,4.2*3C
$GPGSV,3,1,12,16,70,060,38,23,65,330,36,30,42,044,35,20,41,220,19*7E
$GPGSV,3,2,12,13,33,317,21,32,32,188,27,03,30,138,33,06,30,119,23*7C
$GPGSV,3,3,12,07,17,273,21,31,10,069,,10,09,320,,19,06,164,*76
$GPRMC,224958.000,A,3353.7507,N,09832.0310,W,0.33,71.65,030412,,,D*49
$GPGGA,224959.000,3353.7507,N,09832.0310,W,2,07,1.8,300.6,M,-23.7,M,3.8,0000*48
$GPGSA,A,3,20,16,23,03,32,06,30,,,,,,4.6,1.8,4.2*3C
$GPRMC,224959.000,A,3353.7507,N,09832.0310,W,0.08,186.24,030412,,,D*7C
$GPGGA,225000.000,3353.7507,N,09832.0310,W,2,07,1.8,300.7,M,-23.7,M,0.8,0000*4E
$GPGSA,A,3,20,16,23,03,32,06,30,,,,,,4.6,1.8,4.2*3C
$GPRMC,225000.000,A,3353.7507,N,09832.0310,W,0.27,246.33,030412,,,D*7C
$GPGGA,225001.000,3353.7507,N,09832.0310,W,2,07,1.8,300.9,M,-23.7,M,0.8,0000*41
$GPGSA,A,3,20,16,23,03,32,06,30,,,,,,4.6,1.8,4.2*3C
$GPRMC,225001.000,A,3353.7507,N,09832.0310,W,0.30,237.56,030412,,,D*7E
$GPGGA,225002.000,3353.7507,N,09832.0309,W,2,07,1.8,301.1,M,-23.7,M,0.8,0000*43
$GPGSA,A,3,20,16,23,03,32,06,30,,,,,,4.6,1.8,4.2*3C
$GPRMC,225002.000,A,3353.7507,N,09832.0309,W,0.29,76.36,030412,,,D*4C
$GPGGA,225003.000,3353.7507,N,09832.0308,W,2,07,1.8,301.4,M,-23.7,M,0.8,0000*46
$GPGSA,A,3,20,16,23,03,32,06,30,,,,,,4.6,1.8,4.2*3C
$GPGSV,3,1,12,16,70,060,38,23,65,330,36,30,42,044,35,20,41,220,19*7E
$GPGSV,3,2,12,13,33,317,22,32,32,188,28,03,30,138,33,06,30,119,23*70
$GPGSV,3,3,12,07,17,273,21,31,10,069,,10,09,320,,19,06,164,*76
$GPRMC,225003.000,A,3353.7507,N,09832.0308,W,0.47,77.35,030412,,,D*46
$GPGGA,225004.000,3353.7508,N,09832.0306,W,2,07,1.8,301.7,M,-23.7,M,1.8,0000*42
$GPGSA,A,3,20,16,23,03,32,06,30,,,,,,4.6,1.8,4.2*3C
$GPRMC,225004.000,A,3353.7508,N,09832.0306,W,0.41,53.89,030412,,,D*47
$GPGGA,225005.000,3353.7508,N,09832.0305,W,2,07,1.8,302.0,M,-23.7,M,0.8,0000*45
$GPGSA,A,3,20,16,23,03,32,06,30,,,,,,4.6,1.8,4.2*3C
$GPRMC,225005.000,A,3353.7508,N,09832.0305,W,0.48,77.56,030412,,,D*48
$GPGGA,225006.000,3353.7508,N,09832.0303,W,2,07,1.8,302.4,M,-23.7,M,0.8,0000*44
$GPGSA,A,3,20,16,23,03,32,06,30,,,,,,4.6,1.8,4.2*3C
$GPRMC,225006.000,A,3353.7508,N,09832.0303,W,0.06,27.85,030412,,,D*4C
$GPGGA,225007.000,3353.7509,N,09832.0304,W,2,08,1.4,302.3,M,-23.7,M,0.8,0000*47
$GPGSA,A,3,20,16,23,31,03,32,06,30,,,,,2.5,1.4,2.1*32
$GPRMC,225007.000,A,3353.7509,N,09832.0304,W,0.05,114.09,030412,,,D*7D
$GPGGA,225008.000,3353.7509,N,09832.0303,W,2,07,1.8,302.6,M,-23.7,M,0.8,0000*49
$GPGSA,A,3,20,16,23,03,32,06,30,,,,,,4.6,1.8,4.2*3C
$GPGSV,3,1,12,16,70,060,38,23,65,330,36,30,42,044,35,20,41,220,20*74
$GPGSV,3,2,12,13,33,317,22,32,32,188,28,03,30,138,33,06,30,119,24*77
$GPGSV,3,3,12,07,17,273,21,31,10,069,16,10,09,320,,19,06,164,*71
$GPRMC,225008.000,A,3353.7509,N,09832.0303,W,0.03,173.02,030412,,,D*79
$GPGGA,225009.000,3353.7509,N,09832.0302,W,2,07,1.8,303.0,M,-23.7,M,1.8,0000*4F
$GPGSA,A,3,20,16,23,03,32,06,30,,,,,,4.6,1.8,4.2*3C
$GPRMC,225009.000,A,3353.7509,N,09832.0302,W,0.23,83.38,030412,,,D*4C
$GPGGA,225010.000,3353.7509,N,09832.0301,W,2,07,1.8,303.3,M,-23.7,M,2.8,0000*44
$GPGSA,A,3,20,16,23,03,32,06,30,,,,,,4.6,1.8,4.2*3C
$GPRMC,225010.000,A,3353.7509,N,09832.0301,W,0.15,89.87,030412,,,D*4C
$GPGGA,225011.000,3353.7509,N,09832.0300,W,2,07,1.8,303.6,M,-23.7,M,0.8,0000*43
$GPGSA,A,3,20,16,23,03,32,06,30,,,,,,4.6,1.8,4.2*3C
$GPRMC,225011.000,A,3353.7509,N,09832.0300,W,0.19,83.86,030412,,,D*4B
$GPGGA,225012.000,3353.7509,N,09832.0299,W,2,07,1.8,303.7,M,-23.7,M,0.8,0000*40
$GPGSA,A,3,20,16,23,03,32,06,30,,,,,,4.6,1.8,4.2*3C
$GPRMC,225012.000,A,3353.7509,N,09832.0299,W,0.23,82.64,030412,,,D*4D
$GPGGA,225013.000,3353.7509,N,09832.0298,W,2,07,1.8,304.0,M,-23.7,M,0.8,0000*40
$GPGSA,A,3,20,16,23,03,32,06,30,,,,,,4.6,1.8,4.2*3C
$GPGSV,3,1,12,16,70,060,38,23,65,330,36,30,42,044,35,20,41,220,22*76
$GPGSV,3,2,12,13,33,317,22,32,32,188,29,03,30,138,33,06,30,119,25*77
$GPGSV,3,3,12,07,17,273,21,31,10,069,,10,09,320,,19,06,164,*76
$GPRMC,225013.000,A,3353.7509,N,09832.0298,W,0.09,142.23,030412,,,D*7B
$GPGGA,225014.000,3353.7508,N,09832.0298,W,2,07,1.8,304.2,M,-23.7,M,0.8,0000*44
$GPGSA,A,3,20,16,23,03,32,06,30,,,,,,4.6,1.8,4.2*3C
$GPRMC,225014.000,A,3353.7508,N,09832.0298,W,0.10,84.87,030412,,,D*40
$GPGGA,225015.000,3353.7508,N,09832.0297,W,2,07,1.8,304.5,M,-23.7,M,1.8,0000*4C
$GPGSA,A,3,20,16,23,03,32,06,30,,,,,,4.6,1.8,4.2*3C
$GPRMC,225015.000,A,3353.7508,N,09832.0297,W,0.16,81.76,030412,,,D*43
$GPGGA,225016.000,3353.7508,N,09832.0297,W,2,07,1.8,304.8,M,-23.7,M,2.8,0000*41
$GPGSA,A,3,20,16,23,03,32,06,30,,,,,,4.6,1.8,4.2*3C
$GPRMC,225016.000,A,3353.7508,N,09832.0297,W,0.06,108.10,030412,,,D*71
$GPGGA,225017.000,3353.7508,N,09832.0297,W,2,07,1.8,305.0,M,-23.7,M,3.8,0000*48
$GPGSA,A,3,20,16,23,03,32,06,30,,,,,,4.5,1.8,4.2*3F
$GPRMC,225017.000,A,3353.7508,N,09832.0297,W,0.16,84.75,030412,,,D*47
$GPGGA,225018.000,3353.7508,N,09832.0296,W,2,07,1.8,305.3,M,-23.7,M,0.8,0000*46
$GPGSA,A,3,20,16,23,03,32,06,30,,,,,,4.5,1.8,4.2*3F
$GPGSV,3,1,12,16,70,060,38,23,65,330,36,30,42,044,35,20,41,220,24*70
$GPGSV,3,2,12,13,33,317,22,32,32,188,28,03,30,138,34,06,30,119,26*72
$GPGSV,3,3,12,07,17,273,21,31,10,069,,10,09,320,,19,06,164,*76
$GPRMC,225018.000,A,3353.7508,N,09832.0296,W,0.05,141.90,030412,,,D*78
$GPGGA,225019.000,3353.7508,N,09832.0296,W,2,07,1.8,305.5,M,-23.7,M,0.8,0000*41
$GPGSA,A,3,20,16,23,03,32,06,30,,,,,,4.5,1.8,4.2*3F
$GPRMC,225019.000,A,3353.7508,N,09832.0296,W,0.09,204.44,030412,,,D*7E
$GPGGA,225020.000,3353.7507,N,09832.0296,W,2,07,1.8,305.7,M,-23.7,M,0.8,0000*46
$GPGSA,A,3,20,16,23,03,32,06,30,,,,,,4.5,1.8,4.2*3F
$GPRMC,225020.000,A,3353.7507,N,09832.0296,W,0.10,148.12,030412,,,D*7B
$GPGGA,225021.000,3353.7507,N,09832.0296,W,2,07,1.8,305.9,M,-23.7,M,1.8,0000*48
$GPGSA,A,3,20,16,23,03,32,06,30,,,,,,4.5,1.8,4.2*3F
$GPRMC,225021.000,A,3353.7507,N,09832.0296,W,0.17,213.92,030412,,,D*78
$GPGGA,225022.000,3353.7506,N,09832.0296,W,2,07,1.8,306.1,M,-23.7,M,2.8,0000*42
$GPGSA,A,3,20,16,23,03,32,06,30,,,,,,4.5,1.8,4.2*3F
$GPRMC,225022.000,A,3353.7506,N,09832.0296,W,0.11,147.42,030412,,,D*73
$GPGGA,225023.000,3353.7506,N,09832.0296,W,2,07,1.8,306.2,M,-23.7,M,3.8,0000*41
$GPGSA,A,3,20,16,23,03,32,06,30,,,,,,4.5,1.8,4.2*3F
$GPGSV,3,1,12,16,70,060,38,23,65,330,36,30,42,044,35,20,41,220,28*7C
$GPGSV,3,2,12,13,33,317,22,32,32,188,28,03,30,138,34,06,30,119,27*73
$GPGSV,3,3,12,07,17,273,20,31,10,069,,10,09,320,,19,06,164,*77
$GPRMC,225023.000,A,3353.7506,N,09832.0296,W,0.10,121.18,030412,,,D*7C
$GPGGA,225024.000,3353.7506,N,09832.0296,W,2,07,1.8,306.2,M,-23.7,M,0.8,0000*45
$GPGSA,A,3,20,16,23,03,32,06,30,,,,,,4.5,1.8,4.2*3F
$GPRMC,225024.000,A,3353.7506,N,09832.0296,W,0.11,162.39,030412,,,D*7E
$GPGGA,225025.000,3353.7506,N,09832.0296,W,2,07,1.8,306.4,M,-23.7,M,0.8,0000*42
$GPGSA,A,3,20,16,23,03,32,06,30,,,,,,4.5,1.8,4.2*3F
$GPRMC,225025.000,A,3353.7506,N,09832.0296,W,0.10,166.58,030412,,,D*7D
$GPGGA,225026.000,3353.7506,N,09832.0296,W,2,07,1.8,306.5,M,-23.7,M,0.8,0000*40
$GPGSA,A,3,20,16,23,03,32,06,30,,,,,,4.5,1.8,4.2*3F
$GPRMC,225026.000,A,3353.7506,N,09832.0296,W,0.06,218.21,030412,,,D*7D
$GPGGA,225027.000,3353.7506,N,09832.0296,W,2,07,1.8,306.6,M,-23.7,M,1.8,0000*43
$GPGSA,A,3,20,16,23,03,32,06,30,,,,,,4.5,1.8,4.2*3F
$GPRMC,225027.000,A,3353.7506,N,09832.0296,W,0.06,218.67,030412,,,D*7E
$GPGGA,225028.000,3353.7506,N,09832.0296,W,2,07,1.8,306.6,M,-23.7,M,2.8,0000*4F
$GPGSA,A,3,20,16,23,03,32,06,30,,,,,,4.5,1.8,4.2*3F
$GPGSV,3,1,12,16,70,060,38,23,65,330,35,30,42,044,34,20,41,220,28*7E
$GPGSV,3,2,12,13,33,317,21,32,32,188,28,03,30,138,35,06,30,119,27*71
$GPGSV,3,3,12,07,17,273,20,31,10,069,,10,09,320,,19,06,164,*77
$GPRMC,225028.000,A,3353.7506,N,09832.0296,W,0.05,216.16,030412,,,D*7A
$GPGGA,225029.000,3353.7506,N,09832.0296,W,2,07,1.8,306.7,M,-23.7,M,3.8,0000*4E
$GPGSA,A,3,20,16,23,03,32,06,30,,,,,,4.5,1.8,4.2*3F
$GPRMC,225029.000,A,3353.7506,N,09832.0296,W,0.06,245.09,030412,,,D*70
$GPGGA,225030.000,3353.7506,N,09832.0296,W,2,07,1.8,307.0,M,-23.7,M,0.8,0000*43
$GPGSA,A,3,20,16,23,03,32,06,30,,,,,,4.5,1.8,4.2*3F
$GPRMC,225030.000,A,3353.7506,N,09832.0296,W,0.02,133.52,030412,,,D*70
$GPGGA,225031.000,3353.7506,N,09832.0296,W,2,07,1.8,306.7,M,-23.7,M,0.8,0000*44
$GPGSA,A,3,20,16,23,03,32,06,30,,,,,,4.5,1.8,4.2*3F
$GPRMC,225031.000,A,3353.7506,N,09832.0296,W,0.00,81.62,030412,,,D*48
$GPGGA,225032.000,3353.7506,N,09832.0296,W,2,07,1.8,306.5,M,-23.7,M,0.8,0000*45
$GPGSA,A,3,20,16,23,03,32,06,30,,,,,,4.5,1.8,4.2*3F
$GPRMC,225032.000,A,3353.7506,N,09832.0296,W,0.07,89.28,030412,,,D*4A
$GPGGA,225033.000,3353.7507,N,09832.0296,W,2,07,1.8,306.4,M,-23.7,M,0.8,0000*44
$GPGSA,A,3,20,16,23,03,32,06,30,,,,,,4.5,1.8,4.2*3F
$GPGSV,3,1,12,16,70,060,38,23,65,330,35,30,42,044,35,20,41,220,27*70
$GPGSV,3,2,12,13,33,317,21,32,32,188,29,03,30,138,36,06,30,119,27*73
$GPGSV,3,3,12,07,17,273,19,31,10,069,,10,09,320,,19,06,164,*7D
$GPRMC,225033.000,A,3353.7507,N,09832.0296,W,0.08,107.84,030412,,,D*74
$GPGGA,225034.000,3353.7507,N,09832.0295,W,2,08,1.4,306.3,M,-23.7,M,0.8,0000*44
$GPGSA,A,3,20,16,23,31,03,32,06,30,,,,,2.5,1.4,2.1*32
$GPRMC,225034.000,A,3353.7507,N,09832.0295,W,0.18,65.16,030412,,,D*4F
$GPGGA,225035.000,3353.7507,N,09832.0295,W,2,08,1.4,306.3,M,-23.7,M,1.8,0000*44
$GPGSA,A,3,20,16,23,31,03,32,06,30,,,,,2.5,1.4,2.1*32
$GPRMC,225035.000,A,3353.7507,N,09832.0295,W,0.19,76.44,030412,,,D*4A
$GPGGA,225036.000,3353.7508,N,09832.0294,W,2,08,1.4,306.1,M,-23.7,M,0.8,0000*4A
$GPGSA,A,3,20,16,23,31,03,32,06,30,,,,,2.5,1.4,2.1*32
$GPRMC,225036.000,A,3353.7508,N,09832.0294,W,0.06,23.81,030412,,,D*40
$GPGGA,225037.000,3353.7508,N,09832.0294,W,2,08,1.4,306.1,M,-23.7,M,0.8,0000*4B
$GPGSA,A,3,20,16,23,31,03,32,06,30,,,,,2.5,1.4,2.1*32
$GPRMC,225037.000,A,3353.7508,N,09832.0294,W,0.08,31.60,030412,,,D*43
$GPGGA,225038.000,3353.7508,N,09832.0294,W,2,08,1.4,306.2,M,-23.7,M,0.8,0000*47
$GPGSA,A,3,20,16,23,31,03,32,06,30,,,,,2.5,1.4,2.1*32
$GPGSV,3,1,12,16,70,060,38,23,65,330,35,30,42,044,35,20,41,220,27*70
$GPGSV,3,2,12,13,33,317,21,32,32,188,29,03,30,138,36,06,30,119,26*72
$GPGSV,3,3,12,07,17,273,19,31,10,069,20,10,09,320,,19,06,164,*7F
$GPRMC,225038.000,A,3353.7508,N,09832.0294,W,0.18,284.26,030412,,,D*73
$GPGGA,225039.000,3353.7508,N,09832.0295,W,2,08,1.4,306.0,M,-23.7,M,1.8,0000*44
$GPGSA,A,3,20,16,23,31,03,32,06,30,,,,,2.5,1.4,2.1*32
$GPRMC,225039.000,A,3353.7508,N,09832.0295,W,0.10,338.63,030412,,,D*7C
$GPGGA,225040.000,3353.7509,N,09832.0295,W,2,08,1.4,305.9,M,-23.7,M,2.8,0000*42
$GPGSA,A,3,20,16,23,31,03,32,06,30,,,,,2.5,1.4,2.1*32
$GPRMC,225040.000,A,3353.7509,N,09832.0295,W,0.17,356.44,030412,,,D*79
$GPGGA,225041.000,3353.7509,N,09832.0295,W,2,08,1.4,305.7,M,-23.7,M,3.8,0000*4C
$GPGSA,A,3,20,16,23,31,03,32,06,30,,,,,2.5,1.4,2.1*32
$GPRMC,225041.000,A,3353.7509,N,09832.0295,W,0.15,348.67,030412,,,D*74
$GPGGA,225042.000,3353.7510,N,09832.0295,W,2,08,1.4,305.7,M,-23.7,M,0.8,0000*44
$GPGSA,A,3,20,16,23,31,03,32,06,30,,,,,2.5,1.4,2.1*32
$GPRMC,225042.000,A,3353.7510,N,09832.0295,W,0.17,14.76,030412,,,D*47
$GPGGA,225043.000,3353.7510,N,09832.0295,W,2,07,1.8,305.8,M,-23.7,M,0.8,0000*49
$GPGSA,A,3,20,16,23,03,32,06,30,,,,,,4.5,1.8,4.2*3F
$GPGSV,3,1,12,16,70,060,38,23,65,330,35,30,42,044,35,20,41,220,27*70
$GPGSV,3,2,12,13,33,317,21,32,32,188,28,03,30,138,36,06,30,119,25*70
$GPGSV,3,3,12,07,17,273,18,31,10,069,20,10,09,320,,19,06,164,*7E
$GPRMC,225043.000,A,3353.7510,N,09832.0295,W,0.21,342.16,030412,,,D*75
$GPGGA,225044.000,3353.7510,N,09832.0294,W,2,07,1.8,305.9,M,-23.7,M,0.8,0000*4E
$GPGSA,A,3,20,16,23,03,32,06,30,,,,,,4.5,1.8,4.2*3F
$GPRMC,225044.000,A,3353.7510,N,09832.0294,W,0.12,6.79,030412,,,D*79
$GPGGA,225045.000,3353.7510,N,09832.0294,W,2,07,1.8,306.0,M,-23.7,M,1.8,0000*44
$GPGSA,A,3,20,16,23,03,32,06,30,,,,,,4.5,1.8,4.2*3F
$GPRMC,225045.000,A,3353.7510,N,09832.0294,W,0.11,12.15,030412,,,D*44
$GPGGA,225046.000,3353.7510,N,09832.0293,W,2,07,1.8,306.2,M,-23.7,M,2.8,0000*41
$GPGSA,A,3,20,16,23,03,32,06,30,,,,,,4.5,1.8,4.2*3F
$GPRMC,225046.000,A,3353.7510,N,09832.0293,W,0.07,316.56,030412,,,D*77
$GPGGA,225047.000,3353.7509,N,09832.0293,W,2,07,1.8,306.3,M,-23.7,M,0.8,0000*4B
$GPGSA,A,3,20,16,23,03,32,06,30,,,,,,4.5,1.8,4.2*3F
$GPRMC,225047.000,A,3353.7509,N,09832.0293,W,0.08,3.76,030412,,,D*74
$GPGGA,225048.000,3353.7509,N,09832.0293,W,2,07,1.8,306.3,M,-23.7,M,0.8,0000*44
$GPGSA,A,3,20,16,23,03,32,06,30,,,,,,4.5,1.8,4.2*3F
$GPGSV,3,1,12,16,70,060,39,23,65,330,34,30,42,044,35,20,41,220,27*70
$GPGSV,3,2,12,13,33,317,22,32,32,188,27,03,30,138,36,06,30,119,25*7C
$GPGSV,3,3,12,07,17,273,19,31,10,069,19,10,09,320,,19,06,164,*75
$GPRMC,225048.000,A,3353.7509,N,09832.0293,W,0.05,353.07,030412,,,D*76
$GPGGA,225049.000,3353.7509,N,09832.0293,W,2,07,1.8,306.3,M,-23.7,M,1.8,0000*44
$GPGSA,A,3,20,16,23,03,32,06,30,,,,,,4.5,1.8,4.2*3F
$GPRMC,225049.000,A,3353.7509,N,09832.0293,W,0.06,318.10,030412,,,D*7D
$GPGGA,225050.000,3353.7509,N,09832.0293,W,2,07,1.8,306.3,M,-23.7,M,0.8,0000*4D
$GPGSA,A,3,20,16,23,03,32,06,30,,,,,,4.5,1.8,4.2*3F
$GPRMC,225050.000,A,3353.7509,N,09832.0293,W,0.15,310.71,030412,,,D*78
$GPGGA,225051.000,3353.7510,N,09832.0294,W,2,07,1.8,306.3,M,-23.7,M,1.8,0000*42
$GPGSA,A,3,20,16,23,03,32,06,30,,,,,,4.5,1.8,4.2*3F
$GPRMC,225051.000,A,3353.7510,N,09832.0294,W,0.14,313.83,030412,,,D*79
$GPGGA,225052.000,3353.7510,N,09832.0294,W,2,07,1.8,306.3,M,-23.7,M,2.8,0000*42
$GPGSA,A,3,20,16,23,03,32,06,30,,,,,,4.5,1.8,4.2*3F
$GPRMC,225052.000,A,3353.7510,N,09832.0294,W,0.14,309.01,030412,,,D*7B
$GPGGA,225053.000,3353.7510,N,09832.0293,W,2,07,1.8,306.4,M,-23.7,M,0.8,0000*41
$GPGSA,A,3,20,16,23,03,32,06,30,,,,,,4.5,1.8,4.2*3F
$GPGSV,3,1,12,16,69,057,39,23,66,331,34,30,41,044,35,20,39,219,27*78
$GPGSV,3,2,12,13,34,318,21,03,31,137,36,32,31,188,27,06,31,117,26*76
$GPGSV,3,3,12,07,18,274,18,10,09,319,,31,09,070,18,19,07,164,*76
$GPRMC,225053.000,A,3353.7510,N,09832.0293,W,0.15,333.74,030412,,,D*77
$GPGGA,225054.000,3353.7511,N,09832.0292,W,2,07,1.8,306.5,M,-23.7,M,0.8,0000*47
$GPGSA,A,3,20,16,23,03,32,06,30,,,,,,4.5,1.8,4.2*3F
$GPRMC,225054.000,A,3353.7511,N,09832.0292,W,0.11,339.35,030412,,,D*7B
$GPGGA,225055.000,3353.7511,N,09832.0291,W,2,07,1.8,306.7,M,-23.7,M,0.8,0000*47
$GPGSA,A,3,20,16,23,03,32,06,30,,,,,,4.5,1.8,4.2*3F
$GPRMC,225055.000,A,3353.7511,N,09832.0291,W,0.11,339.57,030412,,,D*7D
$GPGGA,225056.000,3353.7511,N,09832.0290,W,2,07,1.8,306.9,M,-23.7,M,0.8,0000*4B
$GPGSA,A,3,20,16,23,03,32,06,30,,,,,,4.5,1.8,4.2*3F
$GPRMC,225056.000,A,3353.7511,N,09832.0290,W,0.06,17.51,030412,,,D*40
$GPGGA,225057.000,3353.7511,N,09832.0289,W,2,07,1.8,307.2,M,-23.7,M,1.8,0000*49
$GPGSA,A,3,20,16,23,03,32,06,30,,,,,,4.5,1.8,4.2*3F
$GPRMC,225057.000,A,3353.7511,N,09832.0289,W,0.10,314.15,030412,,,D*7E
$GPGGA,225058.000,3353.7511,N,09832.0288,W,2,07,1.8,307.4,M,-23.7,M,2.8,0000*42
$GPGSA,A,3,20,16,23,03,32,06,30,,,,,,4.5,1.8,4.2*3F
$GPGSV,3,1,12,16,69,057,39,23,66,331,34,30,41,044,35,20,39,219,27*78
$GPGSV,3,2,12,13,34,318,21,03,31,137,36,32,31,188,27,06,31,117,25*75
$GPGSV,3,3,12,07,18,274,18,10,09,319,,31,09,070,17,19,07,164,*79
$GPRMC,225058.000,A,3353.7511,N,09832.0288,W,0.11,94.52,030412,,,D*49
$GPGGA,225059.000,3353.7511,N,09832.0287,W,2,07,1.8,307.6,M,-23.7,M,0.8,0000*4C
$GPGSA,A,3,20,16,23,03,32,06,30,,,,,,4.5,1.8,4.2*3F
$GPRMC,225059.000,A,3353.7511,N,09832.0287,W,0.06,343.92,030412,,,D*74
$GPGGA,225100.000,3353.7512,N,09832.0286,W,2,07,1.8,307.6,M,-23.7,M,0.8,0000*43
$GPGSA,A,3,20,16,23,03,32,06,30,,,,,,4.5,1.8,4.2*3F
$GPRMC,225100.000,A,3353.7512,N,09832.0286,W,0.07,97.80,030412,,,D*43
$GPGGA,225101.000,3353.7512,N,09832.0286,W,2,07,1.8,307.7,M,-23.7,M,0.8,0000*43
$GPGSA,A,3,20,16,23,03,32,06,30,,,,,,4.5,1.8,4.2*3F
$GPRMC,225101.000,A,3353.7512,N,09832.0286,W,0.10,127.22,030412,,,D*76
$GPGGA,225102.000,3353.7512,N,09832.0286,W,2,07,1.8,307.8,M,-23.7,M,0.8,0000*4F
$GPGSA,A,3,20,16,23,03,32,06,30,,,,,,4.5,1.8,4.2*3F
$GPRMC,225102.000,A,3353.7512,N,09832.0286,W,0.19,296.06,030412,,,D*73
$GPGGA,225103.000,3353.7512,N,09832.0286,W,2,07,1.8,307.9,M,-23.7,M,1.8,0000*4E
$GPGSA,A,3,20,16,23,03,32,06,30,,,,,,4.5,1.8,4.2*3F
$GPGSV,3,1,12,16,69,057,39,23,66,331,34,30,41,044,35,20,39,219,27*78
$GPGSV,3,2,12,13,34,318,21,03,31,137,36,32,31,188,27,06,31,117,24*74
$GPGSV,3,3,12,07,18,274,18,10,09,319,,31,09,070,17,19,07,164,*79
$GPRMC,225103.000,A,3353.7512,N,09832.0286,W,0.10,306.50,030412,,,D*70
$GPGGA,225104.000,3353.7512,N,09832.0286,W,2,07,1.8,307.9,M,-23.7,M,2.8,0000*4A
$GPGSA,A,3,20,16,23,03,32,06,30,,,,,,4.5,1.8,4.2*3F
$GPRMC,225104.000,A,3353.7512,N,09832.0286,W,0.21,295.38,030412,,,D*70
$GPGGA,225105.000,3353.7512,N,09832.0286,W,2,07,1.8,308.0,M,-23.7,M,0.8,0000*4F
$GPGSA,A,3,20,16,23,03,32,06,30,,,,,,4.5,1.8,4.2*3F
$GPRMC,225105.000,A,3353.7512,N,09832.0286,W,0.01,49.70,030412,,,D*4C
$GPGGA,225106.000,3353.7512,N,09832.0286,W,2,07,1.8,308.1,M,-23.7,M,0.8,0000*4D
$GPGSA,A,3,20,16,23,03,32,06,30,,,,,,4.5,1.8,4.2*3F
$GPRMC,225106.000,A,3353.7512,N,09832.0286,W,0.03,77.21,030412,,,D*44
$GPGGA,225107.000,3353.7512,N,09832.0286,W,2,07,1.8,308.2,M,-23.7,M,0.8,0000*4F
$GPGSA,A,3,20,16,23,03,32,06,30,,,,,,4.5,1.8,4.2*3F
$GPRMC,225107.000,A,3353.7512,N,09832.0286,W,0.07,352.41,030412,,,D*73
$GPGGA,225108.000,3353.7513,N,09832.0286,W,2,07,1.8,308.3,M,-23.7,M,0.8,0000*40
$GPGSA,A,3,20,16,23,03,32,06,30,,,,,,4.5,1.8,4.1*3C
$GPGSV,3,1,12,16,69,057,39,23,66,331,34,30,41,044,35,20,39,219,28*77
$GPGSV,3,2,12,13,34,318,20,03,31,137,36,32,31,188,27,06,31,117,23*72
$GPGSV,3,3,12,07,18,274,18,10,09,319,,31,09,070,17,19,07,164,*79
$GPRMC,225108.000,A,3353.7513,N,09832.0286,W,0.05,355.76,030412,,,D*7C
$GPGGA,225109.000,3353.7513,N,09832.0286,W,2,07,1.8,308.4,M,-23.7,M,0.8,0000*46
$GPGSA,A,3,20,16,23,03,32,06,30,,,,,,4.5,1.8,4.1*3C
$GPRMC,225109.000,A,3353.7513,N,09832.0286,W,0.17,305.87,030412,,,D*75
$GPGGA,225110.000,3353.7513,N,09832.0286,W,2,07,1.8,308.4,M,-23.7,M,1.8,0000*4F
$GPGSA,A,3,20,16,23,03,32,06,30,,,,,,4.5,1.8,4.1*3C
$GPRMC,225110.000,A,3353.7513,N,09832.0286,W,0.11,316.55,030412,,,D*76
$GPGGA,225111.000,3353.7513,N,09832.0286,W,2,07,1.8,308.4,M,-23.7,M,2.8,0000*4D
$GPGSA,A,3,20,16,23,03,32,06,30,,,,,,4.5,1.8,4.1*3C
$GPRMC,225111.000,A,3353.7513,N,09832.0286,W,0.02,8.77,030412,,,D*79
$GPGGA,225112.000,3353.7513,N,09832.0285,W,2,07,1.8,308.4,M,-23.7,M,0.8,0000*4F
$GPGSA,A,3,20,16,23,03,32,06,30,,,,,,4.5,1.8,4.1*3C
$GPRMC,225112.000,A,3353.7513,N,09832.0285,W,0.04,342.72,030412,,,D*77
$GPGGA,225113.000,3353.7513,N,09832.0285,W,2,07,1.8,308.4,M,-23.7,M,0.8,0000*4E
$GPGSA,A,3,20,16,23,03,32,06,30,,,,,,4.5,1.8,4.1*3C
$GPGSV,3,1,12,16,69,057,39,23,66,331,34,30,41,044,35,20,39,219,28*77
$GPGSV,3,2,12,13,34,318,20,03,31,137,36,32,31,188,28,06,31,117,24*7A
$GPGSV,3,3,12,07,18,274,15,10,09,319,,31,09,070,23,19,07,164,*73
$GPRMC,225113.000,A,3353.7513,N,09832.0285,W,0.08,114.37,030412,,,D*7A
$GPGGA,225114.000,3353.7513,N,09832.0285,W,2,07,1.8,308.5,M,-23.7,M,0.8,0000*48
$GPGSA,A,3,20,16,23,03,32,06,30,,,,,,4.5,1.8,4.1*3C
$GPRMC,225114.000,A,3353.7513,N,09832.0285,W,0.15,311.62,030412,,,D*76
$GPGGA,225115.000,3353.7513,N,09832.0285,W,2,07,1.8,308.6,M,-23.7,M,1.8,0000*4B
$GPGSA,A,3,20,16,23,03,32,06,30,,,,,,4.5,1.8,4.1*3C
$GPRMC,225115.000,A,3353.7513,N,09832.0285,W,0.05,313.48,030412,,,D*7C
$GPGGA,225116.000,3353.7513,N,09832.0285,W,2,07,1.8,308.6,M,-23.7,M,2.8,0000*4B
$GPGSA,A,3,20,16,23,03,32,06,30,,,,,,4.5,1.8,4.1*3C
$GPRMC,225116.000,A,3353.7513,N,09832.0285,W,0.08,316.65,030412,,,D*78
$GPGGA,225117.000,3353.7513,N,09832.0285,W,2,07,1.8,308.7,M,-23.7,M,3.8,0000*4A
$GPGSA,A,3,20,16,23,03,32,06,30,,,,,,4.5,1.8,4.1*3C
$GPRMC,225117.000,A,3353.7513,N,09832.0285,W,0.07,311.54,030412,,,D*73
$GPGGA,225118.000,3353.7513,N,09832.0285,W,2,07,1.8,308.8,M,-23.7,M,0.8,0000*49
$GPGSA,A,3,20,16,23,03,32,06,30,,,,,,4.5,1.8,4.1*3C
$GPGSV,3,1,12,16,69,057,39,23,66,331,34,30,41,044,35,20,39,219,29*76
$GPGSV,3,2,12,13,34,318,19,03,31,137,36,32,31,188,29,06,31,117,25*70
$GPGSV,3,3,12,07,18,274,,10,09,319,,31,09,070,23,19,07,164,*77
$GPRMC,225118.000,A,3353.7513,N,09832.0285,W,0.09,314.28,030412,,,D*7C
$GPGGA,225119.000,3353.7513,N,09832.0285,W,2,07,1.8,308.9,M,-23.7,M,0.8,0000*49
$GPGSA,A,3,20,16,23,03,32,06,30,,,,,,4.5,1.8,4.1*3C
$GPRMC,225119.000,A,3353.7513,N,09832.0285,W,0.09,307.37,030412,,,D*71
$GPGGA,225120.000,3353.7513,N,09832.0285,W,2,07,1.8,308.9,M,-23.7,M,0.8,0000*43
$GPGSA,A,3,20,16,23,03,32,06,30,,,,,,4.5,1.8,4.1*3C
$GPRMC,225120.000,A,3353.7513,N,09832.0285,W,0.05,300.06,030412,,,D*72
$GPGGA,225121.000,3353.7513,N,09832.0285,W,2,07,1.8,309.0,M,-23.7,M,1.8,0000*4B
$GPGSA,A,3,20,16,23,03,32,06,30,,,,,,4.5,1.8,4.1*3C
$GPRMC,225121.000,A,3353.7513,N,09832.0285,W,0.04,332.99,030412,,,D*75
$GPGGA,225122.000,3353.7513,N,09832.0285,W,2,07,1.8,309.0,M,-23.7,M,2.8,0000*4B
$GPGSA,A,3,20,16,23,03,32,06,30,,,,,,4.5,1.8,4.1*3C
$GPRMC,225122.000,A,3353.7513,N,09832.0285,W,0.04,317.70,030412,,,D*76
$GPGGA,225123.000,3353.7513,N,09832.0285,W,2,07,1.8,309.1,M,-23.7,M,3.8,0000*4A
$GPGSA,A,3,20,16,23,03,32,06,30,,,,,,4.5,1.8,4.1*3C
$GPGSV,3,1,12,16,69,057,39,23,66,331,34,30,41,044,35,20,39,219,29*76
$GPGSV,3,2,12,13,34,318,19,03,31,137,36,32,31,188,29,06,31,117,26*73
$GPGSV,3,3,12,07,18,274,,10,09,319,,31,09,070,24,19,07,164,*70
$GPRMC,225123.000,A,3353.7513,N,09832.0285,W,0.05,307.21,030412,,,D*73
$GPGGA,225124.000,3353.7513,N,09832.0284,W,2,07,1.8,309.0,M,-23.7,M,0.8,0000*4E
$GPGSA,A,3,20,16,23,03,32,06,30,,,,,,4.5,1.8,4.1*3C
$GPRMC,225124.000,A,3353.7513,N,09832.0284,W,0.04,317.41,030412,,,D*73
$GPGGA,225125.000,3353.7513,N,09832.0284,W,2,07,1.8,309.1,M,-23.7,M,0.8,0000*4E
$GPGSA,A,3,20,16,23,03,32,06,30,,,,,,4.5,1.8,4.1*3C
$GPRMC,225125.000,A,3353.7513,N,09832.0284,W,0.07,291.12,030412,,,D*78
$GPGGA,225126.000,3353.7512,N,09832.0285,W,2,07,1.8,309.0,M,-23.7,M,0.8,0000*4C
$GPGSA,A,3,20,16,23,03,32,06,30,,,,,,4.5,1.8,4.1*3C
$GPRMC,225126.000,A,3353.7512,N,09832.0285,W,0.09,279.45,030412,,,D*71
$GPGGA,225127.000,3353.7512,N,09832.0285,W,2,07,1.8,309.0,M,-23.7,M,1.8,0000*4C
$GPGSA,A,3,20,16,23,03,32,06,30,,,,,,4.5,1.8,4.1*3C
$GPRMC,225127.000,A,3353.7512,N,09832.0285,W,0.07,299.20,030412,,,D*73
$GPGGA,225128.000,3353.7511,N,09832.0286,W,2,07,1.8,308.9,M,-23.7,M,2.8,0000*48
$GPGSA,A,3,20,16,23,03,32,06,30,,,,,,4.5,1.8,4.1*3C
$GPGSV,3,1,12,16,69,057,39,23,66,331,34,30,41,044,35,20,39,219,29*76
$GPGSV,3,2,12,13,34,318,19,03,31,137,36,32,31,188,29,06,31,117,26*73
$GPGSV,3,3,12,07,18,274,,10,09,319,,31,09,070,25,19,07,164,*71
$GPRMC,225128.000,A,3353.7511,N,09832.0286,W,0.09,296.50,030412,,,D*7A
$GPGGA,225129.000,3353.7511,N,09832.0286,W,2,07,1.8,309.0,M,-23.7,M,3.8,0000*40
$GPGSA,A,3,20,16,23,03,32,06,30,,,,,,4.5,1.8,4.1*3C
$GPRMC,225129.000,A,3353.7511,N,09832.0286,W,0.07,302.33,030412,,,D*7C
$GPGGA,225130.000,3353.7511,N,09832.0286,W,2,07,1.8,309.1,M,-23.7,M,0.8,0000*4A
$GPGSA,A,3,20,16,23,03,32,06,30,,,,,,4.5,1.8,4.1*3C
$GPRMC,225130.000,A,3353.7511,N,09832.0286,W,0.07,322.00,030412,,,D*76
$GPGGA,225131.000,3353.7512,N,09832.0286,W,2,07,1.8,309.2,M,-23.7,M,0.8,0000*4B
$GPGSA,A,3,20,16,23,03,32,06,30,,,,,,4.5,1.8,4.1*3C
$GPRMC,225131.000,A,3353.7512,N,09832.0286,W,0.09,1.27,030412,,,D*7D
$GPGGA,225132.000,3353.7511,N,09832.0285,W,2,07,1.8,309.2,M,-23.7,M,0.8,0000*48
$GPGSA,A,3,20,16,23,03,32,06,30,,,,,,4.5,1.8,4.1*3C
$GPRMC,225132.000,A,3353.7511,N,09832.0285,W,0.05,0.89,030412,,,D*77
$GPGGA,225133.000,3353.7511,N,09832.0285,W,2,07,1.8,309.2,M,-23.7,M,0.8,0000*49
$GPGSA,A,3,20,16,23,03,32,06,30,,,,,,4.5,1.8,4.1*3C
$GPGSV,3,1,12,16,69,057,39,23,66,331,34,30,41,044,35,20,39,219,29*76
$GPGSV,3,2,12,13,34,318,20,03,31,137,37,32,31,188,29,06,31,117,26*78
$GPGSV,3,3,12,07,18,274,,10,09,319,,31,09,070,26,19,07,164,*72
$GPRMC,225133.000,A,3353.7511,N,09832.0285,W,0.04,26.45,030412,,,D*43
$GPGGA,225134.000,3353.7511,N,09832.0284,W,2,07,1.8,309.3,M,-23.7,M,1.8,0000*4F
$GPGSA,A,3,20,16,23,03,32,06,30,,,,,,4.5,1.8,4.1*3C
$GPRMC,225134.000,A,3353.7511,N,09832.0284,W,0.06,19.64,030412,,,D*48
$GPGGA,225135.000,3353.7511,N,09832.0284,W,2,07,1.8,309.4,M,-23.7,M,2.8,0000*4A
$GPGSA,A,3,20,16,23,03,32,06,30,,,,,,4.5,1.8,4.1*3C
$GPRMC,225135.000,A,3353.7511,N,09832.0284,W,0.05,358.74,030412,,,D*7D
$GPGGA,225136.000,3353.7511,N,09832.0284,W,2,07,1.8,309.3,M,-23.7,M,0.8,0000*4C
$GPGSA,A,3,20,16,23,03,32,06,30,,,,,,4.5,1.8,4.1*3C
$GPRMC,225136.000,A,3353.7511,N,09832.0284,W,0.05,310.47,030412,,,D*72
$GPGGA,225137.000,3353.7511,N,09832.0284,W,2,07,1.7,309.3,M,-23.7,M,0.8,0000*42
$GPGSA,A,3,20,16,23,03,32,06,30,,,,,,4.5,1.7,4.1*33
$GPRMC,225137.000,A,3353.7511,N,09832.0284,W,0.07,268.83,030412,,,D*77
$GPGGA,225138.000,3353.7511,N,09832.0284,W,2,07,1.7,309.3,M,-23.7,M,0.8,0000*4D
$GPGSA,A,3,20,16,23,03,32,06,30,,,,,,4.5,1.7,4.1*33
$GPGSV,3,1,12,16,69,057,39,23,66,331,34,30,41,044,35,20,39,219,29*76
$GPGSV,3,2,12,13,34,318,20,03,31,137,36,32,31,188,28,06,31,117,25*7B
$GPGSV,3,3,12,07,18,274,,10,09,319,,31,09,070,26,19,07,164,*72
$GPRMC,225138.000,A,3353.7511,N,09832.0284,W,0.09,292.75,030412,,,D*7A
$GPGGA,225139.000,3353.7511,N,09832.0284,W,2,07,1.7,309.3,M,-23.7,M,0.8,0000*4C
$GPGSA,A,3,20,16,23,03,32,06,30,,,,,,4.5,1.7,4.1*33
$GPRMC,225139.000,A,3353.7511,N,09832.0284,W,0.11,282.43,030412,,,D*76
$GPGGA,225140.000,3353.7511,N,09832.0285,W,2,07,1.7,309.3,M,-23.7,M,1.8,0000*42
$GPGSA,A,3,20,16,23,03,32,06,30,,,,,,4.5,1.7,4.1*33
$GPRMC,225140.000,A,3353.7511,N,09832.0285,W,0.14,295.52,030412,,,D*7A
$GPGGA,225141.000,3353.7511,N,09832.0285,W,2,07,1.7,309.3,M,-23.7,M,0.8,0000*42
$GPGSA,A,3,20,16,23,03,32,06,30,,,,,,4.5,1.7,4.1*33
$GPRMC,225141.000,A,3353.7511,N,09832.0285,W,0.12,293.26,030412,,,D*78
$GPGGA,225142.000,3353.7511,N,09832.0285,W,2,07,1.7,309.4,M,-23.7,M,0.8,0000*46
$GPGSA,A,3,20,16,23,03,32,06,30,,,,,,4.5,1.7,4.1*33
$GPRMC,225142.000,A,3353.7511,N,09832.0285,W,0.06,335.12,030412,,,D*74
$GPGGA,225143.000,3353.7511,N,09832.0284,W,2,07,1.7,309.5,M,-23.7,M,0.8,0000*47
$GPGSA,A,3,20,16,23,03,32,06,30,,,,,,4.5,1.7,4.1*33
$GPGSV,3,1,12,16,69,057,39,23,66,331,35,30,41,044,36,20,39,219,29*74
$GPGSV,3,2,12,13,34,318,19,03,31,137,37,32,31,188,27,06,31,117,25*7F
$GPGSV,3,3,12,07,18,274,,10,09,319,,31,09,070,26,19,07,164,*72
$GPRMC,225143.000,A,3353.7511,N,09832.0284,W,0.10,349.31,030412,,,D*79
$GPGGA,225144.000,3353.7511,N,09832.0284,W,2,07,1.7,309.5,M,-23.7,M,0.8,0000*40
$GPGSA,A,3,20,16,23,03,32,06,30,,,,,,4.5,1.7,4.1*33
$GPRMC,225144.000,A,3353.7511,N,09832.0284,W,0.05,27.05,030412,,,D*46
$GPGGA,225145.000,3353.7511,N,09832.0283,W,2,07,1.7,309.6,M,-23.7,M,1.8,0000*44
$GPGSA,A,3,20,16,23,03,32,06,30,,,,,,4.5,1.7,4.1*33
$GPRMC,225145.000,A,3353.7511,N,09832.0283,W,0.05,18.05,030412,,,D*4C
$GPGGA,225146.000,3353.7511,N,09832.0283,W,2,07,1.7,309.6,M,-23.7,M,0.8,0000*46
$GPGSA,A,3,20,16,23,03,32,06,30,,,,,,4.5,1.7,4.1*33
$GPRMC,225146.000,A,3353.7511,N,09832.0283,W,0.05,32.63,030412,,,D*47
$GPGGA,225147.000,3353.7511,N,09832.0282,W,2,07,1.7,309.7,M,-23.7,M,0.8,0000*47
$GPGSA,A,3,20,16,23,03,32,06,30,,,,,,4.5,1.7,4.1*33
$GPRMC,225147.000,A,3353.7511,N,09832.0282,W,0.06,42.29,030412,,,D*4D
$GPGGA,225148.000,3353.7511,N,09832.0282,W,2,07,1.7,309.6,M,-23.7,M,0.8,0000*49
$GPGSA,A,3,20,16,23,03,32,06,30,,,,,,4.5,1.7,4.1*33
$GPGSV,3,1,12,16,69,057,39,23,66,331,35,30,41,044,36,20,39,219,29*74
$GPGSV,3,2,12,13,34,318,,03,31,137,37,32,31,188,27,06,31,117,27*75
$GPGSV,3,3,12,07,18,274,,10,09,319,,31,09,070,26,19,07,164,*72
$GPRMC,225148.000,A,3353.7511,N,09832.0282,W,0.05,286.17,030412,,,D*76
$GPGGA,225149.000,3353.7511,N,09832.0282,W,2,07,1.7,309.6,M,-23.7,M,0.8,0000*48
$GPGSA,A,3,20,16,23,03,32,06,30,,,,,,4.5,1.7,4.1*33
$GPRMC,225149.000,A,3353.7511,N,09832.0282,W,0.02,219.08,030412,,,D*78
$GPGGA,225150.000,3353.7510,N,09832.0282,W,2,07,1.7,309.6,M,-23.7,M,0.8,0000*41
$GPGSA,A,3,20,16,23,03,32,06,30,,,,,,4.5,1.7,4.1*33
$GPRMC,225150.000,A,3353.7510,N,09832.0282,W,0.10,290.01,030412,,,D*7A
$GPGGA,225151.000,3353.7510,N,09832.0282,W,2,07,1.7,309.6,M,-23.7,M,1.8,0000*41
$GPGSA,A,3,20,16,23,03,32,06,30,,,,,,4.5,1.7,4.1*33
$GPRMC,225151.000,A,3353.7510,N,09832.0282,W,0.09,294.49,030412,,,D*7B
$GPGGA,225152.000,3353.7510,N,09832.0282,W,2,07,1.7,309.5,M,-23.7,M,2.8,0000*42
$GPGSA,A,3,20,16,23,03,32,06,30,,,,,,4.5,1.7,4.1*33
$GPRMC,225152.000,A,3353.7510,N,09832.0282,W,0.07,285.14,030412,,,D*7E
$GPGGA,225153.000,3353.7510,N,09832.0282,W,2,07,1.7,309.5,M,-23.7,M,3.8,0000*42
$GPGSA,A,3,20,16,23,03,32,06,30,,,,,,4.5,1.7,4.1*33
$GPGSV,3,1,12,16,69,056,39,23,67,331,35,30,41,044,36,20,39,219,29*74
$GPGSV,3,2,12,13,35,318,,03,32,136,37,06,31,117,28,32,31,188,26*78
$GPGSV,3,3,12,07,18,275,,10,10,319,,31,09,071,25,19,07,163,*7E
$GPRMC,225153.000,A,3353.7510,N,09832.0282,W,0.08,284.50,030412,,,D*71
$GPGGA,225154.000,3353.7510,N,09832.0282,W,2,07,1.7,309.6,M,-23.7,M,0.8,0000*45
$GPGSA,A,3,20,16,23,03,32,06,30,,,,,,4.5,1.7,4.1*33
$GPRMC,225154.000,A,3353.7510,N,09832.0282,W,0.09,331.86,030412,,,D*73
$GPGGA,225155.000,3353.7510,N,09832.0282,W,2,07,1.7,309.7,M,-23.7,M,0.8,0000*45
$GPGSA,A,3,20,16,23,03,32,06,30,,,,,,4.5,1.7,4.1*33
$GPRMC,225155.000,A,3353.7510,N,09832.0282,W,0.11,347.18,030412,,,D*7D
$GPGGA,225156.000,3353.7510,N,09832.0282,W,2,07,1.7,309.7,M,-23.7,M,0.8,0000*46
$GPGSA,A,3,20,16,23,03,32,06,30,,,,,,4.5,1.7,4.1*33
$GPRMC,225156.000,A,3353.7510,N,09832.0282,W,0.10,343.89,030412,,,D*73
$GPGGA,225157.000,3353.7510,N,09832.0282,W,2,07,1.7,309.8,M,-23.7,M,1.8,0000*49
$GPGSA,A,3,20,16,23,03,32,06,30,,,,,,4.5,1.7,4.1*33
$GPRMC,225157.000,A,3353.7510,N,09832.0282,W,0.10,332.50,030412,,,D*70
$GPGGA,225158.000,3353.7510,N,09832.0282,W,2,07,1.7,309.8,M,-23.7,M,2.8,0000*45
$GPGSA,A,3,20,16,23,03,32,06,30,,,,,,4.5,1.7,4.1*33
$GPGSV,3,1,12,16,69,056,39,23,67,331,35,30,41,044,36,20,39,219,30*7C
$GPGSV,3,2,12,13,35,318,,03,32,136,37,06,31,117,29,32,31,188,26*79
$GPGSV,3,3,12,07,18,275,,10,10,319,,31,09,071,25,19,07,163,*7E
$GPRMC,225158.000,A,3353.7510,N,09832.0282,W,0.11,347.22,030412,,,D*79
$GPGGA,225159.000,3353.7510,N,09832.0281,W,2,07,1.7,309.9,M,-23.7,M,3.8,0000*47
$GPGSA,A,3,20,16,23,03,32,06,30,,,,,,4.5,1.7,4.1*33
$GPRMC,225159.000,A,3353.7510,N,09832.0281,W,0.09,338.75,030412,,,D*78
$GPGGA,225200.000,3353.7510,N,09832.0281,W,2,07,1.7,309.8,M,-23.7,M,0.8,0000*4A
$GPGSA,A,3,20,16,23,03,32,06,30,,,,,,4.5,1.7,4.1*33
$GPRMC,225200.000,A,3353.7510,N,09832.0281,W,0.03,300.03,030412,,,D*77
$GPGGA,225201.000,3353.7510,N,09832.0281,W,2,07,1.7,309.8,M,-23.7,M,0.8,0000*4B
$GPGSA,A,3,20,16,23,03,32,06,30,,,,,,4.5,1.7,4.1*33
$GPRMC,225201.000,A,3353.7510,N,09832.0281,W,0.07,269.33,030412,,,D*7F
$GPGGA,225202.000,3353.7510,N,09832.0282,W,2,07,1.7,309.8,M,-23.7,M,0.8,0000*4B
$GPGSA,A,3,20,16,23,03,32,06,30,,,,,,4.5,1.7,4.1*33
$GPRMC,225202.000,A,3353.7510,N,09832.0282,W,0.09,292.37,030412,,,D*71
$GPGGA,225203.000,3353.7510,N,09832.0282,W,2,07,1.7,309.8,M,-23.7,M,0.8,0000*4A
$GPGSA,A,3,20,16,23,03,32,06,30,,,,,,4.5,1.7,4.1*33
$GPGSV,3,1,12,16,69,056,39,23,67,331,35,30,41,044,36,20,39,219,30*7C
$GPGSV,3,2,12,13,35,318,,03,32,136,37,06,31,117,29,32,31,188,26*79
$GPGSV,3,3,12,07,18,275,,10,10,319,,31,09,071,25,19,07,163,*7E
$GPRMC,225203.000,A,3353.7510,N,09832.0282,W,0.08,296.34,030412,,,D*76
$GPGGA,225204.000,3353.7509,N,09832.0282,W,2,07,1.7,309.7,M,-23.7,M,1.8,0000*4B
$GPGSA,A,3,20,16,23,03,32,06,30,,,,,,4.5,1.7,4.1*33
$GPRMC,225204.000,A,3353.7509,N,09832.0282,W,0.09,277.26,030412,,,D*74
$GPGGA,225205.000,3353.7509,N,09832.0282,W,2,07,1.7,309.7,M,-23.7,M,2.8,0000*49
$GPGSA,A,3,20,16,23,03,32,06,30,,,,,,4.5,1.7,4.1*33
$GPRMC,225205.000,A,3353.7509,N,09832.0282,W,0.06,299.86,030412,,,D*70
$GPGGA,225206.000,3353.7509,N,09832.0282,W,2,07,1.7,309.8,M,-23.7,M,0.8,0000*47
$GPGSA,A,3,20,16,23,03,32,06,30,,,,,,4.5,1.7,4.1*33
$GPRMC,225206.000,A,3353.7509,N,09832.0282,W,0.12,309.44,030412,,,D*70
$GPGGA,225207.000,3353.7509,N,09832.0282,W,2,07,1.7,309.9,M,-23.7,M,0.8,0000*47
$GPGSA,A,3,20,16,23,03,32,06,30,,,,,,4.4,1.7,4.1*32
$GPRMC,225207.000,A,3353.7509,N,09832.0282,W,0.14,332.87,030412,,,D*70
$GPGGA,225208.000,3353.7509,N,09832.0282,W,2,07,1.7,309.9,M,-23.7,M,0.8,0000*48
$GPGSA,A,3,20,16,23,03,32,06,30,,,,,,4.4,1.7,4.1*32
$GPGSV,3,1,12,16,69,056,39,23,67,331,35,30,41,044,36,20,39,219,30*7C
$GPGSV,3,2,12,13,35,318,,03,32,136,37,06,31,117,29,32,31,188,26*79
$GPGSV,3,3,12,07,18,275,,10,10,319,,31,09,071,25,19,07,163,*7E
$GPRMC,225208.000,A,3353.7509,N,09832.0282,W,0.11,334.25,030412,,,D*74
$GPGGA,225209.000,3353.7509,N,09832.0282,W,2,07,1.7,310.0,M,-23.7,M,0.8,0000*48
$GPGSA,A,3,20,16,23,03,32,06,30,,,,,,4.4,1.7,4.1*32
$GPRMC,225209.000,A,3353.7509,N,09832.0282,W,0.10,312.54,030412,,,D*76
$GPGGA,225210.000,3353.7509,N,09832.0282,W,2,07,1.7,310.0,M,-23.7,M,0.8,0000*40
$GPGSA,A,3,20,16,23,03,32,06,30,,,,,,4.4,1.7,4.1*32
$GPRMC,225210.000,A,3353.7509,N,09832.0282,W,0.10,319.95,030412,,,D*78
$GPGGA,225211.000,3353.7509,N,09832.0282,W,2,07,1.7,310.0,M,-23.7,M,1.8,0000*40
$GPGSA,A,3,20,16,23,03,32,06,30,,,,,,4.4,1.7,4.1*32
$GPRMC,225211.000,A,3353.7509,N,09832.0282,W,0.08,311.17,030412,,,D*72
$GPGGA,225212.000,3353.7509,N,09832.0282,W,2,07,1.7,310.0,M,-23.7,M,0.8,0000*42
$GPGSA,A,3,20,16,23,03,32,06,30,,,,,,4.4,1.7,4.1*32
$GPRMC,225212.000,A,3353.7509,N,09832.0282,W,0.06,309.05,030412,,,D*75
$GPGGA,225213.000,3353.7509,N,09832.0282,W,2,07,1.7,310.0,M,-23.7,M,0.8,0000*43
$GPGSA,A,3,20,16,23,03,32,06,30,,,,,,4.4,1.7,4.1*32
$GPGSV,3,1,12,16,69,056,39,23,67,331,35,30,41,044,36,20,39,219,30*7C
$GPGSV,3,2,12,13,35,318,20,03,32,136,37,06,31,117,29,32,31,188,25*78
$GPGSV,3,3,12,07,18,275,,10,10,319,,31,09,071,25,19,07,163,*7E
$GPRMC,225213.000,A,3353.7509,N,09832.0282,W,0.12,13.51,030412,,,D*48
$GPGGA,225214.000,3353.7509,N,09832.0282,W,2,07,1.7,309.9,M,-23.7,M,0.8,0000*45
$GPGSA,A,3,20,16,23,03,32,06,30,,,,,,4.4,1.7,4.1*32
$GPRMC,225214.000,A,3353.7509,N,09832.0282,W,0.10,251.14,030412,,,D*78
$GPGGA,225215.000,3353.7509,N,09832.0282,W,2,07,1.7,310.0,M,-23.7,M,1.8,0000*44
$GPGSA,A,3,20,16,23,03,32,06,30,,,,,,4.4,1.7,4.1*32
$GPRMC,225215.000,A,3353.7509,N,09832.0282,W,0.12,2.96,030412,,,D*75
$GPGGA,225216.000,3353.7509,N,09832.0281,W,2,07,1.7,310.0,M,-23.7,M,2.8,0000*47
$GPGSA,A,3,20,16,23,03,32,06,30,,,,,,4.4,1.7,4.1*32
$GPRMC,225216.000,A,3353.7509,N,09832.0281,W,0.18,13.22,030412,,,D*40
$GPGGA,225217.000,3353.7509,N,09832.0281,W,2,07,1.7,310.0,M,-23.7,M,3.8,0000*47
$GPGSA,A,3,20,16,23,03,32,06,30,,,,,,4.4,1.7,4.1*32
$GPRMC,225217.000,A,3353.7509,N,09832.0281,W,0.12,12.99,030412,,,D*4A
$GPGGA,225218.000,3353.7509,N,09832.0281,W,2,07,1.7,310.1,M,-23.7,M,0.8,0000*4A
$GPGSA,A,3,20,16,23,03,32,06,30,,,,,,4.4,1.7,4.1*32
$GPGSV,3,1,12,16,69,056,39,23,67,331,35,30,41,044,35,20,39,219,30*7F
$GPGSV,3,2,12,13,35,318,20,03,32,136,37,06,31,117,29,32,31,188,20*7D
$GPGSV,3,3,12,07,18,275,13,10,10,319,,31,09,071,25,19,07,163,*7C
$GPRMC,225218.000,A,3353.7509,N,09832.0281,W,0.11,274.98,030412,,,D*75
$GPGGA,225219.000,3353.7509,N,09832.0281,W,2,07,1.7,310.1,M,-23.7,M,0.8,0000*4B
$GPGSA,A,3,20,16,23,03,32,06,30,,,,,,4.4,1.7,4.1*32
$GPRMC,225219.000,A,3353.7509,N,09832.0281,W,0.14,329.24,030412,,,D*7F
$GPGGA,225220.000,3353.7510,N,09832.0280,W,2,07,1.7,310.1,M,-23.7,M,0.8,0000*48
$GPGSA,A,3,20,16,23,03,32,06,30,,,,,,4.4,1.7,4.1*32
$GPRMC,225220.000,A,3353.7510,N,09832.0280,W,0.22,7.50,030412,,,D*75
$GPGGA,225221.000,3353.7510,N,09832.0280,W,2,07,1.7,310.2,M,-23.7,M,1.8,0000*4B
$GPGSA,A,3,20,16,23,03,32,06,30,,,,,,4.4,1.7,4.1*32
$GPRMC,225221.000,A,3353.7510,N,09832.0280,W,0.24,19.57,030412,,,D*4A
$GPGGA,225222.000,3353.7510,N,09832.0279,W,2,07,1.7,310.3,M,-23.7,M,2.8,0000*4C
$GPGSA,A,3,20,16,23,03,32,06,30,,,,,,4.4,1.7,4.1*32
$GPRMC,225222.000,A,3353.7510,N,09832.0279,W,0.18,14.63,030412,,,D*4A
$GPGGA,225223.000,3353.7510,N,09832.0279,W,2,07,1.7,310.3,M,-23.7,M,3.8,0000*4C
$GPGSA,A,3,20,16,23,03,32,06,30,,,,,,4.4,1.7,4.1*32
$GPGSV,3,1,12,16,69,056,39,23,67,331,35,30,41,044,35,20,39,219,30*7F
$GPGSV,3,2,12,13,35,318,20,03,32,136,37,06,31,117,30,32,31,188,20*75
$GPGSV,3,3,12,07,18,275,12,10,10,319,,31,09,071,25,19,07,163,*7D
$GPRMC,225223.000,A,3353.7510,N,09832.0279,W,0.09,264.69,030412,,,D*74
$GPGGA,225224.000,3353.7510,N,09832.0278,W,2,07,1.7,310.2,M,-23.7,M,0.8,0000*48
$GPGSA,A,3,20,16,23,03,32,06,30,,,,,,4.4,1.7,4.1*32
$GPRMC,225224.000,A,3353.7510,N,09832.0278,W,0.07,1.54,030412,,,D*73
$GPGGA,225225.000,3353.7510,N,09832.0278,W,2,07,1.7,310.1,M,-23.7,M,1.8,0000*4B
$GPGSA,A,3,20,16,23,03,32,06,30,,,,,,4.4,1.7,4.1*32
$GPRMC,225225.000,A,3353.7510,N,09832.0278,W,0.13,226.18,030412,,,D*78
$GPGGA,225226.000,3353.7510,N,09832.0278,W,2,07,1.7,310.0,M,-23.7,M,0.8,0000*48
$GPGSA,A,3,20,16,23,03,32,06,30,,,,,,4.4,1.7,4.1*32
$GPRMC,225226.000,A,3353.7510,N,09832.0278,W,0.12,249.13,030412,,,D*78
$GPGGA,225227.000,3353.7510,N,09832.0278,W,2,07,1.7,309.9,M,-23.7,M,1.8,0000*49
$GPGSA,A,3,20,16,23,03,32,06,30,,,,,,4.4,1.7,4.1*32
$GPRMC,225227.000,A,3353.7510,N,09832.0278,W,0.10,310.92,030412,,,D*7F
$GPGGA,225228.000,3353.7510,N,09832.0278,W,2,07,1.7,309.8,M,-23.7,M,0.8,0000*46
$GPGSA,A,3,20,16,23,03,32,06,30,,,,,,4.4,1.7,4.1*32
$GPGSV,3,1,12,16,69,056,39,23,67,331,35,30,41,044,35,20,39,219,30*7F
$GPGSV,3,2,12,13,35,318,21,03,32,136,37,06,31,117,29,32,31,188,20*7C
$GPGSV,3,3,12,07,18,275,,10,10,319,,31,09,071,25,19,07,163,*7E
$GPRMC,225228.000,A,3353.7510,N,09832.0278,W,0.19,12.83,030412,,,D*48
$GPGGA,225229.000,3353.7510,N,09832.0278,W,2,07,1.7,309.7,M,-23.7,M,0.8,0000*48
$GPGSA,A,3,20,16,23,03,32,06,30,,,,,,4.4,1.7,4.1*32
$GPRMC,225229.000,A,3353.7510,N,09832.0278,W,0.11,272.53,030412,,,D*78
$GPGGA,225230.000,3353.7511,N,09832.0277,W,2,07,1.7,309.7,M,-23.7,M,0.8,0000*4E
$GPGSA,A,3,20,16,23,03,32,06,30,,,,,,4.4,1.7,4.1*32
$GPRMC,225230.000,A,3353.7511,N,09832.0277,W,0.16,344.51,030412,,,D*7F
$GPGGA,225231.000,3353.7510,N,09832.0275,W,2,07,1.7,309.8,M,-23.7,M,0.8,0000*43
$GPGSA,A,3,20,16,23,03,32,06,30,,,,,,4.4,1.7,4.1*32
$GPRMC,225231.000,A,3353.7510,N,09832.0275,W,0.14,357.28,030412,,,D*73
$GPGGA,225232.000,3353.7509,N,09832.0273,W,2,07,1.7,309.9,M,-23.7,M,0.8,0000*4F
$GPGSA,A,3,20,16,23,03,32,06,30,,,,,,4.4,1.7,4.1*32
$GPRMC,225232.000,A,3353.7509,N,09832.0273,W,0.11,8.87,030412,,,D*77
$GPGGA,225233.000,3353.7508,N,09832.0271,W,2,07,1.7,309.9,M,-23.7,M,1.8,0000*4C
$GPGSA,A,3,20,16,23,03,32,06,30,,,,,,4.4,1.7,4.1*32
$GPGSV,3,1,12,16,69,056,39,23,67,331,34,30,41,044,35,20,39,219,29*76
$GPGSV,3,2,12,13,35,318,21,03,32,136,37,06,31,117,29,32,31,188,22*7E
$GPGSV,3,3,12,07,18,275,,10,10,319,,31,09,071,26,19,07,163,*7D
$GPRMC,225233.000,A,3353.7508,N,09832.0271,W,0.06,277.29,030412,,,D*7D
$GPGGA,225234.000,3353.7508,N,09832.0270,W,2,07,1.7,310.1,M,-23.7,M,0.8,0000*4B
$GPGSA,A,3,20,16,23,03,32,06,30,,,,,,4.4,1.7,4.1*32
$GPRMC,225234.000,A,3353.7508,N,09832.0270,W,0.13,23.93,030412,,,D*4D
$GPGGA,225235.000,3353.7507,N,09832.0269,W,2,07,1.7,310.1,M,-23.7,M,0.8,0000*4D
$GPGSA,A,3,20,16,23,03,32,06,30,,,,,,4.4,1.7,4.1*32
$GPRMC,225235.000,A,3353.7507,N,09832.0269,W,0.09,255.27,030412,,,D*7C
$GPGGA,225236.000,3353.7507,N,09832.0268,W,2,07,1.7,310.1,M,-23.7,M,0.8,0000*4F
$GPGSA,A,3,20,16,23,03,32,06,30,,,,,,4.4,1.7,4.1*32
$GPRMC,225236.000,A,3353.7507,N,09832.0268,W,0.05,238.16,030412,,,D*7B
$GPGGA,225237.000,3353.7506,N,09832.0267,W,2,07,1.7,310.2,M,-23.7,M,0.8,0000*43
$GPGSA,A,3,20,16,23,03,32,06,30,,,,,,4.4,1.7,4.1*32
$GPRMC,225237.000,A,3353.7506,N,09832.0267,W,0.04,293.93,030412,,,D*79
$GPGGA,225238.000,3353.7505,N,09832.0266,W,2,07,1.7,310.1,M,-23.7,M,0.8,0000*4D
$GPGSA,A,3,20,16,23,03,32,06,30,,,,,,4.4,1.7,4.1*32
$GPGSV,3,1,12,16,69,056,39,23,67,331,34,30,41,044,36,20,39,219,28*74
$GPGSV,3,2,12,13,35,318,21,03,32,136,37,06,31,117,29,32,31,188,22*7E
$GPGSV,3,3,12,07,18,275,,10,10,319,,31,09,071,26,19,07,163,*7D
$GPRMC,225238.000,A,3353.7505,N,09832.0266,W,0.13,226.95,030412,,,D*7A
$GPGGA,225239.000,3353.7505,N,09832.0266,W,2,07,1.7,310.1,M,-23.7,M,1.8,0000*4D
$GPGSA,A,3,20,16,23,03,32,06,30,,,,,,4.4,1.7,4.1*32
$GPRMC,225239.000,A,3353.7505,N,09832.0266,W,0.09,266.59,030412,,,D*74
$GPGGA,225240.000,3353.7504,N,09832.0265,W,2,07,1.7,310.2,M,-23.7,M,2.8,0000*41
$GPGSA,A,3,20,16,23,03,32,06,30,,,,,,4.4,1.7,4.1*32
$GPRMC,225240.000,A,3353.7504,N,09832.0265,W,0.12,26.65,030412,,,D*4B
$GPGGA,225241.000,3353.7504,N,09832.0264,W,2,07,1.7,310.2,M,-23.7,M,3.8,0000*40
$GPGSA,A,3,20,16,23,03,32,06,30,,,,,,4.4,1.7,4.1*32
$GPRMC,225241.000,A,3353.7504,N,09832.0264,W,0.07,4.08,030412,,,D*74
$GPGGA,225242.000,3353.7504,N,09832.0263,W,2,07,1.7,310.4,M,-23.7,M,0.8,0000*41
$GPGSA,A,3,20,16,23,03,32,06,30,,,,,,4.4,1.7,4.1*32
$GPRMC,225242.000,A,3353.7504,N,09832.0263,W,0.03,64.86,030412,,,D*44
$GPGGA,225243.000,3353.7504,N,09832.0262,W,2,07,1.7,310.4,M,-23.7,M,0.8,0000*41
$GPGSA,A,3,20,16,23,03,32,06,30,,,,,,4.4,1.7,4.1*32
$GPGSV,3,1,12,16,69,056,39,23,67,331,34,30,41,044,36,20,39,219,28*74
$GPGSV,3,2,12,13,35,318,21,03,32,136,37,06,31,117,28,32,31,188,23*7E
$GPGSV,3,3,12,07,18,275,,10,10,319,,31,09,071,25,19,07,163,*7E
$GPRMC,225243.000,A,3353.7504,N,09832.0262,W,0.12,21.05,030412,,,D*4E
$GPGGA,225244.000,3353.7504,N,09832.0261,W,2,07,1.7,310.5,M,-23.7,M,0.8,0000*44
$GPGSA,A,3,20,16,23,03,32,06,30,,,,,,4.4,1.7,4.1*32
$GPRMC,225244.000,A,3353.7504,N,09832.0261,W,0.08,46.15,030412,,,D*41
$GPGGA,225245.000,3353.7504,N,09832.0260,W,2,07,1.7,310.5,M,-23.7,M,1.8,0000*45
$GPGSA,A,3,20,16,23,03,32,06,30,,,,,,4.4,1.7,4.1*32
$GPRMC,225245.000,A,3353.7504,N,09832.0260,W,0.05,227.34,030412,,,D*7A
$GPGGA,225246.000,3353.7503,N,09832.0260,W,2,07,1.7,310.6,M,-23.7,M,2.8,0000*41
$GPGSA,A,3,20,16,23,03,32,06,30,,,,,,4.4,1.7,4.1*32
$GPRMC,225246.000,A,3353.7503,N,09832.0260,W,0.03,241.47,030412,,,D*7C
$GPGGA,225247.000,3353.7503,N,09832.0259,W,2,07,1.7,310.6,M,-23.7,M,3.8,0000*4B
$GPGSA,A,3,20,16,23,03,32,06,30,,,,,,4.4,1.7,4.1*32
$GPRMC,225247.000,A,3353.7503,N,09832.0259,W,0.05,221.29,030412,,,D*7F
$GPGGA,225248.000,3353.7503,N,09832.0259,W,2,07,1.7,310.5,M,-23.7,M,0.8,0000*44
$GPGSA,A,3,20,16,23,03,32,06,30,,,,,,4.4,1.7,4.1*32
$GPGSV,3,1,12,16,69,056,39,23,67,331,34,30,41,044,36,20,39,219,28*74
$GPGSV,3,2,12,13,35,318,22,03,32,136,37,06,31,117,28,32,31,188,24*7A
$GPGSV,3,3,12,07,18,275,,10,10,319,,31,09,071,25,19,07,163,*7E
$GPRMC,225248.000,A,3353.7503,N,09832.0259,W,0.07,43.42,030412,,,D*49
$GPGGA,225249.000,3353.7503,N,09832.0259,W,2,07,1.7,310.6,M,-23.7,M,0.8,0000*46
$GPGSA,A,3,20,16,23,03,32,06,30,,,,,,4.4,1.7,4.1*32
$GPRMC,225249.000,A,3353.7503,N,09832.0259,W,0.03,33.65,030412,,,D*4E
$GPGGA,225250.000,3353.7504,N,09832.0260,W,2,07,1.7,310.5,M,-23.7,M,0.8,0000*40
$GPGSA,A,3,20,16,23,03,32,06,30,,,,,,4.4,1.7,4.0*33
$GPRMC,225250.000,A,3353.7504,N,09832.0260,W,0.14,250.15,030412,,,D*7D
