$GPGGA,011745.000,3353.7509,N,09832.0202,W,1,08,1.5,339.2,M,-23.7,M,18.8,0000*76
$GPGSA,A,3,06,03,07,13,16,19,23,11,,,,,2.5,1.5,1.9*37
$GPRMC,011745.000,A,3353.7509,N,09832.0202,W,0.20,67.20,310312,,,A*44
$GPGGA,011746.000,3353.7509,N,09832.0201,W,1,08,1.5,339.4,M,-23.7,M,18.8,0000*70
$GPGSA,A,3,06,03,07,13,16,19,23,11,,,,,2.5,1.5,1.9*37
$GPGSV,3,1,12,13,77,212,38,07,54,330,29,19,53,114,34,23,47,166,32*72
$GPGSV,3,2,12,03,41,058,39,06,28,050,30,08,23,301,,10,17,266,15*7A
$GPGSV,3,3,12,16,16,049,30,28,11,242,20,11,11,149,25,05,02,317,*71
$GPRMC,011746.000,A,3353.7509,N,09832.0201,W,0.19,86.38,310312,,,A*48
$GPGGA,011747.000,3353.7510,N,09832.0201,W,1,08,1.5,339.5,M,-23.7,M,18.8,0000*78
$GPGSA,A,3,06,03,07,13,16,19,23,11,,,,,2.5,1.5,1.9*37
$GPRMC,011747.000,A,3353.7510,N,09832.0201,W,0.17,47.34,310312,,,A*4E
$GPGGA,011748.000,3353.7510,N,09832.0201,W,1,08,1.5,339.5,M,-23.7,M,18.8,0000*77
$GPGSA,A,3,06,03,07,13,16,19,23,11,,,,,2.5,1.5,1.9*37
$GPRMC,011748.000,A,3353.7510,N,09832.0201,W,0.17,94.86,310312,,,A*46
$GPGGA,011749.000,3353.7511,N,09832.0201,W,1,08,1.5,339.6,M,-23.7,M,18.8,0000*74
$GPGSA,A,3,06,03,07,13,16,19,23,11,,,,,2.5,1.5,1.9*37
$GPRMC,011749.000,A,3353.7511,N,09832.0201,W,0.12,74.18,310312,,,A*4A
$GPGGA,011750.000,3353.7511,N,09832.0201,W,1,08,1.5,339.6,M,-23.7,M,18.8,0000*7C
$GPGSA,A,3,06,03,07,13,16,19,23,11,,,,,2.5,1.5,1.9*37
$GPRMC,011750.000,A,3353.7511,N,09832.0201,W,0.12,67.72,310312,,,A*4C
$GPGGA,011751.000,3353.7512,N,09832.0201,W,1,08,1.5,339.6,M,-23.7,M,18.8,0000*7E
$GPGSA,A,3,06,03,07,13,16,19,23,11,,,,,2.5,1.5,1.9*37
$GPGSV,3,1,12,13,77,212,38,07,54,330,30,19,53,114,35,23,47,166,31*78
$GPGSV,3,2,12,03,41,058,39,06,28,050,31,08,23,301,20,10,17,266,18*74
$GPGSV,3,3,12,16,16,049,30,28,11,242,19,11,11,149,25,05,02,317,*7B
$GPRMC,011751.000,A,3353.7512,N,09832.0201,W,0.11,68.69,310312,,,A*48
$GPGGA,011752.000,3353.7513,N,09832.0202,W,1,08,1.5,339.6,M,-23.7,M,18.8,0000*7F
$GPGSA,A,3,06,03,07,13,16,19,23,11,,,,,2.5,1.5,1.9*37
$GPRMC,011752.000,A,3353.7513,N,09832.0202,W,0.12,71.40,310312,,,A*49
$GPGGA,011753.000,3353.7514,N,09832.0202,W,1,08,1.5,339.6,M,-23.7,M,18.8,0000*79
$GPGSA,A,3,06,03,07,13,16,19,23,11,,,,,2.5,1.5,1.9*37
$GPRMC,011753.000,A,3353.7514,N,09832.0202,W,0.11,70.74,310312,,,A*4A
$GPGGA,011754.000,3353.7514,N,09832.0202,W,1,08,1.5,339.6,M,-23.7,M,18.8,0000*7E
$GPGSA,A,3,06,03,07,13,16,19,23,11,,,,,2.5,1.5,1.9*37
$GPRMC,011754.000,A,3353.7514,N,09832.0202,W,0.09,60.99,310312,,,A*46
$GPGGA,011755.000,3353.7515,N,09832.0203,W,1,08,1.5,339.6,M,-23.7,M,18.8,0000*7F
$GPGSA,A,3,06,03,07,13,16,19,23,11,,,,,2.5,1.5,1.9*37
$GPRMC,011755.000,A,3353.7515,N,09832.0203,W,0.08,70.71,310312,,,A*41
$GPGGA,011756.000,3353.7516,N,09832.0203,W,1,08,1.5,339.6,M,-23.7,M,18.8,0000*7F
$GPGSA,A,3,06,03,07,13,16,19,23,11,,,,,2.5,1.5,1.9*37
$GPGSV,3,1,12,13,77,212,38,07,54,330,30,19,53,114,35,23,47,166,31*78
$GPGSV,3,2,12,03,41,058,39,06,28,050,30,08,23,301,21,10,17,266,19*75
$GPGSV,3,3,12,16,16,049,30,28,11,242,,11,11,149,24,05,02,317,*72
$GPRMC,011756.000,A,3353.7516,N,09832.0203,W,0.11,89.33,310312,,,A*49
$GPGGA,011757.000,3353.7517,N,09832.0204,W,1,08,1.5,339.6,M,-23.7,M,18.8,0000*78
$GPGSA,A,3,06,03,07,13,16,19,23,11,,,,,2.5,1.5,1.9*37
$GPRMC,011757.000,A,3353.7517,N,09832.0204,W,0.10,96.62,310312,,,A*45
$GPGGA,011758.000,3353.7518,N,09832.0204,W,1,08,1.5,339.6,M,-23.7,M,18.8,0000*78
$GPGSA,A,3,06,03,07,13,16,19,23,11,,,,,2.5,1.5,1.9*37
$GPRMC,011758.000,A,3353.7518,N,09832.0204,W,0.09,65.24,310312,,,A*43
$GPGGA,011759.000,3353.7519,N,09832.0205,W,1,08,1.5,339.5,M,-23.7,M,18.8,0000*7A
$GPGSA,A,3,06,03,07,13,16,19,23,11,,,,,2.5,1.5,1.9*37
$GPRMC,011759.000,A,3353.7519,N,09832.0205,W,0.09,79.64,310312,,,A*4B
$GPGGA,011800.000,3353.7520,N,09832.0206,W,1,08,1.5,339.5,M,-23.7,M,18.8,0000*70
$GPGSA,A,3,06,03,07,13,16,19,23,11,,,,,2.5,1.5,1.9*37
$GPRMC,011800.000,A,3353.7520,N,09832.0206,W,0.10,72.32,310312,,,A*41
$GPGGA,011801.000,3353.7520,N,09832.0206,W,1,08,1.5,339.6,M,-23.7,M,18.8,0000*72
$GPGSA,A,3,06,03,07,13,16,19,23,11,,,,,2.5,1.5,1.9*37
$GPGSV,3,1,12,13,77,212,38,07,54,330,30,19,53,114,35,23,47,166,31*78
$GPGSV,3,2,12,03,41,058,39,06,28,050,30,08,23,301,22,10,17,266,20*7C
$GPGSV,3,3,12,16,16,049,31,28,11,242,,11,11,149,24,05,02,317,*73
$GPRMC,011801.000,A,3353.7520,N,09832.0206,W,0.09,77.28,310312,,,A*46
$GPGGA,011802.000,3353.7522,N,09832.0207,W,1,08,1.5,339.6,M,-23.7,M,18.8,0000*72
$GPGSA,A,3,06,03,07,13,16,19,23,11,,,,,2.5,1.5,1.9*37
$GPRMC,011802.000,A,3353.7522,N,09832.0207,W,0.13,22.98,310312,,,A*46
$GPGGA,011803.000,3353.7522,N,09832.0207,W,1,08,1.5,339.7,M,-23.7,M,18.8,0000*72
$GPGSA,A,3,06,03,07,13,16,19,23,11,,,,,2.5,1.5,1.9*37
$GPRMC,011803.000,A,3353.7522,N,09832.0207,W,0.19,116.25,310312,,,A*7D
$GPGGA,011804.000,3353.7522,N,09832.0207,W,1,08,1.5,339.8,M,-23.7,M,18.8,0000*7A
$GPGSA,A,3,06,03,07,13,16,19,23,11,,,,,2.5,1.5,1.9*37
$GPRMC,011804.000,A,3353.7522,N,09832.0207,W,0.28,118.67,310312,,,A*70
$GPGGA,011805.000,3353.7522,N,09832.0207,W,1,08,1.5,339.9,M,-23.7,M,18.8,0000*7A
$GPGSA,A,3,06,03,07,13,16,19,23,11,,,,,2.5,1.5,1.9*37
$GPRMC,011805.000,A,3353.7522,N,09832.0207,W,0.27,114.55,310312,,,A*73
$GPGGA,011806.000,3353.7522,N,09832.0206,W,1,08,1.5,340.0,M,-23.7,M,18.8,0000*7F
$GPGSA,A,3,06,03,07,13,16,19,23,11,,,,,2.5,1.5,1.9*37
$GPGSV,3,1,12,13,77,212,39,07,54,330,30,19,53,114,35,23,47,166,30*78
$GPGSV,3,2,12,03,41,058,39,06,28,050,30,08,23,301,23,10,17,266,20*7D
$GPGSV,3,3,12,16,16,049,31,28,11,242,,11,11,149,24,05,02,317,*73
$GPRMC,011806.000,A,3353.7522,N,09832.0206,W,0.25,122.94,310312,,,A*7B
$GPGGA,011807.000,3353.7522,N,09832.0206,W,1,08,1.5,340.2,M,-23.7,M,18.8,0000*7C
$GPGSA,A,3,06,03,07,13,16,19,23,11,,,,,2.5,1.5,1.9*37
$GPRMC,011807.000,A,3353.7522,N,09832.0206,W,0.13,59.35,310312,,,A*49
$GPGGA,011808.000,3353.7523,N,09832.0206,W,1,08,1.5,340.4,M,-23.7,M,18.8,0000*74
$GPGSA,A,3,06,03,07,13,16,19,23,11,,,,,2.5,1.5,1.9*37
$GPRMC,011808.000,A,3353.7523,N,09832.0206,W,0.19,18.49,310312,,,A*43
$GPGGA,011809.000,3353.7523,N,09832.0205,W,1,08,1.5,340.7,M,-23.7,M,18.8,0000*75
$GPGSA,A,3,06,03,07,13,16,19,23,11,,,,,2.5,1.5,1.9*37
$GPRMC,011809.000,A,3353.7523,N,09832.0205,W,0.17,45.95,310312,,,A*46
$GPGGA,011810.000,3353.7523,N,09832.0205,W,1,08,1.5,341.0,M,-23.7,M,18.8,0000*7B
$GPGSA,A,3,06,03,07,13,16,19,23,11,,,,,2.5,1.5,1.9*37
$GPRMC,011810.000,A,3353.7523,N,09832.0205,W,0.18,43.92,310312,,,A*40
$GPGGA,011811.000,3353.7523,N,09832.0204,W,1,08,1.5,341.3,M,-23.7,M,18.8,0000*78
$GPGSA,A,3,06,03,07,13,16,19,23,11,,,,,2.5,1.5,1.9*37
$GPGSV,3,1,12,13,77,212,39,07,54,330,30,19,53,114,34,23,47,166,30*79
$GPGSV,3,2,12,03,41,058,39,06,28,050,29,08,23,301,23,10,17,266,20*75
$GPGSV,3,3,12,16,16,049,31,28,11,242,22,11,11,149,23,05,02,317,*74
$GPRMC,011811.000,A,3353.7523,N,09832.0204,W,0.23,94.83,310312,,,A*42
$GPGGA,011812.000,3353.7523,N,09832.0203,W,1,08,1.5,341.5,M,-23.7,M,18.8,0000*7A
$GPGSA,A,3,06,03,07,13,16,19,23,11,,,,,2.5,1.5,1.9*37
$GPRMC,011812.000,A,3353.7523,N,09832.0203,W,0.16,69.01,310312,,,A*48
$GPGGA,011813.000,3353.7523,N,09832.0203,W,1,08,1.5,341.8,M,-23.7,M,18.8,0000*76
$GPGSA,A,3,06,03,07,13,16,19,23,11,,,,,2.5,1.5,1.9*37
$GPRMC,011813.000,A,3353.7523,N,09832.0203,W,0.19,43.18,310312,,,A*46
$GPGGA,011814.000,3353.7523,N,09832.0202,W,1,08,1.5,342.1,M,-23.7,M,18.8,0000*7A
$GPGSA,A,3,06,03,07,13,16,19,23,11,,,,,2.5,1.5,1.9*37
$GPRMC,011814.000,A,3353.7523,N,09832.0202,W,0.19,64.70,310312,,,A*4B
$GPGGA,011815.000,3353.7523,N,09832.0202,W,1,08,1.5,342.3,M,-23.7,M,18.8,0000*79
$GPGSA,A,3,06,03,07,13,16,19,23,11,,,,,2.5,1.5,1.9*37
$GPRMC,011815.000,A,3353.7523,N,09832.0202,W,0.21,88.90,310312,,,A*4D
$GPGGA,011816.000,3353.7522,N,09832.0201,W,1,08,1.5,342.5,M,-23.7,M,18.8,0000*7E
$GPGSA,A,3,06,03,07,13,16,19,23,11,,,,,2.5,1.5,1.9*37
$GPGSV,3,1,12,13,77,212,39,07,54,330,30,19,53,114,34,23,47,166,29*71
$GPGSV,3,2,12,03,41,058,39,06,28,050,28,08,23,301,22,10,17,266,20*75
$GPGSV,3,3,12,16,16,049,31,28,11,242,22,11,11,149,23,05,02,317,*74
$GPRMC,011816.000,A,3353.7522,N,09832.0201,W,0.23,104.33,310312,,,A*72
$GPGGA,011817.000,3353.7522,N,09832.0201,W,1,08,1.5,342.7,M,-23.7,M,18.8,0000*7D
$GPGSA,A,3,06,03,07,13,16,19,23,11,,,,,2.5,1.5,1.9*37
$GPRMC,011817.000,A,3353.7522,N,09832.0201,W,0.16,82.53,310312,,,A*4C
$GPGGA,011818.000,3353.7522,N,09832.0200,W,1,08,1.5,342.8,M,-23.7,M,18.8,0000*7C
$GPGSA,A,3,06,03,07,13,16,19,23,11,,,,,2.5,1.5,1.9*37
$GPRMC,011818.000,A,3353.7522,N,09832.0200,W,0.17,100.98,310312,,,A*7F
$GPGGA,011819.000,3353.7521,N,09832.0200,W,1,08,1.5,342.9,M,-23.7,M,18.8,0000*7F
$GPGSA,A,3,06,03,07,13,16,19,23,11,,,,,2.5,1.5,1.9*37
$GPRMC,011819.000,A,3353.7521,N,09832.0200,W,0.19,111.06,310312,,,A*74
$GPGGA,011820.000,3353.7521,N,09832.0200,W,1,08,1.5,342.9,M,-23.7,M,18.8,0000*75
$GPGSA,A,3,06,03,07,13,16,19,23,11,,,,,2.5,1.5,1.9*37
$GPRMC,011820.000,A,3353.7521,N,09832.0200,W,0.11,36.72,310312,,,A*41
$GPGGA,011821.000,3353.7521,N,09832.0200,W,1,08,1.5,343.0,M,-23.7,M,18.8,0000*7C
$GPGSA,A,3,06,03,07,13,16,19,23,11,,,,,2.5,1.5,1.9*37
$GPGSV,3,1,12,13,77,212,39,07,54,330,29,19,53,114,33,23,47,166,29*7E
$GPGSV,3,2,12,03,41,058,39,06,28,050,28,08,23,301,23,10,17,266,22*76
$GPGSV,3,3,12,16,16,049,31,28,11,242,16,11,11,149,24,05,02,317,*74
$GPRMC,011821.000,A,3353.7521,N,09832.0200,W,0.13,15.54,310312,,,A*47
$GPGGA,011822.000,3353.7520,N,09832.0200,W,1,08,1.5,343.0,M,-23.7,M,18.8,0000*7E
$GPGSA,A,3,06,03,07,13,16,19,23,11,,,,,2.5,1.5,1.9*37
$GPRMC,011822.000,A,3353.7520,N,09832.0200,W,0.16,120.99,310312,,,A*76
$GPGGA,011823.000,3353.7520,N,09832.0200,W,1,08,1.5,343.0,M,-23.7,M,18.8,0000*7F
$GPGSA,A,3,06,03,07,13,16,19,23,11,,,,,2.5,1.5,1.9*37
$GPRMC,011823.000,A,3353.7520,N,09832.0200,W,0.08,51.47,310312,,,A*4C
$GPGGA,011824.000,3353.7519,N,09832.0200,W,1,08,1.5,343.0,M,-23.7,M,18.8,0000*72
$GPGSA,A,3,06,03,07,13,16,19,23,11,,,,,2.5,1.5,1.9*37
$GPRMC,011824.000,A,3353.7519,N,09832.0200,W,0.11,89.55,310312,,,A*4F
$GPGGA,011825.000,3353.7519,N,09832.0201,W,1,08,1.5,342.9,M,-23.7,M,18.8,0000*7A
$GPGSA,A,3,06,03,07,13,16,19,23,11,,,,,2.5,1.5,1.9*37
$GPRMC,011825.000,A,3353.7519,N,09832.0201,W,0.06,72.50,310312,,,A*48
$GPGGA,011826.000,3353.7519,N,09832.0201,W,1,08,1.5,342.9,M,-23.7,M,18.8,0000*79
$GPGSA,A,3,06,03,07,13,16,19,23,11,,,,,2.5,1.5,1.9*37
$GPGSV,3,1,12,13,75,207,39,07,55,332,29,19,54,111,33,23,46,167,29*79
$GPGSV,3,2,12,03,40,057,39,06,27,049,27,08,24,302,23,10,17,265,23*76
$GPGSV,3,3,12,16,15,050,31,28,12,243,13,11,12,148,24,05,02,315,*78
$GPRMC,011826.000,A,3353.7519,N,09832.0201,W,0.07,11.69,310312,,,A*45
$GPGGA,011827.000,3353.7518,N,09832.0201,W,1,08,1.5,342.8,M,-23.7,M,18.8,0000*78
$GPGSA,A,3,06,03,07,13,16,19,23,11,,,,,2.5,1.5,1.9*37
$GPRMC,011827.000,A,3353.7518,N,09832.0201,W,0.15,123.02,310312,,,A*7B
$GPGGA,011828.000,3353.7517,N,09832.0202,W,1,08,1.5,342.6,M,-23.7,M,18.8,0000*75
$GPGSA,A,3,06,03,07,13,16,19,23,11,,,,,2.5,1.5,1.9*37
$GPRMC,011828.000,A,3353.7517,N,09832.0202,W,0.08,115.85,310312,,,A*7E
$GPGGA,011829.000,3353.7517,N,09832.0202,W,1,08,1.5,342.4,M,-23.7,M,18.8,0000*76
$GPGSA,A,3,06,03,07,13,16,19,23,11,,,,,2.5,1.5,1.9*37
$GPRMC,011829.000,A,3353.7517,N,09832.0202,W,0.09,127.25,310312,,,A*75
$GPGGA,011830.000,3353.7516,N,09832.0203,W,1,08,1.5,342.2,M,-23.7,M,18.8,0000*78
$GPGSA,A,3,06,03,07,13,16,19,23,11,,,,,2.5,1.5,1.9*37
$GPRMC,011830.000,A,3353.7516,N,09832.0203,W,0.04,127.89,310312,,,A*76
$GPGGA,011831.000,3353.7516,N,09832.0203,W,1,08,1.5,342.0,M,-23.7,M,18.8,0000*7B
$GPGSA,A,3,06,03,07,13,16,19,23,11,,,,,2.5,1.5,1.9*37
$GPGSV,3,1,12,13,75,207,39,07,55,332,29,19,54,111,32,23,46,167,29*78
$GPGSV,3,2,12,03,40,057,39,06,27,049,27,08,24,302,22,10,17,265,23*77
$GPGSV,3,3,12,16,15,050,30,28,12,243,,11,12,148,25,05,02,315,*7A
$GPRMC,011831.000,A,3353.7516,N,09832.0203,W,0.01,272.96,310312,,,A*7F
$GPGGA,011832.000,3353.7515,N,09832.0204,W,1,08,1.5,341.8,M,-23.7,M,18.8,0000*77
$GPGSA,A,3,06,03,07,13,16,19,23,11,,,,,2.5,1.5,1.9*37
$GPRMC,011832.000,A,3353.7515,N,09832.0204,W,0.01,11.09,310312,,,A*49
$GPGGA,011833.000,3353.7514,N,09832.0205,W,1,08,1.5,341.5,M,-23.7,M,18.8,0000*7B
$GPGSA,A,3,06,03,07,13,16,19,23,11,,,,,2.5,1.5,1.9*37
$GPRMC,011833.000,A,3353.7514,N,09832.0205,W,0.01,61.78,310312,,,A*49
$GPGGA,011834.000,3353.7514,N,09832.0206,W,1,08,1.5,341.3,M,-23.7,M,18.8,0000*79
$GPGSA,A,3,06,03,07,13,16,19,23,11,,,,,2.5,1.5,1.9*37
$GPRMC,011834.000,A,3353.7514,N,09832.0206,W,0.02,19.59,310312,,,A*42
$GPGGA,011835.000,3353.7513,N,09832.0206,W,1,08,1.5,341.0,M,-23.7,M,18.8,0000*7C
$GPGSA,A,3,06,03,07,13,16,19,23,11,,,,,2.5,1.5,1.9*37
$GPRMC,011835.000,A,3353.7513,N,09832.0206,W,0.01,351.74,310312,,,A*77
$GPGGA,011836.000,3353.7513,N,09832.0207,W,1,08,1.5,340.8,M,-23.7,M,18.8,0000*77
$GPGSA,A,3,06,03,07,13,16,19,23,11,,,,,2.5,1.5,1.9*37
$GPGSV,3,1,12,13,75,207,39,07,55,332,29,19,54,111,33,23,46,167,28*78
$GPGSV,3,2,12,03,40,057,39,06,27,049,26,08,24,302,22,10,17,265,24*71
$GPGSV,3,3,12,16,15,050,30,28,12,243,,11,12,148,25,05,02,315,*7A
$GPRMC,011836.000,A,3353.7513,N,09832.0207,W,0.01,184.36,310312,,,A*79
$GPGGA,011837.000,3353.7513,N,09832.0208,W,1,08,1.5,340.5,M,-23.7,M,18.8,0000*74
$GPGSA,A,3,06,03,07,13,16,19,23,11,,,,,2.5,1.5,1.9*37
$GPRMC,011837.000,A,3353.7513,N,09832.0208,W,0.13,330.05,310312,,,A*79
$GPGGA,011838.000,3353.7512,N,09832.0209,W,1,08,1.5,340.3,M,-23.7,M,18.8,0000*7D
$GPGSA,A,3,06,03,07,13,16,19,23,11,,,,,2.5,1.5,1.9*37
$GPRMC,011838.000,A,3353.7512,N,09832.0209,W,0.05,139.15,310312,,,A*7B
$GPGGA,011839.000,3353.7511,N,09832.0210,W,1,08,1.5,340.0,M,-23.7,M,18.8,0000*74
$GPGSA,A,3,06,03,07,13,16,19,23,11,,,,,2.5,1.5,1.9*37
$GPRMC,011839.000,A,3353.7511,N,09832.0210,W,0.02,347.44,310312,,,A*79
$GPGGA,011840.000,3353.7511,N,09832.0211,W,1,08,1.5,339.7,M,-23.7,M,18.8,0000*72
$GPGSA,A,3,06,03,07,13,16,19,23,11,,,,,2.5,1.5,1.9*37
$GPRMC,011840.000,A,3353.7511,N,09832.0211,W,0.05,347.69,310312,,,A*7E
$GPGGA,011841.000,3353.7510,N,09832.0211,W,1,08,1.5,339.4,M,-23.7,M,18.8,0000*71
$GPGSA,A,3,06,03,07,13,16,19,23,11,,,,,2.5,1.5,1.9*37
$GPGSV,3,1,12,13,75,207,39,07,55,332,30,19,54,111,33,23,46,167,28*70
$GPGSV,3,2,12,03,40,057,39,06,27,049,25,08,24,302,21,10,17,265,24*71
$GPGSV,3,3,12,16,15,050,30,28,12,243,,11,12,148,19,05,02,315,*75
$GPRMC,011841.000,A,3353.7510,N,09832.0211,W,0.21,151.52,310312,,,A*75
$GPGGA,011842.000,3353.7509,N,09832.0211,W,1,08,1.5,339.0,M,-23.7,M,18.8,0000*7E
$GPGSA,A,3,06,03,07,13,16,19,23,11,,,,,2.5,1.5,1.9*37
$GPRMC,011842.000,A,3353.7509,N,09832.0211,W,0.30,152.41,310312,,,A*7F
$GPGGA,011843.000,3353.7507,N,09832.0212,W,1,08,1.5,338.6,M,-23.7,M,18.8,0000*75
$GPGSA,A,3,06,03,07,13,16,19,23,11,,,,,2.5,1.5,1.9*37
$GPRMC,011843.000,A,3353.7507,N,09832.0212,W,0.39,158.91,310312,,,A*7D
$GPGGA,011844.000,3353.7506,N,09832.0213,W,1,08,1.6,338.2,M,-23.7,M,18.8,0000*75
$GPGSA,A,3,06,03,07,13,16,19,23,11,,,,,2.5,1.6,1.9*34
$GPRMC,011844.000,A,3353.7506,N,09832.0213,W,0.16,175.84,310312,,,A*7C
$GPGGA,011845.000,3353.7506,N,09832.0214,W,1,08,1.6,337.8,M,-23.7,M,18.8,0000*76
$GPGSA,A,3,06,03,07,13,16,19,23,11,,,,,2.5,1.6,1.9*34
$GPRMC,011845.000,A,3353.7506,N,09832.0214,W,0.08,276.10,310312,,,A*78
$GPGGA,011846.000,3353.7505,N,09832.0215,W,1,08,1.6,337.4,M,-23.7,M,18.8,0000*7B
$GPGSA,A,3,06,03,07,13,16,19,23,11,,,,,2.5,1.6,1.9*34
$GPGSV,3,1,12,13,75,207,39,07,55,332,30,19,54,111,33,23,46,167,28*70
$GPGSV,3,2,12,03,40,057,39,06,27,049,25,08,24,302,20,10,17,265,23*77
$GPGSV,3,3,12,16,15,050,30,28,12,243,18,11,12,148,19,05,02,315,*7C
$GPRMC,011846.000,A,3353.7505,N,09832.0215,W,0.12,306.79,310312,,,A*7B
$GPGGA,011847.000,3353.7505,N,09832.0216,W,1,08,1.6,337.1,M,-23.7,M,18.8,0000*7C
$GPGSA,A,3,06,03,07,13,16,19,23,11,,,,,2.5,1.6,1.9*34
$GPRMC,011847.000,A,3353.7505,N,09832.0216,W,0.16,309.00,310312,,,A*7C
$GPGGA,011848.000,3353.7505,N,09832.0217,W,1,08,1.6,336.8,M,-23.7,M,18.8,0000*7A
$GPGSA,A,3,06,03,07,13,16,19,23,11,,,,,2.5,1.6,1.9*34
$GPRMC,011848.000,A,3353.7505,N,09832.0217,W,0.16,319.35,310312,,,A*75
$GPGGA,011849.000,3353.7504,N,09832.0218,W,1,08,1.6,336.5,M,-23.7,M,18.8,0000*78
$GPGSA,A,3,06,03,07,13,16,19,23,11,,,,,2.5,1.6,1.9*34
$GPRMC,011849.000,A,3353.7504,N,09832.0218,W,0.12,335.84,310312,,,A*7A
$GPGGA,011850.000,3353.7504,N,09832.0218,W,1,08,1.6,336.3,M,-23.7,M,18.8,0000*76
$GPGSA,A,3,06,03,07,13,16,19,23,11,,,,,2.5,1.6,1.9*34
$GPRMC,011850.000,A,3353.7504,N,09832.0218,W,0.16,334.75,310312,,,A*79
$GPGGA,011851.000,3353.7504,N,09832.0219,W,1,08,1.6,336.2,M,-23.7,M,18.8,0000*77
$GPGSA,A,3,06,03,07,13,16,19,23,11,,,,,2.5,1.6,1.9*34
$GPGSV,3,1,12,13,75,207,40,07,55,332,31,19,54,111,33,23,46,167,30*76
$GPGSV,3,2,12,03,40,057,39,06,27,049,25,08,24,302,19,10,17,265,23*7D
$GPGSV,3,3,12,16,15,050,30,28,12,243,16,11,12,148,19,05,02,315,*72
$GPRMC,011851.000,A,3353.7504,N,09832.0219,W,0.06,132.56,310312,,,A*7D
$GPGGA,011852.000,3353.7503,N,09832.0219,W,1,08,1.6,335.9,M,-23.7,M,18.8,0000*7B
$GPGSA,A,3,06,03,07,13,16,19,23,11,,,,,2.5,1.6,1.9*34
$GPRMC,011852.000,A,3353.7503,N,09832.0219,W,0.16,135.48,310312,,,A*70
$GPGGA,011853.000,3353.7502,N,09832.0220,W,1,08,1.6,335.8,M,-23.7,M,18.8,0000*70
$GPGSA,A,3,06,03,07,13,16,19,23,11,,,,,2.5,1.6,1.9*34
$GPRMC,011853.000,A,3353.7502,N,09832.0220,W,0.01,19.98,310312,,,A*4E
$GPGGA,011854.000,3353.7502,N,09832.0220,W,1,08,1.6,335.7,M,-23.7,M,18.8,0000*78
$GPGSA,A,3,06,03,07,13,16,19,23,11,,,,,2.5,1.6,1.9*34
$GPRMC,011854.000,A,3353.7502,N,09832.0220,W,0.06,60.11,310312,,,A*41
$GPGGA,011855.000,3353.7502,N,09832.0220,W,1,08,1.6,335.6,M,-23.7,M,18.8,0000*78
$GPGSA,A,3,06,03,07,13,16,19,23,11,,,,,2.5,1.6,1.9*34
$GPRMC,011855.000,A,3353.7502,N,09832.0220,W,0.08,2.27,310312,,,A*7F
$GPGGA,011856.000,3353.7501,N,09832.0220,W,1,08,1.6,335.4,M,-23.7,M,18.8,0000*7A
$GPGSA,A,3,06,03,07,13,16,19,23,11,,,,,2.5,1.6,1.9*34
$GPGSV,3,1,12,13,75,207,40,07,55,332,31,19,54,111,33,23,46,167,30*76
$GPGSV,3,2,12,03,40,057,39,06,27,049,25,08,24,302,18,10,17,265,22*7D
$GPGSV,3,3,12,16,15,050,30,28,12,243,16,11,12,148,20,05,02,315,*78
$GPRMC,011856.000,A,3353.7501,N,09832.0220,W,0.13,121.00,310312,,,A*70
$GPGGA,011857.000,3353.7500,N,09832.0220,W,1,08,1.6,335.3,M,-23.7,M,18.8,0000*7D
$GPGSA,A,3,06,03,07,13,16,19,23,11,,,,,2.5,1.6,1.9*34
$GPRMC,011857.000,A,3353.7500,N,09832.0220,W,0.31,139.86,310312,,,A*77
$GPGGA,011858.000,3353.7499,N,09832.0220,W,1,08,1.6,335.1,M,-23.7,M,18.8,0000*71
$GPGSA,A,3,06,03,07,13,16,19,23,11,,,,,2.5,1.6,1.9*34
$GPRMC,011858.000,A,3353.7499,N,09832.0220,W,0.29,140.97,310312,,,A*7E
$GPGGA,011859.000,3353.7498,N,09832.0220,W,1,08,1.6,334.9,M,-23.7,M,18.8,0000*78
$GPGSA,A,3,06,03,07,13,16,19,23,11,,,,,2.5,1.6,1.9*34
$GPRMC,011859.000,A,3353.7498,N,09832.0220,W,0.12,149.42,310312,,,A*77
$GPGGA,011900.000,3353.7497,N,09832.0221,W,1,08,1.6,334.8,M,-23.7,M,18.8,0000*7A
$GPGSA,A,3,06,03,07,13,16,19,23,11,,,,,2.5,1.6,1.9*34
$GPRMC,011900.000,A,3353.7497,N,09832.0221,W,0.05,134.87,310312,,,A*71
$GPGGA,011901.000,3353.7496,N,09832.0221,W,1,08,1.6,334.6,M,-23.7,M,18.8,0000*74
$GPGSA,A,3,06,03,07,13,16,19,23,11,,,,,2.5,1.6,1.9*34
$GPGSV,3,1,12,13,75,207,40,07,55,332,31,19,54,111,33,23,46,167,31*77
$GPGSV,3,2,12,03,40,057,39,06,27,049,25,08,24,302,18,10,17,265,13*7F
$GPGSV,3,3,12,16,15,050,30,28,12,243,15,11,12,148,21,05,02,315,*7A
$GPRMC,011901.000,A,3353.7496,N,09832.0221,W,0.22,149.29,310312,,,A*7A
$GPGGA,011902.000,3353.7495,N,09832.0221,W,1,08,1.6,334.4,M,-23.7,M,18.8,0000*76
$GPGSA,A,3,06,03,07,13,16,19,23,11,,,,,2.5,1.6,1.9*34
$GPRMC,011902.000,A,3353.7495,N,09832.0221,W,0.32,148.66,310312,,,A*71
$GPGGA,011903.000,3353.7494,N,09832.0221,W,1,08,1.6,334.1,M,-23.7,M,18.8,0000*73
$GPGSA,A,3,06,03,07,13,16,19,23,11,,,,,2.5,1.6,1.9*34
$GPRMC,011903.000,A,3353.7494,N,09832.0221,W,0.14,164.87,310312,,,A*74
$GPGGA,011904.000,3353.7493,N,09832.0222,W,1,08,1.6,333.9,M,-23.7,M,18.8,0000*7F
$GPGSA,A,3,06,03,07,13,16,19,23,11,,,,,2.5,1.6,1.9*34
$GPRMC,011904.000,A,3353.7493,N,09832.0222,W,0.25,157.98,310312,,,A*7B
$GPGGA,011905.000,3353.7492,N,09832.0222,W,1,08,1.6,333.6,M,-23.7,M,18.8,0000*70
$GPGSA,A,3,06,03,07,13,16,19,23,11,,,,,2.5,1.6,1.9*34
$GPRMC,011905.000,A,3353.7492,N,09832.0222,W,0.20,162.49,310312,,,A*74
$GPGGA,011906.000,3353.7492,N,09832.0223,W,1,08,1.6,333.4,M,-23.7,M,18.8,0000*70
$GPGSA,A,3,06,03,07,13,16,19,23,11,,,,,2.5,1.6,1.9*34
$GPGSV,3,1,12,13,75,207,40,07,55,332,31,19,54,111,33,23,46,167,31*77
$GPGSV,3,2,12,03,40,057,39,06,27,049,25,08,24,302,18,10,17,265,12*7E
$GPGSV,3,3,12,16,15,050,30,28,12,243,14,11,12,148,21,05,02,315,*7B
$GPRMC,011906.000,A,3353.7492,N,09832.0223,W,0.08,254.13,310312,,,A*75
$GPGGA,011907.000,3353.7492,N,09832.0223,W,1,08,1.6,333.3,M,-23.7,M,18.8,0000*76
$GPGSA,A,3,06,03,07,13,16,19,23,11,,,,,2.5,1.6,1.9*34
$GPRMC,011907.000,A,3353.7492,N,09832.0223,W,0.13,294.64,310312,,,A*72
$GPGGA,011908.000,3353.7492,N,09832.0224,W,1,08,1.6,333.2,M,-23.7,M,18.8,0000*7F
$GPGSA,A,3,06,03,07,13,16,19,23,11,,,,,2.5,1.6,1.9*34
$GPRMC,011908.000,A,3353.7492,N,09832.0224,W,0.15,303.06,310312,,,A*77
$GPGGA,011909.000,3353.7492,N,09832.0225,W,1,08,1.6,333.1,M,-23.7,M,18.8,0000*7C
$GPGSA,A,3,06,03,07,13,16,19,23,11,,,,,2.5,1.6,1.9*34
$GPRMC,011909.000,A,3353.7492,N,09832.0225,W,0.13,316.94,310312,,,A*7E
$GPGGA,011910.000,3353.7491,N,09832.0225,W,1,08,1.6,333.1,M,-23.7,M,18.8,0000*77
$GPGSA,A,3,06,03,07,13,16,19,23,11,,,,,2.5,1.6,1.9*34
$GPRMC,011910.000,A,3353.7491,N,09832.0225,W,0.07,131.74,310312,,,A*79
$GPGGA,011911.000,3353.7491,N,09832.0225,W,1,08,1.6,333.1,M,-23.7,M,18.8,0000*76
$GPGSA,A,3,06,03,07,13,16,19,23,11,,,,,2.5,1.6,1.9*34
$GPGSV,3,1,12,13,75,207,41,07,55,332,31,19,54,111,32,23,46,167,32*74
$GPGSV,3,2,12,03,40,057,39,06,27,049,25,08,24,302,18,10,17,265,14*78
$GPGSV,3,3,12,16,15,050,30,28,12,243,15,11,12,148,21,05,02,315,*7A
$GPRMC,011911.000,A,3353.7491,N,09832.0225,W,0.09,350.16,310312,,,A*77
$GPGGA,011912.000,3353.7491,N,09832.0226,W,1,08,1.6,333.1,M,-23.7,M,18.8,0000*76
$GPGSA,A,3,06,03,07,13,16,19,23,11,,,,,2.5,1.6,1.9*34
$GPRMC,011912.000,A,3353.7491,N,09832.0226,W,0.16,336.95,310312,,,A*72
$GPGGA,011913.000,3353.7491,N,09832.0226,W,1,08,1.6,333.1,M,-23.7,M,18.8,0000*77
$GPGSA,A,3,06,03,07,13,16,19,23,11,,,,,2.5,1.6,1.9*34
$GPRMC,011913.000,A,3353.7491,N,09832.0226,W,0.17,118.48,310312,,,A*7C
$GPGGA,011914.000,3353.7490,N,09832.0225,W,1,08,1.6,333.1,M,-23.7,M,18.8,0000*72
$GPGSA,A,3,06,03,07,13,16,19,23,11,,,,,2.5,1.6,1.9*34
$GPRMC,011914.000,A,3353.7490,N,09832.0225,W,0.23,136.47,310312,,,A*7D
$GPGGA,011915.000,3353.7490,N,09832.0225,W,1,08,1.6,333.0,M,-23.7,M,18.8,0000*72
$GPGSA,A,3,06,03,07,13,16,19,23,11,,,,,2.5,1.6,1.9*34
$GPRMC,011915.000,A,3353.7490,N,09832.0225,W,0.09,121.41,310312,,,A*74
$GPGGA,011916.000,3353.7489,N,09832.0226,W,1,08,1.6,333.0,M,-23.7,M,18.8,0000*7A
$GPGSA,A,3,06,03,07,13,16,19,23,11,,,,,2.5,1.6,1.9*34
$GPGSV,3,1,12,13,75,207,41,07,55,332,30,19,54,111,32,23,46,167,33*74
$GPGSV,3,2,12,03,40,057,39,06,27,049,25,08,24,302,17,10,17,265,15*76
$GPGSV,3,3,12,16,15,050,30,28,12,243,15,11,12,148,22,05,02,315,*79
$GPRMC,011916.000,A,3353.7489,N,09832.0226,W,0.10,127.75,310312,,,A*75
$GPGGA,011917.000,3353.7489,N,09832.0226,W,1,08,1.6,333.0,M,-23.7,M,18.8,0000*7B
$GPGSA,A,3,06,03,07,13,16,19,23,11,,,,,2.5,1.6,1.9*34
$GPRMC,011917.000,A,3353.7489,N,09832.0226,W,0.03,110.13,310312,,,A*72
$GPGGA,011918.000,3353.7489,N,09832.0226,W,1,08,1.6,333.0,M,-23.7,M,18.8,0000*74
$GPGSA,A,3,06,03,07,13,16,19,23,11,,,,,2.5,1.6,1.9*34
$GPRMC,011918.000,A,3353.7489,N,09832.0226,W,0.03,62.72,310312,,,A*4E
$GPGGA,011919.000,3353.7489,N,09832.0226,W,1,08,1.6,333.0,M,-23.7,M,18.8,0000*75
$GPGSA,A,3,06,03,07,13,16,19,23,11,,,,,2.5,1.6,1.9*34
$GPRMC,011919.000,A,3353.7489,N,09832.0226,W,0.10,352.68,310312,,,A*76
$GPGGA,011920.000,3353.7489,N,09832.0226,W,1,08,1.6,333.0,M,-23.7,M,18.8,0000*7F
$GPGSA,A,3,06,03,07,13,16,19,23,11,,,,,2.5,1.6,1.9*34
$GPRMC,011920.000,A,3353.7489,N,09832.0226,W,0.10,111.35,310312,,,A*71
$GPGGA,011921.000,3353.7489,N,09832.0226,W,1,08,1.6,333.0,M,-23.7,M,18.8,0000*7E
$GPGSA,A,3,06,03,07,13,16,19,23,11,,,,,2.5,1.6,1.9*34
$GPGSV,3,1,12,13,75,207,41,07,55,332,30,19,54,111,32,23,46,167,34*73
$GPGSV,3,2,12,03,40,057,39,06,27,049,25,08,24,302,17,10,17,265,17*74
$GPGSV,3,3,12,16,15,050,30,28,12,243,10,11,12,148,24,05,02,315,*7A
$GPRMC,011921.000,A,3353.7489,N,09832.0226,W,0.05,12.92,310312,,,A*4B
$GPGGA,011922.000,3353.7489,N,09832.0227,W,1,08,1.6,333.1,M,-23.7,M,18.8,0000*7D
$GPGSA,A,3,06,03,07,13,16,19,23,11,,,,,2.5,1.6,1.9*34
$GPRMC,011922.000,A,3353.7489,N,09832.0227,W,0.08,13.43,310312,,,A*49
$GPGGA,011923.000,3353.7488,N,09832.0227,W,1,08,1.6,333.1,M,-23.7,M,18.8,0000*7D
$GPGSA,A,3,06,03,07,13,16,19,23,11,,,,,2.5,1.6,1.9*34
$GPRMC,011923.000,A,3353.7488,N,09832.0227,W,0.07,93.10,310312,,,A*48
$GPGGA,011924.000,3353.7488,N,09832.0227,W,1,08,1.6,333.1,M,-23.7,M,18.8,0000*7A
$GPGSA,A,3,06,03,07,13,16,19,23,11,,,,,2.5,1.6,1.9*34
$GPRMC,011924.000,A,3353.7488,N,09832.0227,W,0.06,66.87,310312,,,A*4A
$GPGGA,011925.000,3353.7488,N,09832.0227,W,1,08,1.6,333.1,M,-23.7,M,18.8,0000*7B
$GPGSA,A,3,06,03,07,13,16,19,23,11,,,,,2.5,1.6,1.9*34
$GPRMC,011925.000,A,3353.7488,N,09832.0227,W,0.08,92.72,310312,,,A*44
$GPGGA,011926.000,3353.7488,N,09832.0227,W,1,08,1.6,333.1,M,-23.7,M,18.8,0000*78
$GPGSA,A,3,06,03,07,13,16,19,23,11,,,,,2.5,1.6,1.9*34
$GPGSV,3,1,12,13,75,207,41,07,55,332,30,19,54,111,32,23,46,167,34*73
$GPGSV,3,2,12,03,40,057,39,06,27,049,26,08,24,302,16,10,17,265,18*79
$GPGSV,3,3,12,16,15,050,30,28,12,243,,11,12,148,26,05,02,315,*79
$GPRMC,011926.000,A,3353.7488,N,09832.0227,W,0.07,82.80,310312,,,A*44
$GPGGA,011927.000,3353.7488,N,09832.0227,W,1,08,1.6,333.0,M,-23.7,M,18.8,0000*78
$GPGSA,A,3,06,03,07,13,16,19,23,11,,,,,2.5,1.6,1.9*34
$GPRMC,011927.000,A,3353.7488,N,09832.0227,W,0.03,64.06,310312,,,A*47
$GPGGA,011928.000,3353.7488,N,09832.0227,W,1,08,1.6,333.0,M,-23.7,M,18.8,0000*77
$GPGSA,A,3,06,03,07,13,16,19,23,11,,,,,2.5,1.6,1.9*34
$GPRMC,011928.000,A,3353.7488,N,09832.0227,W,0.04,65.09,310312,,,A*41
$GPGGA,011929.000,3353.7488,N,09832.0228,W,1,08,1.6,332.9,M,-23.7,M,18.8,0000*71
$GPGSA,A,3,06,03,07,13,16,19,23,11,,,,,2.5,1.6,1.9*34
$GPRMC,011929.000,A,3353.7488,N,09832.0228,W,0.05,81.79,310312,,,A*43
$GPGGA,011930.000,3353.7488,N,09832.0228,W,1,08,1.6,332.7,M,-23.7,M,18.8,0000*77
$GPGSA,A,3,06,03,07,13,16,19,23,11,,,,,2.5,1.6,1.9*34
$GPRMC,011930.000,A,3353.7488,N,09832.0228,W,0.04,85.43,310312,,,A*47
$GPGGA,011931.000,3353.7488,N,09832.0228,W,1,08,1.6,332.6,M,-23.7,M,18.8,0000*77
$GPGSA,A,3,06,03,07,13,16,19,23,11,,,,,2.5,1.6,1.9*34
$GPGSV,3,1,12,13,75,207,41,07,55,332,30,19,54,111,31,23,46,167,34*70
$GPGSV,3,2,12,03,40,057,38,06,27,049,26,08,24,302,16,10,17,265,17*77
$GPGSV,3,3,12,16,15,050,31,28,12,243,,11,12,148,27,05,02,315,*79
$GPRMC,011931.000,A,3353.7488,N,09832.0228,W,0.04,89.43,310312,,,A*4A
$GPGGA,011932.000,3353.7488,N,09832.0228,W,1,08,1.6,332.5,M,-23.7,M,18.8,0000*77
$GPGSA,A,3,06,03,07,13,16,19,23,11,,,,,2.5,1.6,1.9*34
$GPRMC,011932.000,A,3353.7488,N,09832.0228,W,0.03,60.43,310312,,,A*49
$GPGGA,011933.000,3353.7488,N,09832.0229,W,1,08,1.6,332.3,M,-23.7,M,18.8,0000*71
$GPGSA,A,3,06,03,07,13,16,19,23,11,,,,,2.5,1.6,1.9*34
$GPRMC,011933.000,A,3353.7488,N,09832.0229,W,0.03,74.91,310312,,,A*43
$GPGGA,011934.000,3353.7488,N,09832.0229,W,1,08,1.6,332.2,M,-23.7,M,18.8,0000*77
$GPGSA,A,3,06,03,07,13,16,19,23,11,,,,,2.5,1.6,1.9*34
$GPRMC,011934.000,A,3353.7488,N,09832.0229,W,0.02,59.46,310312,,,A*40
$GPGGA,011935.000,3353.7488,N,09832.0229,W,1,08,1.6,332.0,M,-23.7,M,18.8,0000*74
$GPGSA,A,3,06,03,07,13,16,19,23,11,,,,,2.5,1.6,1.9*34
$GPRMC,011935.000,A,3353.7488,N,09832.0229,W,0.03,80.12,310312,,,A*45
$GPGGA,011936.000,3353.7488,N,09832.0230,W,1,08,1.6,331.9,M,-23.7,M,18.8,0000*75
$GPGSA,A,3,06,03,07,13,16,19,23,11,,,,,2.5,1.6,1.9*34
$GPGSV,3,1,12,13,75,207,41,07,55,332,30,19,54,111,31,23,46,167,35*71
$GPGSV,3,2,12,03,40,057,38,06,27,049,26,08,24,302,17,10,17,265,17*76
$GPGSV,3,3,12,16,15,050,31,28,12,243,,11,12,148,27,05,02,315,*79
$GPRMC,011936.000,A,3353.7488,N,09832.0230,W,0.03,77.46,310312,,,A*47
$GPGGA,011937.000,3353.7488,N,09832.0230,W,1,08,1.6,331.8,M,-23.7,M,18.8,0000*75
$GPGSA,A,3,06,03,07,13,16,19,23,11,,,,,2.5,1.6,1.9*34
$GPRMC,011937.000,A,3353.7488,N,09832.0230,W,0.02,109.01,310312,,,A*7C
$GPGGA,011938.000,3353.7488,N,09832.0230,W,1,08,1.6,331.6,M,-23.7,M,18.8,0000*74
$GPGSA,A,3,06,03,07,13,16,19,23,11,,,,,2.5,1.6,1.9*34
$GPRMC,011938.000,A,3353.7488,N,09832.0230,W,0.01,131.28,310312,,,A*70
$GPGGA,011939.000,3353.7488,N,09832.0231,W,1,08,1.6,331.5,M,-23.7,M,18.8,0000*77
$GPGSA,A,3,06,03,07,13,16,19,23,11,,,,,2.5,1.6,1.9*34
$GPRMC,011939.000,A,3353.7488,N,09832.0231,W,0.02,7.74,310312,,,A*7E
$GPGGA,011940.000,3353.7488,N,09832.0231,W,1,08,1.6,331.4,M,-23.7,M,18.8,0000*78
$GPGSA,A,3,06,03,07,13,16,19,23,11,,,,,2.5,1.6,1.9*34
$GPRMC,011940.000,A,3353.7488,N,09832.0231,W,0.02,88.29,310312,,,A*4F
$GPGGA,011941.000,3353.7488,N,09832.0231,W,1,08,1.6,331.2,M,-23.7,M,18.8,0000*7F
$GPGSA,A,3,06,03,07,13,16,19,23,11,,,,,2.5,1.6,1.9*34
$GPGSV,3,1,12,13,75,207,41,07,55,332,30,19,54,111,31,23,46,167,35*71
$GPGSV,3,2,12,03,40,057,38,06,27,049,27,08,24,302,17,10,17,265,13*73
$GPGSV,3,3,12,16,15,050,31,28,12,243,21,11,12,148,27,05,02,315,*7A
$GPRMC,011941.000,A,3353.7488,N,09832.0231,W,0.02,50.89,310312,,,A*41
$GPGGA,011942.000,3353.7488,N,09832.0231,W,1,08,1.6,331.1,M,-23.7,M,18.8,0000*7F
$GPGSA,A,3,06,03,07,13,16,19,23,11,,,,,2.5,1.6,1.9*34
$GPRMC,011942.000,A,3353.7488,N,09832.0231,W,0.03,93.88,310312,,,A*4D
$GPGGA,011943.000,3353.7488,N,09832.0232,W,1,08,1.6,331.0,M,-23.7,M,18.8,0000*7C
$GPGSA,A,3,06,03,07,13,16,19,23,11,,,,,2.5,1.6,1.9*34
$GPRMC,011943.000,A,3353.7488,N,09832.0232,W,0.03,116.71,310312,,,A*75
$GPGGA,011944.000,3353.7487,N,09832.0232,W,1,08,1.6,330.9,M,-23.7,M,18.8,0000*7C
$GPGSA,A,3,06,03,07,13,16,19,23,11,,,,,2.5,1.6,1.9*34
$GPRMC,011944.000,A,3353.7487,N,09832.0232,W,0.03,127.70,310312,,,A*7E
$GPGGA,011945.000,3353.7487,N,09832.0232,W,1,08,1.6,330.8,M,-23.7,M,18.8,0000*7C
$GPGSA,A,3,06,03,07,13,16,19,23,11,,,,,2.5,1.6,1.9*34
$GPRMC,011945.000,A,3353.7487,N,09832.0232,W,0.03,96.99,310312,,,A*43
$GPGGA,011946.000,3353.7487,N,09832.0232,W,1,08,1.6,330.7,M,-23.7,M,18.8,0000*70
$GPGSA,A,3,06,03,07,13,16,19,23,11,,,,,2.5,1.6,1.9*34
$GPGSV,3,1,12,13,75,207,41,07,55,332,30,19,54,111,31,23,46,167,35*71
$GPGSV,3,2,12,03,40,057,38,06,27,049,27,08,24,302,18,10,17,265,14*7B
$GPGSV,3,3,12,16,15,050,31,28,12,243,21,11,12,148,27,05,02,315,*7A
$GPRMC,011946.000,A,3353.7487,N,09832.0232,W,0.03,96.96,310312,,,A*4F
$GPGGA,011947.000,3353.7487,N,09832.0232,W,1,08,1.6,330.6,M,-23.7,M,18.8,0000*70
$GPGSA,A,3,06,03,07,13,16,19,23,11,,,,,2.5,1.6,1.9*34
$GPRMC,011947.000,A,3353.7487,N,09832.0232,W,0.05,113.09,310312,,,A*72
$GPGGA,011948.000,3353.7487,N,09832.0233,W,1,08,1.6,330.5,M,-23.7,M,18.8,0000*7D
$GPGSA,A,3,06,03,07,13,16,19,23,11,,,,,2.5,1.6,1.9*34
$GPRMC,011948.000,A,3353.7487,N,09832.0233,W,0.03,96.11,310312,,,A*4F
$GPGGA,011949.000,3353.7487,N,09832.0233,W,1,08,1.6,330.4,M,-23.7,M,18.8,0000*7D
$GPGSA,A,3,06,03,07,13,16,19,23,11,,,,,2.5,1.6,1.9*34
$GPRMC,011949.000,A,3353.7487,N,09832.0233,W,0.04,106.78,310312,,,A*7E
$GPGGA,011950.000,3353.7487,N,09832.0233,W,1,08,1.6,330.4,M,-23.7,M,18.8,0000*75
$GPGSA,A,3,06,03,07,13,16,19,23,11,,,,,2.5,1.6,1.9*34
$GPRMC,011950.000,A,3353.7487,N,09832.0233,W,0.06,104.50,310312,,,A*7C
$GPGGA,011951.000,3353.7487,N,09832.0232,W,1,08,1.6,330.3,M,-23.7,M,18.8,0000*72
$GPGSA,A,3,06,03,07,13,16,19,23,11,,,,,2.5,1.6,1.9*34
$GPGSV,3,1,12,13,75,207,41,07,55,332,31,19,54,111,31,23,46,167,35*70
$GPGSV,3,2,12,03,40,057,38,06,27,049,27,08,24,302,19,10,17,265,16*78
$GPGSV,3,3,12,16,15,050,31,28,12,243,20,11,12,148,27,05,02,315,*7B
$GPRMC,011951.000,A,3353.7487,N,09832.0232,W,0.08,96.79,310312,,,A*43
$GPGGA,011952.000,3353.7487,N,09832.0232,W,1,08,1.6,330.3,M,-23.7,M,18.8,0000*71
$GPGSA,A,3,06,03,07,13,16,19,23,11,,,,,2.5,1.6,1.9*34
$GPRMC,011952.000,A,3353.7487,N,09832.0232,W,0.07,58.16,310312,,,A*44
$GPGGA,011953.000,3353.7487,N,09832.0232,W,1,08,1.6,330.4,M,-23.7,M,18.8,0000*77
$GPGSA,A,3,06,03,07,13,16,19,23,11,,,,,2.5,1.6,1.9*34
$GPRMC,011953.000,A,3353.7487,N,09832.0232,W,0.10,93.37,310312,,,A*47
$GPGGA,011954.000,3353.7487,N,09832.0231,W,1,08,1.6,330.4,M,-23.7,M,18.8,0000*73
$GPGSA,A,3,06,03,07,13,16,19,23,11,,,,,2.5,1.6,2.0*3E
$GPRMC,011954.000,A,3353.7487,N,09832.0231,W,0.09,94.72,310312,,,A*4D
$GPGGA,011955.000,3353.7487,N,09832.0231,W,1,08,1.6,330.4,M,-23.7,M,18.8,0000*72
$GPGSA,A,3,06,03,07,13,16,19,23,11,,,,,2.5,1.6,2.0*3E
$GPRMC,011955.000,A,3353.7487,N,09832.0231,W,0.07,97.72,310312,,,A*41
$GPGGA,011956.000,3353.7487,N,09832.0231,W,1,08,1.6,330.4,M,-23.7,M,18.8,0000*71
$GPGSA,A,3,06,03,07,13,16,19,23,11,,,,,2.5,1.6,2.0*3E
$GPGSV,3,1,12,13,75,207,41,07,55,332,31,19,54,111,31,23,46,167,35*70
$GPGSV,3,2,12,03,40,057,38,06,27,049,28,08,24,302,19,10,17,265,15*74
$GPGSV,3,3,12,16,15,050,31,28,12,243,20,11,12,148,26,05,02,315,*7A
$GPRMC,011956.000,A,3353.7487,N,09832.0231,W,0.05,75.11,310312,,,A*49
$GPGGA,011957.000,3353.7487,N,09832.0231,W,1,08,1.6,330.4,M,-23.7,M,18.8,0000*70
$GPGSA,A,3,06,03,07,13,16,19,23,11,,,,,2.5,1.6,2.0*3E
$GPRMC,011957.000,A,3353.7487,N,09832.0231,W,0.07,97.58,310312,,,A*4B
$GPGGA,011958.000,3353.7487,N,09832.0231,W,1,08,1.6,330.3,M,-23.7,M,18.8,0000*78
$GPGSA,A,3,06,03,07,13,16,19,23,11,,,,,2.5,1.6,2.0*3E
$GPRMC,011958.000,A,3353.7487,N,09832.0231,W,0.05,82.92,310312,,,A*44
$GPGGA,011959.000,3353.7486,N,09832.0231,W,1,08,1.6,330.3,M,-23.7,M,18.8,0000*78
$GPGSA,A,3,06,03,07,13,16,19,23,11,,,,,2.5,1.6,2.0*3E
$GPRMC,011959.000,A,3353.7486,N,09832.0231,W,0.16,127.41,310312,,,A*76
$GPGGA,012000.000,3353.7486,N,09832.0231,W,1,08,1.6,330.2,M,-23.7,M,18.8,0000*7F
$GPGSA,A,3,06,03,07,13,16,19,23,11,,,,,2.5,1.6,2.0*3E
$GPRMC,012000.000,A,3353.7486,N,09832.0231,W,0.06,104.19,310312,,,A*7D
$GPGGA,012001.000,3353.7486,N,09832.0231,W,1,08,1.6,330.2,M,-23.7,M,18.8,0000*7E
$GPGSA,A,3,06,03,07,13,16,19,23,11,,,,,2.5,1.6,2.0*3E
$GPGSV,3,1,12,13,75,207,41,07,55,332,31,19,54,111,32,23,46,167,35*73
$GPGSV,3,2,12,03,40,057,37,06,27,049,28,08,24,302,18,10,17,265,15*7A
$GPGSV,3,3,12,16,15,050,31,28,12,243,20,11,12,148,26,05,02,315,*7A
$GPRMC,012001.000,A,3353.7486,N,09832.0231,W,0.03,117.94,310312,,,A*7E
$GPGGA,012002.000,3353.7486,N,09832.0231,W,1,08,1.6,330.2,M,-23.7,M,18.8,0000*7D
$GPGSA,A,3,06,03,07,13,16,19,23,11,,,,,2.5,1.6,2.0*3E
$GPRMC,012002.000,A,3353.7486,N,09832.0231,W,0.05,98.50,310312,,,A*45
$GPGGA,012003.000,3353.7486,N,09832.0231,W,1,08,1.6,330.1,M,-23.7,M,18.8,0000*7F
$GPGSA,A,3,06,03,07,13,16,19,23,11,,,,,2.5,1.6,2.0*3E
$GPRMC,012003.000,A,3353.7486,N,09832.0231,W,0.03,89.74,310312,,,A*44
$GPGGA,012004.000,3353.7486,N,09832.0231,W,1,08,1.6,330.0,M,-23.7,M,18.8,0000*79
$GPGSA,A,3,06,03,07,13,16,19,23,11,,,,,2.5,1.6,2.0*3E
$GPRMC,012004.000,A,3353.7486,N,09832.0231,W,0.04,107.82,310312,,,A*7A
$GPGGA,012005.000,3353.7486,N,09832.0231,W,1,08,1.6,330.0,M,-23.7,M,18.8,0000*78
$GPGSA,A,3,06,03,07,13,16,19,23,11,,,,,2.5,1.6,2.0*3E
$GPRMC,012005.000,A,3353.7486,N,09832.0231,W,0.04,112.54,310312,,,A*74
$GPGGA,012006.000,3353.7486,N,09832.0231,W,1,08,1.6,329.9,M,-23.7,M,18.8,0000*7A
$GPGSA,A,3,06,03,07,13,16,19,23,11,,,,,2.5,1.6,2.0*3E
$GPGSV,3,1,12,13,75,207,41,07,55,332,31,19,54,111,32,23,46,167,35*73
$GPGSV,3,2,12,03,40,057,37,06,27,049,28,08,24,302,17,10,17,265,16*76
$GPGSV,3,3,12,16,15,050,30,28,12,243,20,11,12,148,26,05,02,315,*7B
$GPRMC,012006.000,A,3353.7486,N,09832.0231,W,0.03,87.52,310312,,,A*4B
$GPGGA,012007.000,3353.7485,N,09832.0231,W,1,08,1.6,329.9,M,-23.7,M,18.8,0000*78
$GPGSA,A,3,06,03,07,13,16,19,23,11,,,,,2.5,1.6,2.0*3E
$GPRMC,012007.000,A,3353.7485,N,09832.0231,W,0.03,117.55,310312,,,A*76
$GPGGA,012008.000,3353.7485,N,09832.0231,W,1,08,1.6,329.8,M,-23.7,M,18.8,0000*76
$GPGSA,A,3,06,03,07,13,16,19,23,11,,,,,2.5,1.6,2.0*3E
$GPRMC,012008.000,A,3353.7485,N,09832.0231,W,0.03,99.41,310312,,,A*4B
$GPGGA,012009.000,3353.7485,N,09832.0231,W,1,08,1.6,329.7,M,-23.7,M,18.8,0000*78
$GPGSA,A,3,06,03,07,13,16,19,23,11,,,,,2.5,1.6,2.0*3E
$GPRMC,012009.000,A,3353.7485,N,09832.0231,W,0.01,74.66,310312,,,A*4E
$GPGGA,012010.000,3353.7485,N,09832.0231,W,1,08,1.6,329.7,M,-23.7,M,18.8,0000*70
$GPGSA,A,3,06,03,07,13,16,19,23,11,,,,,2.5,1.6,2.0*3E
$GPRMC,012010.000,A,3353.7485,N,09832.0231,W,0.02,125.96,310312,,,A*7F
$GPGGA,012011.000,3353.7485,N,09832.0232,W,1,08,1.6,329.6,M,-23.7,M,18.8,0000*73
$GPGSA,A,3,06,03,07,13,16,19,23,11,,,,,2.5,1.6,2.0*3E
$GPGSV,3,1,12,13,75,207,41,07,55,332,30,19,54,111,32,23,46,167,35*72
$GPGSV,3,2,12,03,40,057,38,06,27,049,28,08,24,302,17,10,17,265,16*79
$GPGSV,3,3,12,16,15,050,30,28,12,243,20,11,12,148,26,05,02,315,*7B
$GPRMC,012011.000,A,3353.7485,N,09832.0232,W,0.02,109.43,310312,,,A*7B
$GPGGA,012012.000,3353.7485,N,09832.0232,W,1,08,1.6,329.5,M,-23.7,M,18.8,0000*73
$GPGSA,A,3,06,03,07,13,16,19,23,11,,,,,2.5,1.6,2.0*3E
$GPRMC,012012.000,A,3353.7485,N,09832.0232,W,0.02,77.75,310312,,,A*45
$GPGGA,012013.000,3353.7485,N,09832.0232,W,1,08,1.6,329.4,M,-23.7,M,18.8,0000*73
$GPGSA,A,3,06,03,07,13,16,19,23,11,,,,,2.5,1.6,2.0*3E
$GPRMC,012013.000,A,3353.7485,N,09832.0232,W,0.03,124.74,310312,,,A*73
$GPGGA,012014.000,3353.7485,N,09832.0232,W,1,08,1.6,329.3,M,-23.7,M,18.8,0000*73
$GPGSA,A,3,06,03,07,13,16,19,23,11,,,,,2.5,1.6,2.0*3E
$GPRMC,012014.000,A,3353.7485,N,09832.0232,W,0.01,128.77,310312,,,A*79
$GPGGA,012015.000,3353.7485,N,09832.0233,W,1,08,1.6,329.1,M,-23.7,M,18.8,0000*71
$GPGSA,A,3,06,03,07,13,16,19,23,11,,,,,2.5,1.6,2.0*3E
$GPRMC,012015.000,A,3353.7485,N,09832.0233,W,0.01,165.11,310312,,,A*70
$GPGGA,012016.000,3353.7485,N,09832.0233,W,1,08,1.6,329.0,M,-23.7,M,18.8,0000*73
$GPGSA,A,3,06,03,07,13,16,19,23,11,,,,,2.5,1.6,2.0*3E
$GPGSV,3,1,12,13,75,207,41,07,55,332,29,19,54,111,32,23,46,167,36*79
$GPGSV,3,2,12,03,40,057,38,06,27,049,28,08,24,302,17,10,17,265,17*78
$GPGSV,3,3,12,16,15,050,29,28,12,243,21,11,12,148,26,05,02,315,*72
$GPRMC,012016.000,A,3353.7485,N,09832.0233,W,0.01,24.04,310312,,,A*43
$GPGGA,012017.000,3353.7485,N,09832.0234,W,1,08,1.6,328.8,M,-23.7,M,18.8,0000*7C
$GPGSA,A,3,06,03,07,13,16,19,23,11,,,,,2.5,1.6,2.0*3E
$GPRMC,012017.000,A,3353.7485,N,09832.0234,W,0.03,281.21,310312,,,A*7D
$GPGGA,012018.000,3353.7485,N,09832.0234,W,1,08,1.6,328.6,M,-23.7,M,18.8,0000*7D
$GPGSA,A,3,06,03,07,13,16,19,23,11,,,,,2.5,1.6,2.0*3E
$GPRMC,012018.000,A,3353.7485,N,09832.0234,W,0.03,325.52,310312,,,A*79
$GPGGA,012019.000,3353.7485,N,09832.0235,W,1,08,1.6,328.3,M,-23.7,M,18.8,0000*78
$GPGSA,A,3,06,03,07,13,16,19,23,11,,,,,2.5,1.6,2.0*3E
$GPRMC,012019.000,A,3353.7485,N,09832.0235,W,0.11,307.47,310312,,,A*7E
$GPGGA,012020.000,3353.7486,N,09832.0236,W,1,08,1.6,327.9,M,-23.7,M,18.8,0000*77
$GPGSA,A,3,06,03,07,13,16,19,23,11,,,,,2.5,1.6,2.0*3E
$GPRMC,012020.000,A,3353.7486,N,09832.0236,W,0.12,298.25,310312,,,A*74
$GPGGA,012021.000,3353.7487,N,09832.0237,W,1,08,1.6,327.4,M,-23.7,M,18.8,0000*7B
$GPGSA,A,3,06,03,07,13,16,19,23,11,,,,,2.5,1.6,2.0*3E
$GPGSV,3,1,12,13,75,207,41,07,55,332,28,19,54,111,32,23,46,167,36*78
$GPGSV,3,2,12,03,40,057,38,06,27,049,28,08,24,302,17,10,17,265,18*77
$GPGSV,3,3,12,16,15,050,29,28,12,243,23,11,12,148,26,05,02,315,*70
$GPRMC,012021.000,A,3353.7487,N,09832.0237,W,0.13,292.97,310312,,,A*77
$GPGGA,012022.000,3353.7487,N,09832.0239,W,1,08,1.6,327.0,M,-23.7,M,18.8,0000*72
$GPGSA,A,3,06,03,07,13,16,19,23,11,,,,,2.5,1.6,2.0*3E
$GPRMC,012022.000,A,3353.7487,N,09832.0239,W,0.16,293.83,310312,,,A*7B
$GPGGA,012023.000,3353.7488,N,09832.0240,W,1,08,1.6,326.4,M,-23.7,M,18.8,0000*77
$GPGSA,A,3,06,03,07,13,16,19,23,11,,,,,2.5,1.6,2.0*3E
$GPRMC,012023.000,A,3353.7488,N,09832.0240,W,0.15,290.38,310312,,,A*7B
$GPGGA,012024.000,3353.7489,N,09832.0242,W,1,08,1.6,325.9,M,-23.7,M,18.8,0000*7D
$GPGSA,A,3,06,03,07,13,16,19,23,11,,,,,2.5,1.6,2.0*3E
$GPRMC,012024.000,A,3353.7489,N,09832.0242,W,0.17,287.93,310312,,,A*7A
$GPGGA,012025.000,3353.7490,N,09832.0243,W,1,08,1.6,325.4,M,-23.7,M,18.8,0000*78
$GPGSA,A,3,06,03,07,13,16,19,23,11,,,,,2.5,1.6,2.0*3E
$GPRMC,012025.000,A,3353.7490,N,09832.0243,W,0.16,292.93,310312,,,A*77
$GPGGA,012026.000,3353.7490,N,09832.0245,W,1,08,1.6,324.8,M,-23.7,M,18.8,0000*70
$GPGSA,A,3,06,03,07,13,16,19,23,11,,,,,2.5,1.6,2.0*3E
$GPGSV,3,1,12,13,75,207,41,07,55,332,27,19,54,111,32,23,46,167,36*77
$GPGSV,3,2,12,03,40,057,38,06,27,049,29,08,24,302,16,10,17,265,18*77
$GPGSV,3,3,12,16,15,050,29,28,12,243,23,11,12,148,27,05,02,315,*71
$GPRMC,012026.000,A,3353.7490,N,09832.0245,W,0.16,284.88,310312,,,A*7F
$GPGGA,012027.000,3353.7491,N,09832.0247,W,1,08,1.6,324.2,M,-23.7,M,18.8,0000*78
$GPGSA,A,3,06,03,07,13,16,19,23,11,,,,,2.5,1.6,2.0*3E
$GPRMC,012027.000,A,3353.7491,N,09832.0247,W,0.16,286.00,310312,,,A*7F
$GPGGA,012028.000,3353.7492,N,09832.0248,W,1,08,1.6,323.7,M,-23.7,M,18.8,0000*79
$GPGSA,A,3,06,03,07,13,16,19,23,11,,,,,2.5,1.6,2.0*3E
$GPRMC,012028.000,A,3353.7492,N,09832.0248,W,0.16,280.88,310312,,,A*7A
$GPGGA,012029.000,3353.7493,N,09832.0250,W,1,08,1.6,323.1,M,-23.7,M,18.8,0000*76
$GPGSA,A,3,06,03,07,13,16,19,23,11,,,,,2.5,1.6,2.0*3E
$GPRMC,012029.000,A,3353.7493,N,09832.0250,W,0.17,282.83,310312,,,A*7B
$GPGGA,012030.000,3353.7494,N,09832.0252,W,1,08,1.6,322.6,M,-23.7,M,18.8,0000*7D
$GPGSA,A,3,06,03,07,13,16,19,23,11,,,,,2.5,1.6,2.0*3E
$GPRMC,012030.000,A,3353.7494,N,09832.0252,W,0.17,288.26,310312,,,A*73
$GPGGA,012031.000,3353.7495,N,09832.0254,W,1,08,1.6,322.0,M,-23.7,M,18.8,0000*7D
$GPGSA,A,3,06,03,07,13,16,19,23,11,,,,,2.5,1.6,2.0*3E
$GPGSV,3,1,12,13,75,207,41,07,55,332,27,19,54,111,33,23,46,167,37*77
$GPGSV,3,2,12,03,40,057,38,06,27,049,29,08,24,302,15,10,17,265,16*7A
$GPGSV,3,3,12,16,15,050,29,28,12,243,23,11,12,148,27,05,02,315,*71
$GPRMC,012031.000,A,3353.7495,N,09832.0254,W,0.16,285.63,310312,,,A*78
$GPGGA,012032.000,3353.7496,N,09832.0256,W,1,08,1.6,321.5,M,-23.7,M,18.8,0000*79
$GPGSA,A,3,06,03,07,13,16,19,23,11,,,,,2.5,1.6,2.0*3E
$GPRMC,012032.000,A,3353.7496,N,09832.0256,W,0.14,282.95,310312,,,A*76
$GPGGA,012033.000,3353.7496,N,09832.0257,W,1,08,1.6,321.0,M,-23.7,M,18.8,0000*7C
$GPGSA,A,3,06,03,07,13,16,19,23,11,,,,,2.5,1.6,2.0*3E
$GPRMC,012033.000,A,3353.7496,N,09832.0257,W,0.14,280.79,310312,,,A*76
$GPGGA,012034.000,3353.7497,N,09832.0259,W,1,08,1.6,320.5,M,-23.7,M,18.8,0000*70
$GPGSA,A,3,06,03,07,13,16,19,23,11,,,,,2.5,1.6,2.0*3E
$GPRMC,012034.000,A,3353.7497,N,09832.0259,W,0.14,282.76,310312,,,A*73
$GPGGA,012035.000,3353.7498,N,09832.0261,W,1,08,1.6,320.0,M,-23.7,M,18.8,0000*70
$GPGSA,A,3,06,03,07,13,16,19,23,11,,,,,2.5,1.6,2.0*3E
$GPRMC,012035.000,A,3353.7498,N,09832.0261,W,0.11,283.98,310312,,,A*72
$GPGGA,012036.000,3353.7499,N,09832.0263,W,1,08,1.6,319.6,M,-23.7,M,18.8,0000*7C
$GPGSA,A,3,06,03,07,13,16,19,23,11,,,,,2.5,1.6,2.0*3E
$GPGSV,3,1,12,13,75,207,40,07,55,332,27,19,54,111,33,23,46,167,37*76
$GPGSV,3,2,12,03,40,057,37,06,27,049,29,08,24,302,13,10,17,265,*74
$GPGSV,3,3,12,16,15,050,29,28,12,243,22,11,12,148,26,05,02,315,*71
$GPRMC,012036.000,A,3353.7499,N,09832.0263,W,0.12,289.68,310312,,,A*74
$GPGGA,012037.000,3353.7500,N,09832.0264,W,1,08,1.6,319.1,M,-23.7,M,18.8,0000*7C
$GPGSA,A,3,06,03,07,13,16,19,23,11,,,,,2.5,1.6,2.0*3E
$GPRMC,012037.000,A,3353.7500,N,09832.0264,W,0.14,287.79,310312,,,A*7B
$GPGGA,012038.000,3353.7500,N,09832.0266,W,1,08,1.6,318.7,M,-23.7,M,18.8,0000*76
$GPGSA,A,3,06,03,07,13,16,19,23,11,,,,,2.5,1.6,2.0*3E
$GPRMC,012038.000,A,3353.7500,N,09832.0266,W,0.11,280.59,310312,,,A*76
$GPGGA,012039.000,3353.7501,N,09832.0268,W,1,08,1.6,318.2,M,-23.7,M,18.8,0000*7D
$GPGSA,A,3,06,03,07,13,16,19,23,11,,,,,2.5,1.6,2.0*3E
$GPRMC,012039.000,A,3353.7501,N,09832.0268,W,0.14,296.56,310312,,,A*75
$GPGGA,012040.000,3353.7502,N,09832.0269,W,1,08,1.6,317.8,M,-23.7,M,18.8,0000*74
$GPGSA,A,3,06,03,07,13,16,19,23,11,,,,,2.5,1.6,2.0*3E
$GPRMC,012040.000,A,3353.7502,N,09832.0269,W,0.10,291.42,310312,,,A*7F
$GPGGA,012041.000,3353.7503,N,09832.0271,W,1,08,1.6,317.5,M,-23.7,M,18.8,0000*70
$GPGSA,A,3,06,03,07,13,16,19,23,11,,,,,2.5,1.6,2.0*3E
$GPGSV,3,1,12,13,75,207,40,07,55,332,27,19,54,111,32,23,46,167,38*78
$GPGSV,3,2,12,03,40,057,37,06,27,049,29,08,24,302,13,10,17,265,*74
$GPGSV,3,3,12,16,15,050,29,28,12,243,22,11,12,148,26,05,02,315,*71
$GPRMC,012041.000,A,3353.7503,N,09832.0271,W,0.07,291.27,310312,,,A*73
$GPGGA,012042.000,3353.7503,N,09832.0272,W,1,08,1.6,317.1,M,-23.7,M,18.8,0000*74
$GPGSA,A,3,06,03,07,13,16,19,23,11,,,,,2.5,1.6,2.0*3E
$GPRMC,012042.000,A,3353.7503,N,09832.0272,W,0.07,291.68,310312,,,A*78
$GPGGA,012043.000,3353.7504,N,09832.0273,W,1,08,1.6,316.8,M,-23.7,M,18.8,0000*7B
$GPGSA,A,3,06,03,07,13,16,19,23,11,,,,,2.5,1.6,2.0*3E
$GPRMC,012043.000,A,3353.7504,N,09832.0273,W,0.06,296.98,310312,,,A*76
$GPGGA,012044.000,3353.7504,N,09832.0274,W,1,08,1.6,316.5,M,-23.7,M,18.8,0000*76
$GPGSA,A,3,06,03,07,13,16,19,23,11,,,,,2.5,1.6,2.0*3E
$GPRMC,012044.000,A,3353.7504,N,09832.0274,W,0.16,143.44,310312,,,A*7D
$GPGGA,012045.000,3353.7505,N,09832.0276,W,1,08,1.6,316.2,M,-23.7,M,18.8,0000*73
$GPGSA,A,3,06,03,07,13,16,19,23,11,,,,,2.5,1.6,2.0*3E
$GPRMC,012045.000,A,3353.7505,N,09832.0276,W,0.04,274.13,310312,,,A*79
$GPGGA,012046.000,3353.7505,N,09832.0277,W,1,08,1.6,315.9,M,-23.7,M,18.8,0000*79
$GPGSA,A,3,06,03,07,13,16,19,23,11,,,,,2.5,1.6,2.0*3E
$GPGSV,3,1,12,13,75,207,40,07,55,332,28,19,54,111,32,23,46,167,38*77
$GPGSV,3,2,12,03,40,057,37,06,27,049,30,08,24,302,,10,17,265,*7E
$GPGSV,3,3,12,16,15,050,29,28,12,243,23,11,12,148,25,05,02,315,*73
$GPRMC,012046.000,A,3353.7505,N,09832.0277,W,0.06,281.48,310312,,,A*7D
$GPGGA,012047.000,3353.7506,N,09832.0278,W,1,08,1.6,315.6,M,-23.7,M,18.8,0000*7B
$GPGSA,A,3,06,03,07,13,16,19,23,11,,,,,2.5,1.6,2.0*3E
$GPRMC,012047.000,A,3353.7506,N,09832.0278,W,0.07,283.44,310312,,,A*7F
$GPGGA,012048.000,3353.7506,N,09832.0280,W,1,08,1.6,315.3,M,-23.7,M,18.8,0000*76
$GPGSA,A,3,06,03,07,13,16,19,23,11,,,,,2.5,1.6,2.0*3E
$GPRMC,012048.000,A,3353.7506,N,09832.0280,W,0.05,291.55,310312,,,A*76
$GPGGA,012049.000,3353.7507,N,09832.0281,W,1,08,1.6,315.0,M,-23.7,M,18.8,0000*74
$GPGSA,A,3,06,03,07,13,16,19,23,11,,,,,2.5,1.6,2.0*3E
$GPRMC,012049.000,A,3353.7507,N,09832.0281,W,0.06,292.70,310312,,,A*70
$GPGGA,012050.000,3353.7507,N,09832.0282,W,1,08,1.6,314.8,M,-23.7,M,18.8,0000*76
$GPGSA,A,3,06,03,07,13,16,19,23,11,,,,,2.5,1.6,2.0*3E
$GPRMC,012050.000,A,3353.7507,N,09832.0282,W,0.05,273.97,310312,,,A*7E
$GPGGA,012051.000,3353.7508,N,09832.0283,W,1,08,1.6,314.5,M,-23.7,M,18.8,0000*74
$GPGSA,A,3,06,03,07,13,16,19,23,11,,,,,2.5,1.6,2.0*3E
$GPGSV,3,1,12,13,75,207,40,07,55,332,28,19,54,111,31,23,46,167,38*74
$GPGSV,3,2,12,03,40,057,37,06,27,049,30,08,24,302,,10,17,265,*7E
$GPGSV,3,3,12,16,15,050,29,28,12,243,22,11,12,148,24,05,02,315,*73
$GPRMC,012051.000,A,3353.7508,N,09832.0283,W,0.03,267.45,310312,,,A*7D
$GPGGA,012052.000,3353.7508,N,09832.0284,W,1,08,1.6,314.3,M,-23.7,M,18.8,0000*76
$GPGSA,A,3,06,03,07,13,16,19,23,11,,,,,2.5,1.6,2.0*3E
$GPRMC,012052.000,A,3353.7508,N,09832.0284,W,0.03,318.74,310312,,,A*72
$GPGGA,012053.000,3353.7508,N,09832.0285,W,1,08,1.6,314.1,M,-23.7,M,18.8,0000*74
$GPGSA,A,3,06,03,07,13,16,19,23,11,,,,,2.5,1.6,2.0*3E
$GPRMC,012053.000,A,3353.7508,N,09832.0285,W,0.04,219.89,310312,,,A*77
$GPGGA,012054.000,3353.7509,N,09832.0286,W,1,08,1.6,313.8,M,-23.7,M,18.8,0000*7F
$GPGSA,A,3,06,03,07,13,16,19,23,11,,,,,2.5,1.6,2.0*3E
$GPRMC,012054.000,A,3353.7509,N,09832.0286,W,0.02,309.70,310312,,,A*72
$GPGGA,012055.000,3353.7509,N,09832.0287,W,1,08,1.6,313.7,M,-23.7,M,18.8,0000*70
$GPGSA,A,3,06,03,07,13,16,19,23,11,,,,,2.5,1.6,2.0*3E
$GPRMC,012055.000,A,3353.7509,N,09832.0287,W,0.02,274.04,310312,,,A*7A
$GPGGA,012056.000,3353.7509,N,09832.0288,W,1,08,1.6,313.5,M,-23.7,M,18.8,0000*7E
$GPGSA,A,3,06,03,07,13,16,19,23,11,,,,,2.5,1.6,2.0*3E
$GPGSV,3,1,12,13,75,207,40,07,55,332,28,19,54,111,31,23,46,167,38*74
$GPGSV,3,2,12,03,40,057,37,06,27,049,30,08,24,302,,10,17,265,*7E
$GPGSV,3,3,12,16,15,050,29,28,12,243,22,11,12,148,24,05,02,315,*73
$GPRMC,012056.000,A,3353.7509,N,09832.0288,W,0.05,121.22,310312,,,A*76
$GPGGA,012057.000,3353.7509,N,09832.0288,W,1,08,1.6,313.3,M,-23.7,M,18.8,0000*79
$GPGSA,A,3,06,03,07,13,16,19,23,11,,,,,2.5,1.6,2.0*3E
$GPRMC,012057.000,A,3353.7509,N,09832.0288,W,0.12,139.45,310312,,,A*79
$GPGGA,012058.000,3353.7509,N,09832.0289,W,1,08,1.6,313.1,M,-23.7,M,18.8,0000*75
$GPGSA,A,3,06,03,07,13,16,19,23,11,,,,,2.5,1.6,2.0*3E
$GPRMC,012058.000,A,3353.7509,N,09832.0289,W,0.15,133.71,310312,,,A*7D
$GPGGA,012059.000,3353.7510,N,09832.0290,W,1,08,1.6,312.9,M,-23.7,M,18.8,0000*7D
$GPGSA,A,3,06,03,07,13,16,19,23,11,,,,,2.5,1.6,2.0*3E
$GPRMC,012059.000,A,3353.7510,N,09832.0290,W,0.05,143.62,310312,,,A*78
$GPGGA,012100.000,3353.7510,N,09832.0291,W,1,08,1.6,312.7,M,-23.7,M,18.8,0000*7F
$GPGSA,A,3,06,03,07,13,16,19,23,11,,,,,2.5,1.6,2.0*3E
$GPRMC,012100.000,A,3353.7510,N,09832.0291,W,0.03,136.46,310312,,,A*76
$GPGGA,012101.000,3353.7510,N,09832.0291,W,1,08,1.6,312.6,M,-23.7,M,18.8,0000*7F
$GPGSA,A,3,06,03,07,13,16,19,23,11,,,,,2.5,1.6,2.0*3E
$GPGSV,3,1,12,13,75,207,40,07,55,332,28,19,54,111,30,23,46,167,38*75
$GPGSV,3,2,12,03,40,057,37,06,27,049,30,08,24,302,,10,17,265,*7E
$GPGSV,3,3,12,16,15,050,29,28,12,243,21,11,12,148,24,05,02,315,*70
$GPRMC,012101.000,A,3353.7510,N,09832.0291,W,0.03,131.98,310312,,,A*73
$GPGGA,012102.000,3353.7510,N,09832.0292,W,1,08,1.6,312.4,M,-23.7,M,18.8,0000*7D
$GPGSA,A,3,06,03,07,13,16,19,23,11,,,,,2.5,1.6,2.0*3E
$GPRMC,012102.000,A,3353.7510,N,09832.0292,W,0.02,330.08,310312,,,A*78
$GPGGA,012103.000,3353.7510,N,09832.0293,W,1,08,1.6,312.3,M,-23.7,M,18.8,0000*7A
$GPGSA,A,3,06,03,07,13,16,19,23,11,,,,,2.5,1.6,2.0*3E
$GPRMC,012103.000,A,3353.7510,N,09832.0293,W,0.05,114.27,310312,,,A*76
$GPGGA,012104.000,3353.7510,N,09832.0293,W,1,08,1.6,312.2,M,-23.7,M,18.8,0000*7C
$GPGSA,A,3,06,03,07,13,16,19,23,11,,,,,2.5,1.6,2.0*3E
$GPRMC,012104.000,A,3353.7510,N,09832.0293,W,0.16,131.43,310312,,,A*76
$GPGGA,012105.000,3353.7510,N,09832.0294,W,1,08,1.6,312.1,M,-23.7,M,18.8,0000*79
$GPGSA,A,3,06,03,07,13,16,19,23,11,,,,,2.5,1.6,2.0*3E
$GPRMC,012105.000,A,3353.7510,N,09832.0294,W,0.03,80.01,310312,,,A*49
$GPGGA,012106.000,3353.7511,N,09832.0294,W,1,08,1.6,312.0,M,-23.7,M,18.8,0000*7A
$GPGSA,A,3,06,03,07,13,16,19,23,11,,,,,2.5,1.6,2.0*3E
$GPGSV,3,1,12,13,75,207,40,07,55,332,29,19,54,111,29,23,46,167,39*7D
$GPGSV,3,2,12,03,40,057,37,06,27,049,30,08,24,302,,10,17,265,*7E
$GPGSV,3,3,12,16,15,050,30,28,12,243,16,11,12,148,24,05,02,315,*7C
$GPRMC,012106.000,A,3353.7511,N,09832.0294,W,0.04,7.70,310312,,,A*75
$GPGGA,012107.000,3353.7511,N,09832.0295,W,1,08,1.6,311.9,M,-23.7,M,18.8,0000*70
$GPGSA,A,3,06,03,07,13,16,19,23,11,,,,,2.5,1.6,2.0*3E
$GPRMC,012107.000,A,3353.7511,N,09832.0295,W,0.06,97.10,310312,,,A*48
$GPGGA,012108.000,3353.7511,N,09832.0295,W,1,08,1.6,311.9,M,-23.7,M,18.8,0000*7F
$GPGSA,A,3,06,03,07,13,16,19,23,11,,,,,2.5,1.6,2.0*3E
$GPRMC,012108.000,A,3353.7511,N,09832.0295,W,0.06,114.21,310312,,,A*7F
$GPGGA,012109.000,3353.7511,N,09832.0296,W,1,08,1.6,311.8,M,-23.7,M,18.8,0000*7C
$GPGSA,A,3,06,03,07,13,16,19,23,11,,,,,2.5,1.6,2.0*3E
$GPRMC,012109.000,A,3353.7511,N,09832.0296,W,0.05,94.68,310312,,,A*4A
$GPGGA,012110.000,3353.7511,N,09832.0296,W,1,08,1.6,311.7,M,-23.7,M,18.8,0000*7B
$GPGSA,A,3,06,03,07,13,16,19,23,11,,,,,2.5,1.6,2.0*3E
$GPRMC,012110.000,A,3353.7511,N,09832.0296,W,0.09,108.83,310312,,,A*7F
$GPGGA,012111.000,3353.7511,N,09832.0296,W,1,08,1.6,311.7,M,-23.7,M,18.8,0000*7A
$GPGSA,A,3,06,03,07,13,16,19,23,11,,,,,2.5,1.6,2.0*3E
$GPGSV,3,1,12,13,75,207,39,07,55,332,28,19,54,111,29,23,46,167,39*72
$GPGSV,3,2,12,03,40,057,37,06,27,049,30,08,24,302,,10,17,265,*7E
$GPGSV,3,3,12,16,15,050,30,28,12,243,16,11,12,148,25,05,02,315,*7D
$GPRMC,012111.000,A,3353.7511,N,09832.0296,W,0.09,111.37,310312,,,A*79
$GPGGA,012112.000,3353.7511,N,09832.0297,W,1,08,1.6,311.6,M,-23.7,M,18.8,0000*79
$GPGSA,A,3,06,03,07,13,16,19,23,11,,,,,2.5,1.6,2.0*3E
$GPRMC,012112.000,A,3353.7511,N,09832.0297,W,0.07,102.50,310312,,,A*76
$GPGGA,012113.000,3353.7511,N,09832.0297,W,1,08,1.6,311.6,M,-23.7,M,18.8,0000*78
$GPGSA,A,3,06,03,07,13,16,19,23,11,,,,,2.5,1.6,2.0*3E
$GPRMC,012113.000,A,3353.7511,N,09832.0297,W,0.08,97.21,310312,,,A*43
$GPGGA,012114.000,3353.7511,N,09832.0298,W,1,08,1.6,311.5,M,-23.7,M,18.8,0000*73
$GPGSA,A,3,06,03,07,13,16,19,23,11,,,,,2.5,1.6,2.0*3E
$GPRMC,012114.000,A,3353.7511,N,09832.0298,W,0.09,110.62,310312,,,A*73
$GPGGA,012115.000,3353.7511,N,09832.0298,W,1,08,1.6,311.5,M,-23.7,M,18.8,0000*72
$GPGSA,A,3,06,03,07,13,16,19,23,11,,,,,2.5,1.6,2.0*3E
$GPRMC,012115.000,A,3353.7511,N,09832.0298,W,0.06,100.16,310312,,,A*7F
$GPGGA,012116.000,3353.7512,N,09832.0299,W,1,08,1.6,311.4,M,-23.7,M,18.8,0000*72
$GPGSA,A,3,06,03,07,13,16,19,23,11,,,,,2.5,1.6,2.0*3E
$GPGSV,3,1,12,13,75,207,39,07,55,332,28,19,54,111,29,23,46,167,39*72
$GPGSV,3,2,12,03,40,057,37,06,27,049,30,08,24,302,19,10,17,265,*76
$GPGSV,3,3,12,16,15,050,30,28,12,243,16,11,12,148,25,05,02,315,*7D
$GPRMC,012116.000,A,3353.7512,N,09832.0299,W,0.06,92.56,310312,,,A*40
$GPGGA,012117.000,3353.7512,N,09832.0299,W,1,08,1.6,311.3,M,-23.7,M,18.8,0000*74
$GPGSA,A,3,06,03,07,13,16,19,23,11,,,,,2.5,1.6,2.0*3E
$GPRMC,012117.000,A,3353.7512,N,09832.0299,W,0.07,114.02,310312,,,A*7E
$GPGGA,012118.000,3353.7512,N,09832.0300,W,1,08,1.6,311.3,M,-23.7,M,18.8,0000*7A
$GPGSA,A,3,06,03,07,13,16,19,23,11,,,,,2.5,1.6,2.0*3E
$GPRMC,012118.000,A,3353.7512,N,09832.0300,W,0.05,96.66,310312,,,A*4B
$GPGGA,012119.000,3353.7512,N,09832.0300,W,1,08,1.6,311.2,M,-23.7,M,18.8,0000*7A
$GPGSA,A,3,06,03,07,13,16,19,23,11,,,,,2.5,1.6,2.0*3E
$GPRMC,012119.000,A,3353.7512,N,09832.0300,W,0.08,99.84,310312,,,A*44
$GPGGA,012120.000,3353.7512,N,09832.0300,W,1,08,1.6,311.2,M,-23.7,M,18.8,0000*70
$GPGSA,A,3,06,03,07,13,16,19,23,11,,,,,2.5,1.6,2.0*3E
$GPRMC,012120.000,A,3353.7512,N,09832.0300,W,0.10,97.18,310312,,,A*4C
$GPGGA,012121.000,3353.7511,N,09832.0300,W,1,08,1.6,311.3,M,-23.7,M,18.8,0000*73
$GPGSA,A,3,06,03,07,13,16,19,23,11,,,,,2.5,1.6,2.0*3E
$GPGSV,3,1,12,13,75,207,39,07,55,332,28,19,54,111,25,23,46,167,38*7F
$GPGSV,3,2,12,03,40,057,37,06,27,049,30,08,24,302,18,10,17,265,*77
$GPGSV,3,3,12,16,15,050,30,28,12,243,17,11,12,148,25,05,02,315,*7C
$GPRMC,012121.000,A,3353.7511,N,09832.0300,W,0.23,107.10,310312,,,A*7E
$GPGGA,012122.000,3353.7511,N,09832.0298,W,1,08,1.6,311.5,M,-23.7,M,18.8,0000*76
$GPGSA,A,3,06,03,07,13,16,19,23,11,,,,,2.5,1.6,2.0*3E
$GPRMC,012122.000,A,3353.7511,N,09832.0298,W,0.30,104.93,310312,,,A*77
$GPGGA,012123.000,3353.7510,N,09832.0296,W,1,08,1.6,311.8,M,-23.7,M,18.8,0000*75
$GPGSA,A,3,06,03,07,13,16,19,23,11,,,,,2.5,1.6,2.0*3E
$GPRMC,012123.000,A,3353.7510,N,09832.0296,W,0.34,102.73,310312,,,A*75
$GPGGA,012124.000,3353.7509,N,09832.0293,W,1,08,1.6,312.1,M,-23.7,M,18.8,0000*75
$GPGSA,A,3,06,03,07,13,16,19,23,11,,,,,2.5,1.6,2.0*3E
$GPRMC,012124.000,A,3353.7509,N,09832.0293,W,0.37,102.96,310312,,,A*77
$GPGGA,012125.000,3353.7508,N,09832.0290,W,1,08,1.6,312.5,M,-23.7,M,18.8,0000*72
$GPGSA,A,3,06,03,07,13,16,19,23,11,,,,,2.5,1.6,2.0*3E
$GPRMC,012125.000,A,3353.7508,N,09832.0290,W,0.37,99.33,310312,,,A*48
$GPGGA,012126.000,3353.7507,N,09832.0287,W,1,08,1.6,313.0,M,-23.7,M,18.8,0000*7C
$GPGSA,A,3,06,03,07,13,16,19,23,11,,,,,2.5,1.6,2.0*3E
$GPGSV,3,1,12,13,74,204,39,07,56,333,28,19,55,109,26,23,44,167,38*76
$GPGSV,3,2,12,03,39,055,36,06,26,048,30,08,25,303,17,10,16,263,*72
$GPGSV,3,3,12,16,14,050,30,28,13,244,16,11,13,147,25,05,02,314,*75
$GPRMC,012126.000,A,3353.7507,N,09832.0287,W,0.39,98.53,310312,,,A*4B
$GPGGA,012127.000,3353.7507,N,09832.0284,W,1,08,1.6,313.4,M,-23.7,M,18.8,0000*7A
$GPGSA,A,3,06,03,07,13,16,19,23,11,,,,,2.5,1.6,2.0*3E
$GPRMC,012127.000,A,3353.7507,N,09832.0284,W,0.42,98.95,310312,,,A*4F
$GPGGA,012128.000,3353.7506,N,09832.0281,W,1,08,1.6,313.9,M,-23.7,M,18.8,0000*7C
$GPGSA,A,3,06,03,07,13,16,19,23,11,,,,,2.5,1.6,2.0*3E
$GPRMC,012128.000,A,3353.7506,N,09832.0281,W,0.43,99.12,310312,,,A*4B
$GPGGA,012129.000,3353.7505,N,09832.0277,W,1,08,1.6,314.5,M,-23.7,M,18.8,0000*7C
$GPGSA,A,3,06,03,07,13,16,19,23,11,,,,,2.5,1.6,2.0*3E
$GPRMC,012129.000,A,3353.7505,N,09832.0277,W,0.42,97.93,310312,,,A*46
$GPGGA,012130.000,3353.7504,N,09832.0274,W,1,08,1.6,315.0,M,-23.7,M,18.8,0000*72
$GPGSA,A,3,06,03,07,13,16,19,23,11,,,,,2.5,1.6,2.0*3E
$GPRMC,012130.000,A,3353.7504,N,09832.0274,W,0.44,99.19,310312,,,A*46
$GPGGA,012131.000,3353.7503,N,09832.0270,W,1,08,1.6,315.5,M,-23.7,M,18.8,0000*75
$GPGSA,A,3,06,03,07,13,16,19,23,11,,,,,2.5,1.6,2.0*3E
$GPGSV,3,1,12,13,74,204,39,07,56,333,28,19,55,109,26,23,44,167,38*76
$GPGSV,3,2,12,03,39,055,36,06,26,048,30,08,25,303,18,10,16,263,*7D
$GPGSV,3,3,12,16,14,050,30,28,13,244,,11,13,147,25,05,02,314,*72
$GPRMC,012131.000,A,3353.7503,N,09832.0270,W,0.42,99.11,310312,,,A*4A
$GPGGA,012132.000,3353.7502,N,09832.0267,W,1,08,1.6,316.0,M,-23.7,M,18.8,0000*77
$GPGSA,A,3,06,03,07,13,16,19,23,11,,,,,2.5,1.6,2.0*3E
$GPRMC,012132.000,A,3353.7502,N,09832.0267,W,0.42,96.64,310312,,,A*43
$GPGGA,012133.000,3353.7501,N,09832.0264,W,1,08,1.6,316.6,M,-23.7,M,18.8,0000*70
$GPGSA,A,3,06,03,07,13,16,19,23,11,,,,,2.5,1.6,2.0*3E
$GPRMC,012133.000,A,3353.7501,N,09832.0264,W,0.35,95.98,310312,,,A*42
$GPGGA,012134.000,3353.7500,N,09832.0261,W,1,08,1.6,317.1,M,-23.7,M,18.8,0000*75
$GPGSA,A,3,06,03,07,13,16,19,23,11,,,,,2.5,1.6,2.0*3E
$GPRMC,012134.000,A,3353.7500,N,09832.0261,W,0.41,95.68,310312,,,A*4D
$GPGGA,012135.000,3353.7499,N,09832.0258,W,1,08,1.6,317.6,M,-23.7,M,18.8,0000*78
$GPGSA,A,3,06,03,07,13,16,19,23,11,,,,,2.5,1.6,2.0*3E
$GPRMC,012135.000,A,3353.7499,N,09832.0258,W,0.39,96.78,310312,,,A*4A
$GPGGA,012136.000,3353.7499,N,09832.0255,W,1,08,1.6,318.1,M,-23.7,M,18.8,0000*7E
$GPGSA,A,3,06,03,07,13,16,19,23,11,,,,,2.5,1.6,2.0*3E
$GPGSV,3,1,12,13,74,204,39,07,56,333,29,19,55,109,25,23,44,167,39*75
$GPGSV,3,2,12,03,39,055,36,06,26,048,30,08,25,303,18,10,16,263,19*75
$GPGSV,3,3,12,16,14,050,31,28,13,244,,11,13,147,24,05,02,314,*72
$GPRMC,012136.000,A,3353.7499,N,09832.0255,W,0.34,93.45,310312,,,A*42
$GPGGA,012137.000,3353.7498,N,09832.0252,W,1,08,1.6,318.7,M,-23.7,M,18.8,0000*7F
$GPGSA,A,3,06,03,07,13,16,19,23,11,,,,,2.5,1.6,2.0*3E
$GPRMC,012137.000,A,3353.7498,N,09832.0252,W,0.46,95.04,310312,,,A*43
$GPGGA,012138.000,3353.7497,N,09832.0249,W,1,08,1.6,319.2,M,-23.7,M,18.8,0000*71
$GPGSA,A,3,06,03,07,13,16,19,23,11,,,,,2.5,1.6,2.0*3E
$GPRMC,012138.000,A,3353.7497,N,09832.0249,W,0.47,98.88,310312,,,A*41
$GPGGA,012139.000,3353.7497,N,09832.0246,W,1,08,1.6,319.8,M,-23.7,M,18.8,0000*75
$GPGSA,A,3,06,03,07,13,16,19,23,11,,,,,2.5,1.6,2.0*3E
$GPRMC,012139.000,A,3353.7497,N,09832.0246,W,0.33,87.90,310312,,,A*4B
$GPGGA,012140.000,3353.7496,N,09832.0243,W,1,08,1.6,320.3,M,-23.7,M,18.8,0000*7E
$GPGSA,A,3,06,03,07,13,16,19,23,11,,,,,2.6,1.6,2.0*3D
$GPRMC,012140.000,A,3353.7496,N,09832.0243,W,0.48,103.57,310312,,,A*7B
$GPGGA,012141.000,3353.7495,N,09832.0240,W,1,08,1.6,320.7,M,-23.7,M,18.8,0000*7B
$GPGSA,A,3,06,03,07,13,16,19,23,11,,,,,2.6,1.6,2.0*3D
$GPGSV,3,1,12,13,74,204,39,07,56,333,30,19,55,109,25,23,44,167,39*7D
$GPGSV,3,2,12,03,39,055,36,06,26,048,30,08,25,303,18,10,16,263,19*75
$GPGSV,3,3,12,16,14,050,31,28,13,244,,11,13,147,23,05,02,314,*75
$GPRMC,012141.000,A,3353.7495,N,09832.0240,W,0.51,107.04,310312,,,A*70
$GPGGA,012142.000,3353.7494,N,09832.0237,W,1,08,1.6,321.1,M,-23.7,M,18.8,0000*7E
$GPGSA,A,3,06,03,07,13,16,19,23,11,,,,,2.6,1.6,2.0*3D
$GPRMC,012142.000,A,3353.7494,N,09832.0237,W,0.51,108.78,310312,,,A*76
$GPGGA,012143.000,3353.7493,N,09832.0235,W,1,08,1.6,321.5,M,-23.7,M,18.8,0000*7E
$GPGSA,A,3,06,03,07,13,16,19,23,11,,,,,2.6,1.6,2.0*3D
$GPRMC,012143.000,A,3353.7493,N,09832.0235,W,0.46,108.74,310312,,,A*78
$GPGGA,012144.000,3353.7492,N,09832.0233,W,1,08,1.6,321.8,M,-23.7,M,18.8,0000*73
$GPGSA,A,3,06,03,07,13,16,19,23,11,,,,,2.6,1.6,2.0*3D
$GPRMC,012144.000,A,3353.7492,N,09832.0233,W,0.34,101.16,310312,,,A*70
