$GPGGA,172323.000,3352.7372,N,09833.0284,W,2,07,1.5,330.5,M,-23.7,M,0.8,0000*49
$GPGSA,A,3,22,06,18,31,21,14,19,,,,,,2.7,1.5,2.3*31
$GPRMC,172323.000,A,3352.7372,N,09833.0284,W,0.88,165.30,300312,,,D*74
$GPGGA,172324.000,3352.7370,N,09833.0286,W,2,05,1.9,331.7,M,-23.7,M,0.8,0000*43
$GPGSA,A,3,22,06,18,31,19,,,,,,,,4.1,1.9,3.6*3F
$GPRMC,172324.000,A,3352.7370,N,09833.0286,W,0.57,168.97,300312,,,D*71
$GPGGA,172325.000,3352.7376,N,09833.0291,W,2,07,1.5,332.0,M,-23.7,M,0.8,0000*48
$GPGSA,A,3,22,06,18,31,21,14,19,,,,,,2.7,1.5,2.3*31
$GPRMC,172325.000,A,3352.7376,N,09833.0291,W,0.42,191.27,300312,,,D*79
$GPGGA,172326.000,3352.7380,N,09833.0297,W,2,08,1.0,331.8,M,-23.7,M,0.8,0000*45
$GPGSA,A,3,22,06,18,31,21,14,19,09,,,,,1.8,1.0,1.5*34
$GPGSV,3,1,12,22,68,007,37,14,68,285,14,18,43,086,38,21,24,157,23*78
$GPGSV,3,2,12,09,22,043,20,31,20,189,33,19,17,283,22,06,12,236,22*72
$GPGSV,3,3,12,03,09,246,22,11,09,316,,27,05,034,,12,04,087,*72
$GPRMC,172326.000,A,3352.7380,N,09833.0297,W,0.38,256.97,300312,,,D*7B
$GPGGA,172327.000,3352.7388,N,09833.0303,W,2,08,1.0,331.3,M,-23.7,M,0.8,0000*4B
$GPGSA,A,3,22,06,18,31,21,14,19,09,,,,,1.8,1.0,1.5*34
$GPRMC,172327.000,A,3352.7388,N,09833.0303,W,0.05,33.07,300312,,,D*48
$GPGGA,172328.000,3352.7393,N,09833.0308,W,2,08,1.0,331.1,M,-23.7,M,0.8,0000*47
$GPGSA,A,3,22,06,18,31,21,14,19,09,,,,,1.8,1.0,1.5*34
$GPRMC,172328.000,A,3352.7393,N,09833.0308,W,0.09,137.06,300312,,,D*7E
$GPGGA,172329.000,3352.7396,N,09833.0305,W,2,07,1.2,329.3,M,-23.7,M,0.8,0000*48
$GPGSA,A,3,22,06,18,31,21,14,09,,,,,,2.0,1.2,1.7*37
$GPRMC,172329.000,A,3352.7396,N,09833.0305,W,0.19,225.95,300312,,,D*7C
$GPGGA,172330.000,3352.7402,N,09833.0306,W,2,07,1.2,327.0,M,-23.7,M,1.8,0000*45
$GPGSA,A,3,22,06,18,31,21,14,09,,,,,,2.0,1.2,1.7*37
$GPRMC,172330.000,A,3352.7402,N,09833.0306,W,0.13,306.67,300312,,,D*7A
$GPGGA,172331.000,3352.7405,N,09833.0309,W,2,07,1.2,326.6,M,-23.7,M,0.8,0000*4A
$GPGSA,A,3,22,06,18,31,21,14,09,,,,,,2.0,1.2,1.7*37
$GPGSV,3,1,12,22,68,007,37,14,68,285,25,18,43,086,38,21,24,157,20*79
$GPGSV,3,2,12,09,22,043,20,31,20,189,34,19,17,283,,06,12,236,22*75
$GPGSV,3,3,12,03,09,246,22,11,09,316,,27,05,034,13,12,04,087,*70
$GPRMC,172331.000,A,3352.7405,N,09833.0309,W,0.26,6.99,300312,,,D*77
$GPGGA,172332.000,3352.7414,N,09833.0307,W,2,07,1.2,323.6,M,-23.7,M,1.8,0000*43
$GPGSA,A,3,22,06,18,31,21,14,09,,,,,,2.0,1.2,1.7*37
$GPRMC,172332.000,A,3352.7414,N,09833.0307,W,0.35,12.53,300312,,,D*4B
$GPGGA,172333.000,3352.7417,N,09833.0308,W,2,07,1.2,322.2,M,-23.7,M,0.8,0000*4A
$GPGSA,A,3,22,06,18,31,21,14,09,,,,,,2.0,1.2,1.7*37
$GPRMC,172333.000,A,3352.7417,N,09833.0308,W,0.27,16.49,300312,,,D*4A
$GPGGA,172334.000,3352.7422,N,09833.0306,W,2,07,1.2,319.6,M,-23.7,M,0.8,0000*49
$GPGSA,A,3,22,06,18,31,21,14,09,,,,,,2.0,1.2,1.7*37
$GPRMC,172334.000,A,3352.7422,N,09833.0306,W,0.37,354.02,300312,,,D*7E
$GPGGA,172335.000,3352.7423,N,09833.0307,W,2,07,1.2,318.3,M,-23.7,M,0.8,0000*4C
$GPGSA,A,3,22,06,18,31,21,14,09,,,,,,2.0,1.2,1.7*37
$GPRMC,172335.000,A,3352.7423,N,09833.0307,W,0.30,2.69,300312,,,D*75
$GPGGA,172336.000,3352.7424,N,09833.0307,W,2,07,1.2,317.4,M,-23.7,M,1.8,0000*41
$GPGSA,A,3,22,06,18,31,21,14,09,,,,,,2.0,1.2,1.7*37
$GPGSV,3,1,12,22,68,007,37,14,68,285,27,18,43,086,39,21,24,157,31*7A
$GPGSV,3,2,12,09,22,043,22,31,20,189,38,19,17,283,,06,12,236,24*7D
$GPGSV,3,3,12,03,09,246,22,11,09,316,,27,05,034,12,12,04,087,*71
$GPRMC,172336.000,A,3352.7424,N,09833.0307,W,0.28,34.18,300312,,,D*4B
$GPGGA,172337.000,3352.7424,N,09833.0306,W,2,07,1.2,316.4,M,-23.7,M,0.8,0000*41
$GPGSA,A,3,22,06,18,31,21,14,09,,,,,,2.0,1.2,1.7*37
$GPRMC,172337.000,A,3352.7424,N,09833.0306,W,0.36,23.51,300312,,,D*4F
$GPGGA,172338.000,3352.7426,N,09833.0307,W,2,07,1.2,315.3,M,-23.7,M,1.8,0000*48
$GPGSA,A,3,22,06,18,31,21,14,09,,,,,,2.0,1.2,1.7*37
$GPRMC,172338.000,A,3352.7426,N,09833.0307,W,0.30,17.40,300312,,,D*42
$GPGGA,172339.000,3352.7427,N,09833.0308,W,2,07,1.2,314.2,M,-23.7,M,0.8,0000*46
$GPGSA,A,3,22,06,18,31,21,14,09,,,,,,2.0,1.2,1.7*37
$GPRMC,172339.000,A,3352.7427,N,09833.0308,W,0.40,4.01,300312,,,D*7D
$GPGGA,172340.000,3352.7429,N,09833.0308,W,2,07,1.2,313.1,M,-23.7,M,1.8,0000*43
$GPGSA,A,3,22,06,18,31,21,14,09,,,,,,2.0,1.2,1.7*37
$GPRMC,172340.000,A,3352.7429,N,09833.0308,W,0.44,5.78,300312,,,D*76
$GPGGA,172341.000,3352.7431,N,09833.0309,W,2,07,1.2,312.2,M,-23.7,M,0.8,0000*49
$GPGSA,A,3,22,06,18,31,21,14,09,,,,,,2.0,1.2,1.7*37
$GPGSV,3,1,12,22,68,007,36,14,68,285,28,18,43,086,39,21,24,157,30*75
$GPGSV,3,2,12,09,22,043,23,31,20,189,38,19,17,283,,06,12,236,25*7D
$GPGSV,3,3,12,03,09,246,21,11,09,316,,27,05,034,,12,04,087,*71
$GPRMC,172341.000,A,3352.7431,N,09833.0309,W,0.38,0.71,300312,,,D*78
$GPGGA,172342.000,3352.7432,N,09833.0309,W,2,07,1.2,311.4,M,-23.7,M,1.8,0000*4D
$GPGSA,A,3,22,06,18,31,21,14,09,,,,,,2.0,1.2,1.7*37
$GPRMC,172342.000,A,3352.7432,N,09833.0309,W,0.33,356.76,300312,,,D*74
$GPGGA,172343.000,3352.7434,N,09833.0310,W,2,07,1.2,310.5,M,-23.7,M,2.8,0000*41
$GPGSA,A,3,22,06,18,31,21,14,09,,,,,,2.0,1.2,1.7*37
$GPRMC,172343.000,A,3352.7434,N,09833.0310,W,0.44,359.93,300312,,,D*7F
$GPGGA,172344.000,3352.7436,N,09833.0311,W,2,07,1.2,309.1,M,-23.7,M,3.8,0000*48
$GPGSA,A,3,22,06,18,31,21,14,09,,,,,,2.0,1.2,1.7*37
$GPRMC,172344.000,A,3352.7436,N,09833.0311,W,0.41,4.24,300312,,,D*79
$GPGGA,172345.000,3352.7438,N,09833.0314,W,2,07,1.2,308.4,M,-23.7,M,0.8,0000*45
$GPGSA,A,3,22,06,18,31,21,14,09,,,,,,2.0,1.2,1.7*37
$GPRMC,172345.000,A,3352.7438,N,09833.0314,W,0.43,342.27,300312,,,D*73
$GPGGA,172346.000,3352.7439,N,09833.0317,W,2,07,1.2,308.4,M,-23.7,M,0.8,0000*44
$GPGSA,A,3,22,06,18,31,21,14,09,,,,,,2.0,1.2,1.7*37
$GPGSV,3,1,12,22,68,007,36,14,68,285,22,18,43,086,39,21,24,157,26*78
$GPGSV,3,2,12,09,22,043,23,31,20,189,38,19,17,283,,06,12,236,25*7D
$GPGSV,3,3,12,03,09,246,21,11,09,316,,27,05,034,,12,04,087,*71
$GPRMC,172346.000,A,3352.7439,N,09833.0317,W,0.46,348.59,300312,,,D*74
$GPGGA,172347.000,3352.7442,N,09833.0317,W,2,07,1.2,307.2,M,-23.7,M,0.8,0000*40
$GPGSA,A,3,22,06,18,31,21,14,09,,,,,,2.0,1.2,1.7*37
$GPRMC,172347.000,A,3352.7442,N,09833.0317,W,0.35,12.23,300312,,,D*4C
$GPGGA,172348.000,3352.7444,N,09833.0318,W,2,07,1.2,306.0,M,-23.7,M,1.8,0000*44
$GPGSA,A,3,22,06,18,31,21,14,09,,,,,,2.0,1.2,1.7*37
$GPRMC,172348.000,A,3352.7444,N,09833.0318,W,0.34,4.70,300312,,,D*7A
$GPGGA,172349.000,3352.7443,N,09833.0319,W,2,07,1.2,306.9,M,-23.7,M,2.8,0000*49
$GPGSA,A,3,22,06,18,31,21,14,09,,,,,,2.0,1.2,1.6*36
$GPRMC,172349.000,A,3352.7443,N,09833.0319,W,0.30,13.50,300312,,,D*4D
$GPGGA,172350.000,3352.7444,N,09833.0321,W,2,07,1.2,307.1,M,-23.7,M,3.8,0000*45
$GPGSA,A,3,22,06,18,31,21,14,09,,,,,,2.0,1.2,1.6*36
$GPRMC,172350.000,A,3352.7444,N,09833.0321,W,0.20,28.52,300312,,,D*42
$GPGGA,172351.000,3352.7445,N,09833.0323,W,2,07,1.2,307.2,M,-23.7,M,0.8,0000*47
$GPGSA,A,3,22,06,18,31,21,14,09,,,,,,2.0,1.2,1.6*36
$GPGSV,3,1,12,22,68,007,36,14,68,285,24,18,43,086,39,21,24,157,29*71
$GPGSV,3,2,12,09,22,043,24,31,20,189,38,19,17,283,,06,12,236,26*79
$GPGSV,3,3,12,03,09,246,22,11,09,316,,27,05,034,,12,04,087,*72
$GPRMC,172351.000,A,3352.7445,N,09833.0323,W,0.20,5.06,300312,,,D*7E
$GPGGA,172352.000,3352.7446,N,09833.0325,W,2,07,1.2,307.1,M,-23.7,M,0.8,0000*42
$GPGSA,A,3,22,06,18,31,21,14,09,,,,,,2.0,1.2,1.6*36
$GPRMC,172352.000,A,3352.7446,N,09833.0325,W,0.20,337.44,300312,,,D*7C
$GPGGA,172353.000,3352.7447,N,09833.0328,W,2,07,1.2,307.4,M,-23.7,M,0.8,0000*4A
$GPGSA,A,3,22,06,18,31,21,14,09,,,,,,2.0,1.2,1.6*36
$GPRMC,172353.000,A,3352.7447,N,09833.0328,W,0.21,354.28,300312,,,D*7F
$GPGGA,172354.000,3352.7448,N,09833.0331,W,2,07,1.2,307.7,M,-23.7,M,1.8,0000*48
$GPGSA,A,3,22,06,18,31,21,14,09,,,,,,2.0,1.2,1.6*36
$GPRMC,172354.000,A,3352.7448,N,09833.0331,W,0.15,342.87,300312,,,D*7A
$GPGGA,172355.000,3352.7444,N,09833.0332,W,2,07,1.2,309.2,M,-23.7,M,0.8,0000*4C
$GPGSA,A,3,22,06,18,31,21,14,09,,,,,,2.0,1.2,1.6*36
$GPRMC,172355.000,A,3352.7444,N,09833.0332,W,0.02,56.23,300312,,,D*4A
$GPGGA,172356.000,3352.7442,N,09833.0335,W,2,07,1.2,310.3,M,-23.7,M,1.8,0000*46
$GPGSA,A,3,22,06,18,31,21,14,09,,,,,,2.0,1.2,1.6*36
$GPGSV,3,1,12,22,68,007,29,14,68,285,30,18,43,086,39,21,24,157,22*71
$GPGSV,3,2,12,09,22,043,30,31,20,189,33,19,17,283,,06,12,236,30*70
$GPGSV,3,3,12,03,09,246,21,11,09,316,,27,05,034,,12,04,087,*71
$GPRMC,172356.000,A,3352.7442,N,09833.0335,W,0.20,324.95,300312,,,D*73
$GPGGA,172357.000,3352.7441,N,09833.0337,W,2,07,1.2,311.1,M,-23.7,M,0.8,0000*44
$GPGSA,A,3,22,06,18,31,21,14,09,,,,,,2.0,1.2,1.6*36
$GPRMC,172357.000,A,3352.7441,N,09833.0337,W,0.31,329.91,300312,,,D*7A
$GPGGA,172358.000,3352.7440,N,09833.0339,W,2,07,1.2,311.8,M,-23.7,M,0.8,0000*4D
$GPGSA,A,3,22,06,18,31,21,14,09,,,,,,2.0,1.2,1.6*36
$GPRMC,172358.000,A,3352.7440,N,09833.0339,W,0.16,334.06,300312,,,D*7D
$GPGGA,172359.000,3352.7439,N,09833.0340,W,2,07,1.2,312.3,M,-23.7,M,0.8,0000*44
$GPGSA,A,3,22,06,18,31,21,14,09,,,,,,2.0,1.2,1.6*36
$GPRMC,172359.000,A,3352.7439,N,09833.0340,W,0.16,123.48,300312,,,D*72
$GPGGA,172400.000,3352.7438,N,09833.0341,W,2,08,1.0,312.7,M,-23.7,M,1.8,0000*47
$GPGSA,A,3,22,06,18,31,21,14,19,09,,,,,1.8,1.0,1.5*34
$GPRMC,172400.000,A,3352.7438,N,09833.0341,W,0.06,319.51,300312,,,D*7B
$GPGGA,172401.000,3352.7438,N,09833.0342,W,2,08,1.0,312.9,M,-23.7,M,2.8,0000*48
$GPGSA,A,3,22,06,18,31,21,14,19,09,,,,,1.8,1.0,1.5*34
$GPGSV,3,1,12,22,68,007,25,14,68,285,35,18,43,086,35,21,24,157,20*76
$GPGSV,3,2,12,09,22,043,28,31,20,189,33,19,17,283,18,06,12,236,30*70
$GPGSV,3,3,12,03,09,246,22,11,09,316,,27,05,034,14,12,04,087,*77
$GPRMC,172401.000,A,3352.7438,N,09833.0342,W,0.05,346.68,300312,,,D*7A
$GPGGA,172402.000,3352.7438,N,09833.0343,W,2,08,1.0,312.9,M,-23.7,M,3.8,0000*4B
$GPGSA,A,3,22,06,18,31,21,14,19,09,,,,,1.8,1.0,1.5*34
$GPRMC,172402.000,A,3352.7438,N,09833.0343,W,0.17,6.70,300312,,,D*75
$GPGGA,172403.000,3352.7438,N,09833.0344,W,2,08,1.0,313.0,M,-23.7,M,0.8,0000*46
$GPGSA,A,3,22,06,18,31,21,14,19,09,,,,,1.8,1.0,1.5*34
$GPRMC,172403.000,A,3352.7438,N,09833.0344,W,0.32,8.78,300312,,,D*72
$GPGGA,172404.000,3352.7438,N,09833.0345,W,2,08,1.0,313.0,M,-23.7,M,0.8,0000*40
$GPGSA,A,3,22,06,18,31,21,14,19,09,,,,,1.8,1.0,1.5*34
$GPRMC,172404.000,A,3352.7438,N,09833.0345,W,0.18,315.48,300312,,,D*70
$GPGGA,172405.000,3352.7438,N,09833.0345,W,2,08,1.0,313.0,M,-23.7,M,0.8,0000*41
$GPGSA,A,3,22,06,18,31,21,14,19,09,,,,,1.8,1.0,1.5*34
$GPRMC,172405.000,A,3352.7438,N,09833.0345,W,0.22,126.95,300312,,,D*7A
$GPGGA,172406.000,3352.7437,N,09833.0345,W,2,08,1.0,312.9,M,-23.7,M,1.8,0000*44
$GPGSA,A,3,22,06,18,31,21,14,19,09,,,,,1.8,1.0,1.5*34
$GPGSV,3,1,12,22,68,007,26,14,68,285,35,18,43,086,34,21,24,157,21*75
$GPGSV,3,2,12,09,22,043,27,31,20,189,32,19,17,283,19,06,12,236,30*7F
$GPGSV,3,3,12,03,09,246,22,11,09,316,,27,05,034,14,12,04,087,*77
$GPRMC,172406.000,A,3352.7437,N,09833.0345,W,0.06,280.23,300312,,,D*72
$GPGGA,172407.000,3352.7437,N,09833.0346,W,2,08,1.0,312.6,M,-23.7,M,2.8,0000*4A
$GPGSA,A,3,22,06,18,31,21,14,19,09,,,,,1.8,1.0,1.5*34
$GPRMC,172407.000,A,3352.7437,N,09833.0346,W,0.14,119.10,300312,,,D*70
$GPGGA,172408.000,3352.7437,N,09833.0346,W,2,08,1.0,312.3,M,-23.7,M,3.8,0000*41
$GPGSA,A,3,22,06,18,31,21,14,19,09,,,,,1.8,1.0,1.5*34
$GPRMC,172408.000,A,3352.7437,N,09833.0346,W,0.05,288.55,300312,,,D*75
$GPGGA,172409.000,3352.7438,N,09833.0346,W,2,08,1.0,311.9,M,-23.7,M,0.8,0000*45
$GPGSA,A,3,22,06,18,31,21,14,19,09,,,,,1.8,1.0,1.5*34
$GPRMC,172409.000,A,3352.7438,N,09833.0346,W,0.20,318.82,300312,,,D*7E
$GPGGA,172410.000,3352.7439,N,09833.0347,W,2,08,1.0,311.6,M,-23.7,M,0.8,0000*42
$GPGSA,A,3,22,06,18,31,21,14,19,09,,,,,1.8,1.0,1.5*34
$GPRMC,172410.000,A,3352.7439,N,09833.0347,W,0.17,341.99,300312,,,D*74
$GPGGA,172411.000,3352.7439,N,09833.0347,W,2,08,1.0,311.3,M,-23.7,M,0.8,0000*46
$GPGSA,A,3,22,06,18,31,21,14,19,09,,,,,1.8,1.0,1.5*34
$GPGSV,3,1,12,22,68,007,26,14,68,285,35,18,43,086,34,21,24,157,21*75
$GPGSV,3,2,12,09,22,043,27,31,20,189,29,19,17,283,20,06,12,236,30*7F
$GPGSV,3,3,12,03,09,246,22,11,09,316,,27,05,034,15,12,04,087,*76
$GPRMC,172411.000,A,3352.7439,N,09833.0347,W,0.17,86.53,300312,,,D*4B
$GPGGA,172412.000,3352.7440,N,09833.0346,W,2,08,1.0,311.1,M,-23.7,M,1.8,0000*49
$GPGSA,A,3,22,06,18,31,21,14,19,09,,,,,1.8,1.0,1.5*34
$GPRMC,172412.000,A,3352.7440,N,09833.0346,W,0.19,5.03,300312,,,D*77
$GPGGA,172413.000,3352.7440,N,09833.0346,W,2,08,1.0,310.8,M,-23.7,M,2.8,0000*43
$GPGSA,A,3,22,06,18,31,21,14,19,09,,,,,1.8,1.0,1.5*34
$GPRMC,172413.000,A,3352.7440,N,09833.0346,W,0.10,10.73,300312,,,D*4C
$GPGGA,172414.000,3352.7440,N,09833.0346,W,2,08,1.0,310.7,M,-23.7,M,0.8,0000*49
$GPGSA,A,3,22,06,18,31,21,14,19,09,,,,,1.8,1.0,1.5*34
$GPRMC,172414.000,A,3352.7440,N,09833.0346,W,0.14,30.96,300312,,,D*46
$GPGGA,172415.000,3352.7441,N,09833.0346,W,2,08,1.0,310.5,M,-23.7,M,0.8,0000*4B
$GPGSA,A,3,22,06,18,31,21,14,19,09,,,,,1.8,1.0,1.5*34
$GPRMC,172415.000,A,3352.7441,N,09833.0346,W,0.37,339.89,300312,,,D*73
$GPGGA,172416.000,3352.7441,N,09833.0346,W,2,08,1.0,310.3,M,-23.7,M,0.8,0000*4E
$GPGSA,A,3,22,06,18,31,21,14,19,09,,,,,1.8,1.0,1.5*34
$GPGSV,3,1,12,22,68,007,27,14,68,285,35,18,43,086,34,21,24,157,22*77
$GPGSV,3,2,12,09,22,043,27,31,20,189,28,19,17,283,22,06,12,236,30*7C
$GPGSV,3,3,12,03,09,246,23,11,09,316,,27,05,034,14,12,04,087,*76
$GPRMC,172416.000,A,3352.7441,N,09833.0346,W,0.11,90.29,300312,,,D*4E
$GPGGA,172417.000,3352.7438,N,09833.0346,W,2,08,1.0,309.4,M,-23.7,M,0.8,0000*4E
$GPGSA,A,3,22,06,18,31,21,14,19,09,,,,,1.8,1.0,1.5*34
$GPRMC,172417.000,A,3352.7438,N,09833.0346,W,0.05,218.04,300312,,,D*79
$GPGGA,172418.000,3352.7437,N,09833.0345,W,2,08,1.0,309.1,M,-23.7,M,1.8,0000*49
$GPGSA,A,3,22,06,18,31,21,14,19,09,,,,,1.8,1.0,1.5*34
$GPRMC,172418.000,A,3352.7437,N,09833.0345,W,0.16,118.37,300312,,,D*7B
$GPGGA,172419.000,3352.7436,N,09833.0345,W,2,08,1.0,308.9,M,-23.7,M,0.8,0000*41
$GPGSA,A,3,22,06,18,31,21,14,19,09,,,,,1.8,1.0,1.5*34
$GPRMC,172419.000,A,3352.7436,N,09833.0345,W,0.06,140.90,300312,,,D*7A
$GPGGA,172420.000,3352.7435,N,09833.0345,W,2,08,1.0,308.8,M,-23.7,M,0.8,0000*49
$GPGSA,A,3,22,06,18,31,21,14,19,09,,,,,1.8,1.0,1.5*34
$GPRMC,172420.000,A,3352.7435,N,09833.0345,W,0.11,54.13,300312,,,D*4A
$GPGGA,172421.000,3352.7434,N,09833.0344,W,2,08,1.0,308.4,M,-23.7,M,0.8,0000*44
$GPGSA,A,3,22,06,18,31,21,14,19,09,,,,,1.8,1.0,1.5*34
$GPGSV,3,1,12,22,68,007,26,14,68,285,35,18,43,086,34,21,24,157,23*77
$GPGSV,3,2,12,09,22,043,26,31,20,189,27,19,17,283,22,06,12,236,30*72
$GPGSV,3,3,12,03,09,246,23,11,09,316,,27,05,034,13,12,04,087,*71
$GPRMC,172421.000,A,3352.7434,N,09833.0344,W,0.14,24.35,300312,,,D*4D
$GPGGA,172422.000,3352.7432,N,09833.0343,W,2,08,1.0,308.1,M,-23.7,M,0.8,0000*43
$GPGSA,A,3,22,06,18,31,21,14,19,09,,,,,1.8,1.0,1.5*34
$GPRMC,172422.000,A,3352.7432,N,09833.0343,W,0.25,124.26,300312,,,D*7E
$GPGGA,172423.000,3352.7433,N,09833.0343,W,2,08,1.0,308.0,M,-23.7,M,0.8,0000*42
$GPGSA,A,3,22,06,18,31,21,14,19,09,,,,,1.8,1.0,1.5*34
$GPRMC,172423.000,A,3352.7433,N,09833.0343,W,0.31,347.28,300312,,,D*72
$GPGGA,172424.000,3352.7433,N,09833.0343,W,2,08,1.0,307.6,M,-23.7,M,1.8,0000*4D
$GPGSA,A,3,22,06,18,31,21,14,19,09,,,,,1.8,1.0,1.5*34
$GPRMC,172424.000,A,3352.7433,N,09833.0343,W,0.48,330.25,300312,,,D*76
$GPGGA,172425.000,3352.7435,N,09833.0344,W,2,08,1.0,307.5,M,-23.7,M,2.8,0000*4D
$GPGSA,A,3,22,06,18,31,21,14,19,09,,,,,1.8,1.0,1.5*34
$GPRMC,172425.000,A,3352.7435,N,09833.0344,W,0.44,340.64,300312,,,D*78
$GPGGA,172426.000,3352.7435,N,09833.0344,W,2,08,1.0,307.4,M,-23.7,M,3.8,0000*4E
$GPGSA,A,3,22,06,18,31,21,14,19,09,,,,,1.8,1.0,1.5*34
$GPGSV,3,1,12,22,68,007,26,14,68,285,35,18,43,086,34,21,24,157,24*70
$GPGSV,3,2,12,09,22,043,26,31,20,189,26,19,17,283,22,06,12,236,30*73
$GPGSV,3,3,12,03,09,246,23,11,09,316,,27,05,034,12,12,04,087,*70
$GPRMC,172426.000,A,3352.7435,N,09833.0344,W,0.19,96.46,300312,,,D*4B
$GPGGA,172427.000,3352.7435,N,09833.0343,W,2,08,1.0,307.1,M,-23.7,M,0.8,0000*4E
$GPGSA,A,3,22,06,18,31,21,14,19,09,,,,,1.8,1.0,1.5*34
$GPRMC,172427.000,A,3352.7435,N,09833.0343,W,0.15,10.28,300312,,,D*47
$GPGGA,172428.000,3352.7435,N,09833.0342,W,2,08,1.0,307.0,M,-23.7,M,0.8,0000*41
$GPGSA,A,3,22,06,18,31,21,14,19,09,,,,,1.8,1.0,1.5*34
$GPRMC,172428.000,A,3352.7435,N,09833.0342,W,0.16,84.56,300312,,,D*4E
$GPGGA,172429.000,3352.7435,N,09833.0342,W,2,08,1.0,306.9,M,-23.7,M,0.8,0000*48
$GPGSA,A,3,22,06,18,31,21,14,19,09,,,,,1.8,1.0,1.5*34
$GPRMC,172429.000,A,3352.7435,N,09833.0342,W,0.15,97.69,300312,,,D*42
$GPGGA,172430.000,3352.7435,N,09833.0341,W,2,08,1.0,306.9,M,-23.7,M,1.8,0000*42
$GPGSA,A,3,22,06,18,31,21,14,19,09,,,,,1.8,1.0,1.5*34
$GPRMC,172430.000,A,3352.7435,N,09833.0341,W,0.14,85.96,300312,,,D*4B
$GPGGA,172431.000,3352.7436,N,09833.0341,W,2,08,1.0,306.9,M,-23.7,M,2.8,0000*43
$GPGSA,A,3,22,06,18,31,21,14,19,09,,,,,1.8,1.0,1.5*34
$GPGSV,3,1,12,22,68,007,26,14,68,285,35,18,43,086,34,21,24,157,25*71
$GPGSV,3,2,12,09,22,043,25,31,20,189,26,19,17,283,21,06,12,236,29*7B
$GPGSV,3,3,12,03,09,246,24,11,09,316,,27,05,034,,12,04,087,*74
$GPRMC,172431.000,A,3352.7436,N,09833.0341,W,0.20,104.88,300312,,,D*79
$GPGGA,172432.000,3352.7437,N,09833.0340,W,2,08,1.0,306.8,M,-23.7,M,3.8,0000*40
$GPGSA,A,3,22,06,18,31,21,14,19,09,,,,,1.8,1.0,1.5*34
$GPRMC,172432.000,A,3352.7437,N,09833.0340,W,0.16,333.78,300312,,,D*76
$GPGGA,172433.000,3352.7438,N,09833.0341,W,2,08,1.0,306.6,M,-23.7,M,0.8,0000*42
$GPGSA,A,3,22,06,18,31,21,14,19,09,,,,,1.8,1.0,1.5*34
$GPRMC,172433.000,A,3352.7438,N,09833.0341,W,0.26,322.53,300312,,,D*73
$GPGGA,172434.000,3352.7443,N,09833.0343,W,2,08,1.0,306.5,M,-23.7,M,0.8,0000*48
$GPGSA,A,3,22,06,18,31,21,14,19,09,,,,,1.8,1.0,1.5*34
$GPRMC,172434.000,A,3352.7443,N,09833.0343,W,0.37,326.90,300312,,,D*71
$GPGGA,172435.000,3352.7447,N,09833.0345,W,2,08,1.0,306.2,M,-23.7,M,0.8,0000*4C
$GPGSA,A,3,22,06,18,31,21,14,19,09,,,,,1.8,1.0,1.5*34
$GPRMC,172435.000,A,3352.7447,N,09833.0345,W,0.52,346.76,300312,,,D*7F
$GPGGA,172436.000,3352.7449,N,09833.0346,W,2,08,1.0,306.3,M,-23.7,M,1.8,0000*42
$GPGSA,A,3,22,06,18,31,21,14,19,09,,,,,1.8,1.0,1.5*34
$GPGSV,3,1,12,22,68,007,26,14,68,285,36,18,43,086,34,21,24,157,25*72
$GPGSV,3,2,12,09,22,043,25,31,20,189,26,19,17,283,20,06,12,236,29*7A
$GPGSV,3,3,12,03,09,246,24,11,09,316,,27,05,034,,12,04,087,*74
$GPRMC,172436.000,A,3352.7449,N,09833.0346,W,0.10,24.67,300312,,,D*40
$GPGGA,172437.000,3352.7454,N,09833.0346,W,2,08,1.0,306.7,M,-23.7,M,2.8,0000*48
$GPGSA,A,3,22,06,18,31,21,14,19,09,,,,,1.8,1.0,1.5*34
$GPRMC,172437.000,A,3352.7454,N,09833.0346,W,0.20,51.62,300312,,,D*49
$GPGGA,172438.000,3352.7459,N,09833.0346,W,2,07,1.2,306.9,M,-23.7,M,3.8,0000*48
$GPGSA,A,3,22,06,18,31,21,14,09,,,,,,2.0,1.2,1.6*36
$GPRMC,172438.000,A,3352.7459,N,09833.0346,W,0.18,6.65,300312,,,D*75
$GPGGA,172439.000,3352.7465,N,09833.0347,W,2,07,1.2,307.0,M,-23.7,M,0.8,0000*4C
$GPGSA,A,3,22,06,18,31,21,14,09,,,,,,2.0,1.2,1.6*36
$GPRMC,172439.000,A,3352.7465,N,09833.0347,W,0.23,4.46,300312,,,D*71
$GPGGA,172440.000,3352.7470,N,09833.0347,W,2,07,1.2,307.0,M,-23.7,M,0.8,0000*46
$GPGSA,A,3,22,06,18,31,21,14,09,,,,,,2.0,1.2,1.6*36
$GPRMC,172440.000,A,3352.7470,N,09833.0347,W,0.19,10.74,300312,,,D*46
$GPGGA,172441.000,3352.7474,N,09833.0347,W,2,07,1.2,306.9,M,-23.7,M,0.8,0000*4B
$GPGSA,A,3,22,06,18,31,21,14,09,,,,,,2.0,1.2,1.6*36
$GPGSV,3,1,12,22,68,007,26,14,68,285,36,18,43,086,33,21,24,157,26*76
$GPGSV,3,2,12,09,22,043,24,31,20,189,26,19,17,283,,06,12,236,29*79
$GPGSV,3,3,12,03,09,246,25,11,09,316,,27,05,034,,12,04,087,*75
$GPRMC,172441.000,A,3352.7474,N,09833.0347,W,0.17,357.95,300312,,,D*72
$GPGGA,172442.000,3352.7479,N,09833.0347,W,2,07,1.2,306.7,M,-23.7,M,0.8,0000*4B
$GPGSA,A,3,22,06,18,31,21,14,09,,,,,,2.0,1.2,1.6*36
$GPRMC,172442.000,A,3352.7479,N,09833.0347,W,0.21,4.50,300312,,,D*75
$GPGGA,172443.000,3352.7483,N,09833.0346,W,2,07,1.2,306.3,M,-23.7,M,0.8,0000*4A
$GPGSA,A,3,22,06,18,31,21,14,09,,,,,,2.0,1.2,1.6*36
$GPRMC,172443.000,A,3352.7483,N,09833.0346,W,0.35,14.10,300312,,,D*40
$GPGGA,172444.000,3352.7488,N,09833.0346,W,2,07,1.2,305.9,M,-23.7,M,1.8,0000*4E
$GPGSA,A,3,22,06,18,31,21,14,09,,,,,,2.0,1.2,1.6*36
$GPRMC,172444.000,A,3352.7488,N,09833.0346,W,0.49,14.65,300312,,,D*45
$GPGGA,172445.000,3352.7492,N,09833.0346,W,2,07,1.2,305.6,M,-23.7,M,0.8,0000*4A
$GPGSA,A,3,22,06,18,31,21,14,09,,,,,,2.0,1.2,1.6*36
$GPRMC,172445.000,A,3352.7492,N,09833.0346,W,0.24,355.84,300312,,,D*7D
$GPGGA,172446.000,3352.7495,N,09833.0346,W,2,07,1.2,305.4,M,-23.7,M,0.8,0000*4C
$GPGSA,A,3,22,06,18,31,21,14,09,,,,,,2.0,1.2,1.6*36
$GPGSV,3,1,12,22,68,007,26,14,68,285,36,18,43,086,33,21,24,157,26*76
$GPGSV,3,2,12,09,22,043,24,31,20,189,26,19,17,283,,06,12,236,28*78
$GPGSV,3,3,12,03,09,246,25,11,09,316,,27,05,034,,12,04,087,*75
$GPRMC,172446.000,A,3352.7495,N,09833.0346,W,0.22,346.15,300312,,,D*75
$GPGGA,172447.000,3352.7498,N,09833.0346,W,2,07,1.2,305.0,M,-23.7,M,0.8,0000*44
$GPGSA,A,3,22,06,18,31,21,14,09,,,,,,2.0,1.2,1.6*36
$GPRMC,172447.000,A,3352.7498,N,09833.0346,W,0.23,0.43,300312,,,D*7A
$GPGGA,172448.000,3352.7501,N,09833.0345,W,2,07,1.2,304.7,M,-23.7,M,1.8,0000*4E
$GPGSA,A,3,22,06,18,31,21,14,09,,,,,,2.0,1.2,1.6*36
$GPRMC,172448.000,A,3352.7501,N,09833.0345,W,0.24,7.84,300312,,,D*7C
$GPGGA,172449.000,3352.7504,N,09833.0345,W,2,07,1.2,304.2,M,-23.7,M,2.8,0000*4C
$GPGSA,A,3,22,06,18,31,21,14,09,,,,,,2.0,1.2,1.6*36
$GPRMC,172449.000,A,3352.7504,N,09833.0345,W,0.33,10.32,300312,,,D*45
$GPGGA,172450.000,3352.7507,N,09833.0344,W,2,07,1.2,303.7,M,-23.7,M,0.8,0000*46
$GPGSA,A,3,22,06,18,31,21,14,09,,,,,,2.0,1.2,1.6*36
$GPRMC,172450.000,A,3352.7507,N,09833.0344,W,0.37,8.57,300312,,,D*71
$GPGGA,172451.000,3352.7510,N,09833.0343,W,2,07,1.2,303.3,M,-23.7,M,0.8,0000*42
$GPGSA,A,3,22,06,18,31,21,14,09,,,,,,2.0,1.2,1.6*36
$GPGSV,3,1,12,22,68,007,26,14,68,285,36,18,43,086,33,21,24,157,27*77
$GPGSV,3,2,12,09,22,043,23,31,20,189,26,19,17,283,,06,12,236,28*7F
$GPGSV,3,3,12,03,09,246,26,11,09,316,,27,05,034,,12,04,087,*76
$GPRMC,172451.000,A,3352.7510,N,09833.0343,W,0.27,13.02,300312,,,D*4A
$GPGGA,172452.000,3352.7513,N,09833.0343,W,2,07,1.2,302.7,M,-23.7,M,0.8,0000*47
$GPGSA,A,3,22,06,18,31,21,14,09,,,,,,2.0,1.2,1.6*36
$GPRMC,172452.000,A,3352.7513,N,09833.0343,W,0.34,16.17,300312,,,D*49
$GPGGA,172453.000,3352.7515,N,09833.0342,W,2,07,1.2,302.4,M,-23.7,M,0.8,0000*42
$GPGSA,A,3,22,06,18,31,21,14,09,,,,,,2.0,1.2,1.6*36
$GPRMC,172453.000,A,3352.7515,N,09833.0342,W,0.15,356.32,300312,,,D*7C
$GPGGA,172454.000,3352.7518,N,09833.0342,W,2,07,1.2,301.9,M,-23.7,M,1.8,0000*47
$GPGSA,A,3,22,06,18,31,21,14,09,,,,,,2.0,1.2,1.6*36
$GPRMC,172454.000,A,3352.7518,N,09833.0342,W,0.15,4.00,300312,,,D*73
$GPGGA,172455.000,3352.7520,N,09833.0341,W,2,07,1.2,301.4,M,-23.7,M,2.8,0000*40
$GPGSA,A,3,22,06,18,31,21,14,09,,,,,,2.0,1.2,1.6*36
$GPRMC,172455.000,A,3352.7520,N,09833.0341,W,0.28,15.15,300312,,,D*40
$GPGGA,172456.000,3352.7522,N,09833.0341,W,2,07,1.2,301.0,M,-23.7,M,3.8,0000*44
$GPGSA,A,3,22,06,18,31,21,14,09,,,,,,2.0,1.2,1.6*36
$GPGSV,3,1,12,22,68,007,26,14,68,285,36,18,43,086,33,21,24,157,28*78
$GPGSV,3,2,12,09,22,043,23,31,20,189,27,19,17,283,,06,12,236,28*7E
$GPGSV,3,3,12,03,09,246,26,11,09,316,,27,05,034,,12,04,087,*76
$GPRMC,172456.000,A,3352.7522,N,09833.0341,W,0.14,356.09,300312,,,D*77
$GPGGA,172457.000,3352.7525,N,09833.0341,W,2,07,1.2,300.4,M,-23.7,M,0.8,0000*44
$GPGSA,A,3,22,06,18,31,21,14,09,,,,,,2.0,1.2,1.6*36
$GPRMC,172457.000,A,3352.7525,N,09833.0341,W,0.32,9.60,300312,,,D*73
$GPGGA,172458.000,3352.7527,N,09833.0340,W,2,07,1.2,300.0,M,-23.7,M,0.8,0000*4C
$GPGSA,A,3,22,06,18,31,21,14,09,,,,,,2.0,1.2,1.6*36
$GPRMC,172458.000,A,3352.7527,N,09833.0340,W,0.17,350.20,300312,,,D*73
$GPGGA,172459.000,3352.7528,N,09833.0340,W,2,07,1.2,299.6,M,-23.7,M,0.8,0000*45
$GPGSA,A,3,22,06,18,31,21,14,09,,,,,,2.0,1.2,1.6*36
$GPRMC,172459.000,A,3352.7528,N,09833.0340,W,0.08,314.31,300312,,,D*73
$GPGGA,172500.000,3352.7530,N,09833.0340,W,2,07,1.2,299.2,M,-23.7,M,0.8,0000*45
$GPGSA,A,3,22,06,18,31,21,14,09,,,,,,2.0,1.2,1.6*36
$GPRMC,172500.000,A,3352.7530,N,09833.0340,W,0.17,4.84,300312,,,D*75
$GPGGA,172501.000,3352.7532,N,09833.0340,W,2,07,1.2,298.8,M,-23.7,M,0.8,0000*4D
$GPGSA,A,3,22,06,18,31,21,14,09,,,,,,2.0,1.2,1.6*36
$GPGSV,3,1,12,22,68,007,26,14,68,285,36,18,43,086,33,21,24,157,29*79
$GPGSV,3,2,12,09,22,043,23,31,20,189,28,19,17,283,,06,12,236,27*7E
$GPGSV,3,3,12,03,09,246,26,11,09,316,,27,05,034,,12,04,087,*76
$GPRMC,172501.000,A,3352.7532,N,09833.0340,W,0.24,12.72,300312,,,D*48
$GPGGA,172502.000,3352.7534,N,09833.0340,W,2,07,1.2,298.4,M,-23.7,M,1.8,0000*45
$GPGSA,A,3,22,06,18,31,21,14,09,,,,,,2.0,1.2,1.6*36
$GPRMC,172502.000,A,3352.7534,N,09833.0340,W,0.17,6.49,300312,,,D*70
$GPGGA,172503.000,3352.7535,N,09833.0339,W,2,07,1.2,298.2,M,-23.7,M,0.8,0000*4C
$GPGSA,A,3,22,06,18,31,21,14,09,,,,,,2.0,1.2,1.6*36
$GPRMC,172503.000,A,3352.7535,N,09833.0339,W,0.06,345.80,300312,,,D*7F
$GPGGA,172504.000,3352.7538,N,09833.0339,W,2,07,1.2,297.7,M,-23.7,M,0.8,0000*4C
$GPGSA,A,3,22,06,18,31,21,14,09,,,,,,2.0,1.2,1.6*36
$GPRMC,172504.000,A,3352.7538,N,09833.0339,W,0.42,26.96,300312,,,D*44
$GPGGA,172505.000,3352.7541,N,09833.0339,W,2,07,1.2,297.1,M,-23.7,M,0.8,0000*45
$GPGSA,A,3,22,06,18,31,21,14,09,,,,,,2.0,1.2,1.6*36
$GPRMC,172505.000,A,3352.7541,N,09833.0339,W,0.45,21.64,300312,,,D*46
$GPGGA,172506.000,3352.7543,N,09833.0338,W,2,07,1.2,296.7,M,-23.7,M,1.8,0000*43
$GPGSA,A,3,22,06,18,31,21,14,09,,,,,,2.0,1.2,1.6*36
$GPGSV,3,1,12,22,69,011,26,14,68,289,36,18,42,087,33,21,23,157,29*74
$GPGSV,3,2,12,09,21,042,22,31,21,189,29,19,17,281,,06,11,235,27*7F
$GPGSV,3,3,12,11,10,316,,03,08,245,27,25,05,123,26,12,05,086,*7C
$GPRMC,172506.000,A,3352.7543,N,09833.0338,W,0.18,356.05,300312,,,D*7A
$GPGGA,172507.000,3352.7544,N,09833.0338,W,2,07,1.2,296.4,M,-23.7,M,0.8,0000*47
$GPGSA,A,3,22,06,18,31,21,14,09,,,,,,2.0,1.2,1.6*36
$GPRMC,172507.000,A,3352.7544,N,09833.0338,W,0.14,346.43,300312,,,D*73
$GPGGA,172508.000,3352.7546,N,09833.0338,W,2,07,1.2,296.0,M,-23.7,M,1.8,0000*4F
$GPGSA,A,3,22,06,18,31,21,14,09,,,,,,2.0,1.2,1.6*36
$GPRMC,172508.000,A,3352.7546,N,09833.0338,W,0.22,15.66,300312,,,D*49
$GPGGA,172509.000,3352.7547,N,09833.0338,W,2,07,1.2,295.7,M,-23.7,M,0.8,0000*4A
$GPGSA,A,3,22,06,18,31,21,14,09,,,,,,2.0,1.2,1.6*36
$GPRMC,172509.000,A,3352.7547,N,09833.0338,W,0.11,328.91,300312,,,D*7C
$GPGGA,172510.000,3352.7548,N,09833.0338,W,2,07,1.2,295.4,M,-23.7,M,0.8,0000*4E
$GPGSA,A,3,22,06,18,31,21,14,09,,,,,,2.0,1.2,1.6*36
$GPRMC,172510.000,A,3352.7548,N,09833.0338,W,0.09,270.09,300312,,,D*7F
$GPGGA,172511.000,3352.7550,N,09833.0338,W,2,07,1.2,295.0,M,-23.7,M,0.8,0000*42
$GPGSA,A,3,22,06,18,31,21,14,09,,,,,,2.0,1.2,1.6*36
$GPGSV,3,1,12,22,69,011,26,14,68,289,36,18,42,087,33,21,23,157,30*7C
$GPGSV,3,2,12,09,21,042,23,31,21,189,30,19,17,281,,06,11,235,27*76
$GPGSV,3,3,12,11,10,316,,03,08,245,27,25,05,123,27,12,05,086,*7D
$GPRMC,172511.000,A,3352.7550,N,09833.0338,W,0.21,17.39,300312,,,D*4D
$GPGGA,172512.000,3352.7550,N,09833.0338,W,2,07,1.2,294.8,M,-23.7,M,1.8,0000*49
$GPGSA,A,3,22,06,18,31,21,14,09,,,,,,2.0,1.2,1.6*36
$GPRMC,172512.000,A,3352.7550,N,09833.0338,W,0.05,320.90,300312,,,D*7C
$GPGGA,172513.000,3352.7551,N,09833.0338,W,2,07,1.2,294.5,M,-23.7,M,0.8,0000*45
$GPGSA,A,3,22,06,18,31,21,14,09,,,,,,2.0,1.2,1.6*36
$GPRMC,172513.000,A,3352.7551,N,09833.0338,W,0.06,355.68,300312,,,D*7A
$GPGGA,172514.000,3352.7552,N,09833.0338,W,2,07,1.2,294.1,M,-23.7,M,1.8,0000*44
$GPGSA,A,3,22,06,18,31,21,14,09,,,,,,2.0,1.2,1.6*36
$GPRMC,172514.000,A,3352.7552,N,09833.0338,W,0.22,24.58,300312,,,D*4E
$GPGGA,172515.000,3352.7554,N,09833.0338,W,2,07,1.2,293.4,M,-23.7,M,0.8,0000*40
$GPGSA,A,3,22,06,18,31,21,14,09,,,,,,2.0,1.2,1.6*36
$GPRMC,172515.000,A,3352.7554,N,09833.0338,W,0.40,27.52,300312,,,D*44
$GPGGA,172516.000,3352.7556,N,09833.0337,W,2,07,1.2,292.9,M,-23.7,M,1.8,0000*43
$GPGSA,A,3,22,06,18,31,21,14,09,,,,,,2.0,1.2,1.6*36
$GPGSV,3,1,12,22,69,011,27,14,68,289,36,18,42,087,33,21,23,157,30*7D
$GPGSV,3,2,12,09,21,042,23,31,21,189,30,19,17,281,,06,11,234,27*77
$GPGSV,3,3,12,11,10,316,,03,08,245,26,25,05,123,27,12,05,085,*7F
$GPRMC,172516.000,A,3352.7556,N,09833.0337,W,0.31,25.22,300312,,,D*49
$GPGGA,172517.000,3352.7558,N,09833.0337,W,2,07,1.2,292.7,M,-23.7,M,0.8,0000*43
$GPGSA,A,3,22,06,18,31,21,14,09,,,,,,2.0,1.2,1.6*36
$GPRMC,172517.000,A,3352.7558,N,09833.0337,W,0.12,346.12,300312,,,D*72
$GPGGA,172518.000,3352.7558,N,09833.0337,W,2,07,1.2,292.3,M,-23.7,M,1.8,0000*49
$GPGSA,A,3,22,06,18,31,21,14,09,,,,,,2.0,1.2,1.6*36
$GPRMC,172518.000,A,3352.7558,N,09833.0337,W,0.10,12.07,300312,,,D*49
$GPGGA,172519.000,3352.7559,N,09833.0337,W,2,07,1.2,292.0,M,-23.7,M,2.8,0000*49
$GPGSA,A,3,22,06,18,31,21,14,09,,,,,,2.0,1.2,1.6*36
$GPRMC,172519.000,A,3352.7559,N,09833.0337,W,0.07,321.06,300312,,,D*7D
$GPGGA,172520.000,3352.7560,N,09833.0337,W,2,07,1.2,291.7,M,-23.7,M,3.8,0000*4C
$GPGSA,A,3,22,06,18,31,21,14,09,,,,,,2.0,1.2,1.6*36
$GPRMC,172520.000,A,3352.7560,N,09833.0337,W,0.11,19.47,300312,,,D*47
$GPGGA,172521.000,3352.7560,N,09833.0337,W,2,07,1.2,291.4,M,-23.7,M,0.8,0000*4D
$GPGSA,A,3,22,06,18,31,21,14,09,,,,,,2.0,1.2,1.6*36
$GPGSV,3,1,12,22,69,011,27,14,68,289,36,18,42,087,33,21,23,157,30*7D
$GPGSV,3,2,12,09,21,042,23,31,21,189,31,19,17,281,,06,11,234,26*77
$GPGSV,3,3,12,11,10,316,,03,08,245,26,25,05,123,28,12,05,085,*70
$GPRMC,172521.000,A,3352.7560,N,09833.0337,W,0.09,285.61,300312,,,D*7C
$GPGGA,172522.000,3352.7561,N,09833.0338,W,2,07,1.2,291.3,M,-23.7,M,0.8,0000*47
$GPGSA,A,3,22,06,18,31,21,14,09,,,,,,2.0,1.2,1.6*36
$GPRMC,172522.000,A,3352.7561,N,09833.0338,W,0.08,271.07,300312,,,D*7B
$GPGGA,172523.000,3352.7562,N,09833.0338,W,2,07,1.2,291.0,M,-23.7,M,0.8,0000*46
$GPGSA,A,3,22,06,18,31,21,14,09,,,,,,2.0,1.2,1.6*36
$GPRMC,172523.000,A,3352.7562,N,09833.0338,W,0.14,6.25,300312,,,D*76
$GPGGA,172524.000,3352.7563,N,09833.0338,W,2,07,1.2,290.5,M,-23.7,M,1.8,0000*45
$GPGSA,A,3,22,06,18,31,21,14,09,,,,,,2.0,1.2,1.6*36
$GPRMC,172524.000,A,3352.7563,N,09833.0338,W,0.31,26.95,300312,,,D*4E
$GPGGA,172525.000,3352.7564,N,09833.0338,W,2,07,1.2,290.2,M,-23.7,M,2.8,0000*47
$GPGSA,A,3,22,06,18,31,21,14,09,,,,,,2.0,1.2,1.6*36
$GPRMC,172525.000,A,3352.7564,N,09833.0338,W,0.25,16.11,300312,,,D*42
$GPGGA,172526.000,3352.7565,N,09833.0338,W,2,07,1.2,289.8,M,-23.7,M,3.8,0000*46
$GPGSA,A,3,22,06,18,31,21,14,09,,,,,,2.0,1.2,1.6*36
$GPGSV,3,1,12,22,69,011,27,14,68,289,36,18,42,087,33,21,23,157,30*7D
$GPGSV,3,2,12,09,21,042,23,31,21,189,31,19,17,281,12,06,11,234,26*74
$GPGSV,3,3,12,11,10,316,,03,08,245,26,25,05,123,29,12,05,085,*71
$GPRMC,172526.000,A,3352.7565,N,09833.0338,W,0.28,16.83,300312,,,D*46
$GPGGA,172527.000,3352.7566,N,09833.0337,W,2,08,1.0,289.6,M,-23.7,M,0.8,0000*4B
$GPGSA,A,3,22,06,18,31,21,14,19,09,,,,,1.8,1.0,1.5*34
$GPRMC,172527.000,A,3352.7566,N,09833.0337,W,0.14,60.68,300312,,,D*40
$GPGGA,172528.000,3352.7568,N,09833.0337,W,2,08,1.0,289.0,M,-23.7,M,0.8,0000*4C
$GPGSA,A,3,22,06,18,31,21,14,19,09,,,,,1.8,1.0,1.5*34
$GPRMC,172528.000,A,3352.7568,N,09833.0337,W,0.36,5.71,300312,,,D*7A
$GPGGA,172529.000,3352.7569,N,09833.0338,W,2,08,1.0,288.6,M,-23.7,M,0.8,0000*44
$GPGSA,A,3,22,06,18,31,21,14,19,09,,,,,1.8,1.0,1.5*34
$GPRMC,172529.000,A,3352.7569,N,09833.0338,W,0.23,320.14,300312,,,D*76
$GPGGA,172530.000,3352.7570,N,09833.0338,W,2,08,1.0,288.1,M,-23.7,M,1.8,0000*42
$GPGSA,A,3,22,06,18,31,21,14,19,09,,,,,1.8,1.0,1.5*34
$GPRMC,172530.000,A,3352.7570,N,09833.0338,W,0.28,331.07,300312,,,D*7F
$GPGGA,172531.000,3352.7570,N,09833.0339,W,2,08,1.0,287.8,M,-23.7,M,0.8,0000*45
$GPGSA,A,3,22,06,18,31,21,14,19,09,,,,,1.8,1.0,1.5*34
$GPGSV,3,1,12,22,69,011,28,14,68,289,36,18,42,087,33,21,23,157,29*7A
$GPGSV,3,2,12,09,21,042,23,31,21,189,31,19,17,281,13,06,11,234,25*76
$GPGSV,3,3,12,11,10,316,,03,08,245,25,25,05,123,29,12,05,085,*72
$GPRMC,172531.000,A,3352.7570,N,09833.0339,W,0.25,307.96,300312,,,D*7F
$GPGGA,172532.000,3352.7572,N,09833.0339,W,2,08,1.0,287.3,M,-23.7,M,1.8,0000*4E
$GPGSA,A,3,22,06,18,31,21,14,19,09,,,,,1.8,1.0,1.5*34
$GPRMC,172532.000,A,3352.7572,N,09833.0339,W,0.31,337.45,300312,,,D*76
$GPGGA,172533.000,3352.7573,N,09833.0340,W,2,08,1.0,286.9,M,-23.7,M,0.8,0000*4A
$GPGSA,A,3,22,06,18,31,21,14,19,09,,,,,1.8,1.0,1.5*34
$GPRMC,172533.000,A,3352.7573,N,09833.0340,W,0.29,313.07,300312,,,D*71
$GPGGA,172534.000,3352.7573,N,09833.0341,W,2,08,1.0,286.7,M,-23.7,M,0.8,0000*42
$GPGSA,A,3,22,06,18,31,21,14,19,09,,,,,1.8,1.0,1.5*34
$GPRMC,172534.000,A,3352.7573,N,09833.0341,W,0.26,287.01,300312,,,D*72
$GPGGA,172535.000,3352.7573,N,09833.0342,W,2,08,1.0,286.5,M,-23.7,M,0.8,0000*42
$GPGSA,A,3,22,06,18,31,21,14,19,09,,,,,1.8,1.0,1.5*34
$GPRMC,172535.000,A,3352.7573,N,09833.0342,W,0.32,291.82,300312,,,D*79
$GPGGA,172536.000,3352.7574,N,09833.0343,W,2,08,1.0,286.0,M,-23.7,M,1.8,0000*43
$GPGSA,A,3,22,06,18,31,21,14,19,09,,,,,1.8,1.0,1.5*34
$GPGSV,3,1,12,22,69,011,28,14,68,289,36,18,42,087,33,21,23,157,29*7A
$GPGSV,3,2,12,09,21,042,23,31,21,189,31,19,17,281,13,06,11,234,25*76
$GPGSV,3,3,12,11,10,316,,03,08,245,24,25,05,123,29,12,05,085,*73
$GPRMC,172536.000,A,3352.7574,N,09833.0343,W,0.38,324.62,300312,,,D*77
$GPGGA,172537.000,3352.7575,N,09833.0344,W,2,08,1.0,285.7,M,-23.7,M,2.8,0000*43
$GPGSA,A,3,22,06,18,31,21,14,19,09,,,,,1.8,1.0,1.5*34
$GPRMC,172537.000,A,3352.7575,N,09833.0344,W,0.33,335.86,300312,,,D*71
$GPGGA,172538.000,3352.7577,N,09833.0344,W,2,08,1.0,285.2,M,-23.7,M,3.8,0000*4A
$GPGSA,A,3,22,06,18,31,21,14,19,09,,,,,1.8,1.0,1.5*34
$GPRMC,172538.000,A,3352.7577,N,09833.0344,W,0.33,319.93,300312,,,D*76
$GPGGA,172539.000,3352.7577,N,09833.0344,W,2,08,1.0,285.1,M,-23.7,M,0.8,0000*4B
$GPGSA,A,3,22,06,18,31,21,14,19,09,,,,,1.8,1.0,1.5*34
$GPRMC,172539.000,A,3352.7577,N,09833.0344,W,0.22,352.85,300312,,,D*7F
$GPGGA,172540.000,3352.7577,N,09833.0344,W,2,08,1.0,285.2,M,-23.7,M,0.8,0000*46
$GPGSA,A,3,22,06,18,31,21,14,19,09,,,,,1.8,1.0,1.5*34
$GPRMC,172540.000,A,3352.7577,N,09833.0344,W,0.30,339.01,300312,,,D*73
$GPGGA,172541.000,3352.7578,N,09833.0343,W,2,08,1.0,284.9,M,-23.7,M,0.8,0000*45
$GPGSA,A,3,22,06,18,31,21,14,19,09,,,,,1.8,1.0,1.5*34
$GPGSV,3,1,12,22,69,011,28,14,68,289,36,18,42,087,33,21,23,157,28*7B
$GPGSV,3,2,12,09,21,042,23,31,21,189,31,19,17,281,12,06,11,234,24*76
$GPGSV,3,3,12,11,10,316,,03,08,245,23,25,05,123,29,12,05,085,*74
$GPRMC,172541.000,A,3352.7578,N,09833.0343,W,0.46,357.84,300312,,,D*7E
$GPGGA,172542.000,3352.7579,N,09833.0343,W,2,08,1.0,284.5,M,-23.7,M,1.8,0000*4A
$GPGSA,A,3,22,06,18,31,21,14,19,09,,,,,1.8,1.0,1.5*34
$GPRMC,172542.000,A,3352.7579,N,09833.0343,W,0.35,316.86,300312,,,D*7F
$GPGGA,172543.000,3352.7580,N,09833.0344,W,2,08,1.0,284.1,M,-23.7,M,2.8,0000*4D
$GPGSA,A,3,22,06,18,31,21,14,19,09,,,,,1.8,1.0,1.5*34
$GPRMC,172543.000,A,3352.7580,N,09833.0344,W,0.33,341.29,300312,,,D*7E
$GPGGA,172544.000,3352.7582,N,09833.0344,W,2,08,1.0,283.5,M,-23.7,M,0.8,0000*49
$GPGSA,A,3,22,06,18,31,21,14,19,09,,,,,1.8,1.0,1.5*34
$GPRMC,172544.000,A,3352.7582,N,09833.0344,W,0.52,25.52,300312,,,D*41
$GPGGA,172545.000,3352.7583,N,09833.0344,W,2,08,1.0,283.0,M,-23.7,M,0.8,0000*4C
$GPGSA,A,3,22,06,18,31,21,14,19,09,,,,,1.8,1.0,1.5*34
$GPRMC,172545.000,A,3352.7583,N,09833.0344,W,0.39,353.93,300312,,,D*73
$GPGGA,172546.000,3352.7583,N,09833.0344,W,2,08,1.0,282.9,M,-23.7,M,0.8,0000*47
$GPGSA,A,3,22,06,18,31,21,14,19,09,,,,,1.8,1.0,1.5*34
$GPGSV,3,1,12,22,69,011,28,14,68,289,36,18,42,087,33,21,23,157,28*7B
$GPGSV,3,2,12,09,21,042,22,31,21,189,31,19,17,281,13,06,11,234,24*76
$GPGSV,3,3,12,11,10,316,,03,08,245,23,25,05,123,29,12,05,085,*74
$GPRMC,172546.000,A,3352.7583,N,09833.0344,W,0.18,346.62,300312,,,D*79
$GPGGA,172547.000,3352.7583,N,09833.0344,W,2,08,1.0,282.8,M,-23.7,M,0.8,0000*47
$GPGSA,A,3,22,06,18,31,21,14,19,09,,,,,1.8,1.0,1.5*34
$GPRMC,172547.000,A,3352.7583,N,09833.0344,W,0.23,11.54,300312,,,D*44
$GPGGA,172548.000,3352.7583,N,09833.0344,W,2,08,1.0,282.9,M,-23.7,M,1.8,0000*48
$GPGSA,A,3,22,06,18,31,21,14,19,09,,,,,1.8,1.0,1.5*34
$GPRMC,172548.000,A,3352.7583,N,09833.0344,W,0.31,322.70,300312,,,D*7D
$GPGGA,172549.000,3352.7582,N,09833.0343,W,2,08,1.0,283.4,M,-23.7,M,0.8,0000*42
$GPGSA,A,3,22,06,18,31,21,14,19,09,,,,,1.8,1.0,1.5*34
$GPRMC,172549.000,A,3352.7582,N,09833.0343,W,0.10,314.46,300312,,,D*79
$GPGGA,172550.000,3352.7582,N,09833.0343,W,2,08,1.0,283.5,M,-23.7,M,1.8,0000*4A
$GPGSA,A,3,22,06,18,31,21,14,19,09,,,,,1.8,1.0,1.5*34
$GPRMC,172550.000,A,3352.7582,N,09833.0343,W,0.08,208.52,300312,,,D*71
$GPGGA,172551.000,3352.7581,N,09833.0343,W,2,08,1.0,283.5,M,-23.7,M,0.8,0000*49
$GPGSA,A,3,22,06,18,31,21,14,19,09,,,,,1.8,1.0,1.5*34
$GPGSV,3,1,12,22,69,011,28,14,68,289,36,18,42,087,33,21,23,157,27*74
$GPGSV,3,2,12,09,21,042,21,31,21,189,32,19,17,281,16,06,11,234,24*73
$GPGSV,3,3,12,11,10,316,,03,08,245,22,25,05,123,30,12,05,085,*7D
$GPRMC,172551.000,A,3352.7581,N,09833.0343,W,0.13,169.91,300312,,,D*72
$GPGGA,172552.000,3352.7581,N,09833.0343,W,2,08,1.0,283.5,M,-23.7,M,0.8,0000*4A
$GPGSA,A,3,22,06,18,31,21,14,19,09,,,,,1.8,1.0,1.5*34
$GPRMC,172552.000,A,3352.7581,N,09833.0343,W,0.21,8.74,300312,,,D*7D
$GPGGA,172553.000,3352.7581,N,09833.0341,W,2,08,1.0,283.8,M,-23.7,M,0.8,0000*44
$GPGSA,A,3,22,06,18,31,21,14,19,09,,,,,1.8,1.0,1.5*34
$GPRMC,172553.000,A,3352.7581,N,09833.0341,W,0.37,357.60,300312,,,D*75
$GPGGA,172554.000,3352.7581,N,09833.0341,W,2,08,1.0,283.8,M,-23.7,M,1.8,0000*42
$GPGSA,A,3,22,06,18,31,21,14,19,09,,,,,1.8,1.0,1.5*34
$GPRMC,172554.000,A,3352.7581,N,09833.0341,W,0.11,2.76,300312,,,D*72
$GPGGA,172555.000,3352.7583,N,09833.0342,W,2,08,1.0,283.7,M,-23.7,M,0.8,0000*4C
$GPGSA,A,3,22,06,18,31,21,14,19,09,,,,,1.8,1.0,1.5*34
$GPRMC,172555.000,A,3352.7583,N,09833.0342,W,0.27,340.20,300312,,,D*71
$GPGGA,172556.000,3352.7583,N,09833.0342,W,2,08,1.0,283.8,M,-23.7,M,1.8,0000*41
$GPGSA,A,3,22,06,18,31,21,14,19,09,,,,,1.8,1.0,1.5*34
$GPGSV,3,1,12,22,69,011,28,14,68,289,36,18,42,087,33,21,23,157,26*75
$GPGSV,3,2,12,09,21,042,21,31,21,189,32,19,17,281,19,06,11,234,24*7C
$GPGSV,3,3,12,11,10,316,,03,08,245,22,25,05,123,30,12,05,085,*7D
$GPRMC,172556.000,A,3352.7583,N,09833.0342,W,0.12,341.42,300312,,,D*71
$GPGGA,172557.000,3352.7584,N,09833.0343,W,2,08,1.0,283.7,M,-23.7,M,0.8,0000*48
$GPGSA,A,3,22,06,18,31,21,14,19,09,,,,,1.8,1.0,1.5*34
$GPRMC,172557.000,A,3352.7584,N,09833.0343,W,0.18,282.31,300312,,,D*76
$GPGGA,172558.000,3352.7584,N,09833.0343,W,2,08,1.0,283.7,M,-23.7,M,0.8,0000*47
$GPGSA,A,3,22,06,18,31,21,14,19,09,,,,,1.8,1.0,1.5*34
$GPRMC,172558.000,A,3352.7584,N,09833.0343,W,0.11,266.39,300312,,,D*72
$GPGGA,172559.000,3352.7583,N,09833.0343,W,2,08,1.0,284.2,M,-23.7,M,0.8,0000*43
$GPGSA,A,3,22,06,18,31,21,14,19,09,,,,,1.8,1.0,1.5*34
$GPRMC,172559.000,A,3352.7583,N,09833.0343,W,0.26,175.88,300312,,,D*7B
$GPGGA,172600.000,3352.7583,N,09833.0343,W,2,08,1.0,284.7,M,-23.7,M,1.8,0000*48
$GPGSA,A,3,22,06,18,31,21,14,19,09,,,,,1.8,1.0,1.5*34
$GPRMC,172600.000,A,3352.7583,N,09833.0343,W,0.26,203.19,300312,,,D*7E
$GPGGA,172601.000,3352.7585,N,09833.0345,W,2,08,1.0,284.4,M,-23.7,M,0.8,0000*4B
$GPGSA,A,3,22,06,18,31,21,14,19,09,,,,,1.8,1.0,1.5*34
$GPGSV,3,1,12,22,69,012,29,14,68,290,36,18,42,088,33,21,23,157,22*74
$GPGSV,3,2,12,31,21,189,32,09,21,042,20,19,17,281,20,06,11,234,23*70
$GPGSV,3,3,12,11,10,316,,03,08,245,21,25,05,123,30,12,05,085,*7E
$GPRMC,172601.000,A,3352.7585,N,09833.0345,W,0.12,233.30,300312,,,D*70
$GPGGA,172602.000,3352.7585,N,09833.0346,W,2,08,1.0,284.6,M,-23.7,M,1.8,0000*48
$GPGSA,A,3,22,06,18,31,21,14,19,09,,,,,1.8,1.0,1.5*34
$GPRMC,172602.000,A,3352.7585,N,09833.0346,W,0.22,280.51,300312,,,D*7C
$GPGGA,172603.000,3352.7586,N,09833.0347,W,2,08,1.0,284.6,M,-23.7,M,0.8,0000*4A
$GPGSA,A,3,22,06,18,31,21,14,19,09,,,,,1.8,1.0,1.5*34
$GPRMC,172603.000,A,3352.7586,N,09833.0347,W,0.33,199.15,300312,,,D*74
$GPGGA,172604.000,3352.7585,N,09833.0346,W,2,08,1.0,284.8,M,-23.7,M,0.8,0000*41
$GPGSA,A,3,22,06,18,31,21,14,19,09,,,,,1.8,1.0,1.5*34
$GPRMC,172604.000,A,3352.7585,N,09833.0346,W,0.17,149.54,300312,,,D*7F
$GPGGA,172605.000,3352.7579,N,09833.0342,W,2,08,1.0,286.9,M,-23.7,M,0.8,0000*44
$GPGSA,A,3,22,06,18,31,21,14,19,09,,,,,1.8,1.0,1.5*34
$GPRMC,172605.000,A,3352.7579,N,09833.0342,W,0.10,220.66,300312,,,D*73
$GPGGA,172606.000,3352.7577,N,09833.0341,W,2,08,1.0,287.8,M,-23.7,M,1.8,0000*4B
$GPGSA,A,3,22,06,18,31,21,14,19,09,,,,,1.8,1.0,1.5*34
$GPGSV,3,1,12,22,69,012,29,14,68,290,36,18,42,088,33,21,23,157,19*7C
$GPGSV,3,2,12,31,21,189,32,09,21,042,20,19,17,281,21,06,11,234,24*76
$GPGSV,3,3,12,11,10,316,,03,08,245,20,25,05,123,31,12,05,085,*7E
$GPRMC,172606.000,A,3352.7577,N,09833.0341,W,0.17,318.28,300312,,,D*7A
$GPGGA,172607.000,3352.7572,N,09833.0342,W,2,08,1.0,289.4,M,-23.7,M,2.8,0000*4D
$GPGSA,A,3,22,06,18,31,21,14,19,09,,,,,1.8,1.0,1.5*34
$GPRMC,172607.000,A,3352.7572,N,09833.0342,W,0.33,272.22,300312,,,D*7C
$GPGGA,172608.000,3352.7569,N,09833.0340,W,2,08,1.0,290.5,M,-23.7,M,0.8,0000*41
$GPGSA,A,3,22,06,18,31,21,14,19,09,,,,,1.8,1.0,1.5*34
$GPRMC,172608.000,A,3352.7569,N,09833.0340,W,0.06,111.99,300312,,,D*7B
$GPGGA,172609.000,3352.7564,N,09833.0340,W,2,08,1.0,292.3,M,-23.7,M,0.8,0000*49
$GPGSA,A,3,22,06,18,31,21,14,19,09,,,,,1.8,1.0,1.5*34
$GPRMC,172609.000,A,3352.7564,N,09833.0340,W,0.14,68.49,300312,,,D*46
$GPGGA,172610.000,3352.7562,N,09833.0338,W,2,08,1.0,293.4,M,-23.7,M,0.8,0000*4E
$GPGSA,A,3,22,06,18,31,21,14,19,09,,,,,1.8,1.0,1.5*34
$GPRMC,172610.000,A,3352.7562,N,09833.0338,W,0.27,223.12,300312,,,D*74
$GPGGA,172611.000,3352.7556,N,09833.0339,W,2,08,1.0,295.0,M,-23.7,M,0.8,0000*4B
$GPGSA,A,3,22,06,18,31,21,14,19,09,,,,,1.8,1.0,1.5*34
$GPGSV,3,1,12,22,69,012,30,14,68,290,36,18,42,088,34,21,23,157,15*7F
$GPGSV,3,2,12,31,21,189,32,09,21,042,20,19,17,281,21,06,11,234,24*76
$GPGSV,3,3,12,11,10,316,,03,08,245,10,25,05,123,31,12,05,085,*7D
$GPRMC,172611.000,A,3352.7556,N,09833.0339,W,0.30,226.43,300312,,,D*74
$GPGGA,172612.000,3352.7553,N,09833.0338,W,2,08,1.0,295.9,M,-23.7,M,1.8,0000*44
$GPGSA,A,3,22,06,18,31,21,14,19,09,,,,,1.8,1.0,1.5*34
$GPRMC,172612.000,A,3352.7553,N,09833.0338,W,0.27,277.32,300312,,,D*77
$GPGGA,172613.000,3352.7550,N,09833.0336,W,2,08,1.0,297.0,M,-23.7,M,2.8,0000*40
$GPGSA,A,3,22,06,18,31,21,14,19,09,,,,,1.8,1.0,1.5*34
$GPRMC,172613.000,A,3352.7550,N,09833.0336,W,0.13,182.94,300312,,,D*79
$GPGGA,172614.000,3352.7546,N,09833.0333,W,2,08,1.0,298.4,M,-23.7,M,3.8,0000*4F
$GPGSA,A,3,22,06,18,31,21,14,19,09,,,,,1.8,1.0,1.5*34
$GPRMC,172614.000,A,3352.7546,N,09833.0333,W,0.08,201.19,300312,,,D*7B
$GPGGA,172615.000,3352.7542,N,09833.0334,W,2,08,1.0,299.7,M,-23.7,M,0.8,0000*4C
$GPGSA,A,3,22,06,18,31,21,14,19,09,,,,,1.8,1.0,1.5*34
$GPRMC,172615.000,A,3352.7542,N,09833.0334,W,0.31,198.44,300312,,,D*78
$GPGGA,172616.000,3352.7541,N,09833.0334,W,2,08,1.0,299.8,M,-23.7,M,0.8,0000*43
$GPGSA,A,3,22,06,18,31,21,14,19,09,,,,,1.8,1.0,1.5*34
$GPGSV,3,1,12,22,69,012,30,14,68,290,36,18,42,088,34,21,23,157,15*7F
$GPGSV,3,2,12,31,21,189,32,09,21,042,20,19,17,281,21,06,11,234,24*76
$GPGSV,3,3,12,11,10,316,,03,08,245,12,25,05,123,31,12,05,085,*7F
$GPRMC,172616.000,A,3352.7541,N,09833.0334,W,0.30,222.99,300312,,,D*7B
$GPGGA,172617.000,3352.7538,N,09833.0333,W,2,08,1.0,300.4,M,-23.7,M,0.8,0000*46
$GPGSA,A,3,22,06,18,31,21,14,19,09,,,,,1.8,1.0,1.5*34
$GPRMC,172617.000,A,3352.7538,N,09833.0333,W,0.23,180.52,300312,,,D*7D
$GPGGA,172618.000,3352.7536,N,09833.0331,W,2,08,1.0,301.3,M,-23.7,M,0.8,0000*43
$GPGSA,A,3,22,06,18,31,21,14,19,09,,,,,1.8,1.0,1.5*34
$GPRMC,172618.000,A,3352.7536,N,09833.0331,W,0.18,208.18,300312,,,D*7B
$GPGGA,172619.000,3352.7532,N,09833.0328,W,2,08,1.0,302.8,M,-23.7,M,0.8,0000*46
$GPGSA,A,3,22,06,18,31,21,14,19,09,,,,,1.8,1.0,1.5*34
$GPRMC,172619.000,A,3352.7532,N,09833.0328,W,0.51,133.87,300312,,,D*76
$GPGGA,172620.000,3352.7530,N,09833.0326,W,2,08,1.0,303.0,M,-23.7,M,1.8,0000*48
$GPGSA,A,3,22,06,18,31,21,14,19,09,,,,,1.8,1.0,1.5*34
$GPRMC,172620.000,A,3352.7530,N,09833.0326,W,0.49,143.18,300312,,,D*78
$GPGGA,172621.000,3352.7528,N,09833.0325,W,2,08,1.0,303.3,M,-23.7,M,0.8,0000*41
$GPGSA,A,3,22,06,18,31,21,14,19,09,,,,,1.8,1.0,1.5*34
$GPGSV,3,1,12,22,69,012,30,14,68,290,36,18,42,088,35,21,23,157,16*7D
$GPGSV,3,2,12,31,21,189,32,09,21,042,21,19,17,281,22,06,11,234,24*74
$GPGSV,3,3,12,11,10,316,,03,08,245,,25,05,123,31,12,05,085,*7C
$GPRMC,172621.000,A,3352.7528,N,09833.0325,W,0.30,161.63,300312,,,D*71
$GPGGA,172622.000,3352.7526,N,09833.0324,W,2,08,1.0,303.8,M,-23.7,M,0.8,0000*46
$GPGSA,A,3,22,06,18,31,21,14,19,09,,,,,1.8,1.0,1.5*34
$GPRMC,172622.000,A,3352.7526,N,09833.0324,W,0.35,145.80,300312,,,D*73
$GPGGA,172623.000,3352.7521,N,09833.0326,W,2,08,1.0,305.1,M,-23.7,M,0.8,0000*4D
$GPGSA,A,3,22,06,18,31,21,14,19,09,,,,,1.8,1.0,1.5*34
$GPRMC,172623.000,A,3352.7521,N,09833.0326,W,0.26,191.76,300312,,,D*75
$GPGGA,172624.000,3352.7516,N,09833.0328,W,2,08,1.0,306.2,M,-23.7,M,1.8,0000*41
$GPGSA,A,3,22,06,18,31,21,14,19,09,,,,,1.8,1.0,1.5*34
$GPRMC,172624.000,A,3352.7516,N,09833.0328,W,0.45,163.12,300312,,,D*72
$GPGGA,172625.000,3352.7512,N,09833.0329,W,2,08,1.0,307.3,M,-23.7,M,2.8,0000*46
$GPGSA,A,3,22,06,18,31,21,14,19,09,,,,,1.8,1.0,1.5*34
$GPRMC,172625.000,A,3352.7512,N,09833.0329,W,0.18,146.43,300312,,,D*7D
$GPGGA,172626.000,3352.7508,N,09833.0331,W,2,08,1.0,308.4,M,-23.7,M,3.8,0000*4E
$GPGSA,A,3,22,06,18,31,21,14,19,09,,,,,1.8,1.0,1.5*34
$GPGSV,3,1,12,22,69,012,29,14,68,290,36,18,42,088,35,21,23,157,17*74
$GPGSV,3,2,12,31,21,189,32,09,21,042,22,19,17,281,22,06,11,234,23*70
$GPGSV,3,3,12,11,10,316,,03,08,245,,25,05,123,31,12,05,085,*7C
$GPRMC,172626.000,A,3352.7508,N,09833.0331,W,0.28,126.34,300312,,,D*79
$GPGGA,172627.000,3352.7503,N,09833.0330,W,2,08,1.0,310.0,M,-23.7,M,0.8,0000*4B
$GPGSA,A,3,22,06,18,31,21,14,19,09,,,,,1.8,1.0,1.5*34
$GPRMC,172627.000,A,3352.7503,N,09833.0330,W,0.40,158.92,300312,,,D*79
$GPGGA,172628.000,3352.7501,N,09833.0329,W,2,08,1.0,310.4,M,-23.7,M,0.8,0000*4A
$GPGSA,A,3,22,06,18,31,21,14,19,09,,,,,1.8,1.0,1.5*34
$GPRMC,172628.000,A,3352.7501,N,09833.0329,W,0.45,178.37,300312,,,D*74
$GPGGA,172629.000,3352.7500,N,09833.0328,W,2,08,1.0,310.9,M,-23.7,M,0.8,0000*46
$GPGSA,A,3,22,06,18,31,21,14,19,09,,,,,1.8,1.0,1.5*34
$GPRMC,172629.000,A,3352.7500,N,09833.0328,W,0.34,161.58,300312,,,D*72
$GPGGA,172630.000,3352.7499,N,09833.0327,W,2,08,1.0,311.5,M,-23.7,M,1.8,0000*4C
$GPGSA,A,3,22,06,18,31,21,14,19,09,,,,,1.8,1.0,1.5*34
$GPRMC,172630.000,A,3352.7499,N,09833.0327,W,0.35,120.58,300312,,,D*70
$GPGGA,172631.000,3352.7497,N,09833.0327,W,2,08,1.0,312.3,M,-23.7,M,2.8,0000*45
$GPGSA,A,3,22,06,18,31,21,14,19,09,,,,,1.8,1.0,1.5*34
$GPGSV,3,1,12,22,69,012,29,14,68,290,36,18,42,088,35,21,23,157,18*7B
$GPGSV,3,2,12,31,21,189,32,09,21,042,23,19,17,281,21,06,11,234,22*73
$GPGSV,3,3,12,11,10,316,,03,08,245,,25,05,123,31,12,05,085,*7C
$GPRMC,172631.000,A,3352.7497,N,09833.0327,W,0.04,349.17,300312,,,D*7B
$GPGGA,172632.000,3352.7494,N,09833.0326,W,2,08,1.0,313.7,M,-23.7,M,3.8,0000*40
$GPGSA,A,3,22,06,18,31,21,14,19,09,,,,,1.8,1.0,1.5*34
$GPRMC,172632.000,A,3352.7494,N,09833.0326,W,0.10,174.05,300312,,,D*70
$GPGGA,172633.000,3352.7489,N,09833.0326,W,2,08,1.0,315.7,M,-23.7,M,0.8,0000*48
$GPGSA,A,3,22,06,18,31,21,14,19,09,,,,,1.8,1.0,1.5*34
$GPRMC,172633.000,A,3352.7489,N,09833.0326,W,0.23,175.10,300312,,,D*78
$GPGGA,172634.000,3352.7486,N,09833.0326,W,2,08,1.0,317.1,M,-23.7,M,0.8,0000*44
$GPGSA,A,3,22,06,18,31,21,14,19,09,,,,,1.8,1.0,1.5*34
$GPRMC,172634.000,A,3352.7486,N,09833.0326,W,0.23,140.80,300312,,,D*7F
$GPGGA,172635.000,3352.7483,N,09833.0325,W,2,08,1.0,318.3,M,-23.7,M,0.8,0000*4E
$GPGSA,A,3,22,06,18,31,21,14,19,09,,,,,1.8,1.0,1.5*34
$GPRMC,172635.000,A,3352.7483,N,09833.0325,W,0.24,126.76,300312,,,D*76
$GPGGA,172636.000,3352.7481,N,09833.0324,W,2,08,1.0,319.6,M,-23.7,M,0.8,0000*4A
$GPGSA,A,3,22,06,18,31,21,14,19,09,,,,,1.8,1.0,1.5*34
$GPGSV,3,1,12,22,69,012,29,14,68,290,35,18,42,088,35,21,23,157,19*79
$GPGSV,3,2,12,31,21,189,33,09,21,042,24,19,17,281,21,06,11,234,22*75
$GPGSV,3,3,12,11,10,316,,03,08,245,,25,05,123,30,12,05,085,*7D
$GPRMC,172636.000,A,3352.7481,N,09833.0324,W,0.21,79.91,300312,,,D*41
$GPGGA,172637.000,3352.7479,N,09833.0323,W,2,08,1.0,320.6,M,-23.7,M,0.8,0000*41
$GPGSA,A,3,22,06,18,31,21,14,19,09,,,,,1.8,1.0,1.5*34
$GPRMC,172637.000,A,3352.7479,N,09833.0323,W,0.29,180.62,300312,,,D*73
$GPGGA,172638.000,3352.7477,N,09833.0322,W,2,08,1.0,321.7,M,-23.7,M,1.8,0000*40
$GPGSA,A,3,22,06,18,31,21,14,19,09,,,,,1.8,1.0,1.5*34
$GPRMC,172638.000,A,3352.7477,N,09833.0322,W,0.44,149.93,300312,,,D*73
$GPGGA,172639.000,3352.7474,N,09833.0321,W,2,08,1.0,322.5,M,-23.7,M,0.8,0000*41
$GPGSA,A,3,22,06,18,31,21,14,19,09,,,,,1.8,1.0,1.5*34
$GPRMC,172639.000,A,3352.7474,N,09833.0321,W,0.50,148.53,300312,,,D*7A
$GPGGA,172640.000,3352.7472,N,09833.0319,W,2,08,1.0,323.2,M,-23.7,M,0.8,0000*44
$GPGSA,A,3,22,06,18,31,21,14,19,09,,,,,1.8,1.0,1.5*34
$GPRMC,172640.000,A,3352.7472,N,09833.0319,W,0.45,152.71,300312,,,D*76
$GPGGA,172641.000,3352.7471,N,09833.0318,W,2,08,1.0,323.8,M,-23.7,M,0.8,0000*4D
$GPGSA,A,3,22,06,18,31,21,14,19,09,,,,,1.8,1.0,1.5*34
$GPGSV,3,1,12,22,69,012,29,14,68,290,35,18,42,088,35,21,23,157,20*73
$GPGSV,3,2,12,31,21,189,33,09,21,042,25,19,17,281,20,06,11,234,23*74
$GPGSV,3,3,12,11,10,316,,03,08,245,,25,05,123,30,12,05,085,*7D
$GPRMC,172641.000,A,3352.7471,N,09833.0318,W,0.41,153.10,300312,,,D*77
$GPGGA,172642.000,3352.7469,N,09833.0317,W,2,08,1.0,324.4,M,-23.7,M,1.8,0000*42
$GPGSA,A,3,22,06,18,31,21,14,19,09,,,,,1.8,1.0,1.5*34
$GPRMC,172642.000,A,3352.7469,N,09833.0317,W,0.11,63.60,300312,,,D*42
$GPGGA,172643.000,3352.7468,N,09833.0316,W,2,08,1.0,325.2,M,-23.7,M,0.8,0000*45
$GPGSA,A,3,22,06,18,31,21,14,19,09,,,,,1.8,1.0,1.5*34
$GPRMC,172643.000,A,3352.7468,N,09833.0316,W,0.41,135.06,300312,,,D*74
$GPGGA,172644.000,3352.7466,N,09833.0314,W,2,08,1.0,325.9,M,-23.7,M,1.8,0000*44
$GPGSA,A,3,22,06,18,31,21,14,19,09,,,,,1.8,1.0,1.5*34
$GPRMC,172644.000,A,3352.7466,N,09833.0314,W,0.49,123.28,300312,,,D*7C
$GPGGA,172645.000,3352.7465,N,09833.0313,W,2,08,1.0,326.3,M,-23.7,M,0.8,0000*49
$GPGSA,A,3,22,06,18,31,21,14,19,09,,,,,1.8,1.0,1.5*34
$GPRMC,172645.000,A,3352.7465,N,09833.0313,W,0.19,169.88,300312,,,D*78
$GPGGA,172646.000,3352.7465,N,09833.0313,W,2,08,1.0,326.7,M,-23.7,M,0.8,0000*4E
$GPGSA,A,3,22,06,18,31,21,14,19,09,,,,,1.8,1.0,1.5*34
$GPGSV,3,1,12,22,69,012,29,14,68,290,35,18,42,088,35,21,23,157,21*72
$GPGSV,3,2,12,31,21,189,33,09,21,042,26,19,17,281,20,06,11,234,23*77
$GPGSV,3,3,12,11,10,316,,03,08,245,,25,05,123,31,12,05,085,*7C
$GPRMC,172646.000,A,3352.7465,N,09833.0313,W,0.20,320.77,300312,,,D*7E
$GPGGA,172647.000,3352.7464,N,09833.0312,W,2,08,1.0,327.2,M,-23.7,M,0.8,0000*4B
$GPGSA,A,3,22,06,18,31,21,14,19,09,,,,,1.8,1.0,1.5*34
$GPRMC,172647.000,A,3352.7464,N,09833.0312,W,0.10,161.71,300312,,,D*7D
$GPGGA,172648.000,3352.7462,N,09833.0311,W,2,08,1.0,327.7,M,-23.7,M,1.8,0000*45
$GPGSA,A,3,22,06,18,31,21,14,19,09,,,,,1.8,1.0,1.5*34
$GPRMC,172648.000,A,3352.7462,N,09833.0311,W,0.50,136.29,300312,,,D*7C
$GPGGA,172649.000,3352.7461,N,09833.0310,W,2,08,1.0,328.2,M,-23.7,M,0.8,0000*4D
$GPGSA,A,3,22,06,18,31,21,14,19,09,,,,,1.8,1.0,1.5*34
$GPRMC,172649.000,A,3352.7461,N,09833.0310,W,0.37,132.14,300312,,,D*74
$GPGGA,172650.000,3352.7460,N,09833.0310,W,2,08,1.0,328.6,M,-23.7,M,1.8,0000*41
$GPGSA,A,3,22,06,18,31,21,14,19,09,,,,,1.8,1.0,1.5*34
$GPRMC,172650.000,A,3352.7460,N,09833.0310,W,0.12,268.24,300312,,,D*75
$GPGGA,172651.000,3352.7459,N,09833.0309,W,2,08,1.0,328.9,M,-23.7,M,0.8,0000*4C
$GPGSA,A,3,22,06,18,31,21,14,19,09,,,,,1.8,1.0,1.5*34
$GPGSV,3,1,12,22,69,012,30,14,68,290,35,18,42,088,35,21,23,157,22*79
$GPGSV,3,2,12,31,21,189,33,09,21,042,26,19,17,281,19,06,11,234,23*7D
$GPGSV,3,3,12,11,10,316,,03,08,245,,25,05,123,32,12,05,085,*7F
$GPRMC,172651.000,A,3352.7459,N,09833.0309,W,0.13,137.19,300312,,,D*70
$GPGGA,172652.000,3352.7458,N,09833.0308,W,2,08,1.0,329.2,M,-23.7,M,1.8,0000*44
$GPGSA,A,3,22,06,18,31,21,14,19,09,,,,,1.8,1.0,1.5*34
$GPRMC,172652.000,A,3352.7458,N,09833.0308,W,0.50,140.93,300312,,,D*76
$GPGGA,172653.000,3352.7457,N,09833.0307,W,2,08,1.0,329.5,M,-23.7,M,0.8,0000*43
$GPGSA,A,3,22,06,18,31,21,14,19,09,,,,,1.8,1.0,1.5*34
$GPRMC,172653.000,A,3352.7457,N,09833.0307,W,0.26,96.58,300312,,,D*4B
$GPGGA,172654.000,3352.7456,N,09833.0305,W,2,08,1.0,329.9,M,-23.7,M,1.8,0000*4A
$GPGSA,A,3,22,06,18,31,21,14,19,09,,,,,1.8,1.0,1.5*34
$GPRMC,172654.000,A,3352.7456,N,09833.0305,W,0.45,105.24,300312,,,D*7A
$GPGGA,172655.000,3352.7455,N,09833.0303,W,2,08,1.0,330.2,M,-23.7,M,2.8,0000*4E
$GPGSA,A,3,22,06,18,31,21,14,19,09,,,,,1.8,1.0,1.5*34
$GPRMC,172655.000,A,3352.7455,N,09833.0303,W,0.68,123.13,300312,,,D*71
$GPGGA,172656.000,3352.7454,N,09833.0302,W,2,08,1.0,330.4,M,-23.7,M,3.8,0000*4A
$GPGSA,A,3,22,06,18,31,21,14,19,09,,,,,1.8,1.0,1.5*34
$GPGSV,3,1,12,22,69,012,30,14,68,290,35,18,42,088,35,21,23,157,23*78
$GPGSV,3,2,12,31,21,189,34,09,21,042,26,19,17,281,18,06,11,234,24*7C
$GPGSV,3,3,12,11,10,316,,03,08,245,20,25,05,123,32,12,05,085,*7D
$GPRMC,172656.000,A,3352.7454,N,09833.0302,W,0.55,124.69,300312,,,D*76
$GPGGA,172657.000,3352.7453,N,09833.0300,W,2,08,1.0,330.8,M,-23.7,M,0.8,0000*41
$GPGSA,A,3,22,06,18,31,21,14,19,09,,,,,1.8,1.0,1.5*34
$GPRMC,172657.000,A,3352.7453,N,09833.0300,W,0.43,110.98,300312,,,D*7C
$GPGGA,172658.000,3352.7453,N,09833.0300,W,2,08,1.0,330.8,M,-23.7,M,0.8,0000*4E
$GPGSA,A,3,22,06,18,31,21,14,19,09,,,,,1.8,1.0,1.5*34
$GPRMC,172658.000,A,3352.7453,N,09833.0300,W,0.24,310.35,300312,,,D*77
$GPGGA,172659.000,3352.7453,N,09833.0301,W,2,08,1.0,330.9,M,-23.7,M,0.8,0000*4F
$GPGSA,A,3,22,06,18,31,21,14,19,09,,,,,1.8,1.0,1.5*34
$GPRMC,172659.000,A,3352.7453,N,09833.0301,W,0.08,295.62,300312,,,D*77
$GPGGA,172700.000,3352.7453,N,09833.0302,W,2,08,1.0,331.0,M,-23.7,M,1.8,0000*48
$GPGSA,A,3,22,06,18,31,21,14,19,09,,,,,1.8,1.0,1.5*34
$GPRMC,172700.000,A,3352.7453,N,09833.0302,W,0.09,261.71,300312,,,D*71
$GPGGA,172701.000,3352.7453,N,09833.0302,W,2,08,1.0,331.0,M,-23.7,M,2.8,0000*4A
$GPGSA,A,3,22,06,18,31,21,14,19,09,,,,,1.8,1.0,1.5*34
$GPGSV,3,1,12,22,69,012,31,14,68,290,35,18,42,088,35,21,23,157,23*79
$GPGSV,3,2,12,31,21,189,34,09,21,042,27,19,17,281,17,06,11,234,24*72
$GPGSV,3,3,12,11,10,316,,03,08,245,21,25,05,123,33,12,05,085,*7D
$GPRMC,172701.000,A,3352.7453,N,09833.0302,W,0.12,268.15,300312,,,D*71
$GPGGA,172702.000,3352.7453,N,09833.0303,W,2,08,1.0,331.0,M,-23.7,M,3.8,0000*49
$GPGSA,A,3,22,06,18,31,21,14,19,09,,,,,1.8,1.0,1.5*34
$GPRMC,172702.000,A,3352.7453,N,09833.0303,W,0.10,274.41,300312,,,D*7D
$GPGGA,172703.000,3352.7452,N,09833.0303,W,2,08,1.0,331.1,M,-23.7,M,0.8,0000*4B
$GPGSA,A,3,22,06,18,31,21,14,19,09,,,,,1.8,1.0,1.5*34
$GPRMC,172703.000,A,3352.7452,N,09833.0303,W,0.25,109.69,300312,,,D*78
$GPGGA,172704.000,3352.7451,N,09833.0301,W,2,08,1.0,331.2,M,-23.7,M,0.8,0000*4E
$GPGSA,A,3,22,06,18,31,21,14,19,09,,,,,1.8,1.0,1.5*34
$GPRMC,172704.000,A,3352.7451,N,09833.0301,W,0.52,125.57,300312,,,D*7D
$GPGGA,172705.000,3352.7451,N,09833.0301,W,2,08,1.0,331.1,M,-23.7,M,0.8,0000*4C
$GPGSA,A,3,22,06,18,31,21,14,19,09,,,,,1.8,1.0,1.5*34
$GPRMC,172705.000,A,3352.7451,N,09833.0301,W,0.08,19.16,300312,,,D*48
$GPGGA,172706.000,3352.7452,N,09833.0301,W,2,08,1.0,331.0,M,-23.7,M,0.8,0000*4D
$GPGSA,A,3,22,06,18,31,21,14,19,09,,,,,1.8,1.0,1.5*34
$GPGSV,3,1,12,22,69,012,31,14,68,290,35,18,42,088,35,21,23,157,23*79
$GPGSV,3,2,12,31,21,189,34,09,21,042,27,19,17,281,16,06,11,234,25*72
$GPGSV,3,3,12,11,10,316,,03,08,245,22,25,05,123,33,12,05,085,*7E
$GPRMC,172706.000,A,3352.7452,N,09833.0301,W,0.31,324.82,300312,,,D*72
$GPGGA,172707.000,3352.7452,N,09833.0302,W,2,08,1.0,330.8,M,-23.7,M,1.8,0000*47
$GPGSA,A,3,22,06,18,31,21,14,19,09,,,,,1.8,1.0,1.5*34
$GPRMC,172707.000,A,3352.7452,N,09833.0302,W,0.28,318.35,300312,,,D*7B
$GPGGA,172708.000,3352.7452,N,09833.0303,W,2,08,1.0,330.6,M,-23.7,M,0.8,0000*46
$GPGSA,A,3,22,06,18,31,21,14,19,09,,,,,1.8,1.0,1.5*34
$GPRMC,172708.000,A,3352.7452,N,09833.0303,W,0.15,314.81,300312,,,D*78
$GPGGA,172709.000,3352.7453,N,09833.0304,W,2,08,1.0,330.5,M,-23.7,M,0.8,0000*42
$GPGSA,A,3,22,06,18,31,21,14,19,09,,,,,1.8,1.0,1.5*34
$GPRMC,172709.000,A,3352.7453,N,09833.0304,W,0.58,324.04,300312,,,D*78
$GPGGA,172710.000,3352.7454,N,09833.0305,W,2,08,1.0,330.3,M,-23.7,M,0.8,0000*4A
$GPGSA,A,3,22,06,18,31,21,14,19,09,,,,,1.8,1.0,1.5*34
$GPRMC,172710.000,A,3352.7454,N,09833.0305,W,0.31,310.76,300312,,,D*7B
$GPGGA,172711.000,3352.7454,N,09833.0306,W,2,08,1.0,330.2,M,-23.7,M,0.8,0000*49
$GPGSA,A,3,22,06,18,31,21,14,19,09,,,,,1.8,1.0,1.5*34
$GPGSV,3,1,12,22,69,012,31,14,68,290,35,18,42,088,35,21,23,157,23*79
$GPGSV,3,2,12,31,21,189,35,09,21,042,27,19,17,281,16,06,11,234,26*70
$GPGSV,3,3,12,11,10,316,,03,08,245,23,25,05,123,32,12,05,085,*7E
$GPRMC,172711.000,A,3352.7454,N,09833.0306,W,0.57,316.61,300312,,,D*79
$GPGGA,172712.000,3352.7455,N,09833.0307,W,2,08,1.0,330.0,M,-23.7,M,1.8,0000*49
$GPGSA,A,3,22,06,18,31,21,14,19,09,,,,,1.8,1.0,1.5*34
$GPRMC,172712.000,A,3352.7455,N,09833.0307,W,0.26,317.42,300312,,,D*7C
$GPGGA,172713.000,3352.7455,N,09833.0308,W,2,08,1.0,329.9,M,-23.7,M,2.8,0000*45
$GPGSA,A,3,22,06,18,31,21,14,19,09,,,,,1.8,1.0,1.5*34
$GPRMC,172713.000,A,3352.7455,N,09833.0308,W,0.37,312.54,300312,,,D*70
$GPGGA,172714.000,3352.7455,N,09833.0309,W,2,08,1.0,329.8,M,-23.7,M,3.8,0000*43
$GPGSA,A,3,22,06,18,31,21,14,19,09,,,,,1.8,1.0,1.5*34
$GPRMC,172714.000,A,3352.7455,N,09833.0309,W,0.12,329.56,300312,,,D*7B
$GPGGA,172715.000,3352.7455,N,09833.0308,W,2,08,1.0,329.7,M,-23.7,M,0.8,0000*4F
$GPGSA,A,3,22,06,18,31,21,14,19,09,,,,,1.8,1.0,1.5*34
$GPRMC,172715.000,A,3352.7455,N,09833.0308,W,0.21,2.17,300312,,,D*74
$GPGGA,172716.000,3352.7454,N,09833.0308,W,2,08,1.0,329.7,M,-23.7,M,0.8,0000*4D
$GPGSA,A,3,22,06,18,31,21,14,19,09,,,,,1.8,1.0,1.5*34
$GPGSV,3,1,12,22,69,013,31,14,68,292,35,18,41,088,34,21,22,157,23*79
$GPGSV,3,2,12,31,22,189,35,09,21,042,27,19,17,280,17,11,10,315,*72
$GPGSV,3,3,12,06,10,234,27,03,08,244,23,25,05,122,33,12,05,085,*7D
$GPRMC,172716.000,A,3352.7454,N,09833.0308,W,0.22,80.51,300312,,,D*4D
$GPGGA,172717.000,3352.7454,N,09833.0307,W,2,08,1.0,329.5,M,-23.7,M,0.8,0000*41
$GPGSA,A,3,22,06,18,31,21,14,19,09,,,,,1.8,1.0,1.5*34
$GPRMC,172717.000,A,3352.7454,N,09833.0307,W,0.24,104.92,300312,,,D*77
$GPGGA,172718.000,3352.7453,N,09833.0306,W,2,08,1.0,329.4,M,-23.7,M,1.8,0000*48
$GPGSA,A,3,22,06,18,31,21,14,19,09,,,,,1.8,1.0,1.5*34
$GPRMC,172718.000,A,3352.7453,N,09833.0306,W,0.15,95.21,300312,,,D*4D
$GPGGA,172719.000,3352.7453,N,09833.0306,W,2,08,1.0,329.2,M,-23.7,M,2.8,0000*4C
$GPGSA,A,3,22,06,18,31,21,14,19,09,,,,,1.7,1.0,1.5*3B
$GPRMC,172719.000,A,3352.7453,N,09833.0306,W,0.27,347.24,300312,,,D*74
$GPGGA,172720.000,3352.7454,N,09833.0307,W,2,08,1.0,329.0,M,-23.7,M,3.8,0000*43
$GPGSA,A,3,22,06,18,31,21,14,19,09,,,,,1.7,1.0,1.5*3B
$GPRMC,172720.000,A,3352.7454,N,09833.0307,W,0.54,327.02,300312,,,D*7E
$GPGGA,172721.000,3352.7455,N,09833.0309,W,2,08,1.0,328.3,M,-23.7,M,0.8,0000*4C
$GPGSA,A,3,22,06,18,31,21,14,19,09,,,,,1.7,1.0,1.5*3B
$GPGSV,3,1,12,22,69,013,31,14,68,292,34,18,41,088,34,21,22,157,23*78
$GPGSV,3,2,12,31,22,189,35,09,21,042,27,19,17,280,17,11,10,315,*72
$GPGSV,3,3,12,06,10,234,27,03,08,244,23,25,05,122,33,12,05,085,*7D
$GPRMC,172721.000,A,3352.7455,N,09833.0309,W,0.13,67.47,300312,,,D*45
$GPGGA,172722.000,3352.7454,N,09833.0311,W,2,08,1.0,327.7,M,-23.7,M,0.8,0000*4C
$GPGSA,A,3,22,06,18,31,21,14,19,09,,,,,1.7,1.0,1.5*3B
$GPRMC,172722.000,A,3352.7454,N,09833.0311,W,0.16,59.12,300312,,,D*46
$GPGGA,172723.000,3352.7454,N,09833.0312,W,2,08,1.0,327.2,M,-23.7,M,0.8,0000*4B
$GPGSA,A,3,22,06,18,31,21,14,19,09,,,,,1.7,1.0,1.5*3B
$GPRMC,172723.000,A,3352.7454,N,09833.0312,W,0.12,28.41,300312,,,D*40
$GPGGA,172724.000,3352.7454,N,09833.0314,W,2,08,1.0,326.7,M,-23.7,M,1.8,0000*4F
$GPGSA,A,3,22,06,18,31,21,14,19,09,,,,,1.7,1.0,1.5*3B
$GPRMC,172724.000,A,3352.7454,N,09833.0314,W,0.14,357.74,300312,,,D*7A
$GPGGA,172725.000,3352.7454,N,09833.0314,W,2,08,1.0,326.7,M,-23.7,M,0.8,0000*4F
