$GPGGA,102204.000,3353.7495,N,09832.0270,W,1,06,1.8,323.9,M,-23.7,M,,0000*68
$GPGSA,A,3,05,10,04,25,12,02,,,,,,,3.2,1.8,2.6*38
$GPRMC,102204.000,A,3353.7495,N,09832.0270,W,0.28,135.20,020412,,,A*7F
$GPGGA,102205.000,3353.7494,N,09832.0271,W,1,06,1.8,323.6,M,-23.7,M,,0000*66
$GPGSA,A,3,05,10,04,25,12,02,,,,,,,3.2,1.8,2.6*38
$GPRMC,102205.000,A,3353.7494,N,09832.0271,W,0.15,209.21,020412,,,A*7D
$GPGGA,102206.000,3353.7494,N,09832.0272,W,1,06,1.8,323.3,M,-23.7,M,,0000*63
$GPGSA,A,3,05,10,04,25,12,02,,,,,,,3.2,1.8,2.6*38
$GPGSV,3,1,09,05,75,135,35,12,52,213,30,02,50,041,40,25,47,284,29*74
$GPGSV,3,2,09,10,30,046,38,29,27,312,24,04,18,062,16,26,07,148,31*70
$GPGSV,3,3,09,13,02,041,*45
$GPRMC,102206.000,A,3353.7494,N,09832.0272,W,0.15,241.51,020412,,,A*76
$GPGGA,102207.000,3353.7493,N,09832.0273,W,1,06,1.8,323.0,M,-23.7,M,,0000*67
$GPGSA,A,3,05,10,04,25,12,02,,,,,,,3.2,1.8,2.6*38
$GPRMC,102207.000,A,3353.7493,N,09832.0273,W,0.14,248.50,020412,,,A*78
$GPGGA,102208.000,3353.7493,N,09832.0274,W,1,06,1.8,322.6,M,-23.7,M,,0000*68
$GPGSA,A,3,05,10,04,25,12,02,,,,,,,3.2,1.8,2.6*38
$GPRMC,102208.000,A,3353.7493,N,09832.0274,W,0.18,267.86,020412,,,A*7A
$GPGGA,102209.000,3353.7493,N,09832.0275,W,1,06,1.8,322.3,M,-23.7,M,,0000*6D
$GPGSA,A,3,05,10,04,25,12,02,,,,,,,3.2,1.8,2.6*38
$GPRMC,102209.000,A,3353.7493,N,09832.0275,W,0.20,268.02,020412,,,A*72
$GPGGA,102210.000,3353.7492,N,09832.0276,W,1,06,1.8,322.0,M,-23.7,M,,0000*64
$GPGSA,A,3,05,10,04,25,12,02,,,,,,,3.2,1.8,2.6*38
$GPRMC,102210.000,A,3353.7492,N,09832.0276,W,0.16,167.34,020412,,,A*74
$GPGGA,102211.000,3353.7491,N,09832.0277,W,1,06,1.8,321.5,M,-23.7,M,,0000*61
$GPGSA,A,3,05,10,04,25,12,02,,,,,,,3.1,1.8,2.6*3B
$GPGSV,3,1,10,05,75,135,35,12,52,213,30,02,50,041,41,25,47,284,29*7D
$GPGSV,3,2,10,10,30,046,38,29,27,312,23,04,18,062,16,26,07,148,31*7F
$GPGSV,3,3,10,13,02,041,,48,36,230,25*72
$GPRMC,102211.000,A,3353.7491,N,09832.0277,W,0.26,155.85,020412,,,A*7F
$GPGGA,102212.000,3353.7490,N,09832.0278,W,1,06,1.8,321.0,M,-23.7,M,,0000*69
$GPGSA,A,3,05,10,04,25,12,02,,,,,,,3.1,1.8,2.6*3B
$GPRMC,102212.000,A,3353.7490,N,09832.0278,W,0.13,223.09,020412,,,A*72
$GPGGA,102213.000,3353.7489,N,09832.0279,W,1,06,1.8,320.6,M,-23.7,M,,0000*66
$GPGSA,A,3,05,10,04,25,12,02,,,,,,,3.1,1.8,2.6*3B
$GPRMC,102213.000,A,3353.7489,N,09832.0279,W,0.11,230.37,020412,,,A*77
$GPGGA,102214.000,3353.7489,N,09832.0280,W,1,06,1.8,320.2,M,-23.7,M,,0000*63
$GPGSA,A,3,05,10,04,25,12,02,,,,,,,3.1,1.8,2.6*3B
$GPRMC,102214.000,A,3353.7489,N,09832.0280,W,0.17,171.08,020412,,,A*7A
$GPGGA,102215.000,3353.7488,N,09832.0281,W,1,06,1.8,319.7,M,-23.7,M,,0000*6D
$GPGSA,A,3,05,10,04,25,12,02,,,,,,,3.1,1.8,2.6*3B
$GPRMC,102215.000,A,3353.7488,N,09832.0281,W,0.23,168.52,020412,,,A*7B
$GPGGA,102216.000,3353.7487,N,09832.0282,W,1,06,1.8,319.2,M,-23.7,M,,0000*67
$GPGSA,A,3,05,10,04,25,12,02,,,,,,,3.1,1.8,2.6*3B
$GPGSV,3,1,10,05,75,135,36,12,52,213,30,02,50,041,41,25,47,284,29*7E
$GPGSV,3,2,10,10,30,046,38,29,27,312,23,04,18,062,25,26,07,148,31*7F
$GPGSV,3,3,10,13,02,041,,48,36,230,26*71
$GPRMC,102216.000,A,3353.7487,N,09832.0282,W,0.14,218.96,020412,,,A*7C
$GPGGA,102217.000,3353.7486,N,09832.0283,W,1,06,1.8,318.8,M,-23.7,M,,0000*6D
$GPGSA,A,3,05,10,04,25,12,02,,,,,,,3.1,1.8,2.6*3B
$GPRMC,102217.000,A,3353.7486,N,09832.0283,W,0.13,238.79,020412,,,A*79
$GPGGA,102218.000,3353.7485,N,09832.0284,W,1,05,2.1,318.4,M,-23.7,M,,0000*63
$GPGSA,A,3,05,10,25,12,02,,,,,,,,4.5,2.1,4.0*36
$GPRMC,102218.000,A,3353.7485,N,09832.0284,W,0.12,192.40,020412,,,A*7A
$GPGGA,102219.000,3353.7485,N,09832.0285,W,1,06,1.8,317.9,M,-23.7,M,,0000*68
$GPGSA,A,3,05,10,04,25,12,02,,,,,,,3.1,1.8,2.6*3B
$GPRMC,102219.000,A,3353.7485,N,09832.0285,W,0.18,161.03,020412,,,A*7B
$GPGGA,102220.000,3353.7484,N,09832.0286,W,1,06,1.8,317.4,M,-23.7,M,,0000*6D
$GPGSA,A,3,05,10,04,25,12,02,,,,,,,3.1,1.8,2.6*3B
$GPRMC,102220.000,A,3353.7484,N,09832.0286,W,0.25,157.25,020412,,,A*7C
$GPGGA,102221.000,3353.7482,N,09832.0286,W,1,06,1.8,317.0,M,-23.7,M,,0000*6E
$GPGSA,A,3,05,10,04,25,12,02,,,,,,,3.1,1.8,2.6*3B
$GPGSV,3,1,10,05,75,135,36,12,52,213,31,02,50,041,41,25,47,284,30*77
$GPGSV,3,2,10,10,30,046,37,29,27,312,23,04,18,062,19,26,07,148,31*7F
$GPGSV,3,3,10,13,02,041,,48,36,230,27*70
$GPRMC,102221.000,A,3353.7482,N,09832.0286,W,0.32,149.65,020412,,,A*76
$GPGGA,102222.000,3353.7481,N,09832.0287,W,1,06,1.8,316.5,M,-23.7,M,,0000*6B
$GPGSA,A,3,05,10,04,25,12,02,,,,,,,3.1,1.8,2.6*3B
$GPRMC,102222.000,A,3353.7481,N,09832.0287,W,0.15,202.80,020412,,,A*75
$GPGGA,102223.000,3353.7481,N,09832.0288,W,1,06,1.8,316.1,M,-23.7,M,,0000*61
$GPGSA,A,3,05,10,04,25,12,02,,,,,,,3.1,1.8,2.6*3B
$GPRMC,102223.000,A,3353.7481,N,09832.0288,W,0.14,255.29,020412,,,A*7B
$GPGGA,102224.000,3353.7480,N,09832.0288,W,1,06,1.8,315.8,M,-23.7,M,,0000*6D
$GPGSA,A,3,05,10,04,25,12,02,,,,,,,3.1,1.8,2.6*3B
$GPRMC,102224.000,A,3353.7480,N,09832.0288,W,0.16,169.35,020412,,,A*7E
$GPGGA,102225.000,3353.7479,N,09832.0288,W,1,06,1.8,315.3,M,-23.7,M,,0000*61
$GPGSA,A,3,05,10,04,25,12,02,,,,,,,3.1,1.8,2.6*3B
$GPRMC,102225.000,A,3353.7479,N,09832.0288,W,0.29,148.12,020412,,,A*73
$GPGGA,102226.000,3353.7478,N,09832.0289,W,1,06,1.8,315.0,M,-23.7,M,,0000*61
$GPGSA,A,3,05,10,04,25,12,02,,,,,,,3.1,1.8,2.6*3B
$GPGSV,3,1,09,05,75,135,36,12,52,213,31,02,50,041,41,25,47,284,30*7F
$GPGSV,3,2,09,10,30,046,37,29,27,312,22,04,18,062,19,26,07,148,32*75
$GPGSV,3,3,09,13,02,041,*45
$GPRMC,102226.000,A,3353.7478,N,09832.0289,W,0.15,187.92,020412,,,A*74
$GPGGA,102227.000,3353.7477,N,09832.0289,W,1,06,1.8,314.6,M,-23.7,M,,0000*68
$GPGSA,A,3,05,10,04,25,12,02,,,,,,,3.1,1.8,2.6*3B
$GPRMC,102227.000,A,3353.7477,N,09832.0289,W,0.21,155.10,020412,,,A*78
$GPGGA,102228.000,3353.7476,N,09832.0289,W,1,06,1.8,314.2,M,-23.7,M,,0000*62
$GPGSA,A,3,05,10,04,25,12,02,,,,,,,3.1,1.8,2.6*3B
$GPRMC,102228.000,A,3353.7476,N,09832.0289,W,0.16,194.03,020412,,,A*7D
$GPGGA,102229.000,3353.7476,N,09832.0290,W,1,06,1.8,313.9,M,-23.7,M,,0000*67
$GPGSA,A,3,05,10,04,25,12,02,,,,,,,3.1,1.8,2.6*3B
$GPRMC,102229.000,A,3353.7476,N,09832.0290,W,0.10,243.59,020412,,,A*74
$GPGGA,102230.000,3353.7475,N,09832.0290,W,1,06,1.8,313.7,M,-23.7,M,,0000*62
$GPGSA,A,3,05,10,04,25,12,02,,,,,,,3.1,1.8,2.6*3B
$GPRMC,102230.000,A,3353.7475,N,09832.0290,W,0.13,245.48,020412,,,A*7A
$GPGGA,102231.000,3353.7475,N,09832.0291,W,1,06,1.8,313.4,M,-23.7,M,,0000*61
$GPGSA,A,3,05,10,04,25,12,02,,,,,,,3.1,1.8,2.6*3B
$GPGSV,3,1,09,05,75,135,36,12,52,213,31,02,50,041,40,25,47,284,31*7F
$GPGSV,3,2,09,10,30,046,38,29,27,312,23,04,18,062,19,26,07,148,32*7B
$GPGSV,3,3,09,13,02,041,*45
$GPRMC,102231.000,A,3353.7475,N,09832.0291,W,0.13,172.26,020412,,,A*75
$GPGGA,102232.000,3353.7474,N,09832.0290,W,1,06,1.8,313.1,M,-23.7,M,,0000*67
$GPGSA,A,3,05,10,04,25,12,02,,,,,,,3.1,1.8,2.6*3B
$GPRMC,102232.000,A,3353.7474,N,09832.0290,W,0.23,150.31,020412,,,A*73
$GPGGA,102233.000,3353.7473,N,09832.0290,W,1,06,1.8,312.8,M,-23.7,M,,0000*69
$GPGSA,A,3,05,10,04,25,12,02,,,,,,,3.1,1.8,2.6*3B
$GPRMC,102233.000,A,3353.7473,N,09832.0290,W,0.15,181.99,020412,,,A*7E
$GPGGA,102234.000,3353.7472,N,09832.0291,W,1,06,1.8,312.6,M,-23.7,M,,0000*60
$GPGSA,A,3,05,10,04,25,12,02,,,,,,,3.1,1.8,2.6*3B
$GPRMC,102234.000,A,3353.7472,N,09832.0291,W,0.12,250.82,020412,,,A*7B
$GPGGA,102235.000,3353.7472,N,09832.0291,W,1,06,1.8,312.4,M,-23.7,M,,0000*63
$GPGSA,A,3,05,10,04,25,12,02,,,,,,,3.1,1.8,2.6*3B
$GPRMC,102235.000,A,3353.7472,N,09832.0291,W,0.12,186.29,020412,,,A*73
$GPGGA,102236.000,3353.7471,N,09832.0291,W,1,06,1.8,312.1,M,-23.7,M,,0000*66
$GPGSA,A,3,05,10,04,25,12,02,,,,,,,3.1,1.8,2.6*3B
$GPGSV,3,1,09,05,76,130,35,12,51,212,32,02,49,042,40,25,47,282,31*76
$GPGSV,3,2,09,10,29,046,38,29,28,312,23,04,17,063,21,26,07,147,31*75
$GPGSV,3,3,09,13,02,040,*44
$GPRMC,102236.000,A,3353.7471,N,09832.0291,W,0.15,158.03,020412,,,A*7F
$GPGGA,102237.000,3353.7471,N,09832.0291,W,1,06,1.8,311.9,M,-23.7,M,,0000*6C
$GPGSA,A,3,05,10,04,25,12,02,,,,,,,3.1,1.8,2.6*3B
$GPRMC,102237.000,A,3353.7471,N,09832.0291,W,0.09,210.89,020412,,,A*7E
$GPGGA,102238.000,3353.7470,N,09832.0291,W,1,06,1.8,311.7,M,-23.7,M,,0000*6C
$GPGSA,A,3,05,10,04,25,12,02,,,,,,,3.1,1.8,2.6*3B
$GPRMC,102238.000,A,3353.7470,N,09832.0291,W,0.12,166.90,020412,,,A*70
$GPGGA,102239.000,3353.7469,N,09832.0291,W,1,06,1.8,311.5,M,-23.7,M,,0000*67
$GPGSA,A,3,05,10,04,25,12,02,,,,,,,3.1,1.8,2.6*3B
$GPRMC,102239.000,A,3353.7469,N,09832.0291,W,0.11,234.24,020412,,,A*71
$GPGGA,102240.000,3353.7469,N,09832.0291,W,1,06,1.8,311.3,M,-23.7,M,,0000*6F
$GPGSA,A,3,05,10,04,25,12,02,,,,,,,3.1,1.8,2.6*3B
$GPRMC,102240.000,A,3353.7469,N,09832.0291,W,0.06,204.86,020412,,,A*72
$GPGGA,102241.000,3353.7468,N,09832.0291,W,1,06,1.8,311.2,M,-23.7,M,,0000*6E
$GPGSA,A,3,05,10,04,25,12,02,,,,,,,3.1,1.8,2.6*3B
$GPGSV,3,1,09,05,76,130,35,12,51,212,32,02,49,042,40,25,47,282,32*75
$GPGSV,3,2,09,10,29,046,38,29,28,312,23,04,17,063,26,26,07,147,32*71
$GPGSV,3,3,09,13,02,040,*44
$GPRMC,102241.000,A,3353.7468,N,09832.0291,W,0.08,184.07,020412,,,A*7E
$GPGGA,102242.000,3353.7468,N,09832.0291,W,1,06,1.8,311.0,M,-23.7,M,,0000*6F
$GPGSA,A,3,05,10,04,25,12,02,,,,,,,3.1,1.8,2.6*3B
$GPRMC,102242.000,A,3353.7468,N,09832.0291,W,0.10,183.92,020412,,,A*7F
$GPGGA,102243.000,3353.7467,N,09832.0291,W,1,06,1.8,310.8,M,-23.7,M,,0000*68
$GPGSA,A,3,05,10,04,25,12,02,,,,,,,3.1,1.8,2.6*3B
$GPRMC,102243.000,A,3353.7467,N,09832.0291,W,0.09,205.54,020412,,,A*7E
$GPGGA,102244.000,3353.7467,N,09832.0291,W,1,06,1.8,310.7,M,-23.7,M,,0000*60
$GPGSA,A,3,05,10,04,25,12,02,,,,,,,3.1,1.8,2.5*38
$GPRMC,102244.000,A,3353.7467,N,09832.0291,W,0.09,179.99,020412,,,A*70
$GPGGA,102245.000,3353.7466,N,09832.0291,W,1,06,1.8,310.5,M,-23.7,M,,0000*62
$GPGSA,A,3,05,10,04,25,12,02,,,,,,,3.1,1.8,2.5*38
$GPRMC,102245.000,A,3353.7466,N,09832.0291,W,0.06,210.00,020412,,,A*73
$GPGGA,102246.000,3353.7466,N,09832.0290,W,1,06,1.8,310.4,M,-23.7,M,,0000*61
$GPGSA,A,3,05,10,04,25,12,02,,,,,,,3.1,1.8,2.5*38
$GPGSV,3,1,09,05,76,130,35,12,51,212,32,02,49,042,40,25,47,282,32*75
$GPGSV,3,2,09,10,29,046,38,29,28,312,24,04,17,063,26,26,07,147,32*76
$GPGSV,3,3,09,13,02,040,*44
$GPRMC,102246.000,A,3353.7466,N,09832.0290,W,0.08,190.70,020412,,,A*73
$GPGGA,102247.000,3353.7465,N,09832.0290,W,1,06,1.8,310.2,M,-23.7,M,,0000*65
$GPGSA,A,3,05,10,04,25,12,02,,,,,,,3.1,1.8,2.5*38
$GPRMC,102247.000,A,3353.7465,N,09832.0290,W,0.11,177.93,020412,,,A*7D
$GPGGA,102248.000,3353.7465,N,09832.0290,W,1,06,1.8,310.1,M,-23.7,M,,0000*69
$GPGSA,A,3,05,10,04,25,12,02,,,,,,,3.1,1.8,2.5*38
$GPRMC,102248.000,A,3353.7465,N,09832.0290,W,0.08,203.92,020412,,,A*7B
$GPGGA,102249.000,3353.7464,N,09832.0290,W,1,06,1.8,309.9,M,-23.7,M,,0000*69
$GPGSA,A,3,05,10,04,25,12,02,,,,,,,3.1,1.8,2.5*38
$GPRMC,102249.000,A,3353.7464,N,09832.0290,W,0.05,202.34,020412,,,A*7B
$GPGGA,102250.000,3353.7463,N,09832.0289,W,1,06,1.8,309.8,M,-23.7,M,,0000*6F
$GPGSA,A,3,05,10,04,25,12,02,,,,,,,3.1,1.8,2.5*38
$GPRMC,102250.000,A,3353.7463,N,09832.0289,W,0.14,151.55,020412,,,A*7E
$GPGGA,102251.000,3353.7463,N,09832.0289,W,1,06,1.8,309.6,M,-23.7,M,,0000*60
$GPGSA,A,3,05,10,04,25,12,02,,,,,,,3.1,1.8,2.5*38
$GPGSV,3,1,09,05,76,130,35,12,51,212,32,02,49,042,40,25,47,282,32*75
$GPGSV,3,2,09,10,29,046,38,29,28,312,24,04,17,063,25,26,07,147,32*75
$GPGSV,3,3,09,13,02,040,*44
$GPRMC,102251.000,A,3353.7463,N,09832.0289,W,0.13,168.95,020412,,,A*7E
$GPGGA,102252.000,3353.7462,N,09832.0289,W,1,06,1.8,309.5,M,-23.7,M,,0000*61
$GPGSA,A,3,05,10,04,25,12,02,,,,,,,3.1,1.8,2.5*38
$GPRMC,102252.000,A,3353.7462,N,09832.0289,W,0.07,184.86,020412,,,A*79
$GPGGA,102253.000,3353.7462,N,09832.0288,W,1,06,1.8,309.3,M,-23.7,M,,0000*67
$GPGSA,A,3,05,10,04,25,12,02,,,,,,,3.1,1.8,2.5*38
$GPRMC,102253.000,A,3353.7462,N,09832.0288,W,0.07,210.51,020412,,,A*7D
$GPGGA,102254.000,3353.7461,N,09832.0288,W,1,06,1.8,309.2,M,-23.7,M,,0000*62
$GPGSA,A,3,05,10,04,25,12,02,,,,,,,3.1,1.8,2.5*38
$GPRMC,102254.000,A,3353.7461,N,09832.0288,W,0.09,258.68,020412,,,A*71
$GPGGA,102255.000,3353.7461,N,09832.0288,W,1,06,1.8,309.1,M,-23.7,M,,0000*60
$GPGSA,A,3,05,10,04,25,12,02,,,,,,,3.1,1.8,2.5*38
$GPRMC,102255.000,A,3353.7461,N,09832.0288,W,0.07,176.50,020412,,,A*7A
$GPGGA,102256.000,3353.7460,N,09832.0288,W,1,06,1.8,308.9,M,-23.7,M,,0000*6B
$GPGSA,A,3,05,10,04,25,12,02,,,,,,,3.1,1.8,2.5*38
$GPGSV,3,1,09,05,76,130,35,12,51,212,33,02,49,042,40,25,47,282,32*74
$GPGSV,3,2,09,10,29,046,38,29,28,312,23,04,17,063,24,26,07,147,33*72
$GPGSV,3,3,09,13,02,040,*44
$GPRMC,102256.000,A,3353.7460,N,09832.0288,W,0.18,146.55,020412,,,A*70
$GPGGA,102257.000,3353.7460,N,09832.0287,W,1,06,1.8,308.8,M,-23.7,M,,0000*64
$GPGSA,A,3,05,10,04,25,12,02,,,,,,,3.1,1.8,2.5*38
$GPRMC,102257.000,A,3353.7460,N,09832.0287,W,0.17,157.21,020412,,,A*72
$GPGGA,102258.000,3353.7459,N,09832.0287,W,1,06,1.8,308.6,M,-23.7,M,,0000*6F
$GPGSA,A,3,05,10,04,25,12,02,,,,,,,3.1,1.8,2.5*38
$GPRMC,102258.000,A,3353.7459,N,09832.0287,W,0.09,173.52,020412,,,A*7A
$GPGGA,102259.000,3353.7459,N,09832.0287,W,1,06,1.8,308.5,M,-23.7,M,,0000*6D
$GPGSA,A,3,05,10,04,25,12,02,,,,,,,3.1,1.8,2.5*38
$GPRMC,102259.000,A,3353.7459,N,09832.0287,W,0.14,278.20,020412,,,A*7A
$GPGGA,102300.000,3353.7459,N,09832.0287,W,1,06,1.8,308.4,M,-23.7,M,,0000*61
$GPGSA,A,3,05,10,04,25,12,02,,,,,,,3.1,1.8,2.5*38
$GPRMC,102300.000,A,3353.7459,N,09832.0287,W,0.07,166.76,020412,,,A*7A
$GPGGA,102301.000,3353.7458,N,09832.0286,W,1,06,1.8,308.2,M,-23.7,M,,0000*66
$GPGSA,A,3,05,10,04,25,12,02,,,,,,,3.1,1.8,2.5*38
$GPGSV,3,1,09,05,76,130,35,12,51,212,33,02,49,042,40,25,47,282,32*74
$GPGSV,3,2,09,10,29,046,38,29,28,312,23,04,17,063,24,26,07,147,33*72
$GPGSV,3,3,09,13,02,040,*44
$GPRMC,102301.000,A,3353.7458,N,09832.0286,W,0.19,147.58,020412,,,A*7B
$GPGGA,102302.000,3353.7457,N,09832.0286,W,1,06,1.8,308.1,M,-23.7,M,,0000*69
$GPGSA,A,3,05,10,04,25,12,02,,,,,,,3.1,1.8,2.5*38
$GPRMC,102302.000,A,3353.7457,N,09832.0286,W,0.21,150.20,020412,,,A*75
$GPGGA,102303.000,3353.7457,N,09832.0286,W,1,06,1.8,307.9,M,-23.7,M,,0000*6F
$GPGSA,A,3,05,10,04,25,12,02,,,,,,,3.1,1.8,2.5*38
$GPRMC,102303.000,A,3353.7457,N,09832.0286,W,0.09,236.73,020412,,,A*7B
$GPGGA,102304.000,3353.7457,N,09832.0286,W,1,06,1.8,307.8,M,-23.7,M,,0000*69
$GPGSA,A,3,05,10,04,25,12,02,,,,,,,3.1,1.8,2.5*38
$GPRMC,102304.000,A,3353.7457,N,09832.0286,W,0.07,230.28,020412,,,A*7A
$GPGGA,102305.000,3353.7457,N,09832.0286,W,1,06,1.8,307.6,M,-23.7,M,,0000*66
$GPGSA,A,3,05,10,04,25,12,02,,,,,,,3.1,1.8,2.5*38
$GPRMC,102305.000,A,3353.7457,N,09832.0286,W,0.18,143.45,020412,,,A*79
$GPGGA,102306.000,3353.7456,N,09832.0285,W,1,06,1.8,307.4,M,-23.7,M,,0000*65
$GPGSA,A,3,05,10,04,25,12,02,,,,,,,3.1,1.8,2.5*38
$GPGSV,3,1,09,05,76,130,34,12,51,212,33,02,49,042,40,25,47,282,32*75
$GPGSV,3,2,09,10,29,046,38,29,28,312,22,04,17,063,23,26,07,147,33*74
$GPGSV,3,3,09,13,02,040,*44
$GPRMC,102306.000,A,3353.7456,N,09832.0285,W,0.24,148.29,020412,,,A*76
$GPGGA,102307.000,3353.7455,N,09832.0285,W,1,06,1.8,307.2,M,-23.7,M,,0000*61
$GPGSA,A,3,05,10,04,25,12,02,,,,,,,3.1,1.8,2.5*38
$GPRMC,102307.000,A,3353.7455,N,09832.0285,W,0.27,141.12,020412,,,A*76
$GPGGA,102308.000,3353.7455,N,09832.0285,W,1,06,1.8,307.0,M,-23.7,M,,0000*6C
$GPGSA,A,3,05,10,04,25,12,02,,,,,,,3.1,1.8,2.5*38
$GPRMC,102308.000,A,3353.7455,N,09832.0285,W,0.11,206.94,020412,,,A*72
$GPGGA,102309.000,3353.7455,N,09832.0285,W,1,06,1.8,306.9,M,-23.7,M,,0000*65
$GPGSA,A,3,05,10,04,25,12,02,,,,,,,3.1,1.8,2.5*38
$GPRMC,102309.000,A,3353.7455,N,09832.0285,W,0.12,171.51,020412,,,A*7A
$GPGGA,102310.000,3353.7454,N,09832.0285,W,1,06,1.8,306.7,M,-23.7,M,,0000*62
$GPGSA,A,3,05,10,04,25,12,02,,,,,,,3.1,1.8,2.5*38
$GPRMC,102310.000,A,3353.7454,N,09832.0285,W,0.23,145.20,020412,,,A*70
$GPGGA,102311.000,3353.7454,N,09832.0285,W,1,06,1.8,306.5,M,-23.7,M,,0000*61
$GPGSA,A,3,05,10,04,25,12,02,,,,,,,3.1,1.8,2.5*38
$GPGSV,3,1,09,05,76,130,34,12,51,212,33,02,49,042,39,25,47,282,32*7B
$GPGSV,3,2,09,10,29,046,38,29,28,312,22,04,17,063,22,26,07,147,33*75
$GPGSV,3,3,09,13,02,040,*44
$GPRMC,102311.000,A,3353.7454,N,09832.0285,W,0.11,187.77,020412,,,A*7C
$GPGGA,102312.000,3353.7454,N,09832.0284,W,1,06,1.8,306.3,M,-23.7,M,,0000*65
$GPGSA,A,3,05,10,04,25,12,02,,,,,,,3.1,1.8,2.5*38
$GPRMC,102312.000,A,3353.7454,N,09832.0284,W,0.18,149.04,020412,,,A*71
$GPGGA,102313.000,3353.7454,N,09832.0284,W,1,06,1.8,306.1,M,-23.7,M,,0000*66
$GPGSA,A,3,05,10,04,25,12,02,,,,,,,3.1,1.8,2.5*38
$GPRMC,102313.000,A,3353.7454,N,09832.0284,W,0.20,151.12,020412,,,A*75
$GPGGA,102314.000,3353.7453,N,09832.0284,W,1,06,1.8,305.9,M,-23.7,M,,0000*6D
$GPGSA,A,3,05,10,04,25,12,02,,,,,,,3.1,1.8,2.5*38
$GPRMC,102314.000,A,3353.7453,N,09832.0284,W,0.19,157.76,020412,,,A*7B
$GPGGA,102315.000,3353.7453,N,09832.0284,W,1,06,1.8,305.7,M,-23.7,M,,0000*62
$GPGSA,A,3,05,10,04,25,12,02,,,,,,,3.1,1.8,2.5*38
$GPRMC,102315.000,A,3353.7453,N,09832.0284,W,0.19,158.70,020412,,,A*73
$GPGGA,102316.000,3353.7452,N,09832.0284,W,1,06,1.8,305.5,M,-23.7,M,,0000*62
$GPGSA,A,3,05,10,04,25,12,02,,,,,,,3.1,1.8,2.5*38
$GPGSV,3,1,09,05,76,130,34,12,51,212,34,02,49,042,39,25,47,282,33*7D
$GPGSV,3,2,09,10,29,046,38,29,28,312,22,04,17,063,15,26,07,147,33*71
$GPGSV,3,3,09,13,02,040,*44
$GPRMC,102316.000,A,3353.7452,N,09832.0284,W,0.18,154.63,020412,,,A*7E
$GPGGA,102317.000,3353.7452,N,09832.0283,W,1,06,1.8,305.3,M,-23.7,M,,0000*62
$GPGSA,A,3,05,10,04,25,12,02,,,,,,,3.1,1.8,2.5*38
$GPRMC,102317.000,A,3353.7452,N,09832.0283,W,0.17,159.96,020412,,,A*70
$GPGGA,102318.000,3353.7452,N,09832.0283,W,1,06,1.8,305.1,M,-23.7,M,,0000*6F
$GPGSA,A,3,05,10,04,25,12,02,,,,,,,3.1,1.8,2.5*38
$GPRMC,102318.000,A,3353.7452,N,09832.0283,W,0.15,159.03,020412,,,A*71
$GPGGA,102319.000,3353.7452,N,09832.0283,W,1,06,1.8,304.9,M,-23.7,M,,0000*67
$GPGSA,A,3,05,10,04,25,12,02,,,,,,,3.1,1.8,2.5*38
$GPRMC,102319.000,A,3353.7452,N,09832.0283,W,0.17,162.74,020412,,,A*7A
$GPGGA,102320.000,3353.7451,N,09832.0283,W,1,06,1.8,304.8,M,-23.7,M,,0000*6F
$GPGSA,A,3,05,10,04,25,12,02,,,,,,,3.1,1.8,2.5*38
$GPRMC,102320.000,A,3353.7451,N,09832.0283,W,0.17,162.48,020412,,,A*7C
$GPGGA,102321.000,3353.7451,N,09832.0283,W,1,06,1.8,304.6,M,-23.7,M,,0000*60
$GPGSA,A,3,05,10,04,25,12,02,,,,,,,3.1,1.8,2.5*38
$GPGSV,3,1,09,05,76,130,34,12,51,212,34,02,49,042,39,25,47,282,33*7D
$GPGSV,3,2,09,10,29,046,38,29,28,312,22,04,17,063,12,26,07,147,33*76
$GPGSV,3,3,09,13,02,040,*44
$GPRMC,102321.000,A,3353.7451,N,09832.0283,W,0.14,160.97,020412,,,A*7E
$GPGGA,102322.000,3353.7451,N,09832.0283,W,1,06,1.8,304.5,M,-23.7,M,,0000*60
$GPGSA,A,3,05,10,04,25,12,02,,,,,,,3.1,1.8,2.5*38
$GPRMC,102322.000,A,3353.7451,N,09832.0283,W,0.14,161.13,020412,,,A*70
$GPGGA,102323.000,3353.7451,N,09832.0283,W,1,05,2.1,304.3,M,-23.7,M,,0000*6E
$GPGSA,A,3,05,10,25,12,02,,,,,,,,4.4,2.1,3.9*39
$GPRMC,102323.000,A,3353.7451,N,09832.0283,W,0.13,170.21,020412,,,A*77
$GPGGA,102324.000,3353.7451,N,09832.0283,W,1,05,2.1,304.2,M,-23.7,M,,0000*68
$GPGSA,A,3,05,10,25,12,02,,,,,,,,4.4,2.1,3.9*39
$GPRMC,102324.000,A,3353.7451,N,09832.0283,W,0.11,182.42,020412,,,A*7A
$GPGGA,102325.000,3353.7451,N,09832.0283,W,1,05,2.1,304.1,M,-23.7,M,,0000*6A
$GPGSA,A,3,05,10,25,12,02,,,,,,,,4.4,2.1,3.9*39
$GPRMC,102325.000,A,3353.7451,N,09832.0283,W,0.11,171.63,020412,,,A*74
$GPGGA,102326.000,3353.7451,N,09832.0283,W,1,05,2.1,304.0,M,-23.7,M,,0000*68
$GPGSA,A,3,05,10,25,12,02,,,,,,,,4.4,2.1,3.9*39
$GPGSV,3,1,09,05,76,130,34,12,51,212,34,02,49,042,38,25,47,282,33*7C
$GPGSV,3,2,09,10,29,046,38,29,28,312,23,04,17,063,,26,07,147,33*74
$GPGSV,3,3,09,13,02,040,*44
$GPRMC,102326.000,A,3353.7451,N,09832.0283,W,0.10,172.96,020412,,,A*7F
$GPGGA,102327.000,3353.7450,N,09832.0283,W,1,05,2.1,303.9,M,-23.7,M,,0000*66
$GPGSA,A,3,05,10,25,12,02,,,,,,,,4.4,2.1,3.9*39
$GPRMC,102327.000,A,3353.7450,N,09832.0283,W,0.13,177.73,020412,,,A*72
$GPGGA,102328.000,3353.7450,N,09832.0283,W,1,05,2.1,303.8,M,-23.7,M,,0000*68
$GPGSA,A,3,05,10,25,12,02,,,,,,,,4.4,2.1,3.9*39
$GPRMC,102328.000,A,3353.7450,N,09832.0283,W,0.09,177.33,020412,,,A*72
$GPGGA,102329.000,3353.7450,N,09832.0283,W,1,05,2.1,303.7,M,-23.7,M,,0000*66
$GPGSA,A,3,05,10,25,12,02,,,,,,,,4.4,2.1,3.9*39
$GPRMC,102329.000,A,3353.7450,N,09832.0283,W,0.10,182.39,020412,,,A*7B
$GPGGA,102330.000,3353.7450,N,09832.0282,W,1,05,2.1,303.6,M,-23.7,M,,0000*6E
$GPGSA,A,3,05,10,25,12,02,,,,,,,,4.4,2.1,3.9*39
$GPRMC,102330.000,A,3353.7450,N,09832.0282,W,0.10,167.67,020412,,,A*72
$GPGGA,102331.000,3353.7450,N,09832.0283,W,1,05,2.1,303.6,M,-23.7,M,,0000*6E
$GPGSA,A,3,05,10,25,12,02,,,,,,,,4.4,2.1,3.9*39
$GPGSV,3,1,09,05,76,130,34,12,51,212,34,02,49,042,38,25,47,282,34*7B
$GPGSV,3,2,09,10,29,046,38,29,28,312,22,04,17,063,,26,07,147,33*75
$GPGSV,3,3,09,13,02,040,*44
$GPRMC,102331.000,A,3353.7450,N,09832.0283,W,0.09,186.34,020412,,,A*73
$GPGGA,102332.000,3353.7450,N,09832.0282,W,1,05,2.1,303.5,M,-23.7,M,,0000*6F
$GPGSA,A,3,05,10,25,12,02,,,,,,,,4.4,2.1,3.9*39
$GPRMC,102332.000,A,3353.7450,N,09832.0282,W,0.09,175.31,020412,,,A*78
$GPGGA,102333.000,3353.7451,N,09832.0283,W,1,06,1.8,303.5,M,-23.7,M,,0000*67
$GPGSA,A,3,04,05,10,25,12,02,,,,,,,3.1,1.8,2.5*38
$GPRMC,102333.000,A,3353.7451,N,09832.0283,W,0.12,261.55,020412,,,A*77
$GPGGA,102334.000,3353.7451,N,09832.0283,W,1,06,1.8,303.6,M,-23.7,M,,0000*63
$GPGSA,A,3,04,05,10,25,12,02,,,,,,,3.1,1.8,2.5*38
$GPRMC,102334.000,A,3353.7451,N,09832.0283,W,0.19,280.64,020412,,,A*76
$GPGGA,102335.000,3353.7451,N,09832.0284,W,1,06,1.8,303.6,M,-23.7,M,,0000*65
$GPGSA,A,3,04,05,10,25,12,02,,,,,,,3.1,1.8,2.5*38
$GPRMC,102335.000,A,3353.7451,N,09832.0284,W,0.18,285.89,020412,,,A*77
$GPGGA,102336.000,3353.7452,N,09832.0284,W,1,06,1.8,303.7,M,-23.7,M,,0000*64
$GPGSA,A,3,04,05,10,25,12,02,,,,,,,3.1,1.8,2.5*38
$GPGSV,3,1,09,05,76,130,34,12,51,212,34,02,49,042,38,25,47,282,34*7B
$GPGSV,3,2,09,10,29,046,38,29,28,312,22,04,17,063,15,26,07,147,33*71
$GPGSV,3,3,09,13,02,040,*44
$GPRMC,102336.000,A,3353.7452,N,09832.0284,W,0.12,300.87,020412,,,A*7F
$GPGGA,102337.000,3353.7452,N,09832.0284,W,1,06,1.8,303.8,M,-23.7,M,,0000*6A
$GPGSA,A,3,04,05,10,25,12,02,,,,,,,3.1,1.8,2.5*38
$GPRMC,102337.000,A,3353.7452,N,09832.0284,W,0.07,304.00,020412,,,A*71
$GPGGA,102338.000,3353.7453,N,09832.0284,W,1,06,1.8,303.9,M,-23.7,M,,0000*65
$GPGSA,A,3,04,05,10,25,12,02,,,,,,,3.1,1.8,2.5*38
$GPRMC,102338.000,A,3353.7453,N,09832.0284,W,0.13,303.59,020412,,,A*71
$GPGGA,102339.000,3353.7453,N,09832.0284,W,1,06,1.8,304.0,M,-23.7,M,,0000*6A
$GPGSA,A,3,04,05,10,25,12,02,,,,,,,3.1,1.8,2.5*38
$GPRMC,102339.000,A,3353.7453,N,09832.0284,W,0.10,120.59,020412,,,A*70
$GPGGA,102340.000,3353.7452,N,09832.0283,W,1,06,1.8,304.0,M,-23.7,M,,0000*62
$GPGSA,A,3,04,05,10,25,12,02,,,,,,,3.1,1.8,2.5*38
$GPRMC,102340.000,A,3353.7452,N,09832.0283,W,0.22,135.13,020412,,,A*73
$GPGGA,102341.000,3353.7452,N,09832.0283,W,1,06,1.8,304.0,M,-23.7,M,,0000*63
$GPGSA,A,3,04,05,10,25,12,02,,,,,,,3.1,1.8,2.5*38
$GPGSV,3,1,09,05,76,130,34,12,51,212,34,02,49,042,37,25,47,282,34*74
$GPGSV,3,2,09,10,29,046,38,29,28,312,21,04,17,063,16,26,07,147,33*71
$GPGSV,3,3,09,13,02,040,*44
$GPRMC,102341.000,A,3353.7452,N,09832.0283,W,0.11,140.11,020412,,,A*72
$GPGGA,102342.000,3353.7452,N,09832.0282,W,1,06,1.8,304.0,M,-23.7,M,,0000*61
$GPGSA,A,3,04,05,10,25,12,02,,,,,,,3.1,1.8,2.5*38
$GPRMC,102342.000,A,3353.7452,N,09832.0282,W,0.19,138.57,020412,,,A*75
$GPGGA,102343.000,3353.7452,N,09832.0282,W,1,06,1.8,303.9,M,-23.7,M,,0000*6E
$GPGSA,A,3,04,05,10,25,12,02,,,,,,,3.1,1.8,2.5*38
$GPRMC,102343.000,A,3353.7452,N,09832.0282,W,0.15,145.88,020412,,,A*70
$GPGGA,102344.000,3353.7452,N,09832.0282,W,1,06,1.8,303.9,M,-23.7,M,,0000*69
$GPGSA,A,3,04,05,10,25,12,02,,,,,,,3.1,1.8,2.5*38
$GPRMC,102344.000,A,3353.7452,N,09832.0282,W,0.08,152.48,020412,,,A*71
$GPGGA,102345.000,3353.7452,N,09832.0282,W,1,06,1.8,303.9,M,-23.7,M,,0000*68
$GPGSA,A,3,04,05,10,25,12,02,,,,,,,3.1,1.8,2.5*38
$GPRMC,102345.000,A,3353.7452,N,09832.0282,W,0.09,281.16,020412,,,A*77
$GPGGA,102346.000,3353.7452,N,09832.0281,W,1,06,1.8,303.8,M,-23.7,M,,0000*69
$GPGSA,A,3,04,05,10,25,12,02,,,,,,,3.1,1.8,2.5*38
$GPGSV,3,1,09,05,76,130,34,12,51,212,34,02,49,042,37,25,47,282,34*74
$GPGSV,3,2,09,10,29,046,38,29,28,312,21,04,17,063,18,26,07,147,33*7F
$GPGSV,3,3,09,13,02,040,*44
$GPRMC,102346.000,A,3353.7452,N,09832.0281,W,0.15,142.32,020412,,,A*70
$GPGGA,102347.000,3353.7452,N,09832.0281,W,1,06,1.8,303.8,M,-23.7,M,,0000*68
$GPGSA,A,3,04,05,10,25,12,02,,,,,,,3.1,1.8,2.5*38
$GPRMC,102347.000,A,3353.7452,N,09832.0281,W,0.04,270.48,020412,,,A*7E
$GPGGA,102348.000,3353.7452,N,09832.0281,W,1,06,1.8,303.8,M,-23.7,M,,0000*67
$GPGSA,A,3,04,05,10,25,12,02,,,,,,,3.1,1.8,2.5*38
$GPRMC,102348.000,A,3353.7452,N,09832.0281,W,0.15,292.37,020412,,,A*75
$GPGGA,102349.000,3353.7453,N,09832.0282,W,1,06,1.8,303.8,M,-23.7,M,,0000*64
$GPGSA,A,3,04,05,10,25,12,02,,,,,,,3.1,1.8,2.5*38
$GPRMC,102349.000,A,3353.7453,N,09832.0282,W,0.18,299.50,020412,,,A*71
$GPGGA,102350.000,3353.7453,N,09832.0282,W,1,06,1.8,303.9,M,-23.7,M,,0000*6D
$GPGSA,A,3,04,05,10,25,12,02,,,,,,,3.1,1.8,2.5*38
$GPRMC,102350.000,A,3353.7453,N,09832.0282,W,0.22,306.69,020412,,,A*7D
$GPGGA,102351.000,3353.7453,N,09832.0282,W,1,06,1.8,303.9,M,-23.7,M,,0000*6C
$GPGSA,A,3,04,05,10,25,12,02,,,,,,,3.1,1.8,2.5*38
$GPGSV,3,1,10,05,76,130,34,12,51,212,34,02,49,042,37,25,47,282,34*7C
$GPGSV,3,2,10,10,29,046,39,29,28,312,21,04,17,063,19,26,07,147,32*76
$GPGSV,3,3,10,13,02,040,,51,49,195,22*78
$GPRMC,102351.000,A,3353.7453,N,09832.0282,W,0.03,112.84,020412,,,A*7B
$GPGGA,102352.000,3353.7453,N,09832.0281,W,1,06,1.8,303.9,M,-23.7,M,,0000*6C
$GPGSA,A,3,04,05,10,25,12,02,,,,,,,3.1,1.8,2.5*38
$GPRMC,102352.000,A,3353.7453,N,09832.0281,W,0.21,136.27,020412,,,A*74
$GPGGA,102353.000,3353.7453,N,09832.0281,W,1,06,1.8,303.9,M,-23.7,M,,0000*6D
$GPGSA,A,3,04,05,10,25,12,02,,,,,,,3.1,1.8,2.5*38
$GPRMC,102353.000,A,3353.7453,N,09832.0281,W,0.11,135.95,020412,,,A*7C
$GPGGA,102354.000,3353.7453,N,09832.0281,W,1,06,1.8,303.9,M,-23.7,M,,0000*6A
$GPGSA,A,3,04,05,10,25,12,02,,,,,,,3.1,1.8,2.5*38
$GPRMC,102354.000,A,3353.7453,N,09832.0281,W,0.11,285.41,020412,,,A*7A
$GPGGA,102355.000,3353.7453,N,09832.0281,W,1,06,1.8,303.9,M,-23.7,M,,0000*6B
$GPGSA,A,3,04,05,10,25,12,02,,,,,,,3.1,1.8,2.5*38
$GPRMC,102355.000,A,3353.7453,N,09832.0281,W,0.04,299.97,020412,,,A*79
$GPGGA,102356.000,3353.7454,N,09832.0281,W,1,06,1.8,304.0,M,-23.7,M,,0000*61
$GPGSA,A,3,04,05,10,25,12,02,,,,,,,3.1,1.8,2.5*38
$GPGSV,3,1,09,05,76,130,34,12,51,212,34,02,49,042,36,25,47,282,34*75
$GPGSV,3,2,09,10,29,046,39,29,28,312,22,04,17,063,20,26,07,147,32*77
$GPGSV,3,3,09,13,02,040,*44
$GPRMC,102356.000,A,3353.7454,N,09832.0281,W,0.11,290.65,020412,,,A*7D
$GPGGA,102357.000,3353.7454,N,09832.0281,W,1,06,1.8,303.9,M,-23.7,M,,0000*6E
$GPGSA,A,3,04,05,10,25,12,02,,,,,,,3.1,1.8,2.5*38
$GPRMC,102357.000,A,3353.7454,N,09832.0281,W,0.11,130.72,020412,,,A*73
$GPGGA,102358.000,3353.7454,N,09832.0281,W,1,06,1.8,303.9,M,-23.7,M,,0000*61
$GPGSA,A,3,04,05,10,25,12,02,,,,,,,3.1,1.8,2.5*38
$GPRMC,102358.000,A,3353.7454,N,09832.0281,W,0.10,297.14,020412,,,A*73
$GPGGA,102359.000,3353.7454,N,09832.0281,W,1,06,1.8,304.0,M,-23.7,M,,0000*6E
$GPGSA,A,3,04,05,10,25,12,02,,,,,,,3.1,1.8,2.5*38
$GPRMC,102359.000,A,3353.7454,N,09832.0281,W,0.17,301.60,020412,,,A*78
$GPGGA,102400.000,3353.7455,N,09832.0282,W,1,06,1.8,304.0,M,-23.7,M,,0000*67
$GPGSA,A,3,04,05,10,25,12,02,,,,,,,3.1,1.8,2.5*38
$GPRMC,102400.000,A,3353.7455,N,09832.0282,W,0.20,305.81,020412,,,A*7E
$GPGGA,102401.000,3353.7455,N,09832.0281,W,1,06,1.8,304.0,M,-23.7,M,,0000*65
$GPGSA,A,3,04,05,10,25,12,02,,,,,,,3.1,1.8,2.5*38
$GPGSV,3,1,09,05,76,130,34,12,51,212,34,02,49,042,36,25,47,282,34*75
$GPGSV,3,2,09,10,29,046,39,29,28,312,23,04,17,063,21,26,07,147,32*77
$GPGSV,3,3,09,13,02,040,19*4C
$GPRMC,102401.000,A,3353.7455,N,09832.0281,W,0.05,109.99,020412,,,A*7C
$GPGGA,102402.000,3353.7455,N,09832.0281,W,1,06,1.8,304.0,M,-23.7,M,,0000*66
$GPGSA,A,3,04,05,10,25,12,02,,,,,,,3.1,1.8,2.5*38
$GPRMC,102402.000,A,3353.7455,N,09832.0281,W,0.13,130.97,020412,,,A*7C
$GPGGA,102403.000,3353.7455,N,09832.0281,W,1,06,1.8,304.0,M,-23.7,M,,0000*67
$GPGSA,A,3,04,05,10,25,12,02,,,,,,,3.1,1.8,2.5*38
$GPRMC,102403.000,A,3353.7455,N,09832.0281,W,0.06,259.14,020412,,,A*7E
$GPGGA,102404.000,3353.7455,N,09832.0281,W,1,06,1.8,304.0,M,-23.7,M,,0000*60
$GPGSA,A,3,04,05,10,25,12,02,,,,,,,3.1,1.8,2.5*38
$GPRMC,102404.000,A,3353.7455,N,09832.0281,W,0.04,302.24,020412,,,A*77
$GPGGA,102405.000,3353.7455,N,09832.0281,W,1,06,1.8,304.0,M,-23.7,M,,0000*61
$GPGSA,A,3,04,05,10,25,12,02,,,,,,,3.1,1.8,2.5*38
$GPRMC,102405.000,A,3353.7455,N,09832.0281,W,0.15,303.18,020412,,,A*78
$GPGGA,102406.000,3353.7456,N,09832.0281,W,1,06,1.8,304.1,M,-23.7,M,,0000*60
$GPGSA,A,3,04,05,10,25,12,02,,,,,,,3.1,1.8,2.5*38
$GPGSV,3,1,09,05,76,130,33,12,51,212,34,02,49,042,35,25,47,282,34*71
$GPGSV,3,2,09,10,29,046,39,29,28,312,23,04,17,063,22,26,07,147,31*77
$GPGSV,3,3,09,13,02,040,19*4C
$GPRMC,102406.000,A,3353.7456,N,09832.0281,W,0.17,301.21,020412,,,A*72
$GPGGA,102407.000,3353.7456,N,09832.0281,W,1,06,1.8,304.1,M,-23.7,M,,0000*61
$GPGSA,A,3,04,05,10,25,12,02,,,,,,,3.1,1.8,2.5*38
$GPRMC,102407.000,A,3353.7456,N,09832.0281,W,0.13,317.76,020412,,,A*72
$GPGGA,102408.000,3353.7456,N,09832.0281,W,1,06,1.8,304.2,M,-23.7,M,,0000*6D
$GPGSA,A,3,04,05,10,25,12,02,,,,,,,3.1,1.8,2.5*38
$GPRMC,102408.000,A,3353.7456,N,09832.0281,W,0.03,107.17,020412,,,A*78
$GPGGA,102409.000,3353.7456,N,09832.0280,W,1,06,1.8,304.2,M,-23.7,M,,0000*6D
$GPGSA,A,3,04,05,10,25,12,02,,,,,,,3.1,1.8,2.5*38
$GPRMC,102409.000,A,3353.7456,N,09832.0280,W,0.13,122.50,020412,,,A*7D
$GPGGA,102410.000,3353.7456,N,09832.0280,W,1,06,1.8,304.2,M,-23.7,M,,0000*65
$GPGSA,A,3,04,05,10,25,12,02,,,,,,,3.1,1.8,2.5*38
$GPRMC,102410.000,A,3353.7456,N,09832.0280,W,0.06,123.20,020412,,,A*77
$GPGGA,102411.000,3353.7456,N,09832.0280,W,1,06,1.8,304.2,M,-23.7,M,,0000*64
$GPGSA,A,3,04,05,10,25,12,02,,,,,,,3.1,1.8,2.5*38
$GPGSV,3,1,09,05,76,130,32,12,51,212,34,02,49,042,34,25,47,282,34*71
$GPGSV,3,2,09,10,29,046,39,29,28,312,23,04,17,063,24,26,07,147,31*71
$GPGSV,3,3,09,13,02,040,19*4C
$GPRMC,102411.000,A,3353.7456,N,09832.0280,W,0.03,191.67,020412,,,A*79
$GPGGA,102412.000,3353.7456,N,09832.0280,W,1,06,1.8,304.2,M,-23.7,M,,0000*67
$GPGSA,A,3,04,05,10,25,12,02,,,,,,,3.1,1.8,2.5*38
$GPRMC,102412.000,A,3353.7456,N,09832.0280,W,0.00,73.64,020412,,,A*47
$GPGGA,102413.000,3353.7456,N,09832.0279,W,1,06,1.8,304.2,M,-23.7,M,,0000*60
$GPGSA,A,3,04,05,10,25,12,02,,,,,,,3.1,1.8,2.5*38
$GPRMC,102413.000,A,3353.7456,N,09832.0279,W,0.03,304.64,020412,,,A*70
$GPGGA,102414.000,3353.7456,N,09832.0279,W,1,06,1.8,304.2,M,-23.7,M,,0000*67
$GPGSA,A,3,04,05,10,25,12,02,,,,,,,3.1,1.8,2.5*38
$GPRMC,102414.000,A,3353.7456,N,09832.0279,W,0.03,287.52,020412,,,A*78
$GPGGA,102415.000,3353.7456,N,09832.0279,W,1,06,1.8,304.2,M,-23.7,M,,0000*66
$GPGSA,A,3,04,05,10,25,12,02,,,,,,,3.1,1.8,2.5*38
$GPRMC,102415.000,A,3353.7456,N,09832.0279,W,0.01,174.31,020412,,,A*71
$GPGGA,102416.000,3353.7456,N,09832.0279,W,1,06,1.8,304.2,M,-23.7,M,,0000*65
$GPGSA,A,3,04,05,10,25,12,02,,,,,,,3.1,1.8,2.5*38
$GPGSV,3,1,09,05,76,130,31,12,51,212,34,02,49,042,34,25,47,282,34*72
$GPGSV,3,2,09,10,29,046,39,29,28,312,23,04,17,063,25,26,07,147,31*70
$GPGSV,3,3,09,13,02,040,19*4C
$GPRMC,102416.000,A,3353.7456,N,09832.0279,W,0.01,298.54,020412,,,A*70
$GPGGA,102417.000,3353.7456,N,09832.0279,W,1,06,1.8,304.2,M,-23.7,M,,0000*64
$GPGSA,A,3,04,05,10,25,12,02,,,,,,,3.1,1.8,2.5*38
$GPRMC,102417.000,A,3353.7456,N,09832.0279,W,0.02,284.01,020412,,,A*7F
$GPGGA,102418.000,3353.7456,N,09832.0278,W,1,06,1.8,304.2,M,-23.7,M,,0000*6A
$GPGSA,A,3,04,05,10,25,12,02,,,,,,,3.1,1.8,2.5*38
$GPRMC,102418.000,A,3353.7456,N,09832.0278,W,0.02,291.81,020412,,,A*7D
$GPGGA,102419.000,3353.7456,N,09832.0278,W,1,06,1.8,304.2,M,-23.7,M,,0000*6B
$GPGSA,A,3,04,05,10,25,12,02,,,,,,,3.1,1.8,2.5*38
$GPRMC,102419.000,A,3353.7456,N,09832.0278,W,0.02,129.03,020412,,,A*76
$GPGGA,102420.000,3353.7456,N,09832.0278,W,1,06,1.8,304.2,M,-23.7,M,,0000*61
$GPGSA,A,3,04,05,10,25,12,02,,,,,,,3.1,1.8,2.5*38
$GPRMC,102420.000,A,3353.7456,N,09832.0278,W,0.02,181.40,020412,,,A*79
$GPGGA,102421.000,3353.7456,N,09832.0278,W,1,06,1.8,304.2,M,-23.7,M,,0000*60
$GPGSA,A,3,04,05,10,25,12,02,,,,,,,3.1,1.8,2.5*38
$GPGSV,3,1,09,05,76,130,30,12,51,212,33,02,49,042,34,25,47,282,33*73
$GPGSV,3,2,09,10,29,046,39,29,28,312,23,04,17,063,25,26,07,147,31*70
$GPGSV,3,3,09,13,02,040,18*4D
$GPRMC,102421.000,A,3353.7456,N,09832.0278,W,0.03,298.43,020412,,,A*71
$GPGGA,102422.000,3353.7456,N,09832.0277,W,1,06,1.8,304.2,M,-23.7,M,,0000*6C
$GPGSA,A,3,04,05,10,25,12,02,,,,,,,3.1,1.8,2.5*38
$GPRMC,102422.000,A,3353.7456,N,09832.0277,W,0.01,183.68,020412,,,A*7F
$GPGGA,102423.000,3353.7456,N,09832.0277,W,1,06,1.8,304.2,M,-23.7,M,,0000*6D
$GPGSA,A,3,04,05,10,25,12,02,,,,,,,3.1,1.8,2.5*38
$GPRMC,102423.000,A,3353.7456,N,09832.0277,W,0.03,200.46,020412,,,A*78
$GPGGA,102424.000,3353.7456,N,09832.0277,W,1,06,1.8,304.2,M,-23.7,M,,0000*6A
$GPGSA,A,3,04,05,10,25,12,02,,,,,,,3.1,1.8,2.5*38
$GPRMC,102424.000,A,3353.7456,N,09832.0277,W,0.02,166.36,020412,,,A*7A
$GPGGA,102425.000,3353.7456,N,09832.0277,W,1,06,1.8,304.2,M,-23.7,M,,0000*6B
$GPGSA,A,3,04,05,10,25,12,02,,,,,,,3.1,1.8,2.5*38
$GPRMC,102425.000,A,3353.7456,N,09832.0277,W,0.03,255.20,020412,,,A*7E
$GPGGA,102426.000,3353.7456,N,09832.0276,W,1,06,1.8,304.2,M,-23.7,M,,0000*69
$GPGSA,A,3,04,05,10,25,12,02,,,,,,,3.1,1.8,2.5*38
$GPGSV,3,1,09,05,76,130,30,12,51,212,33,02,49,042,34,25,47,282,33*73
$GPGSV,3,2,09,10,29,046,39,29,28,312,24,04,17,063,26,26,07,147,31*74
$GPGSV,3,3,09,13,02,040,17*42
$GPRMC,102426.000,A,3353.7456,N,09832.0276,W,0.05,143.79,020412,,,A*72
$GPGGA,102427.000,3353.7456,N,09832.0276,W,1,06,1.8,304.2,M,-23.7,M,,0000*68
$GPGSA,A,3,04,05,10,25,12,02,,,,,,,3.1,1.8,2.5*38
$GPRMC,102427.000,A,3353.7456,N,09832.0276,W,0.01,246.66,020412,,,A*7F
$GPGGA,102428.000,3353.7456,N,09832.0276,W,1,06,1.8,304.2,M,-23.7,M,,0000*67
$GPGSA,A,3,04,05,10,25,12,02,,,,,,,3.1,1.8,2.5*38
$GPRMC,102428.000,A,3353.7456,N,09832.0276,W,0.02,261.25,020412,,,A*71
$GPGGA,102429.000,3353.7456,N,09832.0275,W,1,06,1.8,304.2,M,-23.7,M,,0000*65
$GPGSA,A,3,04,05,10,25,12,02,,,,,,,3.1,1.8,2.5*38
$GPRMC,102429.000,A,3353.7456,N,09832.0275,W,0.01,321.20,020412,,,A*70
$GPGGA,102430.000,3353.7455,N,09832.0275,W,1,06,1.8,304.2,M,-23.7,M,,0000*6E
$GPGSA,A,3,04,05,10,25,12,02,,,,,,,3.1,1.8,2.5*38
$GPRMC,102430.000,A,3353.7455,N,09832.0275,W,0.03,184.97,020412,,,A*78
$GPGGA,102431.000,3353.7455,N,09832.0275,W,1,06,1.8,304.2,M,-23.7,M,,0000*6F
$GPGSA,A,3,04,05,10,25,12,02,,,,,,,3.1,1.8,2.5*38
$GPGSV,3,1,10,05,76,130,30,12,51,212,32,02,49,042,34,25,47,282,33*7A
$GPGSV,3,2,10,10,29,046,39,29,28,312,25,04,17,063,26,26,07,147,30*7C
$GPGSV,3,3,10,13,02,040,17,48,36,230,28*78
$GPRMC,102431.000,A,3353.7455,N,09832.0275,W,0.05,127.35,020412,,,A*7E
$GPGGA,102432.000,3353.7455,N,09832.0274,W,1,06,1.8,304.2,M,-23.7,M,,0000*6D
$GPGSA,A,3,04,05,10,25,12,02,,,,,,,3.1,1.8,2.5*38
$GPRMC,102432.000,A,3353.7455,N,09832.0274,W,0.03,231.38,020412,,,A*73
$GPGGA,102433.000,3353.7455,N,09832.0274,W,1,06,1.8,304.2,M,-23.7,M,,0000*6C
$GPGSA,A,3,04,05,10,25,12,02,,,,,,,3.1,1.8,2.5*38
$GPRMC,102433.000,A,3353.7455,N,09832.0274,W,0.01,258.69,020412,,,A*7B
$GPGGA,102434.000,3353.7455,N,09832.0274,W,1,06,1.8,304.2,M,-23.7,M,,0000*6B
$GPGSA,A,3,04,05,10,25,12,02,,,,,,,3.1,1.8,2.5*38
$GPRMC,102434.000,A,3353.7455,N,09832.0274,W,0.04,159.03,020412,,,A*77
$GPGGA,102435.000,3353.7455,N,09832.0273,W,1,06,1.8,304.2,M,-23.7,M,,0000*6D
$GPGSA,A,3,04,05,10,25,12,02,,,,,,,3.1,1.8,2.5*38
$GPRMC,102435.000,A,3353.7455,N,09832.0273,W,0.01,195.99,020412,,,A*77
$GPGGA,102436.000,3353.7455,N,09832.0273,W,1,06,1.8,304.2,M,-23.7,M,,0000*6E
$GPGSA,A,3,04,05,10,25,12,02,,,,,,,3.1,1.8,2.5*38
$GPGSV,3,1,10,05,76,130,30,12,51,212,32,02,49,042,34,25,47,282,32*7B
$GPGSV,3,2,10,10,29,046,39,29,28,312,26,04,17,063,27,26,07,147,30*7E
$GPGSV,3,3,10,13,02,040,17,48,36,230,27*77
$GPRMC,102436.000,A,3353.7455,N,09832.0273,W,0.02,238.09,020412,,,A*7A
$GPGGA,102437.000,3353.7454,N,09832.0273,W,1,06,1.8,304.2,M,-23.7,M,,0000*6E
$GPGSA,A,3,04,05,10,25,12,02,,,,,,,3.1,1.8,2.5*38
$GPRMC,102437.000,A,3353.7454,N,09832.0273,W,0.01,181.26,020412,,,A*75
$GPGGA,102438.000,3353.7454,N,09832.0272,W,1,06,1.8,304.2,M,-23.7,M,,0000*60
$GPGSA,A,3,04,05,10,25,12,02,,,,,,,3.1,1.8,2.5*38
$GPRMC,102438.000,A,3353.7454,N,09832.0272,W,0.00,190.72,020412,,,A*7B
$GPGGA,102439.000,3353.7454,N,09832.0272,W,1,06,1.8,304.2,M,-23.7,M,,0000*61
$GPGSA,A,3,04,05,10,25,12,02,,,,,,,3.1,1.8,2.5*38
$GPRMC,102439.000,A,3353.7454,N,09832.0272,W,0.01,291.18,020412,,,A*75
$GPGGA,102440.000,3353.7454,N,09832.0272,W,1,06,1.8,304.2,M,-23.7,M,,0000*6F
$GPGSA,A,3,04,05,10,25,12,02,,,,,,,3.1,1.8,2.5*38
$GPRMC,102440.000,A,3353.7454,N,09832.0272,W,0.03,185.31,020412,,,A*74
$GPGGA,102441.000,3353.7454,N,09832.0271,W,1,06,1.8,304.2,M,-23.7,M,,0000*6D
$GPGSA,A,3,04,05,10,25,12,02,,,,,,,3.1,1.8,2.5*38
$GPGSV,3,1,10,05,76,130,30,12,51,212,32,02,49,042,35,25,47,282,32*7A
$GPGSV,3,2,10,10,29,046,39,29,28,312,26,04,17,063,27,26,07,147,30*7E
$GPGSV,3,3,10,13,02,040,16,48,36,230,27*76
$GPRMC,102441.000,A,3353.7454,N,09832.0271,W,0.02,289.29,020412,,,A*71
$GPGGA,102442.000,3353.7454,N,09832.0271,W,1,06,1.8,304.2,M,-23.7,M,,0000*6E
$GPGSA,A,3,04,05,10,25,12,02,,,,,,,3.1,1.8,2.5*38
$GPRMC,102442.000,A,3353.7454,N,09832.0271,W,0.03,135.24,020412,,,A*7A
$GPGGA,102443.000,3353.7454,N,09832.0271,W,1,06,1.8,304.2,M,-23.7,M,,0000*6F
$GPGSA,A,3,04,05,10,25,12,02,,,,,,,3.1,1.8,2.5*38
$GPRMC,102443.000,A,3353.7454,N,09832.0271,W,0.02,281.43,020412,,,A*77
$GPGGA,102444.000,3353.7454,N,09832.0270,W,1,06,1.8,304.3,M,-23.7,M,,0000*68
$GPGSA,A,3,04,05,10,25,12,02,,,,,,,3.1,1.8,2.5*38
$GPRMC,102444.000,A,3353.7454,N,09832.0270,W,0.02,193.82,020412,,,A*7C
$GPGGA,102445.000,3353.7453,N,09832.0270,W,1,06,1.8,304.3,M,-23.7,M,,0000*6E
$GPGSA,A,3,04,05,10,25,12,02,,,,,,,3.1,1.8,2.5*38
$GPRMC,102445.000,A,3353.7453,N,09832.0270,W,0.02,271.91,020412,,,A*77
$GPGGA,102446.000,3353.7453,N,09832.0270,W,1,06,1.8,304.3,M,-23.7,M,,0000*6D
$GPGSA,A,3,04,05,10,25,12,02,,,,,,,3.1,1.8,2.5*38
$GPGSV,3,1,09,05,76,130,30,12,51,212,32,02,49,042,35,25,47,282,32*72
$GPGSV,3,2,09,10,29,046,39,29,28,312,27,04,17,063,28,26,07,147,29*70
$GPGSV,3,3,09,13,02,040,16*43
$GPRMC,102446.000,A,3353.7453,N,09832.0270,W,0.03,355.94,020412,,,A*77
$GPGGA,102447.000,3353.7453,N,09832.0269,W,1,06,1.8,304.4,M,-23.7,M,,0000*63
$GPGSA,A,3,04,05,10,25,12,02,,,,,,,3.1,1.8,2.5*38
$GPRMC,102447.000,A,3353.7453,N,09832.0269,W,0.01,248.93,020412,,,A*76
$GPGGA,102448.000,3353.7453,N,09832.0269,W,1,06,1.8,304.4,M,-23.7,M,,0000*6C
$GPGSA,A,3,04,05,10,25,12,02,,,,,,,3.1,1.8,2.5*38
$GPRMC,102448.000,A,3353.7453,N,09832.0269,W,0.04,128.67,020412,,,A*72
$GPGGA,102449.000,3353.7453,N,09832.0268,W,1,06,1.8,304.5,M,-23.7,M,,0000*6D
$GPGSA,A,3,04,05,10,25,12,02,,,,,,,3.1,1.8,2.5*38
$GPRMC,102449.000,A,3353.7453,N,09832.0268,W,0.04,121.99,020412,,,A*7A
$GPGGA,102450.000,3353.7453,N,09832.0268,W,1,06,1.8,304.5,M,-23.7,M,,0000*65
$GPGSA,A,3,04,05,10,25,12,02,,,,,,,3.1,1.8,2.5*38
$GPRMC,102450.000,A,3353.7453,N,09832.0268,W,0.01,310.98,020412,,,A*76
$GPGGA,102451.000,3353.7453,N,09832.0268,W,1,06,1.8,304.6,M,-23.7,M,,0000*67
$GPGSA,A,3,04,05,10,25,12,02,,,,,,,3.1,1.8,2.5*38
$GPGSV,3,1,09,05,76,130,30,12,51,212,31,02,49,042,35,25,47,282,31*72
$GPGSV,3,2,09,10,29,046,39,29,28,312,27,04,17,063,28,26,07,147,28*71
$GPGSV,3,3,09,13,02,040,15*40
$GPRMC,102451.000,A,3353.7453,N,09832.0268,W,0.02,261.75,020412,,,A*70
$GPGGA,102452.000,3353.7453,N,09832.0267,W,1,06,1.8,304.6,M,-23.7,M,,0000*6B
$GPGSA,A,3,04,05,10,25,12,02,,,,,,,3.1,1.8,2.5*38
$GPRMC,102452.000,A,3353.7453,N,09832.0267,W,0.03,355.38,020412,,,A*72
$GPGGA,102453.000,3353.7454,N,09832.0268,W,1,06,1.8,304.6,M,-23.7,M,,0000*62
$GPGSA,A,3,04,05,10,25,12,02,,,,,,,3.1,1.8,2.5*38
$GPRMC,102453.000,A,3353.7454,N,09832.0268,W,0.30,302.20,020412,,,A*70
$GPGGA,102454.000,3353.7455,N,09832.0270,W,1,06,1.8,304.6,M,-23.7,M,,0000*6D
$GPGSA,A,3,04,05,10,25,12,02,,,,,,,3.1,1.8,2.5*38
$GPRMC,102454.000,A,3353.7455,N,09832.0270,W,0.75,302.24,020412,,,A*7A
$GPGGA,102455.000,3353.7456,N,09832.0271,W,1,06,1.8,304.6,M,-23.7,M,,0000*6E
$GPGSA,A,3,04,05,10,25,12,02,,,,,,,3.1,1.8,2.5*38
$GPRMC,102455.000,A,3353.7456,N,09832.0271,W,0.52,307.50,020412,,,A*7A
$GPGGA,102456.000,3353.7457,N,09832.0273,W,1,06,1.8,304.5,M,-23.7,M,,0000*6D
$GPGSA,A,3,04,05,10,25,12,02,,,,,,,3.1,1.8,2.5*38
$GPGSV,3,1,09,05,76,130,30,12,51,212,28,02,49,042,36,25,47,282,25*7C
$GPGSV,3,2,09,10,29,046,39,29,28,312,27,04,17,063,28,26,07,147,28*71
$GPGSV,3,3,09,13,02,040,13*46
$GPRMC,102456.000,A,3353.7457,N,09832.0273,W,0.37,306.75,020412,,,A*7F
$GPGGA,102457.000,3353.7458,N,09832.0274,W,1,06,1.8,304.5,M,-23.7,M,,0000*64
$GPGSA,A,3,04,05,10,25,12,02,,,,,,,3.1,1.8,2.5*38
$GPRMC,102457.000,A,3353.7458,N,09832.0274,W,0.36,303.80,020412,,,A*78
$GPGGA,102458.000,3353.7458,N,09832.0274,W,1,06,1.8,304.4,M,-23.7,M,,0000*6A
$GPGSA,A,3,04,05,10,25,12,02,,,,,,,3.1,1.8,2.5*38
$GPRMC,102458.000,A,3353.7458,N,09832.0274,W,0.03,240.61,020412,,,A*78
$GPGGA,102459.000,3353.7458,N,09832.0274,W,1,06,1.8,304.4,M,-23.7,M,,0000*6B
$GPGSA,A,3,04,05,10,25,12,02,,,,,,,3.1,1.8,2.5*38
$GPRMC,102459.000,A,3353.7458,N,09832.0274,W,0.05,167.45,020412,,,A*7F
$GPGGA,102500.000,3353.7458,N,09832.0273,W,1,06,1.8,304.5,M,-23.7,M,,0000*60
$GPGSA,A,3,04,05,10,25,12,02,,,,,,,3.1,1.8,2.5*38
$GPRMC,102500.000,A,3353.7458,N,09832.0273,W,0.13,294.63,020412,,,A*79
$GPGGA,102501.000,3353.7457,N,09832.0273,W,1,06,1.8,304.4,M,-23.7,M,,0000*6F
$GPGSA,A,3,04,05,10,25,12,02,,,,,,,3.1,1.8,2.5*38
$GPGSV,3,1,09,05,76,130,30,12,51,212,23,02,49,042,36,25,47,282,22*70
$GPGSV,3,2,09,10,29,046,38,29,28,312,26,04,17,063,28,26,07,147,24*7D
$GPGSV,3,3,09,13,02,040,*44
$GPRMC,102501.000,A,3353.7457,N,09832.0273,W,0.24,194.84,020412,,,A*79
$GPGGA,102502.000,3353.7457,N,09832.0272,W,1,06,1.8,304.4,M,-23.7,M,,0000*6D
$GPGSA,A,3,04,05,10,25,12,02,,,,,,,3.1,1.8,2.5*38
$GPRMC,102502.000,A,3353.7457,N,09832.0272,W,0.16,82.22,020412,,,A*40
$GPGGA,102503.000,3353.7456,N,09832.0272,W,1,06,1.8,304.2,M,-23.7,M,,0000*6B
$GPGSA,A,3,04,05,10,25,12,02,,,,,,,3.1,1.8,2.5*38
$GPRMC,102503.000,A,3353.7456,N,09832.0272,W,0.20,102.65,020412,,,A*7F
$GPGGA,102504.000,3353.7455,N,09832.0272,W,1,06,1.8,304.0,M,-23.7,M,,0000*6D
$GPGSA,A,3,04,05,10,25,12,02,,,,,,,3.1,1.8,2.5*38
$GPRMC,102504.000,A,3353.7455,N,09832.0272,W,0.11,237.04,020412,,,A*7B
$GPGGA,102505.000,3353.7454,N,09832.0272,W,1,06,1.8,303.7,M,-23.7,M,,0000*6D
$GPGSA,A,3,04,05,10,25,12,02,,,,,,,3.1,1.8,2.5*38
$GPRMC,102505.000,A,3353.7454,N,09832.0272,W,0.36,255.65,020412,,,A*7D
$GPGGA,102506.000,3353.7454,N,09832.0274,W,1,06,1.8,303.5,M,-23.7,M,,0000*6A
$GPGSA,A,3,04,05,10,25,12,02,,,,,,,3.1,1.8,2.5*38
$GPGSV,3,1,09,05,76,130,30,12,51,212,25,02,49,042,37,25,47,282,21*74
$GPGSV,3,2,09,10,29,046,38,29,28,312,26,04,17,063,29,26,07,147,23*7B
$GPGSV,3,3,09,13,02,040,*44
$GPRMC,102506.000,A,3353.7454,N,09832.0274,W,0.83,292.71,020412,,,A*78
$GPGGA,102507.000,3353.7451,N,09832.0272,W,1,06,1.8,303.2,M,-23.7,M,,0000*6F
$GPGSA,A,3,04,05,10,25,12,02,,,,,,,3.1,1.8,2.5*38
$GPRMC,102507.000,A,3353.7451,N,09832.0272,W,0.34,141.37,020412,,,A*79
$GPGGA,102508.000,3353.7447,N,09832.0268,W,1,06,1.8,303.0,M,-23.7,M,,0000*6E
$GPGSA,A,3,04,05,10,25,12,02,,,,,,,3.1,1.8,2.5*38
$GPRMC,102508.000,A,3353.7447,N,09832.0268,W,1.13,132.25,020412,,,A*79
$GPGGA,102509.000,3353.7444,N,09832.0265,W,1,06,1.8,302.7,M,-23.7,M,,0000*67
$GPGSA,A,3,04,05,10,25,12,02,,,,,,,3.1,1.8,2.5*38
$GPRMC,102509.000,A,3353.7444,N,09832.0265,W,0.65,135.52,020412,,,A*71
$GPGGA,102510.000,3353.7442,N,09832.0263,W,1,06,1.8,302.5,M,-23.7,M,,0000*6D
$GPGSA,A,3,04,05,10,25,12,02,,,,,,,3.1,1.8,2.5*38
$GPRMC,102510.000,A,3353.7442,N,09832.0263,W,0.37,142.33,020412,,,A*79
$GPGGA,102511.000,3353.7440,N,09832.0263,W,1,06,1.8,302.2,M,-23.7,M,,0000*69
$GPGSA,A,3,04,05,10,25,12,02,,,,,,,3.1,1.8,2.5*38
$GPGSV,3,1,09,05,76,130,30,12,51,212,25,02,49,042,37,25,47,282,21*74
$GPGSV,3,2,09,10,29,046,38,29,28,312,26,04,17,063,30,26,07,147,22*72
$GPGSV,3,3,09,13,02,040,*44
$GPRMC,102511.000,A,3353.7440,N,09832.0263,W,0.26,275.13,020412,,,A*7F
$GPGGA,102512.000,3353.7438,N,09832.0261,W,1,06,1.8,301.9,M,-23.7,M,,0000*6F
$GPGSA,A,3,04,05,10,25,12,02,,,,,,,3.1,1.8,2.5*38
$GPRMC,102512.000,A,3353.7438,N,09832.0261,W,0.16,175.67,020412,,,A*72
$GPGGA,102513.000,3353.7435,N,09832.0259,W,1,06,1.8,301.7,M,-23.7,M,,0000*66
$GPGSA,A,3,04,05,10,25,12,02,,,,,,,3.1,1.8,2.5*38
$GPRMC,102513.000,A,3353.7435,N,09832.0259,W,0.27,142.49,020412,,,A*7F
$GPGGA,102514.000,3353.7432,N,09832.0255,W,1,06,1.8,301.6,M,-23.7,M,,0000*6B
$GPGSA,A,3,04,05,10,25,12,02,,,,,,,3.1,1.8,2.5*38
$GPRMC,102514.000,A,3353.7432,N,09832.0255,W,0.52,132.39,020412,,,A*71
$GPGGA,102515.000,3353.7428,N,09832.0251,W,1,06,1.8,301.5,M,-23.7,M,,0000*66
$GPGSA,A,3,04,05,10,25,12,02,,,,,,,3.1,1.8,2.5*38
$GPRMC,102515.000,A,3353.7428,N,09832.0251,W,0.76,134.16,020412,,,A*72
$GPGGA,102516.000,3353.7425,N,09832.0248,W,1,05,4.1,301.4,M,-23.7,M,,0000*6E
$GPGSA,A,3,04,05,10,12,02,,,,,,,,4.9,4.1,2.8*31
$GPGSV,3,1,09,05,76,130,31,12,51,212,20,02,49,042,38,25,47,282,22*7C
$GPGSV,3,2,09,10,29,046,39,29,28,312,23,04,17,063,31,26,07,147,21*74
$GPGSV,3,3,09,13,02,040,*44
$GPRMC,102516.000,A,3353.7425,N,09832.0248,W,0.11,170.11,020412,,,A*72
$GPGGA,102517.000,3353.7423,N,09832.0248,W,1,05,4.1,301.3,M,-23.7,M,,0000*6E
$GPGSA,A,3,04,05,10,12,02,,,,,,,,4.9,4.1,2.8*31
$GPRMC,102517.000,A,3353.7423,N,09832.0248,W,0.56,291.02,020412,,,A*78
$GPGGA,102518.000,3353.7423,N,09832.0249,W,1,05,4.1,301.0,M,-23.7,M,,0000*63
$GPGSA,A,3,04,05,10,12,02,,,,,,,,4.9,4.1,2.8*31
$GPRMC,102518.000,A,3353.7423,N,09832.0249,W,1.10,295.95,020412,,,A*7F
$GPGGA,102519.000,3353.7420,N,09832.0248,W,1,06,1.8,300.8,M,-23.7,M,,0000*66
$GPGSA,A,3,04,05,10,25,12,02,,,,,,,3.1,1.8,2.5*38
$GPRMC,102519.000,A,3353.7420,N,09832.0248,W,0.12,280.01,020412,,,A*76
$GPGGA,102520.000,3353.7417,N,09832.0245,W,1,06,1.8,300.5,M,-23.7,M,,0000*68
$GPGSA,A,3,04,05,10,25,12,02,,,,,,,3.1,1.8,2.5*38
$GPRMC,102520.000,A,3353.7417,N,09832.0245,W,0.36,162.68,020412,,,A*73
$GPGGA,102521.000,3353.7413,N,09832.0243,W,1,06,1.8,300.1,M,-23.7,M,,0000*6F
$GPGSA,A,3,04,05,10,25,12,02,,,,,,,3.1,1.8,2.5*38
$GPGSV,3,1,09,05,76,130,31,12,51,212,23,02,49,042,38,25,47,282,21*7C
$GPGSV,3,2,09,10,29,046,38,29,28,312,23,04,17,063,31,26,07,147,13*74
$GPGSV,3,3,09,13,02,040,*44
$GPRMC,102521.000,A,3353.7413,N,09832.0243,W,0.44,181.15,020412,,,A*72
$GPGGA,102522.000,3353.7409,N,09832.0239,W,1,06,1.8,299.9,M,-23.7,M,,0000*63
$GPGSA,A,3,04,05,10,25,12,02,,,,,,,3.1,1.8,2.5*38
$GPRMC,102522.000,A,3353.7409,N,09832.0239,W,0.62,145.37,020412,,,A*7B
$GPGGA,102523.000,3353.7406,N,09832.0236,W,1,06,1.8,299.8,M,-23.7,M,,0000*63
$GPGSA,A,3,04,05,10,25,12,02,,,,,,,3.1,1.8,2.5*38
$GPRMC,102523.000,A,3353.7406,N,09832.0236,W,0.25,131.05,020412,,,A*7B
$GPGGA,102524.000,3353.7404,N,09832.0233,W,1,06,1.8,299.8,M,-23.7,M,,0000*63
$GPGSA,A,3,04,05,10,25,12,02,,,,,,,3.1,1.8,2.5*38
$GPRMC,102524.000,A,3353.7404,N,09832.0233,W,0.44,127.44,020412,,,A*7E
$GPGGA,102525.000,3353.7402,N,09832.0230,W,1,06,1.8,299.8,M,-23.7,M,,0000*67
$GPGSA,A,3,04,05,10,25,12,02,,,,,,,3.1,1.8,2.5*38
$GPRMC,102525.000,A,3353.7402,N,09832.0230,W,0.45,119.79,020412,,,A*78
$GPGGA,102526.000,3353.7400,N,09832.0226,W,1,06,1.8,299.9,M,-23.7,M,,0000*60
$GPGSA,A,3,04,05,10,25,12,02,,,,,,,3.1,1.8,2.5*38
$GPGSV,3,1,09,05,76,130,31,12,51,212,24,02,49,042,38,25,47,282,22*78
$GPGSV,3,2,09,10,29,046,38,29,28,312,23,04,17,063,32,26,07,147,15*71
$GPGSV,3,3,09,13,02,040,*44
$GPRMC,102526.000,A,3353.7400,N,09832.0226,W,0.89,111.72,020412,,,A*7D
$GPGGA,102527.000,3353.7397,N,09832.0221,W,1,06,1.8,300.0,M,-23.7,M,,0000*67
$GPGSA,A,3,04,05,10,25,12,02,,,,,,,3.1,1.8,2.5*38
$GPRMC,102527.000,A,3353.7397,N,09832.0221,W,0.98,118.27,020412,,,A*7B
$GPGGA,102528.000,3353.7396,N,09832.0218,W,1,06,1.8,300.1,M,-23.7,M,,0000*62
$GPGSA,A,3,04,05,10,25,12,02,,,,,,,3.1,1.8,2.5*38
$GPRMC,102528.000,A,3353.7396,N,09832.0218,W,0.41,113.76,020412,,,A*74
$GPGGA,102529.000,3353.7395,N,09832.0215,W,1,06,1.8,300.3,M,-23.7,M,,0000*6F
$GPGSA,A,3,04,05,10,25,12,02,,,,,,,3.1,1.8,2.5*38
$GPRMC,102529.000,A,3353.7395,N,09832.0215,W,0.53,113.15,020412,,,A*7D
$GPGGA,102530.000,3353.7395,N,09832.0213,W,1,06,1.8,300.4,M,-23.7,M,,0000*66
$GPGSA,A,3,04,05,10,25,12,02,,,,,,,3.0,1.8,2.4*38
$GPRMC,102530.000,A,3353.7395,N,09832.0213,W,0.54,112.17,020412,,,A*77
$GPGGA,102531.000,3353.7395,N,09832.0212,W,1,06,1.8,300.4,M,-23.7,M,,0000*66
$GPGSA,A,3,04,05,10,25,12,02,,,,,,,3.0,1.8,2.4*38
$GPGSV,3,1,09,05,76,130,31,12,51,212,25,02,49,042,39,25,47,282,16*7F
$GPGSV,3,2,09,10,29,046,38,29,28,312,23,04,17,063,32,26,07,147,16*72
$GPGSV,3,3,09,13,02,040,*44
$GPRMC,102531.000,A,3353.7395,N,09832.0212,W,0.51,111.57,020412,,,A*75
$GPGGA,102532.000,3353.7394,N,09832.0209,W,1,06,1.8,300.6,M,-23.7,M,,0000*6C
$GPGSA,A,3,04,05,10,25,12,02,,,,,,,3.0,1.8,2.4*38
$GPRMC,102532.000,A,3353.7394,N,09832.0209,W,0.99,120.36,020412,,,A*7C
$GPGGA,102533.000,3353.7393,N,09832.0207,W,1,06,1.8,300.8,M,-23.7,M,,0000*6A
$GPGSA,A,3,04,05,10,25,12,02,,,,,,,3.0,1.8,2.4*38
$GPRMC,102533.000,A,3353.7393,N,09832.0207,W,0.58,125.78,020412,,,A*76
$GPGGA,102534.000,3353.7393,N,09832.0207,W,1,06,1.8,300.9,M,-23.7,M,,0000*6C
$GPGSA,A,3,04,05,10,25,12,02,,,,,,,3.0,1.8,2.4*38
$GPRMC,102534.000,A,3353.7393,N,09832.0207,W,0.02,26.04,020412,,,A*47
$GPGGA,102535.000,3353.7393,N,09832.0207,W,1,06,1.8,301.0,M,-23.7,M,,0000*65
$GPGSA,A,3,04,05,10,25,12,02,,,,,,,3.0,1.8,2.4*38
$GPRMC,102535.000,A,3353.7393,N,09832.0207,W,0.17,292.06,020412,,,A*7D
$GPGGA,102536.000,3353.7394,N,09832.0208,W,1,06,1.8,301.1,M,-23.7,M,,0000*6F
$GPGSA,A,3,04,05,10,25,12,02,,,,,,,3.0,1.8,2.4*38
$GPGSV,3,1,10,05,76,124,31,12,50,211,25,02,48,044,39,25,47,280,17*74
$GPGSV,3,2,10,29,29,313,23,10,28,045,38,04,16,064,32,26,08,147,15*72
$GPGSV,3,3,10,13,02,039,,21,00,259,*7F
$GPRMC,102536.000,A,3353.7394,N,09832.0208,W,0.62,300.36,020412,,,A*7D
$GPGGA,102537.000,3353.7394,N,09832.0208,W,1,06,1.8,301.2,M,-23.7,M,,0000*6D
$GPGSA,A,3,04,05,10,25,12,02,,,,,,,3.0,1.8,2.4*38
$GPRMC,102537.000,A,3353.7394,N,09832.0208,W,0.05,308.39,020412,,,A*7A
$GPGGA,102538.000,3353.7393,N,09832.0207,W,1,06,1.8,301.1,M,-23.7,M,,0000*69
$GPGSA,A,3,04,05,10,25,12,02,,,,,,,3.0,1.8,2.4*38
$GPRMC,102538.000,A,3353.7393,N,09832.0207,W,0.38,143.58,020412,,,A*79
$GPGGA,102539.000,3353.7391,N,09832.0205,W,1,06,1.8,300.9,M,-23.7,M,,0000*61
$GPGSA,A,3,04,05,10,25,12,02,,,,,,,3.0,1.8,2.4*38
$GPRMC,102539.000,A,3353.7391,N,09832.0205,W,0.71,136.79,020412,,,A*74
$GPGGA,102540.000,3353.7389,N,09832.0203,W,1,06,1.8,300.6,M,-23.7,M,,0000*6F
$GPGSA,A,3,04,05,10,25,12,02,,,,,,,3.0,1.8,2.4*38
$GPRMC,102540.000,A,3353.7389,N,09832.0203,W,0.93,134.09,020412,,,A*7C
$GPGGA,102541.000,3353.7386,N,09832.0201,W,1,06,1.8,300.3,M,-23.7,M,,0000*66
$GPGSA,A,3,04,05,10,25,12,02,,,,,,,3.0,1.8,2.4*38
$GPGSV,3,1,10,05,76,124,31,12,50,211,26,02,48,044,39,25,47,280,16*76
$GPGSV,3,2,10,29,29,313,23,10,28,045,38,04,16,064,32,26,08,147,17*70
$GPGSV,3,3,10,13,02,039,,21,00,259,*7F
$GPRMC,102541.000,A,3353.7386,N,09832.0201,W,0.93,132.89,020412,,,A*7E
$GPGGA,102542.000,3353.7384,N,09832.0200,W,1,05,4.1,299.9,M,-23.7,M,,0000*62
$GPGSA,A,3,04,05,10,12,02,,,,,,,,4.9,4.1,2.7*3E
$GPRMC,102542.000,A,3353.7384,N,09832.0200,W,1.05,132.91,020412,,,A*79
$GPGGA,102543.000,3353.7381,N,09832.0198,W,1,05,4.1,299.5,M,-23.7,M,,0000*68
$GPGSA,A,3,04,05,10,12,02,,,,,,,,4.9,4.1,2.7*3E
$GPRMC,102543.000,A,3353.7381,N,09832.0198,W,1.08,131.32,020412,,,A*78
$GPGGA,102544.000,3353.7378,N,09832.0197,W,1,05,4.1,299.0,M,-23.7,M,,0000*63
$GPGSA,A,3,04,05,10,12,02,,,,,,,,4.9,4.1,2.7*3E
$GPRMC,102544.000,A,3353.7378,N,09832.0197,W,1.07,131.99,020412,,,A*78
$GPGGA,102545.000,3353.7375,N,09832.0195,W,1,06,1.8,298.7,M,-23.7,M,,0000*64
$GPGSA,A,3,04,05,10,25,12,02,,,,,,,3.0,1.8,2.4*38
$GPRMC,102545.000,A,3353.7375,N,09832.0195,W,1.08,131.69,020412,,,A*76
$GPGGA,102546.000,3353.7373,N,09832.0193,W,1,06,1.8,298.3,M,-23.7,M,,0000*63
$GPGSA,A,3,04,05,10,25,12,02,,,,,,,3.0,1.8,2.4*38
$GPGSV,3,1,10,05,76,124,31,12,50,211,27,02,48,044,39,25,47,280,23*71
$GPGSV,3,2,10,29,29,313,22,10,28,045,38,04,16,064,32,26,08,147,19*7F
$GPGSV,3,3,10,13,02,039,,21,00,259,*7F
$GPRMC,102546.000,A,3353.7373,N,09832.0193,W,0.55,140.52,020412,,,A*72
$GPGGA,102547.000,3353.7371,N,09832.0193,W,1,06,1.8,298.0,M,-23.7,M,,0000*63
$GPGSA,A,3,04,05,10,25,12,02,,,,,,,3.0,1.8,2.4*38
$GPRMC,102547.000,A,3353.7371,N,09832.0193,W,0.15,243.82,020412,,,A*78
$GPGGA,102548.000,3353.7368,N,09832.0191,W,1,06,1.8,297.8,M,-23.7,M,,0000*61
$GPGSA,A,3,04,05,10,25,12,02,,,,,,,3.0,1.8,2.4*38
$GPRMC,102548.000,A,3353.7368,N,09832.0191,W,0.53,134.12,020412,,,A*75
$GPGGA,102549.000,3353.7365,N,09832.0188,W,1,06,1.8,297.6,M,-23.7,M,,0000*6B
$GPGSA,A,3,04,05,10,25,12,02,,,,,,,3.0,1.8,2.4*38
$GPRMC,102549.000,A,3353.7365,N,09832.0188,W,0.71,130.98,020412,,,A*77
$GPGGA,102550.000,3353.7362,N,09832.0185,W,1,06,1.8,297.5,M,-23.7,M,,0000*6A
$GPGSA,A,3,04,05,10,25,12,02,,,,,,,3.0,1.8,2.4*38
$GPRMC,102550.000,A,3353.7362,N,09832.0185,W,0.53,130.05,020412,,,A*71
$GPGGA,102551.000,3353.7358,N,09832.0181,W,1,06,1.8,297.4,M,-23.7,M,,0000*67
$GPGSA,A,3,04,05,10,25,12,02,,,,,,,3.0,1.8,2.4*38
$GPGSV,3,1,10,05,76,124,30,12,50,211,28,02,48,044,39,25,47,280,24*78
$GPGSV,3,2,10,29,29,313,23,10,28,045,38,04,16,064,31,26,08,147,20*77
$GPGSV,3,3,10,13,02,039,,21,00,259,*7F
$GPRMC,102551.000,A,3353.7358,N,09832.0181,W,0.55,131.73,020412,,,A*7B
$GPGGA,102552.000,3353.7356,N,09832.0179,W,1,06,1.8,297.3,M,-23.7,M,,0000*6A
$GPGSA,A,3,04,05,10,25,12,02,,,,,,,3.0,1.8,2.4*38
$GPRMC,102552.000,A,3353.7356,N,09832.0179,W,0.05,227.26,020412,,,A*70
$GPGGA,102553.000,3353.7354,N,09832.0177,W,1,06,1.8,297.3,M,-23.7,M,,0000*67
$GPGSA,A,3,04,05,10,25,12,02,,,,,,,3.0,1.8,2.4*38
$GPRMC,102553.000,A,3353.7354,N,09832.0177,W,0.29,300.43,020412,,,A*74
$GPGGA,102554.000,3353.7352,N,09832.0174,W,1,06,1.8,297.3,M,-23.7,M,,0000*65
$GPGSA,A,3,04,05,10,25,12,02,,,,,,,3.0,1.8,2.4*38
$GPRMC,102554.000,A,3353.7352,N,09832.0174,W,0.03,289.98,020412,,,A*78
$GPGGA,102555.000,3353.7349,N,09832.0170,W,1,06,1.8,297.4,M,-23.7,M,,0000*6D
$GPGSA,A,3,04,05,10,25,12,02,,,,,,,3.0,1.8,2.4*38
$GPRMC,102555.000,A,3353.7349,N,09832.0170,W,0.45,121.32,020412,,,A*74
$GPGGA,102556.000,3353.7347,N,09832.0167,W,1,06,1.8,297.4,M,-23.7,M,,0000*66
$GPGSA,A,3,04,05,10,25,12,02,,,,,,,3.0,1.8,2.4*38
$GPGSV,3,1,10,05,76,124,29,12,50,210,30,02,48,044,40,25,47,280,24*76
$GPGSV,3,2,10,29,30,313,24,10,28,045,38,04,16,064,31,26,08,146,15*7F
$GPGSV,3,3,10,13,02,039,,21,00,259,*7F
$GPRMC,102556.000,A,3353.7347,N,09832.0167,W,0.14,127.25,020412,,,A*7B
$GPGGA,102557.000,3353.7345,N,09832.0164,W,1,06,1.8,297.4,M,-23.7,M,,0000*66
$GPGSA,A,3,04,05,10,25,12,02,,,,,,,3.0,1.8,2.4*38
$GPRMC,102557.000,A,3353.7345,N,09832.0164,W,0.32,123.96,020412,,,A*73
$GPGGA,102558.000,3353.7344,N,09832.0164,W,1,06,1.8,297.4,M,-23.7,M,,0000*68
$GPGSA,A,3,04,05,10,25,12,02,,,,,,,3.0,1.8,2.4*38
$GPRMC,102558.000,A,3353.7344,N,09832.0164,W,0.54,301.08,020412,,,A*78
$GPGGA,102559.000,3353.7345,N,09832.0165,W,1,06,1.8,297.4,M,-23.7,M,,0000*69
$GPGSA,A,3,04,05,10,25,12,02,,,,,,,3.0,1.8,2.4*38
$GPRMC,102559.000,A,3353.7345,N,09832.0165,W,0.76,302.90,020412,,,A*7B
$GPGGA,102600.000,3353.7344,N,09832.0164,W,1,06,1.8,297.3,M,-23.7,M,,0000*61
$GPGSA,A,3,04,05,10,25,12,02,,,,,,,3.0,1.8,2.4*38
$GPRMC,102600.000,A,3353.7344,N,09832.0164,W,0.15,306.22,020412,,,A*7C
$GPGGA,102601.000,3353.7343,N,09832.0162,W,1,06,1.8,297.3,M,-23.7,M,,0000*61
$GPGSA,A,3,04,05,10,25,12,02,,,,,,,3.0,1.8,2.4*38
$GPGSV,3,1,10,05,76,124,29,12,50,210,31,02,48,044,40,25,47,280,24*77
$GPGSV,3,2,10,29,30,313,24,10,28,045,38,04,16,064,30,26,08,146,13*78
$GPGSV,3,3,10,13,02,039,,21,00,259,*7F
$GPRMC,102601.000,A,3353.7343,N,09832.0162,W,0.06,233.20,020412,,,A*7B
$GPGGA,102602.000,3353.7343,N,09832.0160,W,1,06,1.8,297.3,M,-23.7,M,,0000*60
$GPGSA,A,3,04,05,10,25,12,02,,,,,,,3.0,1.8,2.4*38
$GPRMC,102602.000,A,3353.7343,N,09832.0160,W,0.08,115.36,020412,,,A*74
$GPGGA,102603.000,3353.7343,N,09832.0159,W,1,06,1.8,297.3,M,-23.7,M,,0000*6B
$GPGSA,A,3,04,05,10,25,12,02,,,,,,,3.0,1.8,2.4*38
$GPRMC,102603.000,A,3353.7343,N,09832.0159,W,0.20,116.68,020412,,,A*7D
$GPGGA,102604.000,3353.7344,N,09832.0160,W,1,06,1.8,297.2,M,-23.7,M,,0000*60
$GPGSA,A,3,04,05,10,25,12,02,,,,,,,3.0,1.8,2.4*38
$GPRMC,102604.000,A,3353.7344,N,09832.0160,W,0.12,312.33,020412,,,A*7E
$GPGGA,102605.000,3353.7345,N,09832.0161,W,1,06,1.8,297.0,M,-23.7,M,,0000*63
$GPGSA,A,3,04,05,10,25,12,02,,,,,,,3.0,1.8,2.4*38
$GPRMC,102605.000,A,3353.7345,N,09832.0161,W,0.04,332.36,020412,,,A*7F
$GPGGA,102606.000,3353.7347,N,09832.0165,W,1,06,1.8,296.8,M,-23.7,M,,0000*6F
$GPGSA,A,3,04,05,10,25,12,02,,,,,,,3.0,1.8,2.4*38
$GPGSV,3,1,10,05,76,124,29,12,50,210,31,02,48,044,41,25,47,280,23*71
$GPGSV,3,2,10,29,30,313,24,10,28,045,38,04,16,064,29,26,08,146,12*71
$GPGSV,3,3,10,13,02,039,,21,00,259,*7F
$GPRMC,102606.000,A,3353.7347,N,09832.0165,W,0.70,298.32,020412,,,A*7C
$GPGGA,102607.000,3353.7350,N,09832.0169,W,1,06,1.8,296.6,M,-23.7,M,,0000*6A
$GPGSA,A,3,04,05,10,25,12,02,,,,,,,3.0,1.8,2.4*38
$GPRMC,102607.000,A,3353.7350,N,09832.0169,W,0.84,303.24,020412,,,A*78
$GPGGA,102608.000,3353.7352,N,09832.0172,W,1,06,1.8,296.4,M,-23.7,M,,0000*6F
$GPGSA,A,3,04,05,10,25,12,02,,,,,,,3.0,1.8,2.4*38
$GPRMC,102608.000,A,3353.7352,N,09832.0172,W,0.16,278.58,020412,,,A*72
$GPGGA,102609.000,3353.7353,N,09832.0171,W,1,06,1.8,296.3,M,-23.7,M,,0000*6B
$GPGSA,A,3,04,05,10,25,12,02,,,,,,,3.0,1.8,2.4*38
$GPRMC,102609.000,A,3353.7353,N,09832.0171,W,0.52,126.78,020412,,,A*7B
$GPGGA,102610.000,3353.7353,N,09832.0171,W,1,06,1.8,296.3,M,-23.7,M,,0000*63
$GPGSA,A,3,04,05,10,25,12,02,,,,,,,3.0,1.8,2.4*38
$GPRMC,102610.000,A,3353.7353,N,09832.0171,W,0.42,133.26,020412,,,A*7D
$GPGGA,102611.000,3353.7354,N,09832.0172,W,1,06,1.8,296.3,M,-23.7,M,,0000*66
$GPGSA,A,3,04,05,10,25,12,02,,,,,,,3.0,1.8,2.4*38
$GPGSV,3,1,10,05,76,124,28,12,50,210,32,02,48,044,41,25,47,280,24*74
$GPGSV,3,2,10,29,30,313,24,10,28,045,38,04,16,064,29,26,08,146,14*77
$GPGSV,3,3,10,13,02,039,,21,00,259,*7F
$GPRMC,102611.000,A,3353.7354,N,09832.0172,W,0.12,259.70,020412,,,A*71
$GPGGA,102612.000,3353.7356,N,09832.0176,W,1,06,1.8,296.3,M,-23.7,M,,0000*63
$GPGSA,A,3,04,05,10,25,12,02,,,,,,,3.0,1.8,2.4*38
$GPRMC,102612.000,A,3353.7356,N,09832.0176,W,0.94,300.35,020412,,,A*76
$GPGGA,102613.000,3353.7358,N,09832.0177,W,1,06,1.8,296.2,M,-23.7,M,,0000*6C
$GPGSA,A,3,04,05,10,25,12,02,,,,,,,3.0,1.8,2.4*38
$GPRMC,102613.000,A,3353.7358,N,09832.0177,W,0.26,299.49,020412,,,A*7B
$GPGGA,102614.000,3353.7359,N,09832.0179,W,1,06,1.8,296.2,M,-23.7,M,,0000*64
$GPGSA,A,3,04,05,10,25,12,02,,,,,,,3.0,1.8,2.4*38
$GPRMC,102614.000,A,3353.7359,N,09832.0179,W,0.08,280.76,020412,,,A*7B
$GPGGA,102615.000,3353.7361,N,09832.0180,W,1,06,1.8,296.2,M,-23.7,M,,0000*68
$GPGSA,A,3,04,05,10,25,12,02,,,,,,,3.0,1.8,2.4*38
$GPRMC,102615.000,A,3353.7361,N,09832.0180,W,0.10,132.47,020412,,,A*76
$GPGGA,102616.000,3353.7362,N,09832.0181,W,1,06,1.8,296.1,M,-23.7,M,,0000*6A
$GPGSA,A,3,04,05,10,25,12,02,,,,,,,3.0,1.8,2.4*38
$GPGSV,3,1,10,05,76,124,28,12,50,210,33,02,48,044,42,25,47,280,24*76
$GPGSV,3,2,10,29,30,313,24,10,28,045,38,04,16,064,29,26,08,146,16*75
$GPGSV,3,3,10,13,02,039,,21,00,259,*7F
$GPRMC,102616.000,A,3353.7362,N,09832.0181,W,0.24,292.65,020412,,,A*79
$GPGGA,102617.000,3353.7364,N,09832.0184,W,1,06,1.8,296.0,M,-23.7,M,,0000*69
$GPGSA,A,3,04,05,10,25,12,02,,,,,,,3.0,1.8,2.4*38
$GPRMC,102617.000,A,3353.7364,N,09832.0184,W,0.32,301.69,020412,,,A*7B
$GPGGA,102618.000,3353.7367,N,09832.0187,W,1,06,1.8,295.9,M,-23.7,M,,0000*6C
$GPGSA,A,3,04,05,10,25,12,02,,,,,,,3.0,1.8,2.4*38
