$GPGGA,011127.000,3351.4557,N,09832.0548,W,2,09,0.9,285.5,M,-23.7,M,0.8,0000*40
$GPGSA,A,3,11,23,13,19,06,10,08,03,07,,,,1.7,0.9,1.4*38
$GPRMC,011127.000,A,3351.4557,N,09832.0548,W,0.10,172.35,030412,,,D*74
$GPGGA,011128.000,3351.4557,N,09832.0548,W,2,09,0.9,285.7,M,-23.7,M,0.8,0000*4D
$GPGSA,A,3,11,23,13,19,06,10,08,03,07,,,,1.7,0.9,1.4*38
$GPRMC,011128.000,A,3351.4557,N,09832.0548,W,0.17,185.40,030412,,,D*76
$GPGGA,011129.000,3351.4556,N,09832.0549,W,2,09,0.9,285.7,M,-23.7,M,0.8,0000*4C
$GPGSA,A,3,11,23,13,19,06,10,08,03,07,,,,1.7,0.9,1.4*38
$GPRMC,011129.000,A,3351.4556,N,09832.0549,W,0.10,162.06,030412,,,D*7B
$GPGGA,011130.000,3351.4556,N,09832.0549,W,2,09,0.9,285.6,M,-23.7,M,0.8,0000*45
$GPGSA,A,3,11,23,13,19,06,10,08,03,07,,,,1.7,0.9,1.4*38
$GPGSV,3,1,12,13,73,202,38,07,56,335,39,19,55,108,41,23,43,167,38*77
$GPGSV,3,2,12,03,39,055,34,06,26,048,25,08,25,304,33,10,16,263,22*75
$GPGSV,3,3,12,28,14,245,,16,13,051,,11,13,146,30,05,02,314,*74
$GPRMC,011130.000,A,3351.4556,N,09832.0549,W,0.08,214.59,030412,,,D*72
$GPGGA,011131.000,3351.4556,N,09832.0549,W,2,09,0.9,285.8,M,-23.7,M,1.8,0000*4B
$GPGSA,A,3,11,23,13,19,06,10,08,03,07,,,,1.7,0.9,1.4*38
$GPRMC,011131.000,A,3351.4556,N,09832.0549,W,0.15,132.31,030412,,,D*76
$GPGGA,011132.000,3351.4556,N,09832.0549,W,2,10,0.8,285.7,M,-23.7,M,2.8,0000*4D
$GPGSA,A,3,11,23,13,19,06,10,08,03,07,28,,,1.6,0.8,1.3*35
$GPRMC,011132.000,A,3351.4556,N,09832.0549,W,0.17,219.19,030412,,,D*77
$GPGGA,011133.000,3351.4556,N,09832.0549,W,2,10,0.8,285.5,M,-23.7,M,0.8,0000*4C
$GPGSA,A,3,11,23,13,19,06,10,08,03,07,28,,,1.6,0.8,1.3*35
$GPRMC,011133.000,A,3351.4556,N,09832.0549,W,0.16,223.09,030412,,,D*7F
$GPGGA,011134.000,3351.4556,N,09832.0550,W,2,10,0.8,285.4,M,-23.7,M,0.8,0000*42
$GPGSA,A,3,11,23,13,19,06,10,08,03,07,28,,,1.6,0.8,1.3*35
$GPRMC,011134.000,A,3351.4556,N,09832.0550,W,0.15,211.24,030412,,,D*7D
$GPGGA,011135.000,3351.4556,N,09832.0550,W,2,10,0.8,285.4,M,-23.7,M,0.8,0000*43
$GPGSA,A,3,11,23,13,19,06,10,08,03,07,28,,,1.6,0.8,1.3*35
$GPGSV,3,1,12,13,73,202,38,07,56,335,39,19,55,108,41,23,43,167,38*77
$GPGSV,3,2,12,03,39,055,35,06,26,048,25,08,25,304,33,10,16,263,23*75
$GPGSV,3,3,12,28,14,245,18,16,13,051,,11,13,146,30,05,02,314,*7D
$GPRMC,011135.000,A,3351.4556,N,09832.0550,W,0.06,188.31,030412,,,D*79
$GPGGA,011136.000,3351.4556,N,09832.0550,W,2,10,0.8,285.5,M,-23.7,M,1.8,0000*40
$GPGSA,A,3,11,23,13,19,06,10,08,03,07,28,,,1.6,0.8,1.3*35
$GPRMC,011136.000,A,3351.4556,N,09832.0550,W,0.09,99.71,030412,,,D*40
$GPGGA,011137.000,3351.4557,N,09832.0550,W,2,10,0.8,285.4,M,-23.7,M,0.8,0000*40
$GPGSA,A,3,11,23,13,19,06,10,08,03,07,28,,,1.6,0.8,1.3*35
$GPRMC,011137.000,A,3351.4557,N,09832.0550,W,0.09,233.01,030412,,,D*75
$GPGGA,011138.000,3351.4557,N,09832.0551,W,2,10,0.8,285.4,M,-23.7,M,0.8,0000*4E
$GPGSA,A,3,11,23,13,19,06,10,08,03,07,28,,,1.6,0.8,1.3*35
$GPRMC,011138.000,A,3351.4557,N,09832.0551,W,0.02,309.28,030412,,,D*73
$GPGGA,011139.000,3351.4557,N,09832.0551,W,2,10,0.8,285.4,M,-23.7,M,0.8,0000*4F
$GPGSA,A,3,11,23,13,19,06,10,08,03,07,28,,,1.6,0.8,1.3*35
$GPRMC,011139.000,A,3351.4557,N,09832.0551,W,0.09,232.95,030412,,,D*76
$GPGGA,011140.000,3351.4557,N,09832.0551,W,2,10,0.8,285.4,M,-23.7,M,0.8,0000*41
$GPGSA,A,3,11,23,13,19,06,10,08,03,07,28,,,1.6,0.8,1.3*35
$GPGSV,3,1,12,13,73,202,38,07,56,335,39,19,55,108,41,23,43,167,38*77
$GPGSV,3,2,12,03,39,055,36,06,26,048,25,08,25,304,33,10,16,263,23*76
$GPGSV,3,3,12,28,14,245,19,16,13,051,,11,13,146,30,05,02,314,*7C
$GPRMC,011140.000,A,3351.4557,N,09832.0551,W,0.17,232.15,030412,,,D*7F
$GPGGA,011141.000,3351.4557,N,09832.0551,W,2,11,0.8,285.5,M,-23.7,M,0.8,0000*40
$GPGSA,A,3,11,23,13,19,06,10,08,03,07,28,16,,1.4,0.8,1.2*31
$GPRMC,011141.000,A,3351.4557,N,09832.0551,W,0.20,115.85,030412,,,D*75
$GPGGA,011142.000,3351.4557,N,09832.0551,W,2,11,0.8,285.5,M,-23.7,M,0.8,0000*43
$GPGSA,A,3,11,23,13,19,06,10,08,03,07,28,16,,1.4,0.8,1.2*31
$GPRMC,011142.000,A,3351.4557,N,09832.0551,W,0.14,157.19,030412,,,D*72
$GPGGA,011143.000,3351.4557,N,09832.0551,W,2,11,0.8,285.5,M,-23.7,M,1.8,0000*43
$GPGSA,A,3,11,23,13,19,06,10,08,03,07,28,16,,1.4,0.8,1.2*31
$GPRMC,011143.000,A,3351.4557,N,09832.0551,W,0.16,148.03,030412,,,D*74
$GPGGA,011144.000,3351.4557,N,09832.0551,W,2,11,0.8,285.5,M,-23.7,M,2.8,0000*47
$GPGSA,A,3,11,23,13,19,06,10,08,03,07,28,16,,1.4,0.8,1.2*31
$GPRMC,011144.000,A,3351.4557,N,09832.0551,W,0.12,182.89,030412,,,D*73
$GPGGA,011145.000,3351.4557,N,09832.0551,W,2,11,0.8,285.5,M,-23.7,M,0.8,0000*44
$GPGSA,A,3,11,23,13,19,06,10,08,03,07,28,16,,1.4,0.8,1.2*31
$GPGSV,3,1,12,13,73,202,38,07,56,335,40,19,55,108,41,23,43,167,38*79
$GPGSV,3,2,12,03,39,055,36,06,26,048,25,08,25,304,33,10,16,263,23*76
$GPGSV,3,3,12,28,14,245,20,16,13,051,20,11,13,146,30,05,02,314,*74
$GPRMC,011145.000,A,3351.4557,N,09832.0551,W,0.07,153.18,030412,,,D*72
$GPGGA,011146.000,3351.4557,N,09832.0551,W,2,11,0.8,285.5,M,-23.7,M,0.8,0000*47
$GPGSA,A,3,11,23,13,19,06,10,08,03,07,28,16,,1.4,0.8,1.2*31
$GPRMC,011146.000,A,3351.4557,N,09832.0551,W,0.15,82.79,030412,,,D*48
$GPGGA,011147.000,3351.4557,N,09832.0550,W,2,11,0.8,285.6,M,-23.7,M,0.8,0000*44
$GPGSA,A,3,11,23,13,19,06,10,08,03,07,28,16,,1.4,0.8,1.2*31
$GPRMC,011147.000,A,3351.4557,N,09832.0550,W,0.20,69.80,030412,,,D*4D
$GPGGA,011148.000,3351.4558,N,09832.0550,W,2,11,0.8,285.7,M,-23.7,M,1.8,0000*44
$GPGSA,A,3,11,23,13,19,06,10,08,03,07,28,16,,1.4,0.8,1.2*31
$GPRMC,011148.000,A,3351.4558,N,09832.0550,W,0.11,58.17,030412,,,D*43
$GPGGA,011149.000,3351.4558,N,09832.0549,W,2,11,0.8,285.8,M,-23.7,M,2.8,0000*41
$GPGSA,A,3,11,23,13,19,06,10,08,03,07,28,16,,1.4,0.8,1.2*31
$GPRMC,011149.000,A,3351.4558,N,09832.0549,W,0.10,76.15,030412,,,D*45
$GPGGA,011150.000,3351.4558,N,09832.0549,W,2,11,0.8,286.0,M,-23.7,M,3.8,0000*43
$GPGSA,A,3,11,23,13,19,06,10,08,03,07,28,16,,1.4,0.8,1.2*31
$GPGSV,3,1,12,13,73,202,38,07,56,335,40,19,55,108,41,23,43,167,38*79
$GPGSV,3,2,12,03,39,055,36,06,26,048,26,08,25,304,33,10,16,263,22*74
$GPGSV,3,3,12,28,14,245,20,16,13,051,20,11,13,146,31,05,02,314,*75
$GPRMC,011150.000,A,3351.4558,N,09832.0549,W,0.07,139.81,030412,,,D*7C
$GPGGA,011151.000,3351.4558,N,09832.0549,W,2,11,0.8,286.1,M,-23.7,M,0.8,0000*40
$GPGSA,A,3,11,23,13,19,06,10,08,03,07,28,16,,1.4,0.8,1.2*31
$GPRMC,011151.000,A,3351.4558,N,09832.0549,W,0.09,159.23,030412,,,D*7D
$GPGGA,011152.000,3351.4558,N,09832.0549,W,2,11,0.8,286.2,M,-23.7,M,0.8,0000*40
$GPGSA,A,3,11,23,13,19,06,10,08,03,07,28,16,,1.4,0.8,1.2*31
$GPRMC,011152.000,A,3351.4558,N,09832.0549,W,0.08,184.15,030412,,,D*7A
$GPGGA,011153.000,3351.4558,N,09832.0549,W,2,11,0.8,286.2,M,-23.7,M,0.8,0000*41
$GPGSA,A,3,11,23,13,19,06,10,08,03,07,28,16,,1.4,0.8,1.2*31
$GPRMC,011153.000,A,3351.4558,N,09832.0549,W,0.11,209.45,030412,,,D*70
$GPGGA,011154.000,3351.4558,N,09832.0549,W,2,11,0.8,286.1,M,-23.7,M,1.8,0000*44
$GPGSA,A,3,11,23,13,19,06,10,08,03,07,28,16,,1.4,0.8,1.2*31
$GPRMC,011154.000,A,3351.4558,N,09832.0549,W,0.08,120.10,030412,,,D*77
$GPGGA,011155.000,3351.4558,N,09832.0549,W,2,11,0.8,286.1,M,-23.7,M,2.8,0000*46
$GPGSA,A,3,11,23,13,19,06,10,08,03,07,28,16,,1.4,0.8,1.2*31
$GPGSV,3,1,12,13,73,202,38,07,56,335,40,19,55,108,40,23,43,167,39*79
$GPGSV,3,2,12,03,39,055,36,06,26,048,26,08,25,304,33,10,16,263,21*77
$GPGSV,3,3,12,28,14,245,20,16,13,051,21,11,13,146,31,05,02,314,*74
$GPRMC,011155.000,A,3351.4558,N,09832.0549,W,0.11,108.55,030412,,,D*75
$GPGGA,011156.000,3351.4558,N,09832.0548,W,2,11,0.8,286.2,M,-23.7,M,0.8,0000*45
$GPGSA,A,3,11,23,13,19,06,10,08,03,07,28,16,,1.4,0.8,1.2*31
$GPRMC,011156.000,A,3351.4558,N,09832.0548,W,0.09,131.70,030412,,,D*73
$GPGGA,011157.000,3351.4558,N,09832.0548,W,2,11,0.8,286.2,M,-23.7,M,0.8,0000*44
$GPGSA,A,3,11,23,13,19,06,10,08,03,07,28,16,,1.4,0.8,1.2*31
$GPRMC,011157.000,A,3351.4558,N,09832.0548,W,0.08,79.93,030412,,,D*43
$GPGGA,011158.000,3351.4559,N,09832.0548,W,2,11,0.8,286.1,M,-23.7,M,0.8,0000*49
$GPGSA,A,3,11,23,13,19,06,10,08,03,07,28,16,,1.4,0.8,1.2*31
$GPRMC,011158.000,A,3351.4559,N,09832.0548,W,0.10,72.01,030412,,,D*44
$GPGGA,011159.000,3351.4559,N,09832.0548,W,2,11,0.8,286.0,M,-23.7,M,0.8,0000*49
$GPGSA,A,3,11,23,13,19,06,10,08,03,07,28,16,,1.4,0.8,1.2*31
$GPRMC,011159.000,A,3351.4559,N,09832.0548,W,0.02,75.92,030412,,,D*4B
$GPGGA,011200.000,3351.4559,N,09832.0547,W,2,11,0.8,286.0,M,-23.7,M,1.8,0000*48
$GPGSA,A,3,11,23,13,19,06,10,08,03,07,28,16,,1.4,0.8,1.2*31
$GPGSV,3,1,12,13,73,202,38,07,56,335,40,19,55,108,40,23,43,167,39*79
$GPGSV,3,2,12,03,39,055,36,06,26,048,27,08,25,304,33,10,16,263,20*77
$GPGSV,3,3,12,28,14,245,19,16,13,051,21,11,13,146,31,05,02,314,*7E
$GPRMC,011200.000,A,3351.4559,N,09832.0547,W,0.12,70.59,030412,,,D*48
$GPGGA,011201.000,3351.4560,N,09832.0547,W,2,11,0.8,286.0,M,-23.7,M,2.8,0000*40
$GPGSA,A,3,11,23,13,19,06,10,08,03,07,28,16,,1.4,0.8,1.2*31
$GPRMC,011201.000,A,3351.4560,N,09832.0547,W,0.28,70.33,030412,,,D*46
$GPGGA,011202.000,3351.4560,N,09832.0546,W,2,11,0.8,286.2,M,-23.7,M,3.8,0000*41
$GPGSA,A,3,11,23,13,19,06,10,08,03,07,28,16,,1.4,0.8,1.2*31
$GPRMC,011202.000,A,3351.4560,N,09832.0546,W,0.11,87.31,030412,,,D*44
$GPGGA,011203.000,3351.4560,N,09832.0546,W,2,11,0.8,286.3,M,-23.7,M,0.8,0000*42
$GPGSA,A,3,11,23,13,19,06,10,08,03,07,28,16,,1.4,0.8,1.2*31
$GPRMC,011203.000,A,3351.4560,N,09832.0546,W,0.17,96.67,030412,,,D*40
$GPGGA,011204.000,3351.4560,N,09832.0545,W,2,11,0.8,286.4,M,-23.7,M,0.8,0000*41
$GPGSA,A,3,11,23,13,19,06,10,08,03,07,28,16,,1.4,0.8,1.2*31
$GPRMC,011204.000,A,3351.4560,N,09832.0545,W,0.23,78.79,030412,,,D*4C
$GPGGA,011205.000,3351.4560,N,09832.0545,W,2,11,0.8,286.5,M,-23.7,M,0.8,0000*41
$GPGSA,A,3,11,23,13,19,06,10,08,03,07,28,16,,1.4,0.8,1.2*31
$GPGSV,3,1,12,13,73,202,38,07,56,335,40,19,55,108,41,23,43,167,39*78
$GPGSV,3,2,12,03,39,055,36,06,26,048,27,08,25,304,34,10,16,263,20*70
$GPGSV,3,3,12,28,14,245,20,16,13,051,20,11,13,146,31,05,02,314,*75
$GPRMC,011205.000,A,3351.4560,N,09832.0545,W,0.19,87.71,030412,,,D*4C
$GPGGA,011206.000,3351.4560,N,09832.0545,W,2,11,0.8,286.6,M,-23.7,M,0.8,0000*41
$GPGSA,A,3,11,23,13,19,06,10,08,03,07,28,16,,1.4,0.8,1.2*31
$GPRMC,011206.000,A,3351.4560,N,09832.0545,W,0.16,177.93,030412,,,D*72
$GPGGA,011207.000,3351.4560,N,09832.0545,W,2,11,0.8,286.8,M,-23.7,M,1.8,0000*4F
$GPGSA,A,3,11,23,13,19,06,10,08,03,07,28,16,,1.4,0.8,1.2*31
$GPRMC,011207.000,A,3351.4560,N,09832.0545,W,0.17,177.55,030412,,,D*78
$GPGGA,011208.000,3351.4559,N,09832.0545,W,2,11,0.8,286.9,M,-23.7,M,0.8,0000*4A
$GPGSA,A,3,11,23,13,19,06,10,08,03,07,28,16,,1.4,0.8,1.2*31
$GPRMC,011208.000,A,3351.4559,N,09832.0545,W,0.24,190.94,030412,,,D*79
$GPGGA,011209.000,3351.4559,N,09832.0545,W,2,11,0.8,286.9,M,-23.7,M,0.8,0000*4B
$GPGSA,A,3,11,23,13,19,06,10,08,03,07,28,16,,1.4,0.8,1.2*31
$GPRMC,011209.000,A,3351.4559,N,09832.0545,W,0.10,165.70,030412,,,D*7F
$GPGGA,011210.000,3351.4559,N,09832.0545,W,2,11,0.8,287.0,M,-23.7,M,0.8,0000*4B
$GPGSA,A,3,11,23,13,19,06,10,08,03,07,28,16,,1.4,0.8,1.2*31
$GPGSV,3,1,12,13,73,202,38,07,56,335,40,19,55,108,41,23,43,167,38*79
$GPGSV,3,2,12,03,39,055,36,06,26,048,27,08,25,304,34,10,16,263,20*70
$GPGSV,3,3,12,28,14,245,20,16,13,051,20,11,13,146,30,05,02,314,*74
$GPRMC,011210.000,A,3351.4559,N,09832.0545,W,0.23,203.81,030412,,,D*7A
$GPGGA,011211.000,3351.4559,N,09832.0545,W,2,11,0.8,287.1,M,-23.7,M,0.8,0000*4B
$GPGSA,A,3,11,23,13,19,06,10,08,03,07,28,16,,1.4,0.8,1.2*31
$GPRMC,011211.000,A,3351.4559,N,09832.0545,W,0.08,125.42,030412,,,D*7A
$GPGGA,011212.000,3351.4559,N,09832.0545,W,2,11,0.8,287.3,M,-23.7,M,0.8,0000*4A
$GPGSA,A,3,11,23,13,19,06,10,08,03,07,28,16,,1.4,0.8,1.2*31
$GPRMC,011212.000,A,3351.4559,N,09832.0545,W,0.14,85.60,030412,,,D*4F
$GPGGA,011213.000,3351.4559,N,09832.0545,W,2,11,0.8,287.4,M,-23.7,M,1.8,0000*4D
$GPGSA,A,3,11,23,13,19,06,10,08,03,07,28,16,,1.4,0.8,1.2*31
$GPRMC,011213.000,A,3351.4559,N,09832.0545,W,0.10,95.76,030412,,,D*4C
$GPGGA,011214.000,3351.4559,N,09832.0544,W,2,11,0.8,287.5,M,-23.7,M,2.8,0000*49
$GPGSA,A,3,11,23,13,19,06,10,08,03,07,28,16,,1.4,0.8,1.2*31
$GPRMC,011214.000,A,3351.4559,N,09832.0544,W,0.14,80.96,030412,,,D*44
$GPGGA,011215.000,3351.4560,N,09832.0544,W,2,11,0.8,287.5,M,-23.7,M,0.8,0000*40
$GPGSA,A,3,11,23,13,19,06,10,08,03,07,28,16,,1.4,0.8,1.2*31
$GPGSV,3,1,12,13,73,202,38,07,56,335,40,19,55,108,41,23,43,167,38*79
$GPGSV,3,2,12,03,39,055,36,06,26,048,27,08,25,304,34,10,16,263,20*70
$GPGSV,3,3,12,28,14,245,21,16,13,051,19,11,13,146,30,05,02,314,*7F
$GPRMC,011215.000,A,3351.4560,N,09832.0544,W,0.10,87.12,030412,,,D*40
$GPGGA,011216.000,3351.4560,N,09832.0544,W,2,11,0.8,287.4,M,-23.7,M,1.8,0000*43
$GPGSA,A,3,11,23,13,19,06,10,08,03,07,28,16,,1.4,0.8,1.2*31
$GPRMC,011216.000,A,3351.4560,N,09832.0544,W,0.06,122.17,030412,,,D*7F
$GPGGA,011217.000,3351.4560,N,09832.0544,W,2,11,0.8,287.3,M,-23.7,M,0.8,0000*44
$GPGSA,A,3,11,23,13,19,06,10,08,03,07,28,16,,1.4,0.8,1.2*31
$GPRMC,011217.000,A,3351.4560,N,09832.0544,W,0.16,189.44,030412,,,D*78
$GPGGA,011218.000,3351.4559,N,09832.0544,W,2,11,0.8,287.4,M,-23.7,M,1.8,0000*47
$GPGSA,A,3,11,23,13,19,06,10,08,03,07,28,16,,1.4,0.8,1.2*31
$GPRMC,011218.000,A,3351.4559,N,09832.0544,W,0.18,172.32,030412,,,D*76
$GPGGA,011219.000,3351.4559,N,09832.0543,W,2,11,0.8,287.7,M,-23.7,M,0.8,0000*43
$GPGSA,A,3,11,23,13,19,06,10,08,03,07,28,16,,1.4,0.8,1.2*31
$GPRMC,011219.000,A,3351.4559,N,09832.0543,W,0.18,110.00,030412,,,D*75
$GPGGA,011220.000,3351.4559,N,09832.0543,W,2,11,0.8,287.7,M,-23.7,M,1.8,0000*48
$GPGSA,A,3,11,23,13,19,06,10,08,03,07,28,16,,1.4,0.8,1.2*31
$GPGSV,3,1,12,13,73,202,38,07,56,335,41,19,55,108,41,23,43,167,38*78
$GPGSV,3,2,12,03,39,055,36,06,26,048,27,08,25,304,34,10,16,263,20*70
$GPGSV,3,3,12,28,14,245,22,16,13,051,18,11,13,146,30,05,02,314,*7D
$GPRMC,011220.000,A,3351.4559,N,09832.0543,W,0.13,144.64,030412,,,D*77
$GPGGA,011221.000,3351.4558,N,09832.0543,W,2,11,0.8,287.8,M,-23.7,M,0.8,0000*46
$GPGSA,A,3,11,23,13,19,06,10,08,03,07,28,16,,1.4,0.8,1.2*31
$GPRMC,011221.000,A,3351.4558,N,09832.0543,W,0.22,195.65,030412,,,D*78
$GPGGA,011222.000,3351.4558,N,09832.0543,W,2,11,0.8,287.8,M,-23.7,M,0.8,0000*45
$GPGSA,A,3,11,23,13,19,06,10,08,03,07,28,16,,1.4,0.8,1.2*31
$GPRMC,011222.000,A,3351.4558,N,09832.0543,W,0.09,141.76,030412,,,D*79
$GPGGA,011223.000,3351.4558,N,09832.0543,W,2,11,0.8,287.7,M,-23.7,M,0.8,0000*4B
$GPGSA,A,3,11,23,13,19,06,10,08,03,07,28,16,,1.4,0.8,1.2*31
$GPRMC,011223.000,A,3351.4558,N,09832.0543,W,0.06,157.55,030412,,,D*71
$GPGGA,011224.000,3351.4559,N,09832.0543,W,2,11,0.8,287.7,M,-23.7,M,1.8,0000*4C
$GPGSA,A,3,11,23,13,19,06,10,08,03,07,28,16,,1.4,0.8,1.2*31
$GPRMC,011224.000,A,3351.4559,N,09832.0543,W,0.13,71.57,030412,,,D*44
$GPGGA,011225.000,3351.4559,N,09832.0542,W,2,11,0.8,287.7,M,-23.7,M,2.8,0000*4F
$GPGSA,A,3,11,23,13,19,06,10,08,03,07,28,16,,1.4,0.8,1.2*31
$GPGSV,3,1,12,13,73,202,38,07,56,335,41,19,55,108,41,23,43,167,38*78
$GPGSV,3,2,12,03,39,055,36,06,26,048,27,08,25,304,34,10,16,263,20*70
$GPGSV,3,3,12,28,14,245,22,16,13,051,17,11,13,146,30,05,02,314,*72
$GPRMC,011225.000,A,3351.4559,N,09832.0542,W,0.05,154.83,030412,,,D*7C
$GPGGA,011226.000,3351.4559,N,09832.0542,W,2,11,0.8,287.7,M,-23.7,M,0.8,0000*4E
$GPGSA,A,3,11,23,13,19,06,10,08,03,07,28,16,,1.4,0.8,1.2*31
$GPRMC,011226.000,A,3351.4559,N,09832.0542,W,0.04,109.76,030412,,,D*7C
$GPGGA,011227.000,3351.4559,N,09832.0542,W,2,11,0.8,287.6,M,-23.7,M,0.8,0000*4E
$GPGSA,A,3,11,23,13,19,06,10,08,03,07,28,16,,1.4,0.8,1.2*31
$GPRMC,011227.000,A,3351.4559,N,09832.0542,W,0.09,168.01,030412,,,D*77
$GPGGA,011228.000,3351.4559,N,09832.0542,W,2,11,0.8,287.7,M,-23.7,M,0.8,0000*40
$GPGSA,A,3,11,23,13,19,06,10,08,03,07,28,16,,1.4,0.8,1.2*31
$GPRMC,011228.000,A,3351.4559,N,09832.0542,W,0.07,196.61,030412,,,D*71
$GPGGA,011229.000,3351.4559,N,09832.0542,W,2,11,0.8,287.7,M,-23.7,M,0.8,0000*41
$GPGSA,A,3,11,23,13,19,06,10,08,03,07,28,16,,1.4,0.8,1.2*31
$GPRMC,011229.000,A,3351.4559,N,09832.0542,W,0.20,180.31,030412,,,D*77
$GPGGA,011230.000,3351.4558,N,09832.0542,W,2,11,0.8,287.8,M,-23.7,M,0.8,0000*47
$GPGSA,A,3,11,23,13,19,06,10,08,03,07,28,16,,1.4,0.8,1.2*31
$GPGSV,3,1,12,13,73,202,39,07,56,335,41,19,55,108,41,23,43,167,38*79
$GPGSV,3,2,12,03,39,055,36,06,26,048,27,08,25,304,34,10,16,263,20*70
$GPGSV,3,3,12,28,14,245,22,16,13,051,17,11,13,146,30,05,02,314,*72
$GPRMC,011230.000,A,3351.4558,N,09832.0542,W,0.21,184.78,030412,,,D*76
$GPGGA,011231.000,3351.4558,N,09832.0543,W,2,11,0.8,287.8,M,-23.7,M,1.8,0000*46
$GPGSA,A,3,11,23,13,19,06,10,08,03,07,28,16,,1.4,0.8,1.2*31
$GPRMC,011231.000,A,3351.4558,N,09832.0543,W,0.21,188.12,030412,,,D*76
$GPGGA,011232.000,3351.4557,N,09832.0543,W,2,11,0.8,287.9,M,-23.7,M,2.8,0000*48
$GPGSA,A,3,11,23,13,19,06,10,08,03,07,28,16,,1.4,0.8,1.2*31
$GPRMC,011232.000,A,3351.4557,N,09832.0543,W,0.25,189.90,030412,,,D*75
$GPGGA,011233.000,3351.4557,N,09832.0543,W,2,11,0.8,287.9,M,-23.7,M,0.8,0000*4B
$GPGSA,A,3,11,23,13,19,06,10,08,03,07,28,16,,1.4,0.8,1.2*31
$GPRMC,011233.000,A,3351.4557,N,09832.0543,W,0.29,203.53,030412,,,D*76
$GPGGA,011234.000,3351.4556,N,09832.0543,W,2,11,0.8,288.1,M,-23.7,M,0.8,0000*4A
$GPGSA,A,3,11,23,13,19,06,10,08,03,07,28,16,,1.4,0.8,1.2*31
$GPRMC,011234.000,A,3351.4556,N,09832.0543,W,0.16,195.81,030412,,,D*7F
$GPGGA,011235.000,3351.4557,N,09832.0543,W,2,11,0.8,288.1,M,-23.7,M,0.8,0000*4A
$GPGSA,A,3,11,23,13,19,06,10,08,03,07,28,16,,1.4,0.8,1.2*31
$GPGSV,3,1,12,13,73,202,39,07,56,335,41,19,55,108,41,23,43,167,37*76
$GPGSV,3,2,12,03,39,055,36,06,26,048,26,08,25,304,34,10,16,263,20*71
$GPGSV,3,3,12,28,14,245,23,16,13,051,18,11,13,146,30,05,02,314,*7C
$GPRMC,011235.000,A,3351.4557,N,09832.0543,W,0.10,99.39,030412,,,D*47
$GPGGA,011236.000,3351.4557,N,09832.0542,W,2,11,0.8,288.0,M,-23.7,M,1.8,0000*48
$GPGSA,A,3,11,23,13,19,06,10,08,03,07,28,16,,1.4,0.8,1.2*31
$GPRMC,011236.000,A,3351.4557,N,09832.0542,W,0.14,69.57,030412,,,D*46
$GPGGA,011237.000,3351.4557,N,09832.0542,W,2,11,0.8,287.9,M,-23.7,M,2.8,0000*4C
$GPGSA,A,3,11,23,13,19,06,10,08,03,07,28,16,,1.4,0.8,1.2*31
$GPRMC,011237.000,A,3351.4557,N,09832.0542,W,0.07,89.22,030412,,,D*49
$GPGGA,011238.000,3351.4558,N,09832.0542,W,2,11,0.8,287.9,M,-23.7,M,3.8,0000*4D
$GPGSA,A,3,11,23,13,19,06,10,08,03,07,28,16,,1.4,0.8,1.2*31
$GPRMC,011238.000,A,3351.4558,N,09832.0542,W,0.05,87.27,030412,,,D*40
$GPGGA,011239.000,3351.4558,N,09832.0541,W,2,11,0.8,287.8,M,-23.7,M,0.8,0000*4D
$GPGSA,A,3,11,23,13,19,06,10,08,03,07,28,16,,1.4,0.8,1.2*31
$GPRMC,011239.000,A,3351.4558,N,09832.0541,W,0.17,60.11,030412,,,D*4D
$GPGGA,011240.000,3351.4558,N,09832.0541,W,2,11,0.8,287.7,M,-23.7,M,0.8,0000*4C
$GPGSA,A,3,11,23,13,19,06,10,08,03,07,28,16,,1.4,0.8,1.2*31
$GPGSV,3,1,12,13,73,202,38,07,56,335,41,19,55,108,40,23,43,167,37*76
$GPGSV,3,2,12,03,39,055,36,06,26,048,26,08,25,304,34,10,16,263,20*71
$GPGSV,3,3,12,28,14,245,22,16,13,051,18,11,13,146,30,05,02,314,*7D
$GPRMC,011240.000,A,3351.4558,N,09832.0541,W,0.06,103.92,030412,,,D*7C
$GPGGA,011241.000,3351.4558,N,09832.0541,W,2,11,0.8,287.8,M,-23.7,M,0.8,0000*42
$GPGSA,A,3,11,23,13,19,06,10,08,03,07,28,16,,1.4,0.8,1.2*31
$GPRMC,011241.000,A,3351.4558,N,09832.0541,W,0.13,158.76,030412,,,D*7D
$GPGGA,011242.000,3351.4558,N,09832.0541,W,2,11,0.8,287.9,M,-23.7,M,1.8,0000*41
$GPGSA,A,3,11,23,13,19,06,10,08,03,07,28,16,,1.4,0.8,1.2*31
$GPRMC,011242.000,A,3351.4558,N,09832.0541,W,0.14,108.46,030412,,,D*7F
$GPGGA,011243.000,3351.4558,N,09832.0540,W,2,11,0.8,288.0,M,-23.7,M,2.8,0000*44
$GPGSA,A,3,11,23,13,19,06,10,08,03,07,28,16,,1.4,0.8,1.2*31
$GPRMC,011243.000,A,3351.4558,N,09832.0540,W,0.18,92.10,030412,,,D*42
$GPGGA,011244.000,3351.4558,N,09832.0540,W,2,11,0.8,287.9,M,-23.7,M,0.8,0000*47
$GPGSA,A,3,11,23,13,19,06,10,08,03,07,28,16,,1.4,0.8,1.2*31
$GPRMC,011244.000,A,3351.4558,N,09832.0540,W,0.11,123.70,030412,,,D*71
$GPGGA,011245.000,3351.4558,N,09832.0540,W,2,11,0.8,287.9,M,-23.7,M,0.8,0000*46
$GPGSA,A,3,11,23,13,19,06,10,08,03,07,28,16,,1.4,0.8,1.2*31
$GPGSV,3,1,12,13,73,202,38,07,56,335,41,19,55,108,40,23,43,167,37*76
$GPGSV,3,2,12,03,39,055,36,06,26,048,26,08,25,304,34,10,16,263,21*70
$GPGSV,3,3,12,28,14,245,21,16,13,051,19,11,13,146,30,05,02,314,*7F
$GPRMC,011245.000,A,3351.4558,N,09832.0540,W,0.14,192.90,030412,,,D*71
$GPGGA,011246.000,3351.4558,N,09832.0540,W,2,11,0.8,287.9,M,-23.7,M,0.8,0000*45
$GPGSA,A,3,11,23,13,19,06,10,08,03,07,28,16,,1.4,0.8,1.2*31
$GPRMC,011246.000,A,3351.4558,N,09832.0540,W,0.15,100.03,030412,,,D*72
$GPGGA,011247.000,3351.4558,N,09832.0539,W,2,11,0.8,287.9,M,-23.7,M,0.8,0000*4A
$GPGSA,A,3,11,23,13,19,06,10,08,03,07,28,16,,1.4,0.8,1.2*31
$GPRMC,011247.000,A,3351.4558,N,09832.0539,W,0.17,66.48,030412,,,D*41
$GPGGA,011248.000,3351.4558,N,09832.0539,W,2,11,0.8,287.8,M,-23.7,M,1.8,0000*45
$GPGSA,A,3,11,23,13,19,06,10,08,03,07,28,16,,1.4,0.8,1.2*31
$GPRMC,011248.000,A,3351.4558,N,09832.0539,W,0.10,214.08,030412,,,D*7A
$GPGGA,011249.000,3351.4558,N,09832.0539,W,2,11,0.8,287.8,M,-23.7,M,2.8,0000*47
$GPGSA,A,3,11,23,13,19,06,10,08,03,07,28,16,,1.4,0.8,1.2*31
$GPRMC,011249.000,A,3351.4558,N,09832.0539,W,0.09,96.44,030412,,,D*43
$GPGGA,011250.000,3351.4558,N,09832.0539,W,2,11,0.8,287.8,M,-23.7,M,3.8,0000*4E
$GPGSA,A,3,11,23,13,19,06,10,08,03,07,28,16,,1.4,0.8,1.2*31
$GPGSV,3,1,12,13,73,202,38,07,56,335,41,19,55,108,40,23,43,167,36*77
$GPGSV,3,2,12,03,39,055,37,06,26,048,26,08,25,304,34,10,16,263,21*71
$GPGSV,3,3,12,28,14,245,19,16,13,051,19,11,13,146,29,05,02,314,*7C
$GPRMC,011250.000,A,3351.4558,N,09832.0539,W,0.10,180.72,030412,,,D*70
$GPGGA,011251.000,3351.4558,N,09832.0540,W,2,11,0.8,287.9,M,-23.7,M,0.8,0000*43
$GPGSA,A,3,11,23,13,19,06,10,08,03,07,28,16,,1.4,0.8,1.2*31
$GPRMC,011251.000,A,3351.4558,N,09832.0540,W,0.11,197.57,030412,,,D*7F
$GPGGA,011252.000,3351.4558,N,09832.0539,W,2,11,0.8,287.9,M,-23.7,M,0.8,0000*4E
$GPGSA,A,3,11,23,13,19,06,10,08,03,07,28,16,,1.4,0.8,1.2*31
$GPRMC,011252.000,A,3351.4558,N,09832.0539,W,0.12,79.51,030412,,,D*46
$GPGGA,011253.000,3351.4558,N,09832.0539,W,2,11,0.8,287.8,M,-23.7,M,0.8,0000*4E
$GPGSA,A,3,11,23,13,19,06,10,08,03,07,28,16,,1.4,0.8,1.2*31
$GPRMC,011253.000,A,3351.4558,N,09832.0539,W,0.12,114.75,030412,,,D*7B
$GPGGA,011254.000,3351.4558,N,09832.0539,W,2,11,0.8,287.7,M,-23.7,M,1.8,0000*47
$GPGSA,A,3,11,23,13,19,06,10,08,03,07,28,16,,1.4,0.8,1.2*31
$GPRMC,011254.000,A,3351.4558,N,09832.0539,W,0.11,159.04,030412,,,D*70
$GPGGA,011255.000,3351.4558,N,09832.0539,W,2,11,0.8,287.8,M,-23.7,M,2.8,0000*4A
$GPGSA,A,3,11,23,13,19,06,10,08,03,07,28,16,,1.4,0.8,1.2*31
$GPGSV,3,1,12,13,73,202,38,07,56,335,41,19,55,108,41,23,43,167,36*76
$GPGSV,3,2,12,03,39,055,37,06,26,048,26,08,25,304,33,10,16,263,21*76
$GPGSV,3,3,12,28,14,245,19,16,13,051,20,11,13,146,29,05,02,314,*76
$GPRMC,011255.000,A,3351.4558,N,09832.0539,W,0.17,91.46,030412,,,D*44
$GPGGA,011256.000,3351.4558,N,09832.0539,W,2,11,0.8,287.7,M,-23.7,M,3.8,0000*47
$GPGSA,A,3,11,23,13,19,06,10,08,03,07,28,16,,1.4,0.8,1.2*31
$GPRMC,011256.000,A,3351.4558,N,09832.0539,W,0.09,141.52,030412,,,D*71
$GPGGA,011257.000,3351.4558,N,09832.0539,W,2,11,0.8,287.8,M,-23.7,M,0.8,0000*4A
$GPGSA,A,3,11,23,13,19,06,10,08,03,07,28,16,,1.4,0.8,1.2*31
$GPRMC,011257.000,A,3351.4558,N,09832.0539,W,0.15,177.74,030412,,,D*7C
$GPGGA,011258.000,3351.4558,N,09832.0539,W,2,11,0.8,287.8,M,-23.7,M,0.8,0000*45
$GPGSA,A,3,11,23,13,19,06,10,08,03,07,28,16,,1.4,0.8,1.2*31
$GPRMC,011258.000,A,3351.4558,N,09832.0539,W,0.15,152.26,030412,,,D*73
$GPGGA,011259.000,3351.4558,N,09832.0539,W,2,11,0.8,287.8,M,-23.7,M,0.8,0000*44
$GPGSA,A,3,11,23,13,19,06,10,08,03,07,28,16,,1.4,0.8,1.2*31
$GPRMC,011259.000,A,3351.4558,N,09832.0539,W,0.08,167.78,030412,,,D*73
$GPGGA,011300.000,3351.4558,N,09832.0539,W,2,11,0.8,287.7,M,-23.7,M,0.8,0000*46
$GPGSA,A,3,11,23,13,19,06,10,08,03,07,28,16,,1.4,0.8,1.2*31
$GPGSV,3,1,12,13,73,202,38,07,56,335,40,19,55,108,41,23,43,167,36*77
$GPGSV,3,2,12,03,39,055,37,06,26,048,26,08,25,304,33,10,16,263,21*76
$GPGSV,3,3,12,28,14,245,19,16,13,051,20,11,13,146,29,05,02,314,*76
$GPRMC,011300.000,A,3351.4558,N,09832.0539,W,0.05,154.07,030412,,,D*7B
$GPGGA,011301.000,3351.4558,N,09832.0538,W,2,11,0.8,287.6,M,-23.7,M,1.8,0000*46
$GPGSA,A,3,11,23,13,19,06,10,08,03,07,28,16,,1.4,0.8,1.2*31
$GPRMC,011301.000,A,3351.4558,N,09832.0538,W,0.15,76.18,030412,,,D*45
$GPGGA,011302.000,3351.4558,N,09832.0538,W,2,11,0.8,287.6,M,-23.7,M,0.8,0000*44
$GPGSA,A,3,11,23,13,19,06,10,08,03,07,28,16,,1.4,0.8,1.2*31
$GPRMC,011302.000,A,3351.4558,N,09832.0538,W,0.16,71.21,030412,,,D*48
$GPGGA,011303.000,3351.4558,N,09832.0538,W,2,11,0.8,287.4,M,-23.7,M,0.8,0000*47
$GPGSA,A,3,11,23,13,19,06,10,08,03,07,28,16,,1.4,0.8,1.2*31
$GPRMC,011303.000,A,3351.4558,N,09832.0538,W,0.04,112.06,030412,,,D*7B
$GPGGA,011304.000,3351.4558,N,09832.0538,W,2,11,0.8,287.4,M,-23.7,M,0.8,0000*40
$GPGSA,A,3,11,23,13,19,06,10,08,03,07,28,16,,1.4,0.8,1.2*31
$GPRMC,011304.000,A,3351.4558,N,09832.0538,W,0.13,87.86,030412,,,D*4F
$GPGGA,011305.000,3351.4558,N,09832.0538,W,2,11,0.8,287.4,M,-23.7,M,0.8,0000*41
$GPGSA,A,3,11,23,13,19,06,10,08,03,07,28,16,,1.4,0.8,1.2*31
$GPGSV,3,1,12,13,73,202,38,07,56,335,40,19,55,108,41,23,43,167,36*77
$GPGSV,3,2,12,03,39,055,37,06,26,048,26,08,25,304,32,10,16,263,22*74
$GPGSV,3,3,12,28,14,245,20,16,13,051,28,11,13,146,29,05,02,314,*74
$GPRMC,011305.000,A,3351.4558,N,09832.0538,W,0.10,144.32,030412,,,D*7C
$GPGGA,011306.000,3351.4558,N,09832.0537,W,2,11,0.8,287.4,M,-23.7,M,1.8,0000*4C
$GPGSA,A,3,11,23,13,19,06,10,08,03,07,28,16,,1.4,0.8,1.2*31
$GPRMC,011306.000,A,3351.4558,N,09832.0537,W,0.13,121.06,030412,,,D*77
$GPGGA,011307.000,3351.4558,N,09832.0537,W,2,10,0.8,287.4,M,-23.7,M,0.8,0000*4D
$GPGSA,A,3,11,23,13,19,06,10,08,03,07,28,,,1.6,0.8,1.3*35
$GPRMC,011307.000,A,3351.4558,N,09832.0537,W,0.12,140.67,030412,,,D*77
$GPGGA,011308.000,3351.4558,N,09832.0537,W,2,11,0.8,287.3,M,-23.7,M,1.8,0000*45
$GPGSA,A,3,11,23,13,19,06,10,08,03,07,28,16,,1.4,0.8,1.2*31
$GPRMC,011308.000,A,3351.4558,N,09832.0537,W,0.10,142.89,030412,,,D*78
$GPGGA,011309.000,3351.4558,N,09832.0537,W,2,11,0.8,287.2,M,-23.7,M,0.8,0000*44
$GPGSA,A,3,11,23,13,19,06,10,08,03,07,28,16,,1.4,0.8,1.2*31
$GPRMC,011309.000,A,3351.4558,N,09832.0537,W,0.11,144.36,030412,,,D*7A
$GPGGA,011310.000,3351.4558,N,09832.0537,W,2,11,0.8,287.1,M,-23.7,M,0.8,0000*4F
$GPGSA,A,3,11,23,13,19,06,10,08,03,07,28,16,,1.4,0.8,1.2*31
$GPGSV,3,1,12,13,73,202,38,07,56,335,40,19,55,108,41,23,43,167,36*77
$GPGSV,3,2,12,03,39,055,37,06,26,048,27,08,25,304,32,10,16,263,22*75
$GPGSV,3,3,12,28,14,245,21,16,13,051,19,11,13,146,29,05,02,314,*77
$GPRMC,011310.000,A,3351.4558,N,09832.0537,W,0.13,168.56,030412,,,D*78
$GPGGA,011311.000,3351.4557,N,09832.0537,W,2,11,0.8,287.2,M,-23.7,M,0.8,0000*42
$GPGSA,A,3,11,23,13,19,06,10,08,03,07,28,16,,1.4,0.8,1.2*31
$GPRMC,011311.000,A,3351.4557,N,09832.0537,W,0.08,136.19,030412,,,D*7C
$GPGGA,011312.000,3351.4558,N,09832.0537,W,2,11,0.8,287.2,M,-23.7,M,1.8,0000*4F
$GPGSA,A,3,11,23,13,19,06,10,08,03,07,28,16,,1.4,0.8,1.2*31
$GPRMC,011312.000,A,3351.4558,N,09832.0537,W,0.21,64.37,030412,,,D*41
$GPGGA,011313.000,3351.4558,N,09832.0537,W,2,11,0.8,287.2,M,-23.7,M,0.8,0000*4F
$GPGSA,A,3,11,23,13,19,06,10,08,03,07,28,16,,1.4,0.8,1.2*31
$GPRMC,011313.000,A,3351.4558,N,09832.0537,W,0.11,98.48,030412,,,D*48
$GPGGA,011314.000,3351.4558,N,09832.0536,W,2,11,0.8,287.3,M,-23.7,M,1.8,0000*49
$GPGSA,A,3,11,23,13,19,06,10,08,03,07,28,16,,1.4,0.8,1.2*31
$GPRMC,011314.000,A,3351.4558,N,09832.0536,W,0.10,97.29,030412,,,D*47
$GPGGA,011315.000,3351.4558,N,09832.0536,W,2,11,0.8,287.4,M,-23.7,M,0.8,0000*4E
$GPGSA,A,3,11,23,13,19,06,10,08,03,07,28,16,,1.4,0.8,1.2*31
$GPGSV,3,1,12,13,73,202,38,07,56,335,40,19,55,108,41,23,43,167,36*77
$GPGSV,3,2,12,03,39,055,37,06,26,048,27,08,25,304,32,10,16,263,22*75
$GPGSV,3,3,12,28,14,245,22,16,13,051,20,11,13,146,29,05,02,314,*7E
$GPRMC,011315.000,A,3351.4558,N,09832.0536,W,0.10,84.41,030412,,,D*4A
$GPGGA,011316.000,3351.4558,N,09832.0536,W,2,11,0.8,287.4,M,-23.7,M,0.8,0000*4D
$GPGSA,A,3,11,23,13,19,06,10,08,03,07,28,16,,1.4,0.8,1.2*31
$GPRMC,011316.000,A,3351.4558,N,09832.0536,W,0.09,202.45,030412,,,D*79
$GPGGA,011317.000,3351.4558,N,09832.0536,W,2,11,0.8,287.4,M,-23.7,M,0.8,0000*4C
$GPGSA,A,3,11,23,13,19,06,10,08,03,07,28,16,,1.4,0.8,1.2*31
$GPRMC,011317.000,A,3351.4558,N,09832.0536,W,0.09,78.25,030412,,,D*41
$GPGGA,011318.000,3351.4558,N,09832.0536,W,2,11,0.8,287.4,M,-23.7,M,1.8,0000*42
$GPGSA,A,3,11,23,13,19,06,10,08,03,07,28,16,,1.4,0.8,1.2*31
$GPRMC,011318.000,A,3351.4558,N,09832.0536,W,0.16,73.88,030412,,,D*4C
$GPGGA,011319.000,3351.4559,N,09832.0536,W,2,11,0.8,287.4,M,-23.7,M,2.8,0000*41
$GPGSA,A,3,11,23,13,19,06,10,08,03,07,28,16,,1.4,0.8,1.2*31
$GPRMC,011319.000,A,3351.4559,N,09832.0536,W,0.10,130.29,030412,,,D*77
$GPGGA,011320.000,3351.4558,N,09832.0536,W,2,11,0.8,287.3,M,-23.7,M,3.8,0000*4C
$GPGSA,A,3,11,23,13,19,06,10,08,03,07,28,16,,1.4,0.8,1.2*31
$GPGSV,3,1,12,13,73,202,38,07,56,335,40,19,55,108,41,23,43,167,36*77
$GPGSV,3,2,12,03,39,055,37,06,26,048,27,08,25,304,31,10,16,263,22*76
$GPGSV,3,3,12,28,14,245,22,16,13,051,21,11,13,146,28,05,02,314,*7E
$GPRMC,011320.000,A,3351.4558,N,09832.0536,W,0.08,208.40,030412,,,D*72
$GPGGA,011321.000,3351.4558,N,09832.0536,W,2,11,0.8,287.4,M,-23.7,M,0.8,0000*49
$GPGSA,A,3,11,23,13,19,06,10,08,03,07,28,16,,1.4,0.8,1.2*31
$GPRMC,011321.000,A,3351.4558,N,09832.0536,W,0.09,138.82,030412,,,D*7C
$GPGGA,011322.000,3351.4558,N,09832.0536,W,2,11,0.8,287.4,M,-23.7,M,0.8,0000*4A
$GPGSA,A,3,11,23,13,19,06,10,08,03,07,28,16,,1.4,0.8,1.2*31
$GPRMC,011322.000,A,3351.4558,N,09832.0536,W,0.12,103.09,030412,,,D*7E
$GPGGA,011323.000,3351.4558,N,09832.0536,W,2,11,0.8,287.4,M,-23.7,M,0.8,0000*4B
$GPGSA,A,3,11,23,13,19,06,10,08,03,07,28,16,,1.4,0.8,1.2*31
$GPRMC,011323.000,A,3351.4558,N,09832.0536,W,0.08,162.26,030412,,,D*7E
$GPGGA,011324.000,3351.4558,N,09832.0536,W,2,11,0.8,287.5,M,-23.7,M,1.8,0000*4C
$GPGSA,A,3,11,23,13,19,06,10,08,03,07,28,16,,1.4,0.8,1.2*31
$GPRMC,011324.000,A,3351.4558,N,09832.0536,W,0.09,149.01,030412,,,D*74
$GPGGA,011325.000,3351.4558,N,09832.0536,W,2,11,0.8,287.6,M,-23.7,M,2.8,0000*4D
$GPGSA,A,3,11,23,13,19,06,10,08,03,07,28,16,,1.4,0.8,1.2*31
$GPGSV,3,1,12,13,73,202,38,07,56,335,40,19,55,108,41,23,43,167,36*77
$GPGSV,3,2,12,03,39,055,37,06,26,048,27,08,25,304,31,10,16,263,22*76
$GPGSV,3,3,12,28,14,245,22,16,13,051,21,11,13,146,28,05,02,314,*7E
$GPRMC,011325.000,A,3351.4558,N,09832.0536,W,0.16,94.33,030412,,,D*4B
$GPGGA,011326.000,3351.4558,N,09832.0536,W,2,11,0.8,287.5,M,-23.7,M,3.8,0000*4C
$GPGSA,A,3,11,23,13,19,06,10,08,03,07,28,16,,1.4,0.8,1.2*31
$GPRMC,011326.000,A,3351.4558,N,09832.0536,W,0.07,206.93,030412,,,D*7B
$GPGGA,011327.000,3351.4558,N,09832.0536,W,2,11,0.8,287.5,M,-23.7,M,0.8,0000*4E
$GPGSA,A,3,11,23,13,19,06,10,08,03,07,28,16,,1.4,0.8,1.2*31
$GPRMC,011327.000,A,3351.4558,N,09832.0536,W,0.07,165.44,030412,,,D*76
$GPGGA,011328.000,3351.4559,N,09832.0536,W,2,11,0.8,287.6,M,-23.7,M,0.8,0000*43
$GPGSA,A,3,11,23,13,19,06,10,08,03,07,28,16,,1.4,0.8,1.2*31
$GPRMC,011328.000,A,3351.4559,N,09832.0536,W,0.09,157.94,030412,,,D*7A
$GPGGA,011329.000,3351.4558,N,09832.0536,W,2,11,0.8,287.5,M,-23.7,M,0.8,0000*40
$GPGSA,A,3,11,23,13,19,06,10,08,03,07,28,16,,1.4,0.8,1.2*31
$GPRMC,011329.000,A,3351.4558,N,09832.0536,W,0.07,192.27,030412,,,D*75
$GPGGA,011330.000,3351.4558,N,09832.0536,W,2,11,0.8,287.4,M,-23.7,M,1.8,0000*48
$GPGSA,A,3,11,23,13,19,06,10,08,03,07,28,16,,1.4,0.8,1.2*31
$GPGSV,3,1,12,13,73,202,38,07,56,335,40,19,55,108,41,23,43,167,35*74
$GPGSV,3,2,12,03,39,055,37,06,26,048,27,08,25,304,30,10,16,263,23*76
$GPGSV,3,3,12,28,14,245,22,16,13,051,22,11,13,146,28,05,02,314,*7D
$GPRMC,011330.000,A,3351.4558,N,09832.0536,W,0.10,96.99,030412,,,D*4B
$GPGGA,011331.000,3351.4559,N,09832.0536,W,2,11,0.8,287.4,M,-23.7,M,0.8,0000*49
$GPGSA,A,3,11,23,13,19,06,10,08,03,07,28,16,,1.4,0.8,1.2*31
$GPRMC,011331.000,A,3351.4559,N,09832.0536,W,0.15,83.78,030412,,,D*45
$GPGGA,011332.000,3351.4558,N,09832.0536,W,2,11,0.8,287.3,M,-23.7,M,1.8,0000*4D
$GPGSA,A,3,11,23,13,19,06,10,08,03,07,28,16,,1.4,0.8,1.2*31
$GPRMC,011332.000,A,3351.4558,N,09832.0536,W,0.15,205.72,030412,,,D*71
$GPGGA,011333.000,3351.4558,N,09832.0537,W,2,11,0.8,287.3,M,-23.7,M,0.8,0000*4C
$GPGSA,A,3,11,23,13,19,06,10,08,03,07,28,16,,1.4,0.8,1.2*31
$GPRMC,011333.000,A,3351.4558,N,09832.0537,W,0.16,201.41,030412,,,D*76
$GPGGA,011334.000,3351.4558,N,09832.0537,W,2,11,0.8,287.3,M,-23.7,M,0.8,0000*4B
$GPGSA,A,3,11,23,13,19,06,10,08,03,07,28,16,,1.4,0.8,1.2*31
$GPRMC,011334.000,A,3351.4558,N,09832.0537,W,0.09,106.35,030412,,,D*78
$GPGGA,011335.000,3351.4558,N,09832.0537,W,2,11,0.8,287.4,M,-23.7,M,0.8,0000*4D
$GPGSA,A,3,11,23,13,19,06,10,08,03,07,28,16,,1.4,0.8,1.2*31
$GPGSV,3,1,12,13,73,202,38,07,56,335,40,19,55,108,41,23,43,167,35*74
$GPGSV,3,2,12,03,39,055,38,06,26,048,27,08,25,304,30,10,16,263,23*79
$GPGSV,3,3,12,28,14,245,22,16,13,051,22,11,13,146,28,05,02,314,*7D
$GPRMC,011335.000,A,3351.4558,N,09832.0537,W,0.14,63.37,030412,,,D*45
$GPGGA,011336.000,3351.4559,N,09832.0537,W,2,11,0.8,287.5,M,-23.7,M,1.8,0000*4F
$GPGSA,A,3,11,23,13,19,06,10,08,03,07,28,16,,1.4,0.8,1.2*31
$GPRMC,011336.000,A,3351.4559,N,09832.0537,W,0.20,83.64,030412,,,D*48
$GPGGA,011337.000,3351.4559,N,09832.0537,W,2,11,0.8,287.4,M,-23.7,M,2.8,0000*4C
$GPGSA,A,3,11,23,13,19,06,10,08,03,07,28,16,,1.4,0.8,1.2*31
$GPRMC,011337.000,A,3351.4559,N,09832.0537,W,0.04,68.75,030412,,,D*4A
$GPGGA,011338.000,3351.4559,N,09832.0537,W,2,11,0.8,287.4,M,-23.7,M,0.8,0000*41
$GPGSA,A,3,11,23,13,19,06,10,08,03,07,28,16,,1.4,0.8,1.2*31
$GPRMC,011338.000,A,3351.4559,N,09832.0537,W,0.10,201.59,030412,,,D*73
$GPGGA,011339.000,3351.4559,N,09832.0537,W,2,11,0.8,287.4,M,-23.7,M,0.8,0000*40
$GPGSA,A,3,11,23,13,19,06,10,08,03,07,28,16,,1.4,0.8,1.2*31
$GPRMC,011339.000,A,3351.4559,N,09832.0537,W,0.05,159.69,030412,,,D*7B
$GPGGA,011340.000,3351.4559,N,09832.0537,W,2,11,0.8,287.5,M,-23.7,M,0.8,0000*4F
$GPGSA,A,3,11,23,13,19,06,10,08,03,07,28,16,,1.4,0.8,1.2*31
$GPGSV,3,1,12,13,73,202,37,07,56,335,40,19,55,108,41,23,43,167,35*7B
$GPGSV,3,2,12,03,39,055,38,06,26,048,27,08,25,304,29,10,16,263,23*71
$GPGSV,3,3,12,28,14,245,22,16,13,051,21,11,13,146,28,05,02,314,*7E
$GPRMC,011340.000,A,3351.4559,N,09832.0537,W,0.11,163.78,030412,,,D*79
$GPGGA,011341.000,3351.4559,N,09832.0537,W,2,11,0.8,287.5,M,-23.7,M,0.8,0000*4E
$GPGSA,A,3,11,23,13,19,06,10,08,03,07,28,16,,1.4,0.8,1.2*31
$GPRMC,011341.000,A,3351.4559,N,09832.0537,W,0.14,178.95,030412,,,D*74
$GPGGA,011342.000,3351.4559,N,09832.0538,W,2,11,0.8,287.5,M,-23.7,M,1.8,0000*43
$GPGSA,A,3,11,23,13,19,06,10,08,03,07,28,16,,1.4,0.8,1.2*31
$GPRMC,011342.000,A,3351.4559,N,09832.0538,W,0.12,204.80,030412,,,D*72
$GPGGA,011343.000,3351.4559,N,09832.0538,W,2,11,0.8,287.5,M,-23.7,M,2.8,0000*41
$GPGSA,A,3,11,23,13,19,06,10,08,03,07,28,16,,1.4,0.8,1.2*31
$GPRMC,011343.000,A,3351.4559,N,09832.0538,W,0.11,85.22,030412,,,D*43
$GPGGA,011344.000,3351.4559,N,09832.0538,W,2,11,0.8,287.5,M,-23.7,M,3.8,0000*47
$GPGSA,A,3,11,23,13,19,06,10,08,03,07,28,16,,1.4,0.8,1.2*31
$GPRMC,011344.000,A,3351.4559,N,09832.0538,W,0.13,179.91,030412,,,D*7C
$GPGGA,011345.000,3351.4558,N,09832.0538,W,2,11,0.8,287.6,M,-23.7,M,0.8,0000*47
$GPGSA,A,3,11,23,13,19,06,10,08,03,07,28,16,,1.4,0.8,1.2*31
$GPGSV,3,1,12,13,73,202,37,07,56,335,40,19,55,108,41,23,43,167,36*78
$GPGSV,3,2,12,03,39,055,37,06,26,048,27,08,25,304,28,10,16,263,24*78
$GPGSV,3,3,12,28,14,245,22,16,13,051,21,11,13,146,29,05,02,314,*7F
$GPRMC,011345.000,A,3351.4558,N,09832.0538,W,0.11,174.02,030412,,,D*79
$GPGGA,011346.000,3351.4558,N,09832.0538,W,2,11,0.8,287.7,M,-23.7,M,0.8,0000*45
$GPGSA,A,3,11,23,13,19,06,10,08,03,07,28,16,,1.4,0.8,1.2*31
$GPRMC,011346.000,A,3351.4558,N,09832.0538,W,0.08,148.55,030412,,,D*7F
$GPGGA,011347.000,3351.4558,N,09832.0538,W,2,11,0.8,287.7,M,-23.7,M,0.8,0000*44
$GPGSA,A,3,11,23,13,19,06,10,08,03,07,28,16,,1.4,0.8,1.2*31
$GPRMC,011347.000,A,3351.4558,N,09832.0538,W,0.14,204.72,030412,,,D*7D
$GPGGA,011348.000,3351.4558,N,09832.0539,W,2,11,0.8,287.8,M,-23.7,M,0.8,0000*45
$GPGSA,A,3,11,23,13,19,06,10,08,03,07,28,16,,1.4,0.8,1.2*31
$GPRMC,011348.000,A,3351.4558,N,09832.0539,W,0.08,200.16,030412,,,D*78
$GPGGA,011349.000,3351.4559,N,09832.0539,W,2,11,0.8,287.8,M,-23.7,M,0.8,0000*45
$GPGSA,A,3,11,23,13,19,06,10,08,03,07,28,16,,1.4,0.8,1.2*31
$GPRMC,011349.000,A,3351.4559,N,09832.0539,W,0.12,74.85,030412,,,D*48
$GPGGA,011350.000,3351.4559,N,09832.0539,W,2,11,0.8,287.8,M,-23.7,M,1.8,0000*4C
$GPGSA,A,3,11,23,13,19,06,10,08,03,07,28,16,,1.4,0.8,1.2*31
$GPGSV,3,1,12,13,72,200,37,07,57,336,40,19,56,105,40,23,42,167,36*77
$GPGSV,3,2,12,03,38,054,37,08,26,305,27,06,25,047,28,10,16,262,25*76
$GPGSV,3,3,12,28,15,246,22,11,14,145,29,16,12,051,20,05,02,312,*7F
$GPRMC,011350.000,A,3351.4559,N,09832.0539,W,0.06,193.88,030412,,,D*70
$GPGGA,011351.000,3351.4559,N,09832.0539,W,2,11,0.8,287.9,M,-23.7,M,0.8,0000*4D
$GPGSA,A,3,11,23,13,19,06,10,08,03,07,28,16,,1.4,0.8,1.2*31
$GPRMC,011351.000,A,3351.4559,N,09832.0539,W,0.07,143.67,030412,,,D*7C
$GPGGA,011352.000,3351.4559,N,09832.0539,W,2,11,0.8,288.0,M,-23.7,M,1.8,0000*49
$GPGSA,A,3,11,23,13,19,06,10,08,03,07,28,16,,1.4,0.8,1.2*31
$GPRMC,011352.000,A,3351.4559,N,09832.0539,W,0.07,137.17,030412,,,D*7B
$GPGGA,011353.000,3351.4559,N,09832.0539,W,2,11,0.8,287.9,M,-23.7,M,0.8,0000*4F
$GPGSA,A,3,11,23,13,19,06,10,08,03,07,28,16,,1.4,0.8,1.2*31
$GPRMC,011353.000,A,3351.4559,N,09832.0539,W,0.14,193.43,030412,,,D*77
$GPGGA,011354.000,3351.4559,N,09832.0539,W,2,11,0.8,287.9,M,-23.7,M,1.8,0000*49
$GPGSA,A,3,11,23,13,19,06,10,08,03,07,28,16,,1.4,0.8,1.2*31
$GPRMC,011354.000,A,3351.4559,N,09832.0539,W,0.13,81.12,030412,,,D*41
$GPGGA,011355.000,3351.4559,N,09832.0539,W,2,11,0.8,287.8,M,-23.7,M,2.8,0000*4A
$GPGSA,A,3,11,23,13,19,06,10,08,03,07,28,16,,1.4,0.8,1.2*31
$GPGSV,3,1,12,13,72,200,37,07,57,336,40,19,56,105,40,23,42,167,36*77
$GPGSV,3,2,12,03,38,054,37,08,26,305,27,06,25,047,29,10,16,262,25*77
$GPGSV,3,3,12,28,15,246,22,11,14,145,29,16,12,051,20,05,02,312,*7F
$GPRMC,011355.000,A,3351.4559,N,09832.0539,W,0.17,74.64,030412,,,D*4F
$GPGGA,011356.000,3351.4559,N,09832.0538,W,2,11,0.8,287.8,M,-23.7,M,3.8,0000*49
$GPGSA,A,3,11,23,13,19,06,10,08,03,07,28,16,,1.4,0.8,1.2*31
$GPRMC,011356.000,A,3351.4559,N,09832.0538,W,0.19,74.02,030412,,,D*43
$GPGGA,011357.000,3351.4560,N,09832.0538,W,2,11,0.8,287.6,M,-23.7,M,0.8,0000*4F
$GPGSA,A,3,11,23,13,19,06,10,08,03,07,28,16,,1.4,0.8,1.2*31
$GPRMC,011357.000,A,3351.4560,N,09832.0538,W,0.03,89.22,030412,,,D*43
$GPGGA,011358.000,3351.4560,N,09832.0538,W,2,11,0.8,287.6,M,-23.7,M,0.8,0000*40
$GPGSA,A,3,11,23,13,19,06,10,08,03,07,28,16,,1.4,0.8,1.2*31
$GPRMC,011358.000,A,3351.4560,N,09832.0538,W,0.06,132.77,030412,,,D*78
$GPGGA,011359.000,3351.4560,N,09832.0538,W,2,11,0.8,287.5,M,-23.7,M,0.8,0000*42
$GPGSA,A,3,11,23,13,19,06,10,08,03,07,28,16,,1.4,0.8,1.2*31
$GPRMC,011359.000,A,3351.4560,N,09832.0538,W,0.19,56.77,030412,,,D*44
$GPGGA,011400.000,3351.4560,N,09832.0538,W,2,11,0.8,287.5,M,-23.7,M,1.8,0000*48
$GPGSA,A,3,11,23,13,19,06,10,08,03,07,28,16,,1.4,0.8,1.2*31
$GPGSV,3,1,12,13,72,200,37,07,57,336,40,19,56,105,40,23,42,167,36*77
$GPGSV,3,2,12,03,38,054,38,08,26,305,26,06,25,047,30,10,16,262,25*71
$GPGSV,3,3,12,28,15,246,21,11,14,145,29,16,12,051,20,05,02,312,*7C
$GPRMC,011400.000,A,3351.4560,N,09832.0538,W,0.03,100.01,030412,,,D*77
$GPGGA,011401.000,3351.4561,N,09832.0538,W,2,11,0.8,287.5,M,-23.7,M,0.8,0000*49
$GPGSA,A,3,11,23,13,19,06,10,08,03,07,28,16,,1.4,0.8,1.2*31
$GPRMC,011401.000,A,3351.4561,N,09832.0538,W,0.05,161.06,030412,,,D*71
$GPGGA,011402.000,3351.4561,N,09832.0538,W,2,11,0.8,287.5,M,-23.7,M,1.8,0000*4B
$GPGSA,A,3,11,23,13,19,06,10,08,03,07,28,16,,1.4,0.8,1.2*31
$GPRMC,011402.000,A,3351.4561,N,09832.0538,W,0.05,124.65,030412,,,D*76
$GPGGA,011403.000,3351.4561,N,09832.0538,W,2,11,0.8,287.6,M,-23.7,M,0.8,0000*48
$GPGSA,A,3,11,23,13,19,06,10,08,03,07,28,16,,1.4,0.8,1.2*31
$GPRMC,011403.000,A,3351.4561,N,09832.0538,W,0.04,95.00,030412,,,D*4E
$GPGGA,011404.000,3351.4561,N,09832.0539,W,2,11,0.8,287.6,M,-23.7,M,0.8,0000*4E
$GPGSA,A,3,11,23,13,19,06,10,08,03,07,28,16,,1.4,0.8,1.2*31
$GPRMC,011404.000,A,3351.4561,N,09832.0539,W,0.09,73.09,030412,,,D*44
$GPGGA,011405.000,3351.4561,N,09832.0538,W,2,11,0.8,287.4,M,-23.7,M,0.8,0000*4C
$GPGSA,A,3,11,23,13,19,06,10,08,03,07,28,16,,1.4,0.8,1.2*31
$GPGSV,3,1,12,13,72,200,36,07,57,336,40,19,56,105,40,23,42,167,37*77
$GPGSV,3,2,12,03,38,054,38,08,26,305,26,06,25,047,30,10,16,262,25*71
$GPGSV,3,3,12,28,15,246,22,11,14,145,30,16,12,051,19,05,02,312,*7D
$GPRMC,011405.000,A,3351.4561,N,09832.0538,W,0.05,94.49,030412,,,D*45
$GPGGA,011406.000,3351.4561,N,09832.0539,W,2,11,0.8,287.4,M,-23.7,M,1.8,0000*4F
$GPGSA,A,3,11,23,13,19,06,10,08,03,07,28,16,,1.4,0.8,1.2*31
$GPRMC,011406.000,A,3351.4561,N,09832.0539,W,0.09,140.21,030412,,,D*7D
$GPGGA,011407.000,3351.4561,N,09832.0539,W,2,11,0.8,287.3,M,-23.7,M,2.8,0000*4A
$GPGSA,A,3,11,23,13,19,06,10,08,03,07,28,16,,1.4,0.8,1.2*31
$GPRMC,011407.000,A,3351.4561,N,09832.0539,W,0.08,114.90,030412,,,D*76
$GPGGA,011408.000,3351.4561,N,09832.0538,W,2,11,0.8,287.1,M,-23.7,M,3.8,0000*47
$GPGSA,A,3,11,23,13,19,06,10,08,03,07,28,16,,1.4,0.8,1.2*31
$GPRMC,011408.000,A,3351.4561,N,09832.0538,W,0.15,97.73,030412,,,D*43
$GPGGA,011409.000,3351.4561,N,09832.0538,W,2,11,0.8,287.0,M,-23.7,M,0.8,0000*44
$GPGSA,A,3,11,23,13,19,06,10,08,03,07,28,16,,1.4,0.8,1.2*31
$GPRMC,011409.000,A,3351.4561,N,09832.0538,W,0.11,145.90,030412,,,D*75
$GPGGA,011410.000,3351.4561,N,09832.0538,W,2,11,0.8,287.0,M,-23.7,M,0.8,0000*4C
$GPGSA,A,3,11,23,13,19,06,10,08,03,07,28,16,,1.4,0.8,1.2*31
$GPGSV,3,1,12,13,72,199,36,07,57,337,40,19,56,105,40,23,42,167,37*75
$GPGSV,3,2,12,03,37,054,38,08,26,305,26,06,25,047,30,10,15,261,26*7D
$GPGSV,3,3,12,28,15,246,22,11,14,145,30,16,12,051,21,05,02,312,*76
$GPRMC,011410.000,A,3351.4561,N,09832.0538,W,0.14,168.07,030412,,,D*79
$GPGGA,011411.000,3351.4561,N,09832.0539,W,2,11,0.8,287.0,M,-23.7,M,0.8,0000*4C
$GPGSA,A,3,11,23,13,19,06,10,08,03,07,28,16,,1.4,0.8,1.2*31
$GPRMC,011411.000,A,3351.4561,N,09832.0539,W,0.09,90.69,030412,,,D*4B
$GPGGA,011412.000,3351.4561,N,09832.0539,W,2,11,0.8,287.0,M,-23.7,M,0.8,0000*4F
$GPGSA,A,3,11,23,13,19,06,10,08,03,07,28,16,,1.4,0.8,1.2*31
$GPRMC,011412.000,A,3351.4561,N,09832.0539,W,0.05,117.63,030412,,,D*70
$GPGGA,011413.000,3351.4561,N,09832.0539,W,2,11,0.8,287.1,M,-23.7,M,1.8,0000*4E
$GPGSA,A,3,11,23,13,19,06,10,08,03,07,28,16,,1.4,0.8,1.2*31
$GPRMC,011413.000,A,3351.4561,N,09832.0539,W,0.05,148.10,030412,,,D*7F
$GPGGA,011414.000,3351.4561,N,09832.0539,W,2,11,0.8,287.2,M,-23.7,M,2.8,0000*49
$GPGSA,A,3,11,23,13,19,06,10,08,03,07,28,16,,1.4,0.8,1.2*31
$GPRMC,011414.000,A,3351.4561,N,09832.0539,W,0.13,67.57,030412,,,D*40
$GPGGA,011415.000,3351.4561,N,09832.0539,W,2,11,0.8,287.2,M,-23.7,M,0.8,0000*4A
$GPGSA,A,3,11,23,13,19,06,10,08,03,07,28,16,,1.4,0.8,1.2*31
$GPGSV,3,1,12,13,72,199,36,07,57,337,40,19,56,105,40,23,42,167,37*75
$GPGSV,3,2,12,03,37,054,38,08,26,305,25,06,25,047,30,10,15,261,26*7E
$GPGSV,3,3,12,28,15,246,23,11,14,145,31,16,12,051,22,05,02,312,*75
$GPRMC,011415.000,A,3351.4561,N,09832.0539,W,0.10,93.80,030412,,,D*43
$GPGGA,011416.000,3351.4561,N,09832.0539,W,2,11,0.8,287.2,M,-23.7,M,0.8,0000*49
$GPGSA,A,3,11,23,13,19,06,10,08,03,07,28,16,,1.4,0.8,1.2*31
$GPRMC,011416.000,A,3351.4561,N,09832.0539,W,0.07,161.41,030412,,,D*77
$GPGGA,011417.000,3351.4561,N,09832.0539,W,2,11,0.8,287.2,M,-23.7,M,0.8,0000*48
$GPGSA,A,3,11,23,13,19,06,10,08,03,07,28,16,,1.4,0.8,1.2*31
$GPRMC,011417.000,A,3351.4561,N,09832.0539,W,0.14,125.52,030412,,,D*76
$GPGGA,011418.000,3351.4561,N,09832.0539,W,2,11,0.8,287.1,M,-23.7,M,0.8,0000*44
$GPGSA,A,3,11,23,13,19,06,10,08,03,07,28,16,,1.4,0.8,1.2*31
$GPRMC,011418.000,A,3351.4561,N,09832.0539,W,0.16,181.33,030412,,,D*72
$GPGGA,011419.000,3351.4561,N,09832.0539,W,2,11,0.8,287.1,M,-23.7,M,1.8,0000*44
$GPGSA,A,3,11,23,13,19,06,10,08,03,07,28,16,,1.4,0.8,1.2*31
$GPRMC,011419.000,A,3351.4561,N,09832.0539,W,0.14,104.73,030412,,,D*78
$GPGGA,011420.000,3351.4561,N,09832.0539,W,2,11,0.8,287.1,M,-23.7,M,0.8,0000*4F
$GPGSA,A,3,11,23,13,19,06,10,08,03,07,28,16,,1.4,0.8,1.2*31
$GPGSV,3,1,12,13,72,199,36,07,57,337,40,19,56,105,40,23,42,167,37*75
$GPGSV,3,2,12,03,37,053,38,08,26,305,24,06,25,047,30,10,15,261,26*78
$GPGSV,3,3,12,28,15,246,23,11,14,145,31,16,12,052,23,05,02,312,*77
$GPRMC,011420.000,A,3351.4561,N,09832.0539,W,0.15,108.58,030412,,,D*76
$GPGGA,011421.000,3351.4560,N,09832.0538,W,2,11,0.8,287.1,M,-23.7,M,0.8,0000*4E
$GPGSA,A,3,11,23,13,19,06,10,08,03,07,28,16,,1.4,0.8,1.2*31
$GPRMC,011421.000,A,3351.4560,N,09832.0538,W,0.14,151.83,030412,,,D*7C
$GPGGA,011422.000,3351.4560,N,09832.0538,W,2,11,0.8,287.1,M,-23.7,M,0.8,0000*4D
$GPGSA,A,3,11,23,13,19,06,10,08,03,07,28,16,,1.4,0.8,1.2*31
$GPRMC,011422.000,A,3351.4560,N,09832.0538,W,0.12,115.56,030412,,,D*71
$GPGGA,011423.000,3351.4560,N,09832.0538,W,2,11,0.8,287.1,M,-23.7,M,0.8,0000*4C
$GPGSA,A,3,11,23,13,19,06,10,08,03,07,28,16,,1.4,0.8,1.2*31
$GPRMC,011423.000,A,3351.4560,N,09832.0538,W,0.12,64.11,030412,,,D*44
$GPGGA,011424.000,3351.4561,N,09832.0538,W,2,11,0.8,287.1,M,-23.7,M,1.8,0000*4B
$GPGSA,A,3,11,23,13,19,06,10,08,03,07,28,16,,1.4,0.8,1.2*31
$GPRMC,011424.000,A,3351.4561,N,09832.0538,W,0.14,66.35,030412,,,D*40
$GPGGA,011425.000,3351.4561,N,09832.0538,W,2,11,0.8,287.2,M,-23.7,M,2.8,0000*4A
$GPGSA,A,3,11,23,13,19,06,10,08,03,07,28,16,,1.4,0.8,1.2*31
$GPGSV,3,1,12,13,72,199,36,07,57,337,40,19,56,105,40,23,42,167,37*75
$GPGSV,3,2,12,03,37,053,38,08,26,305,24,06,25,047,30,10,15,261,26*78
$GPGSV,3,3,12,28,15,246,23,11,14,145,31,16,12,052,24,05,02,312,*70
$GPRMC,011425.000,A,3351.4561,N,09832.0538,W,0.09,70.76,030412,,,D*4D
$GPGGA,011426.000,3351.4561,N,09832.0538,W,2,11,0.8,287.3,M,-23.7,M,3.8,0000*49
$GPGSA,A,3,11,23,13,19,06,10,08,03,07,28,16,,1.4,0.8,1.2*31
$GPRMC,011426.000,A,3351.4561,N,09832.0538,W,0.11,92.58,030412,,,D*47
$GPGGA,011427.000,3351.4561,N,09832.0538,W,2,11,0.8,287.4,M,-23.7,M,0.8,0000*4C
$GPGSA,A,3,11,23,13,19,06,10,08,03,07,28,16,,1.4,0.8,1.2*31
$GPRMC,011427.000,A,3351.4561,N,09832.0538,W,0.14,80.10,030412,,,D*4C
$GPGGA,011428.000,3351.4561,N,09832.0538,W,2,11,0.8,287.4,M,-23.7,M,0.8,0000*43
$GPGSA,A,3,11,23,13,19,06,10,08,03,07,28,16,,1.4,0.8,1.2*31
$GPRMC,011428.000,A,3351.4561,N,09832.0538,W,0.09,98.74,030412,,,D*44
$GPGGA,011429.000,3351.4561,N,09832.0538,W,2,11,0.8,287.4,M,-23.7,M,0.8,0000*42
$GPGSA,A,3,11,23,13,19,06,10,08,03,07,28,16,,1.4,0.8,1.2*31
$GPRMC,011429.000,A,3351.4561,N,09832.0538,W,0.14,187.97,030412,,,D*7B
$GPGGA,011430.000,3351.4561,N,09832.0538,W,2,11,0.8,287.3,M,-23.7,M,1.8,0000*4C
$GPGSA,A,3,11,23,13,19,06,10,08,03,07,28,16,,1.4,0.8,1.2*31
$GPGSV,3,1,12,13,72,199,36,07,57,337,40,19,56,105,40,23,42,167,38*7A
$GPGSV,3,2,12,03,37,053,38,08,26,305,24,06,25,047,30,10,15,261,26*78
$GPGSV,3,3,12,28,15,246,23,11,14,145,32,16,12,052,24,05,02,312,*73
$GPRMC,011430.000,A,3351.4561,N,09832.0538,W,0.09,154.40,030412,,,D*7B
$GPGGA,011431.000,3351.4561,N,09832.0538,W,2,11,0.8,287.3,M,-23.7,M,2.8,0000*4E
$GPGSA,A,3,11,23,13,19,06,10,08,03,07,28,16,,1.4,0.8,1.2*31
$GPRMC,011431.000,A,3351.4561,N,09832.0538,W,0.07,177.07,030412,,,D*76
$GPGGA,011432.000,3351.4561,N,09832.0539,W,2,11,0.8,287.2,M,-23.7,M,3.8,0000*4C
$GPGSA,A,3,11,23,13,19,06,10,08,03,07,28,16,,1.4,0.8,1.2*31
$GPRMC,011432.000,A,3351.4561,N,09832.0539,W,0.07,160.56,030412,,,D*76
$GPGGA,011433.000,3351.4560,N,09832.0539,W,2,11,0.8,287.1,M,-23.7,M,0.8,0000*4C
$GPGSA,A,3,11,23,13,19,06,10,08,03,07,28,16,,1.4,0.8,1.2*31
$GPRMC,011433.000,A,3351.4560,N,09832.0539,W,0.08,128.63,030412,,,D*73
$GPGGA,011434.000,3351.4560,N,09832.0539,W,2,11,0.8,287.1,M,-23.7,M,0.8,0000*4B
$GPGSA,A,3,11,23,13,19,06,10,08,03,07,28,16,,1.4,0.8,1.2*31
$GPRMC,011434.000,A,3351.4560,N,09832.0539,W,0.16,94.77,030412,,,D*48
$GPGGA,011435.000,3351.4561,N,09832.0538,W,2,11,0.8,287.1,M,-23.7,M,0.8,0000*4A
$GPGSA,A,3,11,23,13,19,06,10,08,03,07,28,16,,1.4,0.8,1.2*31
$GPGSV,3,1,12,13,72,199,36,07,57,337,40,19,56,105,40,23,42,167,38*7A
$GPGSV,3,2,12,03,37,053,39,08,26,305,24,06,25,047,30,10,15,261,26*79
$GPGSV,3,3,12,28,15,246,24,11,14,145,31,16,12,052,24,05,02,312,*77
$GPRMC,011435.000,A,3351.4561,N,09832.0538,W,0.13,71.51,030412,,,D*43
$GPGGA,011436.000,3351.4561,N,09832.0538,W,2,11,0.8,287.1,M,-23.7,M,0.8,0000*49
$GPGSA,A,3,11,23,13,19,06,10,08,03,07,28,16,,1.4,0.8,1.2*31
$GPRMC,011436.000,A,3351.4561,N,09832.0538,W,0.06,81.04,030412,,,D*4B
$GPGGA,011437.000,3351.4561,N,09832.0538,W,2,11,0.8,287.2,M,-23.7,M,0.8,0000*4B
$GPGSA,A,3,11,23,13,19,06,10,08,03,07,28,16,,1.4,0.8,1.2*31
$GPRMC,011437.000,A,3351.4561,N,09832.0538,W,0.13,69.81,030412,,,D*45
$GPGGA,011438.000,3351.4561,N,09832.0538,W,2,11,0.8,287.2,M,-23.7,M,1.8,0000*45
$GPGSA,A,3,11,23,13,19,06,10,08,03,07,28,16,,1.4,0.8,1.2*31
$GPRMC,011438.000,A,3351.4561,N,09832.0538,W,0.08,87.62,030412,,,D*4D
$GPGGA,011439.000,3351.4561,N,09832.0539,W,2,11,0.8,287.2,M,-23.7,M,0.8,0000*44
$GPGSA,A,3,11,23,13,19,06,10,08,03,07,28,16,,1.4,0.8,1.2*31
$GPRMC,011439.000,A,3351.4561,N,09832.0539,W,0.01,92.70,030412,,,D*43
$GPGGA,011440.000,3351.4561,N,09832.0539,W,2,11,0.8,287.2,M,-23.7,M,0.8,0000*4A
$GPGSA,A,3,11,23,13,19,06,10,08,03,07,28,16,,1.4,0.8,1.2*31
$GPGSV,3,1,12,13,72,199,36,07,57,337,40,19,56,105,40,23,42,167,38*7A
$GPGSV,3,2,12,03,37,053,39,08,26,305,24,06,25,047,30,10,15,261,27*78
$GPGSV,3,3,12,28,15,246,24,11,14,145,32,16,12,052,24,05,02,312,*74
$GPRMC,011440.000,A,3351.4561,N,09832.0539,W,0.11,86.01,030412,,,D*4F
$GPGGA,011441.000,3351.4561,N,09832.0539,W,2,11,0.8,287.2,M,-23.7,M,0.8,0000*4B
$GPGSA,A,3,11,23,13,19,06,10,08,03,07,28,16,,1.4,0.8,1.2*31
$GPRMC,011441.000,A,3351.4561,N,09832.0539,W,0.15,106.06,030412,,,D*74
$GPGGA,011442.000,3351.4561,N,09832.0539,W,2,11,0.8,287.1,M,-23.7,M,0.8,0000*4B
$GPGSA,A,3,11,23,13,19,06,10,08,03,07,28,16,,1.4,0.8,1.2*31
$GPRMC,011442.000,A,3351.4561,N,09832.0539,W,0.09,151.48,030412,,,D*72
$GPGGA,011443.000,3351.4561,N,09832.0539,W,2,11,0.8,287.1,M,-23.7,M,1.8,0000*4B
$GPGSA,A,3,11,23,13,19,06,10,08,03,07,28,16,,1.4,0.8,1.2*31
$GPRMC,011443.000,A,3351.4561,N,09832.0539,W,0.09,153.22,030412,,,D*7D
$GPGGA,011444.000,3351.4561,N,09832.0539,W,2,11,0.8,287.1,M,-23.7,M,2.8,0000*4F
$GPGSA,A,3,11,23,13,19,06,10,08,03,07,28,16,,1.4,0.8,1.2*31
$GPRMC,011444.000,A,3351.4561,N,09832.0539,W,0.15,152.40,030412,,,D*72
$GPGGA,011445.000,3351.4561,N,09832.0539,W,2,11,0.8,287.1,M,-23.7,M,0.8,0000*4C
$GPGSA,A,3,11,23,13,19,06,10,08,03,07,28,16,,1.4,0.8,1.2*31
$GPGSV,3,1,12,13,72,199,36,07,57,337,40,19,56,105,40,23,42,167,38*7A
$GPGSV,3,2,12,03,37,053,39,08,26,305,24,06,25,047,31,10,15,261,27*79
$GPGSV,3,3,12,28,15,246,24,11,14,145,32,16,12,052,25,05,02,312,*75
$GPRMC,011445.000,A,3351.4561,N,09832.0539,W,0.16,106.34,030412,,,D*72
$GPGGA,011446.000,3351.4561,N,09832.0539,W,2,11,0.8,287.1,M,-23.7,M,0.8,0000*4F
$GPGSA,A,3,11,23,13,19,06,10,08,03,07,28,16,,1.4,0.8,1.2*31
$GPRMC,011446.000,A,3351.4561,N,09832.0539,W,0.18,89.97,030412,,,D*40
$GPGGA,011447.000,3351.4561,N,09832.0538,W,2,11,0.8,287.2,M,-23.7,M,0.8,0000*4C
$GPGSA,A,3,11,23,13,19,06,10,08,03,07,28,16,,1.4,0.8,1.2*31
$GPRMC,011447.000,A,3351.4561,N,09832.0538,W,0.24,87.37,030412,,,D*4B
$GPGGA,011448.000,3351.4561,N,09832.0538,W,2,11,0.8,287.2,M,-23.7,M,1.8,0000*42
$GPGSA,A,3,11,23,13,19,06,10,08,03,07,28,16,,1.4,0.8,1.2*31
$GPRMC,011448.000,A,3351.4561,N,09832.0538,W,0.10,109.29,030412,,,D*7B
$GPGGA,011449.000,3351.4561,N,09832.0538,W,2,11,0.8,287.2,M,-23.7,M,2.8,0000*40
$GPGSA,A,3,11,23,13,19,06,10,08,03,07,28,16,,1.4,0.8,1.2*31
$GPRMC,011449.000,A,3351.4561,N,09832.0538,W,0.08,93.06,030412,,,D*4C
$GPGGA,011450.000,3351.4561,N,09832.0538,W,2,11,0.8,287.1,M,-23.7,M,3.8,0000*4A
$GPGSA,A,3,11,23,13,19,06,10,08,03,07,28,16,,1.4,0.8,1.2*31
$GPGSV,3,1,12,13,72,199,37,07,57,337,40,19,56,105,40,23,42,167,38*7B
$GPGSV,3,2,12,03,37,053,38,08,26,305,24,06,25,047,31,10,15,261,28*77
$GPGSV,3,3,12,28,15,246,24,11,14,145,32,16,12,052,25,05,02,312,*75
$GPRMC,011450.000,A,3351.4561,N,09832.0538,W,0.11,82.01,030412,,,D*4B
$GPGGA,011451.000,3351.4561,N,09832.0538,W,2,11,0.8,287.1,M,-23.7,M,0.8,0000*48
$GPGSA,A,3,11,23,13,19,06,10,08,03,07,28,16,,1.4,0.8,1.2*31
$GPRMC,011451.000,A,3351.4561,N,09832.0538,W,0.15,111.50,030412,,,D*71
$GPGGA,011452.000,3351.4561,N,09832.0538,W,2,11,0.8,287.1,M,-23.7,M,0.8,0000*4B
$GPGSA,A,3,11,23,13,19,06,10,08,03,07,28,16,,1.4,0.8,1.2*31
$GPRMC,011452.000,A,3351.4561,N,09832.0538,W,0.17,117.89,030412,,,D*72
$GPGGA,011453.000,3351.4561,N,09832.0538,W,2,11,0.8,287.1,M,-23.7,M,0.8,0000*4A
$GPGSA,A,3,11,23,13,19,06,10,08,03,07,28,16,,1.4,0.8,1.2*31
$GPRMC,011453.000,A,3351.4561,N,09832.0538,W,0.04,241.63,030412,,,D*75
$GPGGA,011454.000,3351.4561,N,09832.0538,W,2,11,0.8,287.1,M,-23.7,M,1.8,0000*4C
$GPGSA,A,3,11,23,13,19,06,10,08,03,07,28,16,,1.4,0.8,1.2*31
$GPRMC,011454.000,A,3351.4561,N,09832.0538,W,0.04,248.52,030412,,,D*79
$GPGGA,011455.000,3351.4561,N,09832.0539,W,2,11,0.8,287.1,M,-23.7,M,2.8,0000*4F
$GPGSA,A,3,11,23,13,19,06,10,08,03,07,28,16,,1.4,0.8,1.2*31
$GPGSV,3,1,12,13,72,199,37,07,57,337,40,19,56,105,40,23,42,167,38*7B
$GPGSV,3,2,12,03,37,053,38,08,26,305,23,06,25,047,32,10,15,261,29*72
$GPGSV,3,3,12,28,15,246,24,11,14,145,31,16,12,052,26,05,02,312,*75
$GPRMC,011455.000,A,3351.4561,N,09832.0539,W,0.05,251.13,030412,,,D*75
$GPGGA,011456.000,3351.4561,N,09832.0539,W,2,11,0.8,287.1,M,-23.7,M,3.8,0000*4D
$GPGSA,A,3,11,23,13,19,06,10,08,03,07,28,16,,1.4,0.8,1.2*31
$GPRMC,011456.000,A,3351.4561,N,09832.0539,W,0.10,139.88,030412,,,D*7D
$GPGGA,011457.000,3351.4561,N,09832.0539,W,2,11,0.8,287.1,M,-23.7,M,0.8,0000*4F
$GPGSA,A,3,11,23,13,19,06,10,08,03,07,28,16,,1.4,0.8,1.2*31
$GPRMC,011457.000,A,3351.4561,N,09832.0539,W,0.11,142.61,030412,,,D*76
$GPGGA,011458.000,3351.4561,N,09832.0539,W,2,11,0.8,287.2,M,-23.7,M,0.8,0000*43
$GPGSA,A,3,11,23,13,19,06,10,08,03,07,28,16,,1.4,0.8,1.2*31
$GPRMC,011458.000,A,3351.4561,N,09832.0539,W,0.09,152.78,030412,,,D*79
$GPGGA,011459.000,3351.4560,N,09832.0540,W,2,11,0.8,287.2,M,-23.7,M,0.8,0000*4D
$GPGSA,A,3,11,23,13,19,06,10,08,03,07,28,16,,1.4,0.8,1.2*31
$GPRMC,011459.000,A,3351.4560,N,09832.0540,W,0.14,116.33,030412,,,D*74
$GPGGA,011500.000,3351.4561,N,09832.0540,W,2,11,0.8,287.1,M,-23.7,M,1.8,0000*43
$GPGSA,A,3,11,23,13,19,06,10,08,03,07,28,16,,1.4,0.8,1.2*31
$GPGSV,3,1,12,13,72,199,37,07,57,337,40,19,56,105,40,23,42,167,38*7B
$GPGSV,3,2,12,03,37,053,38,08,26,305,24,06,25,047,32,10,15,261,29*75
$GPGSV,3,3,12,28,15,246,25,11,14,145,31,16,12,052,27,05,02,312,*75
$GPRMC,011500.000,A,3351.4561,N,09832.0540,W,0.10,111.86,030412,,,D*75
$GPGGA,011501.000,3351.4561,N,09832.0540,W,2,11,0.8,287.1,M,-23.7,M,2.8,0000*41
$GPGSA,A,3,11,23,13,19,06,10,08,03,07,28,16,,1.4,0.8,1.2*31
$GPRMC,011501.000,A,3351.4561,N,09832.0540,W,0.02,180.35,030412,,,D*77
$GPGGA,011502.000,3351.4561,N,09832.0540,W,2,11,0.8,287.1,M,-23.7,M,3.8,0000*43
$GPGSA,A,3,11,23,13,19,06,10,08,03,07,28,16,,1.4,0.8,1.2*31
$GPRMC,011502.000,A,3351.4561,N,09832.0540,W,0.14,115.54,030412,,,D*78
$GPGGA,011503.000,3351.4561,N,09832.0540,W,2,11,0.8,287.1,M,-23.7,M,0.8,0000*41
$GPGSA,A,3,11,23,13,19,06,10,08,03,07,28,16,,1.4,0.8,1.2*31
$GPRMC,011503.000,A,3351.4561,N,09832.0540,W,0.15,108.39,030412,,,D*7F
$GPGGA,011504.000,3351.4561,N,09832.0540,W,2,11,0.8,287.1,M,-23.7,M,0.8,0000*46
$GPGSA,A,3,11,23,13,19,06,10,08,03,07,28,16,,1.4,0.8,1.2*31
$GPRMC,011504.000,A,3351.4561,N,09832.0540,W,0.07,105.10,030412,,,D*7D
$GPGGA,011505.000,3351.4561,N,09832.0540,W,2,11,0.8,287.2,M,-23.7,M,0.8,0000*44
$GPGSA,A,3,11,23,13,19,06,10,08,03,07,28,16,,1.4,0.8,1.2*31
$GPGSV,3,1,12,13,72,199,36,07,57,337,40,19,56,105,39,23,42,167,38*74
$GPGSV,3,2,12,03,37,053,38,08,26,305,24,06,25,047,33,10,15,261,30*7C
$GPGSV,3,3,12,28,15,246,25,11,14,145,31,16,12,052,28,05,02,312,*7A
$GPRMC,011505.000,A,3351.4561,N,09832.0540,W,0.03,129.89,030412,,,D*76
$GPGGA,011506.000,3351.4561,N,09832.0540,W,2,11,0.8,287.2,M,-23.7,M,0.8,0000*47
$GPGSA,A,3,11,23,13,19,06,10,08,03,07,28,16,,1.4,0.8,1.2*31
$GPRMC,011506.000,A,3351.4561,N,09832.0540,W,0.08,128.20,030412,,,D*7C
$GPGGA,011507.000,3351.4561,N,09832.0540,W,2,11,0.8,287.2,M,-23.7,M,0.8,0000*46
$GPGSA,A,3,11,23,13,19,06,10,08,03,07,28,16,,1.4,0.8,1.2*31
$GPRMC,011507.000,A,3351.4561,N,09832.0540,W,0.06,135.27,030412,,,D*78
$GPGGA,011508.000,3351.4561,N,09832.0540,W,2,11,0.8,287.2,M,-23.7,M,0.8,0000*49
$GPGSA,A,3,11,23,13,19,06,10,08,03,07,28,16,,1.4,0.8,1.2*31
$GPRMC,011508.000,A,3351.4561,N,09832.0540,W,0.09,131.70,030412,,,D*7E
$GPGGA,011509.000,3351.4561,N,09832.0540,W,2,11,0.8,287.2,M,-23.7,M,0.8,0000*48
$GPGSA,A,3,11,23,13,19,06,10,08,03,07,28,16,,1.4,0.8,1.2*31
$GPRMC,011509.000,A,3351.4561,N,09832.0540,W,0.15,133.80,030412,,,D*7F
$GPGGA,011510.000,3351.4561,N,09832.0540,W,2,11,0.8,287.3,M,-23.7,M,0.8,0000*41
$GPGSA,A,3,11,23,13,19,06,10,08,03,07,28,16,,1.4,0.8,1.2*31
$GPGSV,3,1,12,13,72,199,36,07,57,337,40,19,56,105,39,23,42,167,38*74
$GPGSV,3,2,12,03,37,053,38,08,26,305,24,06,25,047,33,10,15,261,30*7C
$GPGSV,3,3,12,28,15,246,25,11,14,145,31,16,12,052,28,05,02,312,*7A
$GPRMC,011510.000,A,3351.4561,N,09832.0540,W,0.13,135.80,030412,,,D*77
$GPGGA,011511.000,3351.4561,N,09832.0540,W,2,11,0.8,287.3,M,-23.7,M,0.8,0000*40
$GPGSA,A,3,11,23,13,19,06,10,08,03,07,28,16,,1.4,0.8,1.2*31
$GPRMC,011511.000,A,3351.4561,N,09832.0540,W,0.08,103.70,030412,,,D*76
$GPGGA,011512.000,3351.4561,N,09832.0540,W,2,11,0.8,287.3,M,-23.7,M,1.8,0000*42
$GPGSA,A,3,11,23,13,19,06,10,08,03,07,28,16,,1.4,0.8,1.2*31
$GPRMC,011512.000,A,3351.4561,N,09832.0540,W,0.04,72.06,030412,,,D*4F
$GPGGA,011513.000,3351.4561,N,09832.0540,W,2,11,0.8,287.3,M,-23.7,M,2.8,0000*40
$GPGSA,A,3,11,23,13,19,06,10,08,03,07,28,16,,1.4,0.8,1.2*31
$GPRMC,011513.000,A,3351.4561,N,09832.0540,W,0.02,116.88,030412,,,D*7D
$GPGGA,011514.000,3351.4561,N,09832.0541,W,2,11,0.8,287.3,M,-23.7,M,3.8,0000*47
$GPGSA,A,3,11,23,13,19,06,10,08,03,07,28,16,,1.4,0.8,1.2*31
$GPRMC,011514.000,A,3351.4561,N,09832.0541,W,0.07,34.74,030412,,,D*4C
$GPGGA,011515.000,3351.4561,N,09832.0541,W,2,11,0.8,287.3,M,-23.7,M,0.8,0000*45
$GPGSA,A,3,11,23,13,19,06,10,08,03,07,28,16,,1.4,0.8,1.2*31
$GPGSV,3,1,12,13,72,199,37,07,57,337,40,19,56,105,39,23,42,167,38*75
$GPGSV,3,2,12,03,37,053,38,08,26,305,23,06,25,047,33,10,15,261,31*7A
$GPGSV,3,3,12,28,15,246,25,11,14,145,32,16,12,052,29,05,02,312,*78
$GPRMC,011515.000,A,3351.4561,N,09832.0541,W,0.04,350.72,030412,,,D*79
$GPGGA,011516.000,3351.4562,N,09832.0541,W,2,11,0.8,287.3,M,-23.7,M,0.8,0000*45
$GPGSA,A,3,11,23,13,19,06,10,08,03,07,28,16,,1.4,0.8,1.2*31
$GPRMC,011516.000,A,3351.4562,N,09832.0541,W,0.08,96.99,030412,,,D*49
$GPGGA,011517.000,3351.4562,N,09832.0541,W,2,11,0.8,287.2,M,-23.7,M,0.8,0000*45
$GPGSA,A,3,11,23,13,19,06,10,08,03,07,28,16,,1.4,0.8,1.2*31
$GPRMC,011517.000,A,3351.4562,N,09832.0541,W,0.02,300.18,030412,,,D*77
$GPGGA,011518.000,3351.4562,N,09832.0542,W,2,11,0.8,287.2,M,-23.7,M,1.8,0000*48
$GPGSA,A,3,11,23,13,19,06,10,08,03,07,28,16,,1.4,0.8,1.2*31
$GPRMC,011518.000,A,3351.4562,N,09832.0542,W,0.10,130.27,030412,,,D*75
$GPGGA,011519.000,3351.4562,N,09832.0542,W,2,11,0.8,287.1,M,-23.7,M,2.8,0000*49
$GPGSA,A,3,11,23,13,19,06,10,08,03,07,28,16,,1.4,0.8,1.2*31
$GPRMC,011519.000,A,3351.4562,N,09832.0542,W,0.02,252.71,030412,,,D*73
$GPGGA,011520.000,3351.4562,N,09832.0542,W,2,11,0.8,287.1,M,-23.7,M,3.8,0000*42
$GPGSA,A,3,11,23,13,19,06,10,08,03,07,28,16,,1.4,0.8,1.2*31
$GPGSV,3,1,12,13,72,199,37,07,57,337,40,19,56,105,40,23,42,167,38*7B
$GPGSV,3,2,12,03,37,053,37,08,26,305,23,06,25,047,33,10,15,261,31*75
$GPGSV,3,3,12,28,15,246,25,11,14,145,32,16,12,052,29,05,02,312,*78
$GPRMC,011520.000,A,3351.4562,N,09832.0542,W,0.04,317.62,030412,,,D*7D
$GPGGA,011521.000,3351.4562,N,09832.0542,W,2,11,0.8,287.0,M,-23.7,M,0.8,0000*41
$GPGSA,A,3,11,23,13,19,06,10,08,03,07,28,16,,1.4,0.8,1.2*31
$GPRMC,011521.000,A,3351.4562,N,09832.0542,W,0.10,247.45,030412,,,D*78
