$GPGGA,080725.000,3353.7469,N,09832.0192,W,1,07,1.7,335.2,M,-23.7,M,59.8,0000*71
$GPGSA,A,3,02,05,28,10,27,04,17,,,,,,2.9,1.7,2.3*35
$GPGSV,3,1,11,04,74,031,26,02,65,242,35,10,40,128,29,12,40,317,20*7C
$GPGSV,3,2,11,09,32,254,,17,31,071,32,27,29,237,18,28,18,137,34*70
$GPGSV,3,3,11,05,11,181,38,20,02,035,20,25,01,318,*47
$GPRMC,080725.000,A,3353.7469,N,09832.0192,W,0.35,146.32,310312,,,A*72
$GPGGA,080726.000,3353.7468,N,09832.0193,W,1,07,1.7,335.3,M,-23.7,M,59.8,0000*73
$GPGSA,A,3,02,05,28,10,27,04,17,,,,,,2.9,1.7,2.3*35
$GPRMC,080726.000,A,3353.7468,N,09832.0193,W,0.15,190.11,310312,,,A*79
$GPGGA,080727.000,3353.7467,N,09832.0193,W,1,07,1.7,335.4,M,-23.7,M,59.8,0000*7A
$GPGSA,A,3,02,05,28,10,27,04,17,,,,,,2.9,1.7,2.3*35
$GPRMC,080727.000,A,3353.7467,N,09832.0193,W,0.06,151.36,310312,,,A*7D
$GPGGA,080728.000,3353.7466,N,09832.0193,W,1,07,1.7,335.3,M,-23.7,M,59.8,0000*73
$GPGSA,A,3,02,05,28,10,27,04,17,,,,,,2.9,1.7,2.3*35
$GPRMC,080728.000,A,3353.7466,N,09832.0193,W,0.03,46.46,310312,,,A*46
$GPGGA,080729.000,3353.7465,N,09832.0194,W,1,08,1.4,335.3,M,-23.7,M,59.8,0000*7A
$GPGSA,A,3,09,02,05,28,10,27,04,17,,,,,2.6,1.4,2.1*32
$GPRMC,080729.000,A,3353.7465,N,09832.0194,W,0.03,88.46,310312,,,A*41
$GPGGA,080730.000,3353.7465,N,09832.0195,W,1,08,1.4,335.1,M,-23.7,M,59.8,0000*71
$GPGSA,A,3,09,02,05,28,10,27,04,17,,,,,2.6,1.4,2.1*32
$GPGSV,3,1,11,04,74,031,27,02,65,242,35,10,40,128,30,12,40,317,22*77
$GPGSV,3,2,11,09,32,254,18,17,31,071,32,27,29,237,18,28,18,137,34*79
$GPGSV,3,3,11,05,11,181,37,20,02,035,20,25,01,318,*48
$GPRMC,080730.000,A,3353.7465,N,09832.0195,W,0.24,299.94,310312,,,A*70
$GPGGA,080731.000,3353.7465,N,09832.0197,W,1,08,1.4,334.9,M,-23.7,M,59.8,0000*7B
$GPGSA,A,3,09,02,05,28,10,27,04,17,,,,,2.6,1.4,2.1*32
$GPRMC,080731.000,A,3353.7465,N,09832.0197,W,0.37,302.36,310312,,,A*7A
$GPGGA,080732.000,3353.7466,N,09832.0198,W,1,08,1.4,334.6,M,-23.7,M,59.8,0000*7B
$GPGSA,A,3,09,02,05,28,10,27,04,17,,,,,2.6,1.4,2.1*32
$GPRMC,080732.000,A,3353.7466,N,09832.0198,W,0.22,327.60,310312,,,A*75
$GPGGA,080733.000,3353.7466,N,09832.0200,W,1,08,1.4,334.2,M,-23.7,M,59.8,0000*7C
$GPGSA,A,3,09,02,05,28,10,27,04,17,,,,,2.6,1.4,2.1*32
$GPRMC,080733.000,A,3353.7466,N,09832.0200,W,0.26,317.75,310312,,,A*75
$GPGGA,080734.000,3353.7466,N,09832.0201,W,1,08,1.4,333.8,M,-23.7,M,59.8,0000*77
$GPGSA,A,3,09,02,05,28,10,27,04,17,,,,,2.6,1.4,2.1*32
$GPRMC,080734.000,A,3353.7466,N,09832.0201,W,0.31,339.11,310312,,,A*7B
$GPGGA,080735.000,3353.7467,N,09832.0202,W,1,08,1.4,333.3,M,-23.7,M,59.8,0000*7F
$GPGSA,A,3,09,02,05,28,10,27,04,17,,,,,2.6,1.4,2.1*32
$GPGSV,3,1,11,04,74,031,28,02,65,242,35,10,40,128,30,12,40,317,23*79
$GPGSV,3,2,11,09,32,254,19,17,31,071,32,27,29,237,18,28,18,137,34*78
$GPGSV,3,3,11,05,11,181,37,20,02,035,20,25,01,318,*48
$GPRMC,080735.000,A,3353.7467,N,09832.0202,W,0.28,357.77,310312,,,A*78
$GPGGA,080736.000,3353.7468,N,09832.0202,W,1,08,1.4,332.8,M,-23.7,M,59.8,0000*79
$GPGSA,A,3,09,02,05,28,10,27,04,17,,,,,2.6,1.4,2.1*32
$GPRMC,080736.000,A,3353.7468,N,09832.0202,W,0.26,0.06,310312,,,A*7D
$GPGGA,080737.000,3353.7468,N,09832.0203,W,1,08,1.4,332.3,M,-23.7,M,59.8,0000*72
$GPGSA,A,3,09,02,05,28,10,27,04,17,,,,,2.6,1.4,2.1*32
$GPRMC,080737.000,A,3353.7468,N,09832.0203,W,0.24,351.69,310312,,,A*71
$GPGGA,080738.000,3353.7469,N,09832.0204,W,1,08,1.4,331.7,M,-23.7,M,59.8,0000*7C
$GPGSA,A,3,09,02,05,28,10,27,04,17,,,,,2.6,1.4,2.1*32
$GPRMC,080738.000,A,3353.7469,N,09832.0204,W,0.26,356.94,310312,,,A*7F
$GPGGA,080739.000,3353.7469,N,09832.0205,W,1,08,1.4,331.2,M,-23.7,M,59.8,0000*79
$GPGSA,A,3,09,02,05,28,10,27,04,17,,,,,2.6,1.4,2.1*32
$GPRMC,080739.000,A,3353.7469,N,09832.0205,W,0.25,10.35,310312,,,A*46
$GPGGA,080740.000,3353.7469,N,09832.0205,W,1,08,1.4,330.7,M,-23.7,M,59.8,0000*73
$GPGSA,A,3,09,02,05,28,10,27,04,17,,,,,2.6,1.4,2.1*32
$GPGSV,3,1,11,04,74,031,28,02,65,242,36,10,40,128,31,12,40,317,23*7B
$GPGSV,3,2,11,09,32,254,19,17,31,071,32,27,29,237,17,28,18,137,34*77
$GPGSV,3,3,11,05,11,181,37,20,02,035,19,25,01,318,*42
$GPRMC,080740.000,A,3353.7469,N,09832.0205,W,0.29,47.68,310312,,,A*4E
$GPGGA,080741.000,3353.7470,N,09832.0205,W,1,08,1.4,330.2,M,-23.7,M,59.8,0000*7F
$GPGSA,A,3,09,02,05,28,10,27,04,17,,,,,2.6,1.4,2.1*32
$GPRMC,080741.000,A,3353.7470,N,09832.0205,W,0.22,26.66,310312,,,A*45
$GPGGA,080742.000,3353.7470,N,09832.0206,W,1,08,1.4,329.6,M,-23.7,M,59.8,0000*73
$GPGSA,A,3,09,02,05,28,10,27,04,17,,,,,2.6,1.4,2.1*32
$GPRMC,080742.000,A,3353.7470,N,09832.0206,W,0.28,350.06,310312,,,A*7B
$GPGGA,080743.000,3353.7470,N,09832.0206,W,1,08,1.4,329.1,M,-23.7,M,59.8,0000*75
$GPGSA,A,3,09,02,05,28,10,27,04,17,,,,,2.6,1.4,2.1*32
$GPRMC,080743.000,A,3353.7470,N,09832.0206,W,0.26,28.41,310312,,,A*4B
$GPGGA,080744.000,3353.7471,N,09832.0207,W,1,08,1.4,328.6,M,-23.7,M,59.8,0000*74
$GPGSA,A,3,09,02,05,28,10,27,04,17,,,,,2.6,1.4,2.1*32
$GPRMC,080744.000,A,3353.7471,N,09832.0207,W,0.23,351.54,310312,,,A*70
$GPGGA,080745.000,3353.7472,N,09832.0209,W,1,08,1.4,328.0,M,-23.7,M,59.8,0000*7E
$GPGSA,A,3,09,02,05,28,10,27,04,17,,,,,2.6,1.4,2.1*32
$GPGSV,3,1,11,04,74,031,29,02,65,242,36,10,40,128,32,12,40,317,23*79
$GPGSV,3,2,11,09,32,254,21,17,31,071,31,27,29,237,16,28,18,137,34*7E
$GPGSV,3,3,11,05,11,181,37,20,02,035,19,25,01,318,*42
$GPRMC,080745.000,A,3353.7472,N,09832.0209,W,0.44,320.92,310312,,,A*71
$GPGGA,080746.000,3353.7473,N,09832.0210,W,1,08,1.4,327.3,M,-23.7,M,59.8,0000*78
$GPGSA,A,3,09,02,05,28,10,27,04,17,,,,,2.6,1.4,2.1*32
$GPRMC,080746.000,A,3353.7473,N,09832.0210,W,0.37,327.08,310312,,,A*7B
$GPGGA,080747.000,3353.7473,N,09832.0211,W,1,08,1.4,326.7,M,-23.7,M,59.8,0000*7D
$GPGSA,A,3,09,02,05,28,10,27,04,17,,,,,2.6,1.4,2.1*32
$GPRMC,080747.000,A,3353.7473,N,09832.0211,W,0.33,334.15,310312,,,A*71
$GPGGA,080748.000,3353.7474,N,09832.0212,W,1,08,1.4,326.1,M,-23.7,M,59.8,0000*70
$GPGSA,A,3,09,02,05,28,10,27,04,17,,,,,2.6,1.4,2.1*32
$GPRMC,080748.000,A,3353.7474,N,09832.0212,W,0.32,339.29,310312,,,A*79
$GPGGA,080749.000,3353.7475,N,09832.0213,W,1,08,1.4,325.5,M,-23.7,M,59.8,0000*76
$GPGSA,A,3,09,02,05,28,10,27,04,17,,,,,2.6,1.4,2.1*32
$GPRMC,080749.000,A,3353.7475,N,09832.0213,W,0.28,358.87,310312,,,A*70
$GPGGA,080750.000,3353.7475,N,09832.0213,W,1,08,1.4,325.0,M,-23.7,M,59.8,0000*7B
$GPGSA,A,3,09,02,05,28,10,27,04,17,,,,,2.6,1.4,2.1*32
$GPGSV,3,1,11,04,73,031,30,02,65,242,37,10,40,128,33,12,40,317,22*77
$GPGSV,3,2,11,09,32,254,23,17,31,071,31,27,29,237,17,28,18,137,34*7D
$GPGSV,3,3,11,05,11,180,37,20,02,035,19,25,01,318,*43
$GPRMC,080750.000,A,3353.7475,N,09832.0213,W,0.25,11.39,310312,,,A*4E
$GPGGA,080751.000,3353.7476,N,09832.0214,W,1,08,1.4,324.5,M,-23.7,M,59.8,0000*7A
$GPGSA,A,3,09,02,05,28,10,27,04,17,,,,,2.6,1.4,2.1*32
$GPRMC,080751.000,A,3353.7476,N,09832.0214,W,0.27,28.19,310312,,,A*41
$GPGGA,080752.000,3353.7476,N,09832.0214,W,1,08,1.4,324.0,M,-23.7,M,59.8,0000*7C
$GPGSA,A,3,09,02,05,28,10,27,04,17,,,,,2.6,1.4,2.1*32
$GPRMC,080752.000,A,3353.7476,N,09832.0214,W,0.28,37.51,310312,,,A*4F
$GPGGA,080753.000,3353.7477,N,09832.0215,W,1,08,1.4,323.5,M,-23.7,M,59.8,0000*7F
$GPGSA,A,3,09,02,05,28,10,27,04,17,,,,,2.6,1.4,2.1*32
$GPRMC,080753.000,A,3353.7477,N,09832.0215,W,0.28,352.17,310312,,,A*7C
$GPGGA,080754.000,3353.7478,N,09832.0215,W,1,08,1.4,323.0,M,-23.7,M,59.8,0000*72
$GPGSA,A,3,09,02,05,28,10,27,04,17,,,,,2.6,1.4,2.1*32
$GPRMC,080754.000,A,3353.7478,N,09832.0215,W,0.24,26.18,310312,,,A*47
$GPGGA,080755.000,3353.7478,N,09832.0215,W,1,08,1.4,322.6,M,-23.7,M,59.8,0000*74
$GPGSA,A,3,09,02,05,28,10,27,04,17,,,,,2.6,1.4,2.1*32
$GPGSV,3,1,11,04,73,031,30,02,65,242,37,10,40,128,33,12,40,317,22*77
$GPGSV,3,2,11,09,32,254,24,17,31,071,31,27,29,237,17,28,18,137,34*7A
$GPGSV,3,3,11,05,11,180,37,20,02,035,19,25,01,318,*43
$GPRMC,080755.000,A,3353.7478,N,09832.0215,W,0.26,22.62,310312,,,A*4D
$GPGGA,080756.000,3353.7479,N,09832.0216,W,1,08,1.4,322.1,M,-23.7,M,59.8,0000*72
$GPGSA,A,3,09,02,05,28,10,27,04,17,,,,,2.6,1.4,2.1*32
$GPRMC,080756.000,A,3353.7479,N,09832.0216,W,0.27,4.46,310312,,,A*7F
$GPGGA,080757.000,3353.7479,N,09832.0216,W,1,08,1.4,321.7,M,-23.7,M,59.8,0000*76
$GPGSA,A,3,09,02,05,28,10,27,04,17,,,,,2.6,1.4,2.1*32
$GPRMC,080757.000,A,3353.7479,N,09832.0216,W,0.25,46.08,310312,,,A*40
$GPGGA,080758.000,3353.7480,N,09832.0216,W,1,08,1.4,321.3,M,-23.7,M,59.8,0000*7B
$GPGSA,A,3,09,02,05,28,10,27,04,17,,,,,2.6,1.4,2.1*32
$GPRMC,080758.000,A,3353.7480,N,09832.0216,W,0.22,25.44,310312,,,A*43
$GPGGA,080759.000,3353.7481,N,09832.0216,W,1,08,1.4,320.9,M,-23.7,M,59.8,0000*70
$GPGSA,A,3,09,02,05,28,10,27,04,17,,,,,2.6,1.4,2.1*32
$GPRMC,080759.000,A,3353.7481,N,09832.0216,W,0.24,13.50,310312,,,A*45
$GPGGA,080800.000,3353.7481,N,09832.0217,W,1,08,1.4,320.5,M,-23.7,M,59.8,0000*7E
$GPGSA,A,3,09,02,05,28,10,27,04,17,,,,,2.6,1.4,2.1*32
$GPGSV,3,1,11,04,73,031,30,02,65,242,38,10,40,128,34,12,40,317,22*7F
$GPGSV,3,2,11,09,32,254,25,17,31,071,30,27,29,237,16,28,18,137,34*7B
$GPGSV,3,3,11,05,11,180,37,20,02,035,19,25,01,318,*43
$GPRMC,080800.000,A,3353.7481,N,09832.0217,W,0.30,328.34,310312,,,A*7B
$GPGGA,080801.000,3353.7482,N,09832.0218,W,1,08,1.4,320.1,M,-23.7,M,59.8,0000*77
$GPGSA,A,3,09,02,05,28,10,27,04,17,,,,,2.6,1.4,2.1*32
$GPRMC,080801.000,A,3353.7482,N,09832.0218,W,0.23,347.81,310312,,,A*73
$GPGGA,080802.000,3353.7483,N,09832.0219,W,1,08,1.4,319.6,M,-23.7,M,59.8,0000*79
$GPGSA,A,3,09,02,05,28,10,27,04,17,,,,,2.6,1.4,2.1*32
$GPRMC,080802.000,A,3353.7483,N,09832.0219,W,0.26,1.27,310312,,,A*78
$GPGGA,080803.000,3353.7484,N,09832.0219,W,1,08,1.4,319.2,M,-23.7,M,59.8,0000*7B
$GPGSA,A,3,09,02,05,28,10,27,04,17,,,,,2.6,1.4,2.1*32
$GPRMC,080803.000,A,3353.7484,N,09832.0219,W,0.27,357.59,310312,,,A*76
$GPGGA,080804.000,3353.7484,N,09832.0220,W,1,08,1.4,318.9,M,-23.7,M,59.8,0000*7C
$GPGSA,A,3,09,02,05,28,10,27,04,17,,,,,2.6,1.4,2.1*32
$GPRMC,080804.000,A,3353.7484,N,09832.0220,W,0.23,26.78,310312,,,A*49
$GPGGA,080805.000,3353.7485,N,09832.0219,W,1,08,1.4,318.5,M,-23.7,M,59.8,0000*7A
$GPGSA,A,3,09,02,05,28,10,27,04,17,,,,,2.6,1.4,2.1*32
$GPGSV,3,1,11,04,73,031,30,02,65,242,38,10,40,128,34,12,40,317,23*7E
$GPGSV,3,2,11,09,32,254,25,17,31,071,30,27,29,237,16,28,18,137,33*7C
$GPGSV,3,3,11,05,11,180,37,20,02,035,19,25,01,318,*43
$GPRMC,080805.000,A,3353.7485,N,09832.0219,W,0.27,48.79,310312,,,A*4E
$GPGGA,080806.000,3353.7485,N,09832.0220,W,1,08,1.4,318.2,M,-23.7,M,59.8,0000*74
$GPGSA,A,3,09,02,05,28,10,27,04,17,,,,,2.6,1.4,2.1*32
$GPRMC,080806.000,A,3353.7485,N,09832.0220,W,0.17,17.62,310312,,,A*44
$GPGGA,080807.000,3353.7486,N,09832.0220,W,1,08,1.4,318.0,M,-23.7,M,59.8,0000*74
$GPGSA,A,3,09,02,05,28,10,27,04,17,,,,,2.6,1.4,2.1*32
$GPRMC,080807.000,A,3353.7486,N,09832.0220,W,0.19,19.91,310312,,,A*4A
$GPGGA,080808.000,3353.7486,N,09832.0220,W,1,08,1.4,317.7,M,-23.7,M,59.8,0000*73
$GPGSA,A,3,09,02,05,28,10,27,04,17,,,,,2.6,1.4,2.1*32
$GPRMC,080808.000,A,3353.7486,N,09832.0220,W,0.19,25.86,310312,,,A*4C
$GPGGA,080809.000,3353.7487,N,09832.0221,W,1,08,1.4,317.4,M,-23.7,M,59.8,0000*71
$GPGSA,A,3,09,02,05,28,10,27,04,17,,,,,2.6,1.4,2.1*32
$GPRMC,080809.000,A,3353.7487,N,09832.0221,W,0.16,343.73,310312,,,A*7B
$GPGGA,080810.000,3353.7487,N,09832.0222,W,1,08,1.4,317.2,M,-23.7,M,59.8,0000*7C
$GPGSA,A,3,09,02,05,28,10,27,04,17,,,,,2.6,1.4,2.1*32
$GPGSV,3,1,11,04,73,031,31,02,66,242,38,10,40,128,34,12,40,317,23*7C
$GPGSV,3,2,11,09,31,254,25,17,31,072,30,27,29,237,15,28,18,137,33*7F
$GPGSV,3,3,11,05,12,180,37,20,02,035,18,25,01,318,*41
$GPRMC,080810.000,A,3353.7487,N,09832.0222,W,0.21,321.20,310312,,,A*76
$GPGGA,080811.000,3353.7488,N,09832.0223,W,1,08,1.4,316.9,M,-23.7,M,59.8,0000*79
$GPGSA,A,3,09,02,05,28,10,27,04,17,,,,,2.6,1.4,2.1*32
$GPRMC,080811.000,A,3353.7488,N,09832.0223,W,0.22,328.02,310312,,,A*73
$GPGGA,080812.000,3353.7488,N,09832.0224,W,1,08,1.4,316.7,M,-23.7,M,59.8,0000*73
$GPGSA,A,3,09,02,05,28,10,27,04,17,,,,,2.6,1.4,2.1*32
$GPRMC,080812.000,A,3353.7488,N,09832.0224,W,0.23,319.25,310312,,,A*71
$GPGGA,080813.000,3353.7489,N,09832.0225,W,1,08,1.4,316.4,M,-23.7,M,59.8,0000*71
$GPGSA,A,3,09,02,05,28,10,27,04,17,,,,,2.6,1.4,2.1*32
$GPRMC,080813.000,A,3353.7489,N,09832.0225,W,0.25,321.58,310312,,,A*77
$GPGGA,080814.000,3353.7489,N,09832.0225,W,1,08,1.4,316.2,M,-23.7,M,59.8,0000*70
$GPGSA,A,3,09,02,05,28,10,27,04,17,,,,,2.6,1.4,2.1*32
$GPRMC,080814.000,A,3353.7489,N,09832.0225,W,0.18,8.85,310312,,,A*76
$GPGGA,080815.000,3353.7489,N,09832.0225,W,1,08,1.4,316.0,M,-23.7,M,59.8,0000*73
$GPGSA,A,3,09,02,05,28,10,27,04,17,,,,,2.6,1.4,2.1*32
$GPGSV,3,1,11,04,73,031,31,02,66,242,38,10,40,128,34,12,40,317,22*7D
$GPGSV,3,2,11,09,31,254,26,17,31,072,30,27,29,237,15,28,18,137,33*7C
$GPGSV,3,3,11,05,12,180,37,20,02,035,,25,01,318,*48
$GPRMC,080815.000,A,3353.7489,N,09832.0225,W,0.18,25.80,310312,,,A*4D
$GPGGA,080816.000,3353.7490,N,09832.0226,W,1,08,1.4,315.9,M,-23.7,M,59.8,0000*71
$GPGSA,A,3,09,02,05,28,10,27,04,17,,,,,2.6,1.4,2.1*32
$GPRMC,080816.000,A,3353.7490,N,09832.0226,W,0.16,29.65,310312,,,A*4C
$GPGGA,080817.000,3353.7490,N,09832.0226,W,1,08,1.4,315.8,M,-23.7,M,59.8,0000*71
$GPGSA,A,3,09,02,05,28,10,27,04,17,,,,,2.6,1.4,2.1*32
$GPRMC,080817.000,A,3353.7490,N,09832.0226,W,0.16,33.36,310312,,,A*40
$GPGGA,080818.000,3353.7490,N,09832.0226,W,1,08,1.4,315.7,M,-23.7,M,59.8,0000*71
$GPGSA,A,3,09,02,05,28,10,27,04,17,,,,,2.6,1.4,2.1*32
$GPRMC,080818.000,A,3353.7490,N,09832.0226,W,0.13,49.42,310312,,,A*44
$GPGGA,080819.000,3353.7490,N,09832.0226,W,1,08,1.4,315.6,M,-23.7,M,59.8,0000*71
$GPGSA,A,3,09,02,05,28,10,27,04,17,,,,,2.6,1.4,2.1*32
$GPRMC,080819.000,A,3353.7490,N,09832.0226,W,0.09,31.98,310312,,,A*46
$GPGGA,080820.000,3353.7490,N,09832.0226,W,1,08,1.4,315.6,M,-23.7,M,59.8,0000*7B
$GPGSA,A,3,09,02,05,28,10,27,04,17,,,,,2.6,1.4,2.1*32
$GPGSV,3,1,12,04,73,031,31,02,66,242,38,10,40,128,35,12,40,317,22*7F
$GPGSV,3,2,12,09,31,254,26,17,31,072,29,27,29,236,16,28,18,137,33*75
$GPGSV,3,3,12,05,12,180,36,20,02,035,,25,01,318,,51,49,195,30*7D
$GPRMC,080820.000,A,3353.7490,N,09832.0226,W,0.08,348.55,310312,,,A*71
$GPGGA,080821.000,3353.7490,N,09832.0227,W,1,08,1.4,315.6,M,-23.7,M,59.8,0000*7B
$GPGSA,A,3,09,02,05,28,10,27,04,17,,,,,2.6,1.4,2.1*32
$GPRMC,080821.000,A,3353.7490,N,09832.0227,W,0.09,314.90,310312,,,A*70
$GPGGA,080822.000,3353.7490,N,09832.0228,W,1,08,1.4,315.5,M,-23.7,M,59.8,0000*74
$GPGSA,A,3,09,02,05,28,10,27,04,17,,,,,2.6,1.4,2.1*32
$GPRMC,080822.000,A,3353.7490,N,09832.0228,W,0.12,299.56,310312,,,A*78
$GPGGA,080823.000,3353.7490,N,09832.0228,W,1,08,1.4,315.4,M,-23.7,M,59.8,0000*74
$GPGSA,A,3,09,02,05,28,10,27,04,17,,,,,2.6,1.4,2.1*32
$GPRMC,080823.000,A,3353.7490,N,09832.0228,W,0.16,306.42,310312,,,A*7F
$GPGGA,080824.000,3353.7490,N,09832.0229,W,1,08,1.4,315.3,M,-23.7,M,59.8,0000*75
$GPGSA,A,3,09,02,05,28,10,27,04,17,,,,,2.6,1.4,2.1*32
$GPRMC,080824.000,A,3353.7490,N,09832.0229,W,0.18,299.53,310312,,,A*70
$GPGGA,080825.000,3353.7490,N,09832.0229,W,1,08,1.4,315.3,M,-23.7,M,59.8,0000*74
$GPGSA,A,3,09,02,05,28,10,27,04,17,,,,,2.6,1.4,2.1*32
$GPGSV,3,1,12,04,73,031,32,02,66,242,38,10,40,128,35,12,40,317,21*7F
$GPGSV,3,2,12,09,31,254,26,17,31,072,29,27,29,236,18,28,18,137,33*7B
$GPGSV,3,3,12,05,12,180,36,20,02,035,,25,01,318,,51,49,195,30*7D
$GPRMC,080825.000,A,3353.7490,N,09832.0229,W,0.11,16.12,310312,,,A*48
$GPGGA,080826.000,3353.7491,N,09832.0229,W,1,08,1.4,315.2,M,-23.7,M,59.8,0000*77
$GPGSA,A,3,09,02,05,28,10,27,04,17,,,,,2.6,1.4,2.1*32
$GPRMC,080826.000,A,3353.7491,N,09832.0229,W,0.16,40.92,310312,,,A*46
$GPGGA,080827.000,3353.7491,N,09832.0230,W,1,08,1.4,315.1,M,-23.7,M,59.8,0000*7D
$GPGSA,A,3,09,02,05,28,10,27,04,17,,,,,2.6,1.4,2.1*32
$GPRMC,080827.000,A,3353.7491,N,09832.0230,W,0.12,326.54,310312,,,A*72
$GPGGA,080828.000,3353.7491,N,09832.0231,W,1,08,1.4,315.1,M,-23.7,M,59.8,0000*73
$GPGSA,A,3,09,02,05,28,10,27,04,17,,,,,2.6,1.4,2.1*32
$GPRMC,080828.000,A,3353.7491,N,09832.0231,W,0.14,312.14,310312,,,A*79
$GPGGA,080829.000,3353.7491,N,09832.0231,W,1,08,1.4,315.0,M,-23.7,M,59.8,0000*73
$GPGSA,A,3,09,02,05,28,10,27,04,17,,,,,2.6,1.4,2.1*32
$GPRMC,080829.000,A,3353.7491,N,09832.0231,W,0.11,321.41,310312,,,A*7D
$GPGGA,080830.000,3353.7491,N,09832.0231,W,1,08,1.4,314.9,M,-23.7,M,59.8,0000*73
$GPGSA,A,3,09,02,05,28,10,27,04,17,,,,,2.6,1.4,2.1*32
$GPGSV,3,1,12,04,73,031,32,02,66,242,38,10,40,128,36,12,40,317,21*7C
$GPGSV,3,2,12,09,31,254,27,17,31,072,28,27,29,236,18,28,18,137,32*7A
$GPGSV,3,3,12,05,12,180,36,20,02,035,,25,01,318,,51,49,195,31*7C
$GPRMC,080830.000,A,3353.7491,N,09832.0231,W,0.18,32.00,310312,,,A*48
$GPGGA,080831.000,3353.7491,N,09832.0232,W,1,08,1.4,314.9,M,-23.7,M,59.8,0000*71
$GPGSA,A,3,09,02,05,28,10,27,04,17,,,,,2.6,1.4,2.1*32
$GPRMC,080831.000,A,3353.7491,N,09832.0232,W,0.12,338.58,310312,,,A*74
$GPGGA,080832.000,3353.7491,N,09832.0232,W,1,08,1.4,314.8,M,-23.7,M,59.8,0000*73
$GPGSA,A,3,09,02,05,28,10,27,04,17,,,,,2.6,1.4,2.1*32
$GPRMC,080832.000,A,3353.7491,N,09832.0232,W,0.14,322.39,310312,,,A*7D
$GPGGA,080833.000,3353.7491,N,09832.0233,W,1,08,1.4,314.7,M,-23.7,M,59.8,0000*7C
$GPGSA,A,3,09,02,05,28,10,27,04,17,,,,,2.6,1.4,2.1*32
$GPRMC,080833.000,A,3353.7491,N,09832.0233,W,0.15,313.05,310312,,,A*71
$GPGGA,080834.000,3353.7492,N,09832.0233,W,1,08,1.4,314.7,M,-23.7,M,59.8,0000*78
$GPGSA,A,3,09,02,05,28,10,27,04,17,,,,,2.6,1.4,2.1*32
$GPRMC,080834.000,A,3353.7492,N,09832.0233,W,0.14,27.61,310312,,,A*42
$GPGGA,080835.000,3353.7492,N,09832.0234,W,1,08,1.4,314.4,M,-23.7,M,59.8,0000*7D
$GPGSA,A,3,09,02,05,28,10,27,04,17,,,,,2.6,1.4,2.1*32
$GPGSV,3,1,12,04,73,031,32,02,66,242,38,10,40,128,36,12,40,317,22*7F
$GPGSV,3,2,12,09,31,254,28,17,31,072,28,27,29,236,19,28,18,137,32*74
$GPGSV,3,3,12,05,12,180,36,20,02,035,,25,01,318,,51,49,195,30*7D
$GPRMC,080835.000,A,3353.7492,N,09832.0234,W,0.22,14.03,310312,,,A*45
$GPGGA,080836.000,3353.7493,N,09832.0236,W,1,08,1.4,314.0,M,-23.7,M,59.8,0000*79
$GPGSA,A,3,09,02,05,28,10,27,04,17,,,,,2.6,1.4,2.1*32
$GPRMC,080836.000,A,3353.7493,N,09832.0236,W,0.28,327.53,310312,,,A*79
$GPGGA,080837.000,3353.7494,N,09832.0238,W,1,08,1.4,313.4,M,-23.7,M,59.8,0000*72
$GPGSA,A,3,09,02,05,28,10,27,04,17,,,,,2.6,1.4,2.1*32
$GPRMC,080837.000,A,3353.7494,N,09832.0238,W,0.30,326.43,310312,,,A*78
$GPGGA,080838.000,3353.7496,N,09832.0240,W,1,08,1.4,312.8,M,-23.7,M,59.8,0000*7D
$GPGSA,A,3,09,02,05,28,10,27,04,17,,,,,2.6,1.4,2.1*32
$GPRMC,080838.000,A,3353.7496,N,09832.0240,W,0.32,331.98,310312,,,A*78
$GPGGA,080839.000,3353.7497,N,09832.0242,W,1,08,1.4,312.2,M,-23.7,M,59.8,0000*75
$GPGSA,A,3,09,02,05,28,10,27,04,17,,,,,2.6,1.4,2.1*32
$GPRMC,080839.000,A,3353.7497,N,09832.0242,W,0.37,333.90,310312,,,A*75
$GPGGA,080840.000,3353.7499,N,09832.0244,W,1,08,1.4,311.5,M,-23.7,M,59.8,0000*77
$GPGSA,A,3,09,02,05,28,10,27,04,17,,,,,2.6,1.4,2.1*32
$GPGSV,3,1,12,04,73,032,33,02,66,243,38,12,40,317,23,10,40,128,36*7D
$GPGSV,3,2,12,09,31,254,28,17,31,072,27,27,28,236,18,28,18,137,32*7B
$GPGSV,3,3,12,05,12,180,36,20,01,035,,25,01,318,,51,49,195,30*7E
$GPRMC,080840.000,A,3353.7499,N,09832.0244,W,0.38,333.06,310312,,,A*73
$GPGGA,080841.000,3353.7501,N,09832.0247,W,1,08,1.4,310.7,M,-23.7,M,59.8,0000*76
$GPGSA,A,3,09,02,05,28,10,27,04,17,,,,,2.6,1.4,2.1*32
$GPRMC,080841.000,A,3353.7501,N,09832.0247,W,0.41,331.25,310312,,,A*7C
$GPGGA,080842.000,3353.7502,N,09832.0249,W,1,08,1.4,310.0,M,-23.7,M,59.8,0000*7F
$GPGSA,A,3,09,02,05,28,10,27,04,17,,,,,2.6,1.4,2.1*32
$GPRMC,080842.000,A,3353.7502,N,09832.0249,W,0.41,331.93,310312,,,A*7F
$GPGGA,080843.000,3353.7504,N,09832.0251,W,1,08,1.4,309.2,M,-23.7,M,59.8,0000*7B
$GPGSA,A,3,09,02,05,28,10,27,04,17,,,,,2.6,1.4,2.1*32
$GPRMC,080843.000,A,3353.7504,N,09832.0251,W,0.41,332.87,310312,,,A*77
$GPGGA,080844.000,3353.7506,N,09832.0254,W,1,08,1.4,308.5,M,-23.7,M,59.8,0000*7D
$GPGSA,A,3,09,02,05,28,10,27,04,17,,,,,2.6,1.4,2.1*32
$GPRMC,080844.000,A,3353.7506,N,09832.0254,W,0.42,342.23,310312,,,A*7D
$GPGGA,080845.000,3353.7507,N,09832.0256,W,1,08,1.4,307.8,M,-23.7,M,59.8,0000*7D
$GPGSA,A,3,09,02,05,28,10,27,04,17,,,,,2.6,1.4,2.1*32
$GPGSV,3,1,12,04,73,032,33,02,66,243,38,12,40,317,24,10,40,128,36*7A
$GPGSV,3,2,12,09,31,254,28,17,31,072,27,27,28,236,16,28,18,137,31*76
$GPGSV,3,3,12,05,12,180,36,20,01,035,,25,01,318,,51,49,195,30*7E
$GPRMC,080845.000,A,3353.7507,N,09832.0256,W,0.38,337.37,310312,,,A*75
$GPGGA,080846.000,3353.7509,N,09832.0258,W,1,08,1.4,307.2,M,-23.7,M,59.8,0000*74
$GPGSA,A,3,09,02,05,28,10,27,04,17,,,,,2.6,1.4,2.1*32
$GPRMC,080846.000,A,3353.7509,N,09832.0258,W,0.38,347.53,310312,,,A*73
$GPGGA,080847.000,3353.7510,N,09832.0259,W,1,08,1.4,306.6,M,-23.7,M,59.8,0000*79
$GPGSA,A,3,09,02,05,28,10,27,04,17,,,,,2.6,1.4,2.1*32
$GPRMC,080847.000,A,3353.7510,N,09832.0259,W,0.37,341.85,310312,,,A*79
$GPGGA,080848.000,3353.7511,N,09832.0261,W,1,08,1.4,306.0,M,-23.7,M,59.8,0000*7A
$GPGSA,A,3,09,02,05,28,10,27,04,17,,,,,2.6,1.4,2.1*32
$GPRMC,080848.000,A,3353.7511,N,09832.0261,W,0.34,349.06,310312,,,A*7C
$GPGGA,080849.000,3353.7513,N,09832.0262,W,1,08,1.4,305.4,M,-23.7,M,59.8,0000*7D
$GPGSA,A,3,09,02,05,28,10,27,04,17,,,,,2.6,1.4,2.1*32
$GPRMC,080849.000,A,3353.7513,N,09832.0262,W,0.32,350.66,310312,,,A*74
$GPGGA,080850.000,3353.7514,N,09832.0264,W,1,08,1.4,305.0,M,-23.7,M,59.8,0000*70
$GPGSA,A,3,09,02,05,28,10,27,04,17,,,,,2.6,1.4,2.1*32
$GPGSV,3,1,12,04,73,032,33,02,66,243,39,12,40,317,24,10,40,128,36*7B
$GPGSV,3,2,12,09,31,253,29,17,31,072,27,27,28,236,15,28,18,138,31*7C
$GPGSV,3,3,12,05,12,180,36,20,01,035,,25,01,318,,51,49,195,30*7E
$GPRMC,080850.000,A,3353.7514,N,09832.0264,W,0.31,2.12,310312,,,A*79
$GPGGA,080851.000,3353.7515,N,09832.0265,W,1,08,1.4,304.5,M,-23.7,M,59.8,0000*75
$GPGSA,A,3,09,02,05,28,10,27,04,17,,,,,2.6,1.4,2.1*32
$GPRMC,080851.000,A,3353.7515,N,09832.0265,W,0.31,2.56,310312,,,A*78
$GPGGA,080852.000,3353.7516,N,09832.0266,W,1,08,1.4,304.1,M,-23.7,M,59.8,0000*72
$GPGSA,A,3,09,02,05,28,10,27,04,17,,,,,2.6,1.4,2.1*32
$GPRMC,080852.000,A,3353.7516,N,09832.0266,W,0.27,2.10,310312,,,A*7E
$GPGGA,080853.000,3353.7516,N,09832.0267,W,1,08,1.4,303.8,M,-23.7,M,59.8,0000*7C
$GPGSA,A,3,09,02,05,28,10,27,04,17,,,,,2.6,1.4,2.1*32
$GPRMC,080853.000,A,3353.7516,N,09832.0267,W,0.20,356.21,310312,,,A*79
$GPGGA,080854.000,3353.7517,N,09832.0268,W,1,08,1.4,303.5,M,-23.7,M,59.8,0000*78
$GPGSA,A,3,09,02,05,28,10,27,04,17,,,,,2.6,1.4,2.1*32
$GPRMC,080854.000,A,3353.7517,N,09832.0268,W,0.23,14.06,310312,,,A*43
$GPGGA,080855.000,3353.7518,N,09832.0269,W,1,08,1.4,303.1,M,-23.7,M,59.8,0000*73
$GPGSA,A,3,09,02,05,28,10,27,04,17,,,,,2.6,1.4,2.1*32
$GPGSV,3,1,12,04,73,032,33,02,66,243,39,12,40,317,24,10,40,128,36*7B
$GPGSV,3,2,12,09,31,253,29,17,31,072,27,27,28,236,15,28,18,138,31*7C
$GPGSV,3,3,12,05,12,180,36,20,01,035,,25,01,318,,48,36,230,30*72
$GPRMC,080855.000,A,3353.7518,N,09832.0269,W,0.21,344.86,310312,,,A*70
$GPGGA,080856.000,3353.7518,N,09832.0270,W,1,08,1.4,302.8,M,-23.7,M,59.8,0000*70
$GPGSA,A,3,09,02,05,28,10,27,04,17,,,,,2.6,1.4,2.1*32
$GPRMC,080856.000,A,3353.7518,N,09832.0270,W,0.21,335.11,310312,,,A*73
$GPGGA,080857.000,3353.7519,N,09832.0271,W,1,08,1.4,302.5,M,-23.7,M,59.8,0000*7C
$GPGSA,A,3,09,02,05,28,10,27,04,17,,,,,2.6,1.4,2.1*32
$GPRMC,080857.000,A,3353.7519,N,09832.0271,W,0.21,330.51,310312,,,A*73
$GPGGA,080858.000,3353.7519,N,09832.0272,W,1,08,1.4,302.2,M,-23.7,M,59.8,0000*77
$GPGSA,A,3,09,02,05,28,10,27,04,17,,,,,2.6,1.4,2.1*32
$GPRMC,080858.000,A,3353.7519,N,09832.0272,W,0.21,331.72,310312,,,A*7F
$GPGGA,080859.000,3353.7520,N,09832.0274,W,1,08,1.4,302.0,M,-23.7,M,59.8,0000*78
$GPGSA,A,3,09,02,05,28,10,27,04,17,,,,,2.6,1.4,2.1*32
$GPRMC,080859.000,A,3353.7520,N,09832.0274,W,0.22,328.16,310312,,,A*7B
$GPGGA,080900.000,3353.7520,N,09832.0275,W,1,08,1.4,301.7,M,-23.7,M,59.8,0000*70
$GPGSA,A,3,09,02,05,28,10,27,04,17,,,,,2.6,1.4,2.1*32
$GPGSV,3,1,12,04,73,032,33,02,66,243,39,12,40,317,24,10,40,128,37*7A
$GPGSV,3,2,12,09,31,253,29,17,31,072,27,27,28,236,15,28,18,138,32*7F
$GPGSV,3,3,12,05,12,180,36,20,01,035,,25,01,318,,48,36,230,29*7A
$GPRMC,080900.000,A,3353.7520,N,09832.0275,W,0.21,329.39,310312,,,A*78
$GPGGA,080901.000,3353.7521,N,09832.0276,W,1,08,1.4,301.4,M,-23.7,M,59.8,0000*70
$GPGSA,A,3,09,02,05,28,10,27,04,17,,,,,2.6,1.4,2.1*32
$GPRMC,080901.000,A,3353.7521,N,09832.0276,W,0.22,328.94,310312,,,A*7E
$GPGGA,080902.000,3353.7521,N,09832.0277,W,1,08,1.4,301.2,M,-23.7,M,59.8,0000*74
$GPGSA,A,3,09,02,05,28,10,27,04,17,,,,,2.6,1.4,2.1*32
$GPRMC,080902.000,A,3353.7521,N,09832.0277,W,0.22,328.03,310312,,,A*72
$GPGGA,080903.000,3353.7521,N,09832.0277,W,1,08,1.4,300.9,M,-23.7,M,59.8,0000*7F
$GPGSA,A,3,09,02,05,28,10,27,04,17,,,,,2.6,1.4,2.1*32
$GPRMC,080903.000,A,3353.7521,N,09832.0277,W,0.21,342.16,310312,,,A*78
$GPGGA,080904.000,3353.7522,N,09832.0278,W,1,08,1.4,300.8,M,-23.7,M,59.8,0000*75
$GPGSA,A,3,09,02,05,28,10,27,04,17,,,,,2.6,1.4,2.1*32
$GPRMC,080904.000,A,3353.7522,N,09832.0278,W,0.18,1.51,310312,,,A*7E
$GPGGA,080905.000,3353.7522,N,09832.0278,W,1,08,1.4,300.6,M,-23.7,M,59.8,0000*7A
$GPGSA,A,3,09,02,05,28,10,27,04,17,,,,,2.6,1.4,2.1*32
$GPGSV,3,1,12,04,73,032,33,02,66,243,39,12,40,317,24,10,40,128,37*7A
$GPGSV,3,2,12,09,31,253,29,17,31,072,27,27,28,236,14,28,18,138,31*7D
$GPGSV,3,3,12,05,12,180,36,20,01,035,,25,01,318,,48,36,230,29*7A
$GPRMC,080905.000,A,3353.7522,N,09832.0278,W,0.21,13.15,310312,,,A*46
$GPGGA,080906.000,3353.7523,N,09832.0279,W,1,08,1.4,300.5,M,-23.7,M,59.8,0000*7A
$GPGSA,A,3,09,02,05,28,10,27,04,17,,,,,2.6,1.4,2.1*32
$GPRMC,080906.000,A,3353.7523,N,09832.0279,W,0.21,19.65,310312,,,A*48
$GPGGA,080907.000,3353.7523,N,09832.0279,W,1,08,1.4,300.4,M,-23.7,M,59.8,0000*7A
$GPGSA,A,3,09,02,05,28,10,27,04,17,,,,,2.6,1.4,2.1*32
$GPRMC,080907.000,A,3353.7523,N,09832.0279,W,0.20,22.79,310312,,,A*4D
$GPGGA,080908.000,3353.7523,N,09832.0279,W,1,08,1.4,300.3,M,-23.7,M,59.8,0000*72
$GPGSA,A,3,09,02,05,28,10,27,04,17,,,,,2.6,1.4,2.1*32
$GPRMC,080908.000,A,3353.7523,N,09832.0279,W,0.19,27.92,310312,,,A*48
$GPGGA,080909.000,3353.7523,N,09832.0279,W,1,08,1.4,300.3,M,-23.7,M,59.8,0000*73
$GPGSA,A,3,09,02,05,28,10,27,04,17,,,,,2.6,1.4,2.1*32
$GPRMC,080909.000,A,3353.7523,N,09832.0279,W,0.15,33.96,310312,,,A*44
$GPGGA,080910.000,3353.7523,N,09832.0279,W,1,08,1.4,300.2,M,-23.7,M,59.8,0000*7A
$GPGSA,A,3,09,02,05,28,10,27,04,17,,,,,2.6,1.4,2.1*32
$GPGSV,3,1,11,04,73,032,34,02,66,243,39,12,40,317,24,10,40,128,37*7E
$GPGSV,3,2,11,09,31,253,29,17,31,072,26,27,28,236,13,28,18,138,31*78
$GPGSV,3,3,11,05,12,180,36,20,01,035,,25,01,318,*4A
$GPRMC,080910.000,A,3353.7523,N,09832.0279,W,0.14,17.57,310312,,,A*46
$GPGGA,080911.000,3353.7523,N,09832.0280,W,1,08,1.4,300.2,M,-23.7,M,59.8,0000*7D
$GPGSA,A,3,09,02,05,28,10,27,04,17,,,,,2.6,1.4,2.1*32
$GPRMC,080911.000,A,3353.7523,N,09832.0280,W,0.10,351.78,310312,,,A*79
$GPGGA,080912.000,3353.7523,N,09832.0280,W,1,08,1.4,300.1,M,-23.7,M,59.8,0000*7D
$GPGSA,A,3,09,02,05,28,10,27,04,17,,,,,2.6,1.4,2.1*32
$GPRMC,080912.000,A,3353.7523,N,09832.0280,W,0.11,325.06,310312,,,A*71
$GPGGA,080913.000,3353.7523,N,09832.0280,W,1,08,1.4,300.1,M,-23.7,M,59.8,0000*7C
$GPGSA,A,3,09,02,05,28,10,27,04,17,,,,,2.6,1.4,2.1*32
$GPRMC,080913.000,A,3353.7523,N,09832.0280,W,0.13,2.97,310312,,,A*7C
$GPGGA,080914.000,3353.7524,N,09832.0280,W,1,08,1.4,300.0,M,-23.7,M,59.8,0000*7D
$GPGSA,A,3,09,02,05,28,10,27,04,17,,,,,2.6,1.4,2.1*32
$GPRMC,080914.000,A,3353.7524,N,09832.0280,W,0.23,24.43,310312,,,A*42
$GPGGA,080915.000,3353.7524,N,09832.0280,W,1,08,1.4,300.0,M,-23.7,M,59.8,0000*7C
$GPGSA,A,3,09,02,05,28,10,27,04,17,,,,,2.6,1.4,2.1*32
$GPGSV,3,1,11,04,73,032,34,02,66,243,39,12,40,317,24,10,40,128,37*7E
$GPGSV,3,2,11,09,31,253,30,17,31,072,25,27,28,236,14,28,18,138,31*74
$GPGSV,3,3,11,05,12,180,36,20,01,035,,25,01,318,*4A
$GPRMC,080915.000,A,3353.7524,N,09832.0280,W,0.35,28.94,310312,,,A*42
$GPGGA,080916.000,3353.7525,N,09832.0280,W,1,08,1.4,299.9,M,-23.7,M,59.8,0000*76
$GPGSA,A,3,09,02,05,28,10,27,04,17,,,,,2.6,1.4,2.1*32
$GPRMC,080916.000,A,3353.7525,N,09832.0280,W,0.26,27.31,310312,,,A*42
$GPGGA,080917.000,3353.7525,N,09832.0280,W,1,08,1.4,299.9,M,-23.7,M,59.8,0000*77
$GPGSA,A,3,09,02,05,28,10,27,04,17,,,,,2.6,1.4,2.1*32
$GPRMC,080917.000,A,3353.7525,N,09832.0280,W,0.14,26.99,310312,,,A*41
$GPGGA,080918.000,3353.7525,N,09832.0280,W,1,08,1.4,299.8,M,-23.7,M,59.8,0000*79
$GPGSA,A,3,09,02,05,28,10,27,04,17,,,,,2.6,1.4,2.1*32
$GPRMC,080918.000,A,3353.7525,N,09832.0280,W,0.22,23.99,310312,,,A*4E
$GPGGA,080919.000,3353.7525,N,09832.0280,W,1,08,1.4,299.8,M,-23.7,M,59.8,0000*78
$GPGSA,A,3,09,02,05,28,10,27,04,17,,,,,2.6,1.4,2.1*32
$GPRMC,080919.000,A,3353.7525,N,09832.0280,W,0.07,30.60,310312,,,A*4C
$GPGGA,080920.000,3353.7525,N,09832.0281,W,1,08,1.4,299.9,M,-23.7,M,59.8,0000*72
$GPGSA,A,3,09,02,05,28,10,27,04,17,,,,,2.6,1.4,2.1*32
$GPGSV,3,1,11,04,73,032,34,02,66,243,39,12,40,317,24,10,40,127,37*71
$GPGSV,3,2,11,09,31,253,30,17,31,072,25,27,28,236,14,28,18,138,31*74
$GPGSV,3,3,11,05,12,180,36,25,02,318,,20,01,035,*49
$GPRMC,080920.000,A,3353.7525,N,09832.0281,W,0.06,283.04,310312,,,A*7E
$GPGGA,080921.000,3353.7524,N,09832.0281,W,1,08,1.4,299.9,M,-23.7,M,59.8,0000*72
$GPGSA,A,3,09,02,05,28,10,27,04,17,,,,,2.6,1.4,2.1*32
$GPRMC,080921.000,A,3353.7524,N,09832.0281,W,0.07,285.11,310312,,,A*7D
$GPGGA,080922.000,3353.7524,N,09832.0281,W,1,08,1.4,299.9,M,-23.7,M,59.8,0000*71
$GPGSA,A,3,09,02,05,28,10,27,04,17,,,,,2.6,1.4,2.1*32
$GPRMC,080922.000,A,3353.7524,N,09832.0281,W,0.06,16.22,310312,,,A*47
$GPGGA,080923.000,3353.7524,N,09832.0281,W,1,08,1.4,300.0,M,-23.7,M,59.8,0000*78
$GPGSA,A,3,09,02,05,28,10,27,04,17,,,,,2.6,1.4,2.1*32
$GPRMC,080923.000,A,3353.7524,N,09832.0281,W,0.13,34.49,310312,,,A*4F
$GPGGA,080924.000,3353.7524,N,09832.0281,W,1,08,1.4,300.0,M,-23.7,M,59.8,0000*7F
$GPGSA,A,3,09,02,05,28,10,27,04,17,,,,,2.6,1.4,2.1*32
$GPRMC,080924.000,A,3353.7524,N,09832.0281,W,0.14,18.80,310312,,,A*44
$GPGGA,080925.000,3353.7524,N,09832.0282,W,1,08,1.4,300.1,M,-23.7,M,59.8,0000*7C
$GPGSA,A,3,09,02,05,28,10,27,04,17,,,,,2.6,1.4,2.1*32
$GPGSV,3,1,11,04,73,032,34,02,66,243,39,12,40,317,24,10,40,127,36*70
$GPGSV,3,2,11,09,31,253,30,17,31,072,24,27,28,236,13,28,18,138,31*72
$GPGSV,3,3,11,05,12,180,36,25,02,318,,20,01,035,*49
$GPRMC,080925.000,A,3353.7524,N,09832.0282,W,0.07,8.08,310312,,,A*75
$GPGGA,080926.000,3353.7524,N,09832.0282,W,1,08,1.4,300.1,M,-23.7,M,59.8,0000*7F
$GPGSA,A,3,09,02,05,28,10,27,04,17,,,,,2.6,1.4,2.1*32
$GPRMC,080926.000,A,3353.7524,N,09832.0282,W,0.04,249.16,310312,,,A*7D
$GPGGA,080927.000,3353.7523,N,09832.0282,W,1,08,1.4,300.2,M,-23.7,M,59.8,0000*7A
$GPGSA,A,3,09,02,05,28,10,27,04,17,,,,,2.6,1.4,2.1*32
$GPRMC,080927.000,A,3353.7523,N,09832.0282,W,0.06,53.81,310312,,,A*4E
$GPGGA,080928.000,3353.7523,N,09832.0282,W,1,08,1.4,300.3,M,-23.7,M,59.8,0000*74
$GPGSA,A,3,09,02,05,28,10,27,04,17,,,,,2.6,1.4,2.1*32
$GPRMC,080928.000,A,3353.7523,N,09832.0282,W,0.14,23.06,310312,,,A*4A
$GPGGA,080929.000,3353.7523,N,09832.0282,W,1,08,1.4,300.4,M,-23.7,M,59.8,0000*72
$GPGSA,A,3,09,02,05,28,10,27,04,17,,,,,2.6,1.4,2.1*32
$GPRMC,080929.000,A,3353.7523,N,09832.0282,W,0.09,335.50,310312,,,A*70
$GPGGA,080930.000,3353.7523,N,09832.0283,W,1,08,1.4,300.4,M,-23.7,M,59.8,0000*7B
$GPGSA,A,3,09,02,05,28,10,27,04,17,,,,,2.6,1.4,2.1*32
$GPGSV,3,1,11,04,73,032,34,02,66,243,39,12,40,317,24,10,40,127,36*70
$GPGSV,3,2,11,09,31,253,30,17,31,072,24,27,28,236,15,28,18,138,31*74
$GPGSV,3,3,11,05,12,180,36,25,02,318,,20,01,035,*49
$GPRMC,080930.000,A,3353.7523,N,09832.0283,W,0.11,316.42,310312,,,A*72
$GPGGA,080931.000,3353.7523,N,09832.0283,W,1,08,1.4,300.4,M,-23.7,M,59.8,0000*7A
$GPGSA,A,3,09,02,05,28,10,27,04,17,,,,,2.6,1.4,2.1*32
$GPRMC,080931.000,A,3353.7523,N,09832.0283,W,0.10,326.87,310312,,,A*78
$GPGGA,080932.000,3353.7523,N,09832.0283,W,1,08,1.4,300.5,M,-23.7,M,59.8,0000*78
$GPGSA,A,3,09,02,05,28,10,27,04,17,,,,,2.6,1.4,2.1*32
$GPRMC,080932.000,A,3353.7523,N,09832.0283,W,0.14,24.32,310312,,,A*40
$GPGGA,080933.000,3353.7523,N,09832.0283,W,1,08,1.4,300.5,M,-23.7,M,59.8,0000*79
$GPGSA,A,3,09,02,05,28,10,27,04,17,,,,,2.6,1.4,2.1*32
$GPRMC,080933.000,A,3353.7523,N,09832.0283,W,0.10,28.71,310312,,,A*4E
$GPGGA,080934.000,3353.7523,N,09832.0283,W,1,08,1.4,300.6,M,-23.7,M,59.8,0000*7D
$GPGSA,A,3,09,02,05,28,10,27,04,17,,,,,2.6,1.4,2.1*32
$GPRMC,080934.000,A,3353.7523,N,09832.0283,W,0.13,356.96,310312,,,A*79
$GPGGA,080935.000,3353.7523,N,09832.0283,W,1,08,1.4,300.7,M,-23.7,M,59.8,0000*7D
$GPGSA,A,3,09,02,05,28,10,27,04,17,,,,,2.6,1.4,2.1*32
$GPGSV,3,1,11,04,73,032,34,02,66,243,40,12,40,317,24,10,40,127,36*7E
$GPGSV,3,2,11,09,31,253,31,17,31,072,25,27,28,236,17,28,18,138,31*76
$GPGSV,3,3,11,05,12,180,36,25,02,318,,20,01,035,*49
$GPRMC,080935.000,A,3353.7523,N,09832.0283,W,0.16,26.12,310312,,,A*45
$GPGGA,080936.000,3353.7523,N,09832.0283,W,1,08,1.4,300.7,M,-23.7,M,59.8,0000*7E
$GPGSA,A,3,09,02,05,28,10,27,04,17,,,,,2.6,1.4,2.1*32
$GPRMC,080936.000,A,3353.7523,N,09832.0283,W,0.25,31.57,310312,,,A*41
$GPGGA,080937.000,3353.7523,N,09832.0283,W,1,08,1.5,300.8,M,-23.7,M,59.8,0000*71
$GPGSA,A,3,09,02,05,28,10,27,04,17,,,,,2.6,1.5,2.1*33
$GPRMC,080937.000,A,3353.7523,N,09832.0283,W,0.13,359.18,310312,,,A*73
$GPGGA,080938.000,3353.7523,N,09832.0283,W,1,08,1.5,300.8,M,-23.7,M,59.8,0000*7E
$GPGSA,A,3,09,02,05,28,10,27,04,17,,,,,2.6,1.5,2.1*33
$GPRMC,080938.000,A,3353.7523,N,09832.0283,W,0.12,327.91,310312,,,A*75
$GPGGA,080939.000,3353.7522,N,09832.0283,W,1,08,1.5,300.9,M,-23.7,M,59.8,0000*7F
$GPGSA,A,3,09,02,05,28,10,27,04,17,,,,,2.6,1.5,2.1*33
$GPRMC,080939.000,A,3353.7522,N,09832.0283,W,0.16,25.07,310312,,,A*4F
$GPGGA,080940.000,3353.7522,N,09832.0283,W,1,08,1.5,300.9,M,-23.7,M,59.8,0000*71
$GPGSA,A,3,09,02,05,28,10,27,04,17,,,,,2.6,1.5,2.1*33
$GPGSV,3,1,11,04,72,032,34,02,66,244,40,12,41,317,24,10,40,127,36*79
$GPGSV,3,2,11,09,31,253,31,17,31,072,26,27,28,236,18,28,18,138,31*7A
$GPGSV,3,3,11,05,12,180,36,25,02,318,,20,01,035,*49
$GPRMC,080940.000,A,3353.7522,N,09832.0283,W,0.12,335.10,310312,,,A*71
$GPGGA,080941.000,3353.7522,N,09832.0283,W,1,08,1.5,301.0,M,-23.7,M,59.8,0000*78
$GPGSA,A,3,09,02,05,28,10,27,04,17,,,,,2.6,1.5,2.1*33
$GPRMC,080941.000,A,3353.7522,N,09832.0283,W,0.12,358.80,310312,,,A*72
$GPGGA,080942.000,3353.7522,N,09832.0284,W,1,08,1.5,301.1,M,-23.7,M,59.8,0000*7D
$GPGSA,A,3,09,02,05,28,10,27,04,17,,,,,2.6,1.5,2.1*33
$GPRMC,080942.000,A,3353.7522,N,09832.0284,W,0.11,332.62,310312,,,A*75
$GPGGA,080943.000,3353.7522,N,09832.0284,W,1,08,1.5,301.1,M,-23.7,M,59.8,0000*7C
$GPGSA,A,3,09,02,05,28,10,27,04,17,,,,,2.6,1.5,2.1*33
$GPRMC,080943.000,A,3353.7522,N,09832.0284,W,0.13,325.37,310312,,,A*70
$GPGGA,080944.000,3353.7522,N,09832.0284,W,1,08,1.5,301.2,M,-23.7,M,59.8,0000*78
$GPGSA,A,3,09,02,05,28,10,27,04,17,,,,,2.6,1.5,2.1*33
$GPRMC,080944.000,A,3353.7522,N,09832.0284,W,0.13,346.01,310312,,,A*77
$GPGGA,080945.000,3353.7522,N,09832.0284,W,1,08,1.5,301.2,M,-23.7,M,59.8,0000*79
$GPGSA,A,3,09,02,05,28,10,27,04,17,,,,,2.6,1.5,2.1*33
$GPGSV,3,1,11,04,72,032,34,02,66,244,40,12,41,317,25,10,40,127,36*78
$GPGSV,3,2,11,09,31,253,30,17,31,072,27,27,28,236,20,28,18,138,31*71
$GPGSV,3,3,11,05,12,180,36,25,02,318,,20,01,035,*49
$GPRMC,080945.000,A,3353.7522,N,09832.0284,W,0.16,22.56,310312,,,A*40
$GPGGA,080946.000,3353.7522,N,09832.0284,W,1,08,1.5,301.3,M,-23.7,M,59.8,0000*7B
$GPGSA,A,3,09,02,05,28,10,27,04,17,,,,,2.6,1.5,2.1*33
$GPRMC,080946.000,A,3353.7522,N,09832.0284,W,0.18,32.15,310312,,,A*4B
$GPGGA,080947.000,3353.7521,N,09832.0284,W,1,08,1.5,301.4,M,-23.7,M,59.8,0000*7E
$GPGSA,A,3,09,02,05,28,10,27,04,17,,,,,2.6,1.5,2.1*33
$GPRMC,080947.000,A,3353.7521,N,09832.0284,W,0.10,337.09,310312,,,A*7A
$GPGGA,080948.000,3353.7521,N,09832.0284,W,1,08,1.5,301.5,M,-23.7,M,59.8,0000*70
$GPGSA,A,3,09,02,05,28,10,27,04,17,,,,,2.6,1.5,2.1*33
$GPRMC,080948.000,A,3353.7521,N,09832.0284,W,0.14,20.65,310312,,,A*4E
$GPGGA,080949.000,3353.7521,N,09832.0283,W,1,08,1.5,301.6,M,-23.7,M,59.8,0000*75
$GPGSA,A,3,09,02,05,28,10,27,04,17,,,,,2.6,1.5,2.1*33
$GPRMC,080949.000,A,3353.7521,N,09832.0283,W,0.15,30.05,310312,,,A*4E
$GPGGA,080950.000,3353.7521,N,09832.0284,W,1,08,1.5,301.7,M,-23.7,M,59.8,0000*7B
$GPGSA,A,3,09,02,05,28,10,27,04,17,,,,,2.6,1.5,2.1*33
$GPGSV,3,1,11,04,72,032,34,02,66,244,40,12,41,317,24,10,40,127,36*79
$GPGSV,3,2,11,09,31,253,30,17,31,072,29,27,28,236,20,28,17,138,30*71
$GPGSV,3,3,11,05,12,180,36,25,02,318,,20,01,035,*49
$GPRMC,080950.000,A,3353.7521,N,09832.0284,W,0.07,345.64,310312,,,A*74
$GPGGA,080951.000,3353.7520,N,09832.0284,W,1,08,1.5,301.8,M,-23.7,M,59.8,0000*74
$GPGSA,A,3,09,02,05,28,10,27,04,17,,,,,2.6,1.5,2.1*33
$GPRMC,080951.000,A,3353.7520,N,09832.0284,W,0.10,7.53,310312,,,A*73
$GPGGA,080952.000,3353.7521,N,09832.0283,W,1,08,1.5,301.8,M,-23.7,M,59.8,0000*71
$GPGSA,A,3,09,02,05,28,10,27,04,17,,,,,2.6,1.5,2.1*33
$GPRMC,080952.000,A,3353.7521,N,09832.0283,W,0.19,20.42,310312,,,A*4A
$GPGGA,080953.000,3353.7522,N,09832.0283,W,1,08,1.5,301.7,M,-23.7,M,59.8,0000*7C
$GPGSA,A,3,09,02,05,28,10,27,04,17,,,,,2.6,1.5,2.1*33
$GPRMC,080953.000,A,3353.7522,N,09832.0283,W,0.17,357.61,310312,,,A*74
$GPGGA,080954.000,3353.7522,N,09832.0283,W,1,08,1.5,301.5,M,-23.7,M,59.8,0000*79
$GPGSA,A,3,09,02,05,28,10,27,04,17,,,,,2.6,1.5,2.1*33
$GPRMC,080954.000,A,3353.7522,N,09832.0283,W,0.17,346.38,310312,,,A*7F
$GPGGA,080955.000,3353.7524,N,09832.0282,W,1,08,1.5,301.3,M,-23.7,M,59.8,0000*79
$GPGSA,A,3,09,02,05,28,10,27,04,17,,,,,2.6,1.5,2.1*33
$GPGSV,3,1,11,04,72,032,34,02,66,244,40,12,41,317,24,10,40,127,36*79
$GPGSV,3,2,11,09,31,253,30,17,31,072,30,27,28,236,20,28,17,138,29*71
$GPGSV,3,3,11,05,12,180,36,25,02,318,,20,01,035,*49
$GPRMC,080955.000,A,3353.7524,N,09832.0282,W,0.21,6.08,310312,,,A*78
$GPGGA,080956.000,3353.7525,N,09832.0282,W,1,08,1.5,301.0,M,-23.7,M,59.8,0000*78
$GPGSA,A,3,09,02,05,28,10,27,04,17,,,,,2.6,1.5,2.1*33
$GPRMC,080956.000,A,3353.7525,N,09832.0282,W,0.17,346.14,310312,,,A*75
$GPGGA,080957.000,3353.7526,N,09832.0282,W,1,08,1.5,300.8,M,-23.7,M,59.8,0000*73
$GPGSA,A,3,09,02,05,28,10,27,04,17,,,,,2.6,1.5,2.1*33
$GPRMC,080957.000,A,3353.7526,N,09832.0282,W,0.20,7.99,310312,,,A*70
$GPGGA,080958.000,3353.7527,N,09832.0281,W,1,08,1.5,300.5,M,-23.7,M,59.8,0000*73
$GPGSA,A,3,09,02,05,28,10,27,04,17,,,,,2.6,1.5,2.1*33
$GPRMC,080958.000,A,3353.7527,N,09832.0281,W,0.15,342.80,310312,,,A*71
$GPGGA,080959.000,3353.7528,N,09832.0281,W,1,08,1.5,300.3,M,-23.7,M,59.8,0000*7B
$GPGSA,A,3,09,02,05,28,10,27,04,17,,,,,2.6,1.5,2.1*33
$GPRMC,080959.000,A,3353.7528,N,09832.0281,W,0.16,332.85,310312,,,A*7E
$GPGGA,081000.000,3353.7529,N,09832.0281,W,1,08,1.5,300.1,M,-23.7,M,59.8,0000*7C
$GPGSA,A,3,09,02,05,28,10,27,04,17,,,,,2.6,1.5,2.1*33
$GPGSV,3,1,11,04,72,032,34,02,66,244,40,12,41,317,23,10,40,127,36*7E
$GPGSV,3,2,11,09,31,253,30,17,31,072,31,27,28,236,19,28,17,138,28*7B
$GPGSV,3,3,11,05,12,180,36,25,02,318,,20,01,035,*49
$GPRMC,081000.000,A,3353.7529,N,09832.0281,W,0.18,337.67,310312,,,A*7C
$GPGGA,081001.000,3353.7530,N,09832.0281,W,1,08,1.5,299.8,M,-23.7,M,59.8,0000*7D
$GPGSA,A,3,09,02,05,28,10,27,04,17,,,,,2.6,1.5,2.1*33
$GPRMC,081001.000,A,3353.7530,N,09832.0281,W,0.16,340.63,310312,,,A*7F
$GPGGA,081002.000,3353.7531,N,09832.0281,W,1,08,1.5,299.6,M,-23.7,M,59.8,0000*71
$GPGSA,A,3,09,02,05,28,10,27,04,17,,,,,2.6,1.5,2.1*33
$GPRMC,081002.000,A,3353.7531,N,09832.0281,W,0.18,331.99,310312,,,A*70
$GPGGA,081003.000,3353.7531,N,09832.0281,W,1,08,1.5,299.3,M,-23.7,M,59.8,0000*75
$GPGSA,A,3,09,02,05,28,10,27,04,17,,,,,2.6,1.5,2.1*33
$GPRMC,081003.000,A,3353.7531,N,09832.0281,W,0.17,332.43,310312,,,A*7A
$GPGGA,081004.000,3353.7532,N,09832.0280,W,1,08,1.5,299.1,M,-23.7,M,59.8,0000*72
$GPGSA,A,3,09,02,05,28,10,27,04,17,,,,,2.6,1.5,2.1*33
$GPRMC,081004.000,A,3353.7532,N,09832.0280,W,0.19,354.48,310312,,,A*7A
$GPGGA,081005.000,3353.7533,N,09832.0280,W,1,08,1.5,299.0,M,-23.7,M,59.8,0000*73
$GPGSA,A,3,09,02,05,28,10,27,04,17,,,,,2.6,1.5,2.1*33
$GPGSV,3,1,11,04,72,032,34,02,66,244,40,12,41,317,23,10,40,127,36*7E
$GPGSV,3,2,11,09,31,253,30,17,31,072,32,27,28,236,19,28,17,138,27*77
$GPGSV,3,3,11,05,12,180,36,25,02,318,,20,01,035,*49
$GPRMC,081005.000,A,3353.7533,N,09832.0280,W,0.17,340.19,310312,,,A*75
$GPGGA,081006.000,3353.7534,N,09832.0280,W,1,08,1.5,298.8,M,-23.7,M,59.8,0000*7E
$GPGSA,A,3,09,02,05,28,10,27,04,17,,,,,2.6,1.5,2.1*33
$GPRMC,081006.000,A,3353.7534,N,09832.0280,W,0.17,355.28,310312,,,A*77
$GPGGA,081007.000,3353.7534,N,09832.0280,W,1,08,1.5,298.7,M,-23.7,M,59.8,0000*70
$GPGSA,A,3,09,02,05,28,10,27,04,17,,,,,2.6,1.5,2.1*33
$GPRMC,081007.000,A,3353.7534,N,09832.0280,W,0.15,336.25,310312,,,A*7C
$GPGGA,081008.000,3353.7535,N,09832.0279,W,1,08,1.5,298.6,M,-23.7,M,59.8,0000*79
$GPGSA,A,3,09,02,05,28,10,27,04,17,,,,,2.6,1.5,2.1*33
$GPRMC,081008.000,A,3353.7535,N,09832.0279,W,0.18,9.23,310312,,,A*70
$GPGGA,081009.000,3353.7535,N,09832.0279,W,1,08,1.5,298.5,M,-23.7,M,59.8,0000*7B
$GPGSA,A,3,09,02,05,28,10,27,04,17,,,,,2.6,1.5,2.1*33
$GPRMC,081009.000,A,3353.7535,N,09832.0279,W,0.16,14.75,310312,,,A*40
$GPGGA,081010.000,3353.7536,N,09832.0278,W,1,08,1.5,298.5,M,-23.7,M,59.8,0000*71
$GPGSA,A,3,09,02,05,28,10,27,04,17,,,,,2.6,1.5,2.1*33
$GPGSV,3,1,12,04,72,032,35,02,66,244,40,12,41,317,23,10,40,127,36*7C
$GPGSV,3,2,12,09,31,253,31,17,31,072,33,27,28,236,18,28,17,138,26*74
$GPGSV,3,3,12,05,12,180,36,25,02,318,,20,01,035,,51,49,195,30*7D
$GPRMC,081010.000,A,3353.7536,N,09832.0278,W,0.14,24.25,310312,,,A*4E
$GPGGA,081011.000,3353.7536,N,09832.0278,W,1,08,1.5,298.4,M,-23.7,M,59.8,0000*71
$GPGSA,A,3,09,02,05,28,10,27,04,17,,,,,2.6,1.5,2.1*33
$GPRMC,081011.000,A,3353.7536,N,09832.0278,W,0.08,355.31,310312,,,A*72
$GPGGA,081012.000,3353.7536,N,09832.0277,W,1,08,1.5,298.4,M,-23.7,M,59.8,0000*7D
$GPGSA,A,3,09,02,05,28,10,27,04,17,,,,,2.6,1.5,2.1*33
$GPRMC,081012.000,A,3353.7536,N,09832.0277,W,0.12,23.82,310312,,,A*4F
$GPGGA,081013.000,3353.7537,N,09832.0277,W,1,08,1.5,298.4,M,-23.7,M,59.8,0000*7D
$GPGSA,A,3,09,02,05,28,10,27,04,17,,,,,2.6,1.5,2.1*33
$GPRMC,081013.000,A,3353.7537,N,09832.0277,W,0.07,348.77,310312,,,A*7F
$GPGGA,081014.000,3353.7537,N,09832.0276,W,1,08,1.5,298.4,M,-23.7,M,59.8,0000*7B
$GPGSA,A,3,09,02,05,28,10,27,04,17,,,,,2.6,1.5,2.1*33
$GPRMC,081014.000,A,3353.7537,N,09832.0276,W,0.08,350.97,310312,,,A*71
$GPGGA,081015.000,3353.7537,N,09832.0276,W,1,08,1.5,298.4,M,-23.7,M,59.8,0000*7A
$GPGSA,A,3,09,02,05,28,10,27,04,17,,,,,2.6,1.5,2.1*33
$GPGSV,3,1,12,04,72,032,35,02,66,244,40,12,41,317,23,10,40,127,35*7F
$GPGSV,3,2,12,09,31,253,30,17,31,072,33,27,28,236,18,28,17,138,26*75
$GPGSV,3,3,12,05,12,180,37,25,02,318,,20,01,035,,51,49,195,30*7C
$GPRMC,081015.000,A,3353.7537,N,09832.0276,W,0.10,333.63,310312,,,A*77
$GPGGA,081016.000,3353.7537,N,09832.0276,W,1,08,1.5,298.4,M,-23.7,M,59.8,0000*79
$GPGSA,A,3,09,02,05,28,10,27,04,17,,,,,2.6,1.5,2.1*33
$GPRMC,081016.000,A,3353.7537,N,09832.0276,W,0.08,350.29,310312,,,A*76
$GPGGA,081017.000,3353.7537,N,09832.0276,W,1,08,1.5,298.4,M,-23.7,M,59.8,0000*78
$GPGSA,A,3,09,02,05,28,10,27,04,17,,,,,2.6,1.5,2.1*33
$GPRMC,081017.000,A,3353.7537,N,09832.0276,W,0.08,1.00,310312,,,A*7B
$GPGGA,081018.000,3353.7537,N,09832.0275,W,1,08,1.5,298.4,M,-23.7,M,59.8,0000*74
$GPGSA,A,3,09,02,05,28,10,27,04,17,,,,,2.6,1.5,2.1*33
$GPRMC,081018.000,A,3353.7537,N,09832.0275,W,0.12,33.35,310312,,,A*4B
$GPGGA,081019.000,3353.7537,N,09832.0275,W,1,08,1.5,298.4,M,-23.7,M,59.8,0000*75
$GPGSA,A,3,09,02,05,28,10,27,04,17,,,,,2.6,1.5,2.1*33
$GPRMC,081019.000,A,3353.7537,N,09832.0275,W,0.12,20.89,310312,,,A*4F
$GPGGA,081020.000,3353.7537,N,09832.0274,W,1,08,1.5,298.5,M,-23.7,M,59.8,0000*7F
$GPGSA,A,3,09,02,05,28,10,27,04,17,,,,,2.6,1.5,2.1*33
$GPGSV,3,1,12,04,72,032,35,02,66,244,40,12,41,317,24,10,41,127,35*79
$GPGSV,3,2,12,09,31,253,30,17,30,073,33,27,28,236,19,28,17,138,26*74
$GPGSV,3,3,12,05,12,180,37,25,02,318,,20,01,035,,51,49,195,30*7C
$GPRMC,081020.000,A,3353.7537,N,09832.0274,W,0.14,25.44,310312,,,A*46
$GPGGA,081021.000,3353.7537,N,09832.0274,W,1,08,1.5,298.5,M,-23.7,M,59.8,0000*7E
$GPGSA,A,3,09,02,05,28,10,27,04,17,,,,,2.6,1.5,2.1*33
$GPRMC,081021.000,A,3353.7537,N,09832.0274,W,0.08,38.48,310312,,,A*4A
$GPGGA,081022.000,3353.7537,N,09832.0273,W,1,08,1.5,298.6,M,-23.7,M,59.8,0000*79
$GPGSA,A,3,09,02,05,28,10,27,04,17,,,,,2.6,1.5,2.1*33
$GPRMC,081022.000,A,3353.7537,N,09832.0273,W,0.09,40.35,310312,,,A*4A
$GPGGA,081023.000,3353.7537,N,09832.0273,W,1,08,1.5,298.7,M,-23.7,M,59.8,0000*79
$GPGSA,A,3,09,02,05,28,10,27,04,17,,,,,2.6,1.5,2.1*33
$GPRMC,081023.000,A,3353.7537,N,09832.0273,W,0.05,343.45,310312,,,A*70
$GPGGA,081024.000,3353.7537,N,09832.0273,W,1,08,1.5,298.7,M,-23.7,M,59.8,0000*7E
$GPGSA,A,3,09,02,05,28,10,27,04,17,,,,,2.6,1.5,2.1*33
$GPRMC,081024.000,A,3353.7537,N,09832.0273,W,0.04,353.32,310312,,,A*77
$GPGGA,081025.000,3353.7537,N,09832.0272,W,1,08,1.5,298.7,M,-23.7,M,59.8,0000*7E
$GPGSA,A,3,09,02,05,28,10,27,04,17,,,,,2.6,1.5,2.1*33
$GPGSV,3,1,12,04,72,032,35,02,66,244,40,12,41,317,24,10,41,127,35*79
$GPGSV,3,2,12,09,31,253,30,17,30,073,33,27,28,236,20,28,17,138,25*7D
$GPGSV,3,3,12,05,12,180,37,25,02,318,,20,01,035,,48,36,230,29*78
$GPRMC,081025.000,A,3353.7537,N,09832.0272,W,0.07,354.58,310312,,,A*7F
$GPGGA,081026.000,3353.7537,N,09832.0272,W,1,08,1.5,298.8,M,-23.7,M,59.8,0000*72
$GPGSA,A,3,09,02,05,28,10,27,04,17,,,,,2.6,1.5,2.1*33
$GPRMC,081026.000,A,3353.7537,N,09832.0272,W,0.07,336.97,310312,,,A*7B
$GPGGA,081027.000,3353.7537,N,09832.0272,W,1,08,1.5,298.8,M,-23.7,M,59.8,0000*73
$GPGSA,A,3,09,02,05,28,10,27,04,17,,,,,2.6,1.5,2.1*33
$GPRMC,081027.000,A,3353.7537,N,09832.0272,W,0.12,15.64,310312,,,A*40
$GPGGA,081028.000,3353.7537,N,09832.0272,W,1,08,1.5,298.9,M,-23.7,M,59.8,0000*7D
$GPGSA,A,3,09,02,05,28,10,27,04,17,,,,,2.6,1.5,2.1*33
$GPRMC,081028.000,A,3353.7537,N,09832.0272,W,0.08,8.29,310312,,,A*71
$GPGGA,081029.000,3353.7537,N,09832.0271,W,1,08,1.5,298.9,M,-23.7,M,59.8,0000*7F
$GPGSA,A,3,09,02,05,28,10,27,04,17,,,,,2.6,1.5,2.1*33
$GPRMC,081029.000,A,3353.7537,N,09832.0271,W,0.04,319.24,310312,,,A*71
$GPGGA,081030.000,3353.7537,N,09832.0272,W,1,08,1.5,298.9,M,-23.7,M,59.8,0000*74
$GPGSA,A,3,09,02,05,28,10,27,04,17,,,,,2.6,1.5,2.1*33
$GPGSV,3,1,12,04,72,032,35,02,66,244,40,12,41,317,25,10,41,127,35*78
$GPGSV,3,2,12,09,31,253,30,17,30,073,34,27,28,236,21,28,17,138,25*7B
$GPGSV,3,3,12,05,12,180,37,25,02,318,,20,01,035,,48,36,230,29*78
$GPRMC,081030.000,A,3353.7537,N,09832.0272,W,0.15,321.62,310312,,,A*73
$GPGGA,081031.000,3353.7536,N,09832.0272,W,1,08,1.5,298.9,M,-23.7,M,59.8,0000*74
$GPGSA,A,3,09,02,05,28,10,27,04,17,,,,,2.6,1.5,2.1*33
$GPRMC,081031.000,A,3353.7536,N,09832.0272,W,0.13,320.38,310312,,,A*7B
$GPGGA,081032.000,3353.7536,N,09832.0272,W,1,08,1.5,298.9,M,-23.7,M,59.8,0000*77
$GPGSA,A,3,09,02,05,28,10,27,04,17,,,,,2.6,1.5,2.1*33
$GPRMC,081032.000,A,3353.7536,N,09832.0272,W,0.11,320.30,310312,,,A*72
$GPGGA,081033.000,3353.7536,N,09832.0272,W,1,08,1.5,298.8,M,-23.7,M,59.8,0000*77
$GPGSA,A,3,09,02,05,28,10,27,04,17,,,,,2.6,1.5,2.1*33
$GPRMC,081033.000,A,3353.7536,N,09832.0272,W,0.13,337.30,310312,,,A*77
$GPGGA,081034.000,3353.7536,N,09832.0271,W,1,08,1.5,298.9,M,-23.7,M,59.8,0000*72
$GPGSA,A,3,09,02,05,28,10,27,04,17,,,,,2.6,1.5,2.1*33
$GPRMC,081034.000,A,3353.7536,N,09832.0271,W,0.15,8.22,310312,,,A*79
$GPGGA,081035.000,3353.7536,N,09832.0271,W,1,08,1.5,298.9,M,-23.7,M,59.8,0000*73
$GPGSA,A,3,09,02,05,28,10,27,04,17,,,,,2.6,1.5,2.2*30
$GPGSV,3,1,12,04,72,032,35,02,66,244,40,12,41,317,25,10,41,127,35*78
$GPGSV,3,2,12,09,31,253,29,17,30,073,34,27,28,236,20,28,17,138,24*73
$GPGSV,3,3,12,05,12,180,37,25,02,318,,20,01,035,,48,36,230,29*78
$GPRMC,081035.000,A,3353.7536,N,09832.0271,W,0.16,18.72,310312,,,A*4F
$GPGGA,081036.000,3353.7536,N,09832.0271,W,1,08,1.5,299.0,M,-23.7,M,59.8,0000*78
$GPGSA,A,3,09,02,05,28,10,27,04,17,,,,,2.6,1.5,2.2*30
$GPRMC,081036.000,A,3353.7536,N,09832.0271,W,0.14,18.08,310312,,,A*43
$GPGGA,081037.000,3353.7536,N,09832.0271,W,1,08,1.5,299.0,M,-23.7,M,59.8,0000*79
$GPGSA,A,3,09,02,05,28,10,27,04,17,,,,,2.6,1.5,2.2*30
$GPRMC,081037.000,A,3353.7536,N,09832.0271,W,0.19,318.85,310312,,,A*79
$GPGGA,081038.000,3353.7536,N,09832.0271,W,1,08,1.5,299.1,M,-23.7,M,59.8,0000*77
$GPGSA,A,3,09,02,05,28,10,27,04,17,,,,,2.6,1.5,2.2*30
$GPRMC,081038.000,A,3353.7536,N,09832.0271,W,0.22,326.07,310312,,,A*79
$GPGGA,081039.000,3353.7536,N,09832.0271,W,1,08,1.5,299.2,M,-23.7,M,59.8,0000*75
$GPGSA,A,3,09,02,05,28,10,27,04,17,,,,,2.6,1.5,2.2*30
$GPRMC,081039.000,A,3353.7536,N,09832.0271,W,0.08,16.08,310312,,,A*4F
$GPGGA,081040.000,3353.7536,N,09832.0271,W,1,08,1.5,299.2,M,-23.7,M,59.8,0000*7B
$GPGSA,A,3,09,02,05,28,10,27,04,17,,,,,2.6,1.5,2.2*30
$GPGSV,3,1,12,04,72,032,35,02,66,244,40,12,41,317,26,10,41,127,35*7B
$GPGSV,3,2,12,09,31,253,29,17,30,073,34,27,28,236,21,28,17,138,23*75
$GPGSV,3,3,12,05,12,180,37,25,02,318,,20,01,035,,48,36,230,28*79
$GPRMC,081040.000,A,3353.7536,N,09832.0271,W,0.03,30.38,310312,,,A*4D
$GPGGA,081041.000,3353.7536,N,09832.0271,W,1,08,1.5,299.3,M,-23.7,M,59.8,0000*7B
$GPGSA,A,3,09,02,05,28,10,27,04,17,,,,,2.6,1.5,2.2*30
$GPRMC,081041.000,A,3353.7536,N,09832.0271,W,0.19,340.28,310312,,,A*72
$GPGGA,081042.000,3353.7536,N,09832.0271,W,1,08,1.5,299.4,M,-23.7,M,59.8,0000*7F
$GPGSA,A,3,09,02,05,28,10,27,04,17,,,,,2.6,1.5,2.2*30
$GPRMC,081042.000,A,3353.7536,N,09832.0271,W,0.12,323.56,310312,,,A*76
$GPGGA,081043.000,3353.7535,N,09832.0271,W,1,08,1.5,299.4,M,-23.7,M,59.8,0000*7D
$GPGSA,A,3,09,02,05,28,10,27,04,17,,,,,2.6,1.5,2.2*30
$GPRMC,081043.000,A,3353.7535,N,09832.0271,W,0.04,328.21,310312,,,A*78
$GPGGA,081044.000,3353.7535,N,09832.0270,W,1,08,1.5,299.4,M,-23.7,M,59.8,0000*7B
$GPGSA,A,3,09,02,05,28,10,27,04,17,,,,,2.6,1.5,2.2*30
$GPRMC,081044.000,A,3353.7535,N,09832.0270,W,0.07,46.71,310312,,,A*43
$GPGGA,081045.000,3353.7534,N,09832.0270,W,1,08,1.5,299.5,M,-23.7,M,59.8,0000*7A
$GPGSA,A,3,09,02,05,28,10,27,04,17,,,,,2.6,1.5,2.2*30
$GPGSV,3,1,12,04,72,032,34,02,66,244,41,12,41,317,27,10,41,127,35*7A
$GPGSV,3,2,12,09,31,253,29,17,30,073,35,27,28,236,21,28,17,138,22*75
$GPGSV,3,3,12,05,12,180,37,25,02,318,,20,01,035,,48,36,230,27*76
$GPRMC,081045.000,A,3353.7534,N,09832.0270,W,0.05,65.90,310312,,,A*4F
$GPGGA,081046.000,3353.7534,N,09832.0270,W,1,08,1.5,299.5,M,-23.7,M,59.8,0000*79
$GPGSA,A,3,09,02,05,28,10,27,04,17,,,,,2.6,1.5,2.2*30
$GPRMC,081046.000,A,3353.7534,N,09832.0270,W,0.18,348.08,310312,,,A*7D
$GPGGA,081047.000,3353.7534,N,09832.0270,W,1,08,1.5,299.6,M,-23.7,M,59.8,0000*7B
$GPGSA,A,3,09,02,05,28,10,27,04,17,,,,,2.6,1.5,2.2*30
$GPRMC,081047.000,A,3353.7534,N,09832.0270,W,0.21,356.04,310312,,,A*75
$GPGGA,081048.000,3353.7534,N,09832.0270,W,1,08,1.5,299.7,M,-23.7,M,59.8,0000*75
$GPGSA,A,3,09,02,05,28,10,27,04,17,,,,,2.6,1.5,2.2*30
$GPRMC,081048.000,A,3353.7534,N,09832.0270,W,0.18,354.04,310312,,,A*72
$GPGGA,081049.000,3353.7534,N,09832.0269,W,1,08,1.5,299.8,M,-23.7,M,59.8,0000*73
$GPGSA,A,3,09,02,05,28,10,27,04,17,,,,,2.6,1.5,2.2*30
$GPRMC,081049.000,A,3353.7534,N,09832.0269,W,0.11,54.06,310312,,,A*43
$GPGGA,081050.000,3353.7534,N,09832.0269,W,1,08,1.5,299.9,M,-23.7,M,59.8,0000*7A
$GPGSA,A,3,09,02,05,28,10,27,04,17,,,,,2.6,1.5,2.2*30
$GPGSV,3,1,11,04,72,032,34,02,67,244,41,12,41,317,28,10,41,127,36*74
$GPGSV,3,2,11,09,31,252,29,17,30,073,35,27,28,235,22,28,17,138,21*74
$GPGSV,3,3,11,05,13,180,37,25,02,318,,20,01,035,*49
$GPRMC,081050.000,A,3353.7534,N,09832.0269,W,0.09,90.58,310312,,,A*41
$GPGGA,081051.000,3353.7533,N,09832.0268,W,1,08,1.5,300.0,M,-23.7,M,59.8,0000*75
$GPGSA,A,3,09,02,05,28,10,27,04,17,,,,,2.6,1.5,2.2*30
$GPRMC,081051.000,A,3353.7533,N,09832.0268,W,0.02,41.35,310312,,,A*4A
$GPGGA,081052.000,3353.7533,N,09832.0268,W,1,08,1.5,300.1,M,-23.7,M,59.8,0000*77
$GPGSA,A,3,09,02,05,28,10,27,04,17,,,,,2.6,1.5,2.2*30
$GPRMC,081052.000,A,3353.7533,N,09832.0268,W,0.04,137.60,310312,,,A*7F
$GPGGA,081053.000,3353.7532,N,09832.0268,W,1,08,1.5,300.2,M,-23.7,M,59.8,0000*74
$GPGSA,A,3,09,02,05,28,10,27,04,17,,,,,2.6,1.5,2.2*30
$GPRMC,081053.000,A,3353.7532,N,09832.0268,W,0.05,95.29,310312,,,A*4A
$GPGGA,081054.000,3353.7532,N,09832.0267,W,1,08,1.5,300.2,M,-23.7,M,59.8,0000*7C
$GPGSA,A,3,09,02,05,28,10,27,04,17,,,,,2.6,1.5,2.2*30
$GPRMC,081054.000,A,3353.7532,N,09832.0267,W,0.10,39.71,310312,,,A*4D
$GPGGA,081055.000,3353.7532,N,09832.0267,W,1,08,1.5,300.3,M,-23.7,M,59.8,0000*7C
$GPGSA,A,3,09,02,05,28,10,27,04,17,,,,,2.6,1.5,2.2*30
$GPGSV,3,1,11,04,72,032,34,02,67,244,41,12,41,317,29,10,41,127,37*74
$GPGSV,3,2,11,09,31,252,29,17,30,073,35,27,28,235,22,28,17,138,19*7F
$GPGSV,3,3,11,05,13,180,37,25,02,318,,20,01,035,*49
$GPRMC,081055.000,A,3353.7532,N,09832.0267,W,0.09,76.03,310312,,,A*4A
$GPGGA,081056.000,3353.7531,N,09832.0267,W,1,08,1.5,300.4,M,-23.7,M,59.8,0000*7B
$GPGSA,A,3,09,02,05,28,10,27,04,17,,,,,2.6,1.5,2.2*30
$GPRMC,081056.000,A,3353.7531,N,09832.0267,W,0.08,331.06,310312,,,A*7E
$GPGGA,081057.000,3353.7531,N,09832.0267,W,1,08,1.5,300.5,M,-23.7,M,59.8,0000*7B
$GPGSA,A,3,09,02,05,28,10,27,04,17,,,,,2.6,1.5,2.2*30
$GPRMC,081057.000,A,3353.7531,N,09832.0267,W,0.12,330.44,310312,,,A*73
$GPGGA,081058.000,3353.7531,N,09832.0267,W,1,08,1.5,300.5,M,-23.7,M,59.8,0000*74
$GPGSA,A,3,09,02,05,28,10,27,04,17,,,,,2.6,1.5,2.2*30
$GPRMC,081058.000,A,3353.7531,N,09832.0267,W,0.05,6.43,310312,,,A*7B
$GPGGA,081059.000,3353.7531,N,09832.0267,W,1,08,1.5,300.6,M,-23.7,M,59.8,0000*76
$GPGSA,A,3,09,02,05,28,10,27,04,17,,,,,2.6,1.5,2.2*30
$GPRMC,081059.000,A,3353.7531,N,09832.0267,W,0.10,68.70,310312,,,A*46
$GPGGA,081100.000,3353.7530,N,09832.0266,W,1,08,1.5,300.6,M,-23.7,M,59.8,0000*7B
$GPGSA,A,3,09,02,05,28,10,27,04,17,,,,,2.6,1.5,2.2*30
$GPGSV,3,1,11,04,72,032,34,02,67,244,41,12,41,317,30,10,41,127,37*7C
$GPGSV,3,2,11,09,31,252,28,17,30,073,35,27,28,235,24,28,17,138,18*79
$GPGSV,3,3,11,05,13,180,37,25,02,318,,20,01,035,*49
$GPRMC,081100.000,A,3353.7530,N,09832.0266,W,0.02,38.23,310312,,,A*4B
$GPGGA,081101.000,3353.7530,N,09832.0266,W,1,08,1.5,300.7,M,-23.7,M,59.8,0000*7B
$GPGSA,A,3,09,02,05,28,10,27,04,17,,,,,2.6,1.5,2.2*30
$GPRMC,081101.000,A,3353.7530,N,09832.0266,W,0.03,36.72,310312,,,A*41
$GPGGA,081102.000,3353.7530,N,09832.0266,W,1,08,1.5,300.7,M,-23.7,M,59.8,0000*78
$GPGSA,A,3,09,02,05,28,10,27,04,17,,,,,2.6,1.5,2.2*30
$GPRMC,081102.000,A,3353.7530,N,09832.0266,W,0.04,68.27,310312,,,A*4E
$GPGGA,081103.000,3353.7530,N,09832.0266,W,1,09,1.1,300.8,M,-23.7,M,,0000*69
$GPGSA,A,3,09,02,05,28,10,27,04,17,12,,,,2.2,1.1,1.9*3B
$GPRMC,081103.000,A,3353.7530,N,09832.0266,W,0.09,339.06,310312,,,A*76
$GPGGA,081104.000,3353.7529,N,09832.0266,W,1,09,1.1,300.8,M,-23.7,M,,0000*66
$GPGSA,A,3,09,02,05,28,10,27,04,17,12,,,,2.2,1.1,1.9*3B
$GPRMC,081104.000,A,3353.7529,N,09832.0266,W,0.10,343.60,310312,,,A*7C
$GPGGA,081105.000,3353.7529,N,09832.0266,W,1,09,1.1,300.9,M,-23.7,M,,0000*66
$GPGSA,A,3,09,02,05,28,10,27,04,17,12,,,,2.2,1.1,1.9*3B
$GPGSV,3,1,11,04,72,032,34,02,67,245,41,12,41,317,30,10,41,127,37*7D
$GPGSV,3,2,11,09,31,252,27,17,30,073,35,27,28,235,26,28,17,138,18*74
$GPGSV,3,3,11,05,13,180,37,25,02,318,,20,01,035,*49
$GPRMC,081105.000,A,3353.7529,N,09832.0266,W,0.06,340.93,310312,,,A*75
$GPGGA,081106.000,3353.7529,N,09832.0266,W,1,09,1.1,301.0,M,-23.7,M,,0000*6D
$GPGSA,A,3,09,02,05,28,10,27,04,17,12,,,,2.2,1.1,1.9*3B
$GPRMC,081106.000,A,3353.7529,N,09832.0266,W,0.09,339.27,310312,,,A*78
$GPGGA,081107.000,3353.7529,N,09832.0266,W,1,09,1.1,301.1,M,-23.7,M,,0000*6D
$GPGSA,A,3,09,02,05,28,10,27,04,17,12,,,,2.2,1.1,1.9*3B
$GPRMC,081107.000,A,3353.7529,N,09832.0266,W,0.09,344.86,310312,,,A*78
$GPGGA,081108.000,3353.7529,N,09832.0266,W,1,09,1.1,301.2,M,-23.7,M,,0000*61
$GPGSA,A,3,09,02,05,28,10,27,04,17,12,,,,2.2,1.1,1.9*3B
$GPRMC,081108.000,A,3353.7529,N,09832.0266,W,0.07,347.45,310312,,,A*75
$GPGGA,081109.000,3353.7528,N,09832.0266,W,1,09,1.1,301.3,M,-23.7,M,,0000*60
$GPGSA,A,3,09,02,05,28,10,27,04,17,12,,,,2.2,1.1,1.9*3B
$GPRMC,081109.000,A,3353.7528,N,09832.0266,W,0.05,14.54,310312,,,A*42
$GPGGA,081110.000,3353.7528,N,09832.0266,W,1,09,1.1,301.4,M,-23.7,M,,0000*6F
$GPGSA,A,3,09,02,05,28,10,27,04,17,12,,,,2.2,1.1,1.9*3B
$GPGSV,3,1,11,04,72,032,34,02,67,245,40,12,41,317,30,10,41,127,38*73
$GPGSV,3,2,11,09,31,252,26,17,30,073,35,27,28,235,27,28,17,138,20*7F
$GPGSV,3,3,11,05,13,180,37,25,02,318,,20,01,035,*49
$GPRMC,081110.000,A,3353.7528,N,09832.0266,W,0.01,358.00,310312,,,A*74
$GPGGA,081111.000,3353.7528,N,09832.0266,W,1,09,1.1,301.4,M,-23.7,M,,0000*6E
$GPGSA,A,3,09,02,05,28,10,27,04,17,12,,,,2.2,1.1,1.9*3B
$GPRMC,081111.000,A,3353.7528,N,09832.0266,W,0.04,359.76,310312,,,A*70
$GPGGA,081112.000,3353.7528,N,09832.0266,W,1,09,1.1,301.5,M,-23.7,M,,0000*6C
$GPGSA,A,3,09,02,05,28,10,27,04,17,12,,,,2.2,1.1,1.9*3B
$GPRMC,081112.000,A,3353.7528,N,09832.0266,W,0.00,352.13,310312,,,A*7F
$GPGGA,081113.000,3353.7527,N,09832.0266,W,1,09,1.1,301.5,M,-23.7,M,,0000*62
$GPGSA,A,3,09,02,05,28,10,27,04,17,12,,,,2.2,1.1,1.9*3B
$GPRMC,081113.000,A,3353.7527,N,09832.0266,W,0.11,329.15,310312,,,A*7B
$GPGGA,081114.000,3353.7527,N,09832.0266,W,1,09,1.1,301.6,M,-23.7,M,,0000*66
$GPGSA,A,3,09,02,05,28,10,27,04,17,12,,,,2.2,1.1,1.9*3B
$GPRMC,081114.000,A,3353.7527,N,09832.0266,W,0.04,70.55,310312,,,A*43
$GPGGA,081115.000,3353.7527,N,09832.0267,W,1,09,1.1,301.6,M,-23.7,M,,0000*66
$GPGSA,A,3,09,02,05,28,10,27,04,17,12,,,,2.2,1.1,1.9*3B
$GPGSV,3,1,11,04,72,032,34,02,67,245,40,12,41,317,30,10,41,127,38*73
$GPGSV,3,2,11,09,31,252,25,17,30,073,35,27,28,235,27,28,17,138,22*7E
$GPGSV,3,3,11,05,13,180,37,25,02,318,,20,01,035,*49
$GPRMC,081115.000,A,3353.7527,N,09832.0267,W,0.10,320.16,310312,,,A*77
$GPGGA,081116.000,3353.7527,N,09832.0267,W,1,09,1.1,301.7,M,-23.7,M,,0000*64
$GPGSA,A,3,09,02,05,28,10,27,04,17,12,,,,2.2,1.1,1.9*3B
$GPRMC,081116.000,A,3353.7527,N,09832.0267,W,0.07,327.51,310312,,,A*76
$GPGGA,081117.000,3353.7527,N,09832.0267,W,1,09,1.1,301.7,M,-23.7,M,,0000*65
$GPGSA,A,3,09,02,05,28,10,27,04,17,12,,,,2.2,1.1,1.9*3B
$GPRMC,081117.000,A,3353.7527,N,09832.0267,W,0.06,324.33,310312,,,A*71
$GPGGA,081118.000,3353.7527,N,09832.0267,W,1,09,1.1,301.7,M,-23.7,M,,0000*6A
$GPGSA,A,3,09,02,05,28,10,27,04,17,12,,,,2.2,1.1,1.9*3B
$GPRMC,081118.000,A,3353.7527,N,09832.0267,W,0.05,58.64,310312,,,A*47
$GPGGA,081119.000,3353.7526,N,09832.0267,W,1,09,1.1,301.8,M,-23.7,M,,0000*65
$GPGSA,A,3,09,02,05,28,10,27,04,17,12,,,,2.2,1.1,1.9*3B
$GPRMC,081119.000,A,3353.7526,N,09832.0267,W,0.03,15.44,310312,,,A*4A
$GPGGA,081120.000,3353.7526,N,09832.0267,W,1,09,1.1,301.8,M,-23.7,M,,0000*6F
$GPGSA,A,3,09,02,05,28,10,27,04,17,12,,,,2.2,1.1,1.9*3B
$GPGSV,3,1,11,04,72,032,34,02,67,245,40,12,41,317,30,10,41,127,38*73
$GPGSV,3,2,11,09,31,252,24,17,30,073,35,27,28,235,26,28,17,138,23*7F
$GPGSV,3,3,11,05,13,180,37,25,02,318,,20,01,035,*49
$GPRMC,081120.000,A,3353.7526,N,09832.0267,W,0.09,324.17,310312,,,A*7D
$GPGGA,081121.000,3353.7526,N,09832.0267,W,1,09,1.1,301.9,M,-23.7,M,,0000*6F
$GPGSA,A,3,09,02,05,28,10,27,04,17,12,,,,2.2,1.1,1.9*3B
$GPRMC,081121.000,A,3353.7526,N,09832.0267,W,0.11,335.18,310312,,,A*7A
$GPGGA,081122.000,3353.7526,N,09832.0267,W,1,09,1.1,301.9,M,-23.7,M,,0000*6C
$GPGSA,A,3,09,02,05,28,10,27,04,17,12,,,,2.2,1.1,1.9*3B
$GPRMC,081122.000,A,3353.7526,N,09832.0267,W,0.02,28.46,310312,,,A*4F
$GPGGA,081123.000,3353.7526,N,09832.0268,W,1,09,1.1,301.9,M,-23.7,M,,0000*62
$GPGSA,A,3,09,02,05,28,10,27,04,17,12,,,,2.2,1.1,1.9*3B
$GPRMC,081123.000,A,3353.7526,N,09832.0268,W,0.09,333.18,310312,,,A*78
$GPGGA,081124.000,3353.7526,N,09832.0268,W,1,09,1.1,302.0,M,-23.7,M,,0000*6F
$GPGSA,A,3,09,02,05,28,10,27,04,17,12,,,,2.2,1.1,1.9*3B
$GPRMC,081124.000,A,3353.7526,N,09832.0268,W,0.06,34.27,310312,,,A*48
$GPGGA,081125.000,3353.7526,N,09832.0268,W,1,09,1.1,302.0,M,-23.7,M,,0000*6E
$GPGSA,A,3,09,02,05,28,10,27,04,17,12,,,,2.2,1.1,1.9*3B
$GPGSV,3,1,11,04,72,032,33,02,67,245,40,12,41,317,30,10,41,127,39*75
$GPGSV,3,2,11,09,31,252,24,17,30,073,35,27,28,235,26,28,17,138,24*78
$GPGSV,3,3,11,05,13,180,37,25,02,318,,20,01,035,*49
$GPRMC,081125.000,A,3353.7526,N,09832.0268,W,0.06,17.58,310312,,,A*40
$GPGGA,081126.000,3353.7526,N,09832.0268,W,1,09,1.1,302.0,M,-23.7,M,,0000*6D
