$GPGGA,181620.000,3351.6992,N,09832.8711,W,2,08,1.2,296.8,M,-23.7,M,0.8,0000*4D
$GPGSA,A,3,11,31,22,12,25,32,18,14,,,,,1.8,1.2,1.4*36
$GPRMC,181620.000,A,3351.6992,N,09832.8711,W,24.74,359.76,030412,,,D*45
$GPGGA,181621.000,3351.7060,N,09832.8710,W,2,08,1.2,296.0,M,-23.7,M,1.8,0000*41
$GPGSA,A,3,11,31,22,12,25,32,18,14,,,,,1.8,1.2,1.4*36
$GPRMC,181621.000,A,3351.7060,N,09832.8710,W,24.93,0.57,030412,,,D*45
$GPGGA,181622.000,3351.7130,N,09832.8710,W,2,08,1.2,296.1,M,-23.7,M,2.8,0000*44
$GPGSA,A,3,11,31,22,12,25,32,18,14,,,,,1.8,1.2,1.4*36
$GPRMC,181622.000,A,3351.7130,N,09832.8710,W,25.13,0.04,030412,,,D*4D
$GPGGA,181623.000,3351.7199,N,09832.8710,W,2,08,1.2,296.6,M,-23.7,M,3.8,0000*40
$GPGSA,A,3,11,31,22,12,25,32,18,14,,,,,1.8,1.2,1.4*36
$GPRMC,181623.000,A,3351.7199,N,09832.8710,W,24.60,359.03,030412,,,D*42
$GPGGA,181624.000,3351.7268,N,09832.8711,W,2,08,1.2,296.8,M,-23.7,M,0.8,0000*46
$GPGSA,A,3,11,31,22,12,25,32,18,14,,,,,1.8,1.2,1.4*36
$GPGSV,3,1,11,22,63,095,32,14,61,010,27,31,55,192,32,11,25,293,31*71
$GPGSV,3,2,11,25,21,097,27,18,21,115,28,01,19,315,,32,15,307,21*7E
$GPGSV,3,3,11,12,11,057,23,19,05,254,,51,49,195,40*47
$GPRMC,181624.000,A,3351.7268,N,09832.8711,W,24.99,359.58,030412,,,D*41
$GPGGA,181625.000,3351.7337,N,09832.8710,W,2,08,1.2,296.4,M,-23.7,M,0.8,0000*41
$GPGSA,A,3,11,31,22,12,25,32,18,14,,,,,1.8,1.2,1.4*36
$GPRMC,181625.000,A,3351.7337,N,09832.8710,W,25.05,359.94,030412,,,D*4E
$GPGGA,181626.000,3351.7405,N,09832.8709,W,2,07,1.2,296.2,M,-23.7,M,0.8,0000*45
$GPGSA,A,3,11,31,22,12,32,18,14,,,,,,1.9,1.2,1.5*31
$GPRMC,181626.000,A,3351.7405,N,09832.8709,W,24.74,0.54,030412,,,D*47
$GPGGA,181627.000,3351.7474,N,09832.8710,W,2,08,1.2,296.0,M,-23.7,M,0.8,0000*47
$GPGSA,A,3,11,31,22,12,25,32,18,14,,,,,1.8,1.2,1.4*36
$GPRMC,181627.000,A,3351.7474,N,09832.8710,W,24.48,0.34,030412,,,D*41
$GPGGA,181628.000,3351.7544,N,09832.8709,W,2,08,1.2,296.9,M,-23.7,M,1.8,0000*4A
$GPGSA,A,3,11,31,22,12,25,32,18,14,,,,,1.8,1.2,1.4*36
$GPRMC,181628.000,A,3351.7544,N,09832.8709,W,24.62,359.94,030412,,,D*49
$GPGGA,181629.000,3351.7616,N,09832.8707,W,2,07,1.4,296.9,M,-23.7,M,2.8,0000*4B
$GPGSA,A,3,11,31,22,12,25,32,18,,,,,,2.5,1.4,2.0*3C
$GPGSV,3,1,11,22,63,095,26,14,61,010,,31,55,192,30,11,25,293,29*7A
$GPGSV,3,2,11,25,21,097,22,18,21,115,25,01,19,315,31,32,15,307,21*74
$GPGSV,3,3,11,12,11,057,23,19,05,254,20,51,49,195,39*4B
$GPRMC,181629.000,A,3351.7616,N,09832.8707,W,25.89,0.73,030412,,,D*40
$GPGGA,181630.000,3351.7695,N,09832.8703,W,2,08,1.2,297.1,M,-23.7,M,0.8,0000*4E
$GPGSA,A,3,11,31,22,12,25,32,18,14,,,,,1.8,1.2,1.4*36
$GPRMC,181630.000,A,3351.7695,N,09832.8703,W,26.17,0.66,030412,,,D*47
$GPGGA,181631.000,3351.7766,N,09832.8702,W,2,08,1.2,297.0,M,-23.7,M,0.8,0000*42
$GPGSA,A,3,11,31,22,12,25,32,18,14,,,,,1.8,1.2,1.4*36
$GPRMC,181631.000,A,3351.7766,N,09832.8702,W,25.95,0.80,030412,,,D*4B
$GPGGA,181632.000,3351.7843,N,09832.8701,W,2,08,1.2,295.9,M,-23.7,M,0.8,0000*41
$GPGSA,A,3,11,31,22,12,25,32,18,14,,,,,1.8,1.2,1.4*36
$GPRMC,181632.000,A,3351.7843,N,09832.8701,W,26.86,1.13,030412,,,D*49
$GPGGA,181633.000,3351.7917,N,09832.8700,W,2,08,1.2,295.8,M,-23.7,M,1.8,0000*41
$GPGSA,A,3,11,31,22,12,25,32,18,14,,,,,1.8,1.2,1.4*36
$GPRMC,181633.000,A,3351.7917,N,09832.8700,W,26.67,0.91,030412,,,D*4D
$GPGGA,181634.000,3351.7992,N,09832.8699,W,2,08,1.2,295.9,M,-23.7,M,2.8,0000*48
$GPGSA,A,3,11,31,22,12,25,32,18,14,,,,,1.8,1.2,1.4*36
$GPGSV,3,1,11,22,63,095,27,14,61,010,32,31,55,192,26,11,25,293,26*72
$GPGSV,3,2,11,25,21,097,21,18,21,115,25,01,19,315,27,32,15,307,21*70
$GPGSV,3,3,11,12,11,057,22,19,05,254,17,51,49,195,39*4E
$GPRMC,181634.000,A,3351.7992,N,09832.8699,W,27.01,1.52,030412,,,D*49
$GPGGA,181635.000,3351.8068,N,09832.8701,W,2,07,1.2,296.6,M,-23.7,M,3.8,0000*48
$GPGSA,A,3,31,22,12,25,32,18,14,,,,,,1.9,1.2,1.5*36
$GPRMC,181635.000,A,3351.8068,N,09832.8701,W,26.76,358.60,030412,,,D*44
$GPGGA,181636.000,3351.8141,N,09832.8705,W,2,08,1.2,296.3,M,-23.7,M,0.8,0000*4C
$GPGSA,A,3,11,31,22,12,25,32,18,14,,,,,1.8,1.2,1.4*36
$GPRMC,181636.000,A,3351.8141,N,09832.8705,W,26.89,358.63,030412,,,D*4A
$GPGGA,181637.000,3351.8219,N,09832.8713,W,2,08,1.2,295.7,M,-23.7,M,0.8,0000*43
$GPGSA,A,3,11,31,22,12,25,32,18,14,,,,,1.8,1.2,1.4*36
$GPRMC,181637.000,A,3351.8219,N,09832.8713,W,27.33,358.79,030412,,,D*49
$GPGGA,181638.000,3351.8297,N,09832.8714,W,2,08,1.2,296.4,M,-23.7,M,0.8,0000*4D
$GPGSA,A,3,11,31,22,12,25,32,18,14,,,,,1.8,1.2,1.4*36
$GPRMC,181638.000,A,3351.8297,N,09832.8714,W,26.72,358.95,030412,,,D*41
$GPGGA,181639.000,3351.8371,N,09832.8719,W,2,08,1.2,297.3,M,-23.7,M,1.8,0000*4F
$GPGSA,A,3,11,31,22,12,25,32,18,14,,,,,1.8,1.2,1.4*36
$GPGSV,3,1,11,22,63,095,28,14,61,010,26,31,55,192,21,11,25,293,27*7E
$GPGSV,3,2,11,25,21,097,21,18,21,115,24,01,19,315,31,32,15,307,22*75
$GPGSV,3,3,11,12,11,057,19,19,05,254,17,51,49,195,39*46
$GPRMC,181639.000,A,3351.8371,N,09832.8719,W,25.69,359.05,030412,,,D*45
$GPGGA,181640.000,3351.8442,N,09832.8721,W,2,08,1.2,297.7,M,-23.7,M,2.8,0000*4A
$GPGSA,A,3,11,31,22,12,25,32,18,14,,,,,1.8,1.2,1.4*36
$GPRMC,181640.000,A,3351.8442,N,09832.8721,W,25.35,358.84,030412,,,D*46
$GPGGA,181641.000,3351.8513,N,09832.8723,W,2,07,1.2,297.4,M,-23.7,M,0.8,0000*42
$GPGSA,A,3,11,31,12,25,32,18,14,,,,,,2.1,1.2,1.7*3F
$GPRMC,181641.000,A,3351.8513,N,09832.8723,W,25.24,358.19,030412,,,D*44
$GPGGA,181642.000,3351.8580,N,09832.8728,W,2,07,1.4,296.6,M,-23.7,M,0.8,0000*45
$GPGSA,A,3,11,31,22,25,32,18,14,,,,,,2.0,1.4,1.5*39
$GPRMC,181642.000,A,3351.8580,N,09832.8728,W,25.16,358.28,030412,,,D*45
$GPGGA,181643.000,3351.8649,N,09832.8730,W,2,08,1.2,298.0,M,-23.7,M,0.8,0000*4A
$GPGSA,A,3,11,31,22,12,25,32,18,14,,,,,1.8,1.2,1.4*36
$GPRMC,181643.000,A,3351.8649,N,09832.8730,W,25.23,358.85,030412,,,D*4A
$GPGGA,181644.000,3351.8718,N,09832.8730,W,2,08,1.2,298.1,M,-23.7,M,0.8,0000*49
$GPGSA,A,3,11,31,22,12,25,32,18,14,,,,,1.8,1.2,1.4*36
$GPGSV,3,1,11,22,63,095,32,14,61,010,26,31,55,192,20,11,25,293,27*74
$GPGSV,3,2,11,25,21,097,21,18,21,115,23,01,19,315,32,32,15,307,22*71
$GPGSV,3,3,11,12,11,057,18,19,05,254,16,51,49,195,38*47
$GPRMC,181644.000,A,3351.8718,N,09832.8730,W,25.44,359.66,030412,,,D*45
$GPGGA,181645.000,3351.8789,N,09832.8731,W,2,08,1.2,298.5,M,-23.7,M,1.8,0000*44
$GPGSA,A,3,11,31,22,12,25,32,18,14,,,,,1.8,1.2,1.4*36
$GPRMC,181645.000,A,3351.8789,N,09832.8731,W,26.08,0.24,030412,,,D*4F
$GPGGA,181646.000,3351.8862,N,09832.8728,W,2,08,1.2,298.3,M,-23.7,M,2.8,0000*40
$GPGSA,A,3,11,31,22,12,25,32,18,14,,,,,1.8,1.2,1.4*36
$GPRMC,181646.000,A,3351.8862,N,09832.8728,W,26.16,0.54,030412,,,D*46
$GPGGA,181647.000,3351.8936,N,09832.8725,W,2,08,1.2,298.4,M,-23.7,M,3.8,0000*4A
$GPGSA,A,3,11,31,22,12,25,32,18,14,,,,,1.8,1.2,1.4*36
$GPRMC,181647.000,A,3351.8936,N,09832.8725,W,26.45,1.24,030412,,,D*4A
$GPGGA,181648.000,3351.9013,N,09832.8720,W,2,08,1.2,297.2,M,-23.7,M,0.8,0000*45
$GPGSA,A,3,11,31,22,12,25,32,18,14,,,,,1.8,1.2,1.4*36
$GPRMC,181648.000,A,3351.9013,N,09832.8720,W,27.30,1.57,030412,,,D*48
$GPGGA,181649.000,3351.9091,N,09832.8716,W,2,08,1.2,296.5,M,-23.7,M,0.8,0000*4D
$GPGSA,A,3,11,31,22,12,25,32,18,14,,,,,1.8,1.2,1.4*36
$GPGSV,3,1,11,22,63,095,26,14,61,010,31,31,55,192,20,11,25,293,28*78
$GPGSV,3,2,11,25,21,097,21,18,21,115,26,01,19,315,24,32,15,307,21*70
$GPGSV,3,3,11,12,11,057,21,19,05,254,22,51,49,195,38*4A
$GPRMC,181649.000,A,3351.9091,N,09832.8716,W,27.63,2.11,030412,,,D*41
$GPGGA,181650.000,3351.9178,N,09832.8708,W,2,08,1.2,296.1,M,-23.7,M,0.8,0000*48
$GPGSA,A,3,11,31,22,12,25,32,18,14,,,,,1.8,1.2,1.4*36
$GPRMC,181650.000,A,3351.9178,N,09832.8708,W,27.05,1.19,030412,,,D*4B
$GPGGA,181651.000,3351.9258,N,09832.8703,W,2,08,1.2,295.7,M,-23.7,M,0.8,0000*46
$GPGSA,A,3,11,31,22,12,25,32,18,14,,,,,1.8,1.2,1.4*36
$GPRMC,181651.000,A,3351.9258,N,09832.8703,W,26.50,0.05,030412,,,D*4D
$GPGGA,181652.000,3351.9337,N,09832.8698,W,2,07,1.3,295.0,M,-23.7,M,1.8,0000*46
$GPGSA,A,3,11,31,22,12,25,32,14,,,,,,2.0,1.3,1.6*37
$GPRMC,181652.000,A,3351.9337,N,09832.8698,W,26.93,0.08,030412,,,D*47
$GPGGA,181653.000,3351.9414,N,09832.8695,W,2,08,1.2,294.4,M,-23.7,M,2.8,0000*44
$GPGSA,A,3,11,31,22,12,25,32,18,14,,,,,1.8,1.2,1.4*36
$GPRMC,181653.000,A,3351.9414,N,09832.8695,W,26.87,0.75,030412,,,D*42
$GPGGA,181654.000,3351.9486,N,09832.8695,W,2,08,1.2,293.9,M,-23.7,M,0.8,0000*40
$GPGSA,A,3,11,31,22,12,25,32,18,14,,,,,1.8,1.2,1.4*36
$GPGSV,3,1,11,22,63,095,26,14,61,010,31,31,55,192,25,11,25,293,27*72
$GPGSV,3,2,11,25,21,097,22,18,21,115,29,01,19,315,26,32,15,307,20*7F
$GPGSV,3,3,11,12,11,057,21,19,05,254,21,51,49,195,38*49
$GPRMC,181654.000,A,3351.9486,N,09832.8695,W,26.52,359.66,030412,,,D*4B
$GPGGA,181655.000,3351.9556,N,09832.8699,W,2,08,1.2,294.0,M,-23.7,M,0.8,0000*4F
$GPGSA,A,3,11,31,22,12,25,32,18,14,,,,,1.8,1.2,1.4*36
$GPRMC,181655.000,A,3351.9556,N,09832.8699,W,26.39,359.63,030412,,,D*42
$GPGGA,181656.000,3351.9624,N,09832.8702,W,2,08,1.2,294.5,M,-23.7,M,0.8,0000*4C
$GPGSA,A,3,11,31,22,12,25,32,18,14,,,,,1.8,1.2,1.4*36
$GPRMC,181656.000,A,3351.9624,N,09832.8702,W,25.89,359.55,030412,,,D*49
$GPGGA,181657.000,3351.9695,N,09832.8708,W,2,08,1.2,295.3,M,-23.7,M,1.8,0000*4B
$GPGSA,A,3,11,31,22,12,25,32,18,14,,,,,1.8,1.2,1.4*36
$GPRMC,181657.000,A,3351.9695,N,09832.8708,W,26.17,356.56,030412,,,D*40
$GPGGA,181658.000,3351.9766,N,09832.8717,W,2,08,1.2,295.6,M,-23.7,M,2.8,0000*41
$GPGSA,A,3,11,31,22,12,25,32,18,14,,,,,1.8,1.2,1.4*36
$GPRMC,181658.000,A,3351.9766,N,09832.8717,W,25.76,350.64,030412,,,D*4F
$GPGGA,181659.000,3351.9832,N,09832.8738,W,2,08,1.2,295.5,M,-23.7,M,3.8,0000*41
$GPGSA,A,3,11,31,22,12,25,32,18,14,,,,,1.8,1.2,1.4*36
$GPGSV,3,1,11,22,63,095,33,14,61,010,31,31,55,192,33,11,25,293,35*72
$GPGSV,3,2,11,25,21,097,32,18,21,115,28,01,19,315,32,32,15,307,30*7B
$GPGSV,3,3,11,12,11,057,30,19,05,254,20,51,49,195,32*42
$GPRMC,181659.000,A,3351.9832,N,09832.8738,W,24.92,342.11,030412,,,D*47
$GPGGA,181700.000,3351.9893,N,09832.8770,W,2,07,1.3,295.4,M,-23.7,M,4.8,0000*43
$GPGSA,A,3,11,31,22,12,25,32,14,,,,,,2.0,1.3,1.6*37
$GPRMC,181700.000,A,3351.9893,N,09832.8770,W,23.86,333.90,030412,,,D*40
$GPGGA,181701.000,3351.9945,N,09832.8810,W,2,07,1.3,295.5,M,-23.7,M,5.8,0000*41
$GPGSA,A,3,11,31,22,12,25,32,14,,,,,,2.0,1.3,1.6*37
$GPRMC,181701.000,A,3351.9945,N,09832.8810,W,22.38,326.54,030412,,,D*4A
$GPGGA,181702.000,3351.9988,N,09832.8852,W,2,08,1.2,295.7,M,-23.7,M,6.8,0000*4A
$GPGSA,A,3,11,31,22,12,25,32,18,14,,,,,1.8,1.2,1.4*36
$GPRMC,181702.000,A,3351.9988,N,09832.8852,W,19.34,321.53,030412,,,D*4A
$GPGGA,181703.000,3352.0023,N,09832.8888,W,2,08,1.2,296.2,M,-23.7,M,7.8,0000*49
$GPGSA,A,3,11,31,22,12,25,32,18,14,,,,,1.8,1.2,1.4*36
$GPRMC,181703.000,A,3352.0023,N,09832.8888,W,15.78,322.78,030412,,,D*40
$GPGGA,181704.000,3352.0055,N,09832.8914,W,2,08,1.2,296.5,M,-23.7,M,8.8,0000*43
$GPGSA,A,3,11,31,22,12,25,32,18,14,,,,,1.8,1.2,1.4*36
$GPGSV,3,1,10,22,63,095,33,14,61,010,31,31,55,192,35,11,25,293,30*70
$GPGSV,3,2,10,25,21,097,32,18,21,115,32,01,19,315,28,32,15,307,29*72
$GPGSV,3,3,10,12,11,057,27,19,05,254,24*74
$GPRMC,181704.000,A,3352.0055,N,09832.8914,W,13.09,331.97,030412,,,D*41
$GPGGA,181705.000,3352.0085,N,09832.8927,W,2,08,1.2,296.7,M,-23.7,M,9.8,0000*4C
$GPGSA,A,3,11,31,22,12,25,32,18,14,,,,,1.8,1.2,1.4*36
$GPRMC,181705.000,A,3352.0085,N,09832.8927,W,11.37,350.25,030412,,,D*4C
$GPGGA,181706.000,3352.0116,N,09832.8924,W,2,07,1.2,296.6,M,-23.7,M,10.8,0000*71
$GPGSA,A,3,11,31,22,12,25,18,14,,,,,,2.0,1.2,1.6*3E
$GPRMC,181706.000,A,3352.0116,N,09832.8924,W,11.76,12.50,030412,,,D*75
$GPGGA,181707.000,3352.0149,N,09832.8907,W,2,08,1.2,296.1,M,-23.7,M,11.8,0000*72
$GPGSA,A,3,11,31,22,12,25,32,18,14,,,,,1.8,1.2,1.4*36
$GPRMC,181707.000,A,3352.0149,N,09832.8907,W,13.23,25.31,030412,,,D*7E
$GPGGA,181708.000,3352.0186,N,09832.8880,W,2,07,1.4,296.6,M,-23.7,M,12.8,0000*7D
$GPGSA,A,3,11,31,22,25,32,18,14,,,,,,2.0,1.4,1.5*39
$GPRMC,181708.000,A,3352.0186,N,09832.8880,W,15.54,30.63,030412,,,D*79
$GPGGA,181709.000,3352.0227,N,09832.8845,W,2,07,1.4,297.8,M,-23.7,M,13.8,0000*73
$GPGSA,A,3,11,31,22,25,32,18,14,,,,,,2.0,1.4,1.5*39
$GPGSV,3,1,11,22,63,095,33,14,61,010,27,31,55,192,31,11,25,293,23*70
$GPGSV,3,2,11,25,21,097,31,18,21,115,32,01,19,315,18,32,15,307,18*71
$GPGSV,3,3,11,12,11,057,,19,05,254,23,51,49,195,29*48
$GPRMC,181709.000,A,3352.0227,N,09832.8845,W,17.37,31.39,030412,,,D*70
$GPGGA,181710.000,3352.0270,N,09832.8811,W,2,06,1.4,298.5,M,-23.7,M,14.8,0000*7C
$GPGSA,A,3,31,22,25,32,18,14,,,,,,,2.1,1.4,1.5*38
$GPRMC,181710.000,A,3352.0270,N,09832.8811,W,18.55,30.60,030412,,,D*7D
$GPGGA,181711.000,3352.0319,N,09832.8780,W,2,07,1.4,298.2,M,-23.7,M,15.8,0000*73
$GPGSA,A,3,11,31,22,25,32,18,14,,,,,,2.0,1.4,1.5*39
$GPRMC,181711.000,A,3352.0319,N,09832.8780,W,20.00,27.45,030412,,,D*7F
$GPGGA,181712.000,3352.0372,N,09832.8749,W,2,07,1.5,298.0,M,-23.7,M,16.8,0000*78
$GPGSA,A,3,11,31,22,12,25,32,18,,,,,,2.5,1.5,2.0*3D
$GPRMC,181712.000,A,3352.0372,N,09832.8749,W,21.23,26.05,030412,,,D*71
$GPGGA,181713.000,3352.0432,N,09832.8722,W,2,07,1.2,297.7,M,-23.7,M,17.8,0000*79
$GPGSA,A,3,11,31,22,12,25,14,18,,,,,,2.0,1.2,1.6*3E
$GPRMC,181713.000,A,3352.0432,N,09832.8722,W,22.39,22.18,030412,,,D*7E
$GPGGA,181714.000,3352.0499,N,09832.8702,W,1,08,1.2,298.1,M,-23.7,M,18.8,0000*77
$GPGSA,A,3,11,31,22,12,25,14,18,32,,,,,1.8,1.2,1.4*36
$GPGSV,3,1,11,22,63,095,30,14,61,010,36,31,55,192,30,11,25,293,23*72
$GPGSV,3,2,11,25,21,097,32,18,21,115,22,01,19,315,28,32,15,307,20*7B
$GPGSV,3,3,11,12,11,057,24,19,05,254,18,48,36,230,24*47
$GPRMC,181714.000,A,3352.0499,N,09832.8702,W,23.46,14.73,030412,,,A*7E
$GPGGA,181715.000,3352.0569,N,09832.8693,W,1,06,1.3,298.0,M,-23.7,M,18.8,0000*7F
$GPGSA,A,3,11,31,12,25,14,32,,,,,,,2.2,1.3,1.8*3B
$GPRMC,181715.000,A,3352.0569,N,09832.8693,W,24.98,6.49,030412,,,A*46
$GPGGA,181716.000,3352.0645,N,09832.8690,W,1,08,1.2,297.7,M,-23.7,M,18.8,0000*75
$GPGSA,A,3,11,31,22,12,25,14,18,32,,,,,1.8,1.2,1.4*36
$GPRMC,181716.000,A,3352.0645,N,09832.8690,W,26.81,2.44,030412,,,A*48
$GPGGA,181717.000,3352.0722,N,09832.8690,W,1,08,1.2,297.3,M,-23.7,M,18.8,0000*70
$GPGSA,A,3,11,31,22,12,25,14,18,32,,,,,1.8,1.2,1.4*36
$GPRMC,181717.000,A,3352.0722,N,09832.8690,W,27.30,0.84,030412,,,A*4C
$GPGGA,181718.000,3352.0801,N,09832.8691,W,1,08,1.2,297.1,M,-23.7,M,18.8,0000*72
$GPGSA,A,3,11,31,22,12,25,14,18,32,,,,,1.8,1.2,1.4*36
$GPRMC,181718.000,A,3352.0801,N,09832.8691,W,27.73,359.96,030412,,,A*47
$GPGGA,181719.000,3352.0882,N,09832.8691,W,1,08,1.2,297.1,M,-23.7,M,18.8,0000*78
$GPGSA,A,3,11,31,22,12,25,14,18,32,,,,,1.8,1.2,1.4*36
$GPGSV,3,1,11,22,63,095,35,14,61,010,30,31,55,192,30,11,25,293,25*77
$GPGSV,3,2,11,25,21,097,19,18,21,115,24,01,19,315,28,32,15,307,21*75
$GPGSV,3,3,11,12,11,057,24,19,05,254,22,48,36,230,25*4F
$GPRMC,181719.000,A,3352.0882,N,09832.8691,W,28.44,0.24,030412,,,A*40
$GPGGA,181720.000,3352.0964,N,09832.8691,W,1,08,1.2,297.1,M,-23.7,M,18.8,0000*7B
$GPGSA,A,3,11,31,22,12,25,14,18,32,,,,,1.8,1.2,1.4*36
$GPRMC,181720.000,A,3352.0964,N,09832.8691,W,29.13,0.35,030412,,,A*40
$GPGGA,181721.000,3352.1048,N,09832.8692,W,1,09,1.1,297.2,M,-23.7,M,25.8,0000*70
$GPGSA,A,3,11,31,22,12,01,25,14,18,32,,,,1.8,1.1,1.4*34
$GPRMC,181721.000,A,3352.1048,N,09832.8692,W,29.37,359.97,030412,,,A*45
$GPGGA,181722.000,3352.1133,N,09832.8692,W,1,09,1.1,297.4,M,-23.7,M,25.8,0000*78
$GPGSA,A,3,11,31,22,12,01,25,14,18,32,,,,1.8,1.1,1.4*34
$GPRMC,181722.000,A,3352.1133,N,09832.8692,W,30.04,0.16,030412,,,A*45
$GPGGA,181723.000,3352.1220,N,09832.8692,W,1,09,1.1,297.6,M,-23.7,M,25.8,0000*7A
$GPGSA,A,3,11,31,22,12,01,25,14,18,32,,,,1.8,1.1,1.4*34
$GPRMC,181723.000,A,3352.1220,N,09832.8692,W,30.60,0.18,030412,,,A*49
$GPGGA,181724.000,3352.1306,N,09832.8691,W,1,09,1.1,297.8,M,-23.7,M,25.8,0000*75
$GPGSA,A,3,11,31,22,12,01,25,14,18,32,,,,1.8,1.1,1.4*34
$GPGSV,3,1,10,22,62,095,35,14,61,010,31,31,55,192,30,11,25,292,25*77
$GPGSV,3,2,10,25,21,096,24,18,20,115,25,01,19,315,28,32,15,307,21*7B
$GPGSV,3,3,10,12,11,056,22,19,05,254,15*72
$GPRMC,181724.000,A,3352.1306,N,09832.8691,W,30.61,0.84,030412,,,A*4C
$GPGGA,181725.000,3352.1392,N,09832.8690,W,1,09,1.1,297.9,M,-23.7,M,25.8,0000*79
$GPGSA,A,3,11,31,22,12,01,25,14,18,32,,,,1.8,1.1,1.4*34
$GPRMC,181725.000,A,3352.1392,N,09832.8690,W,30.38,0.84,030412,,,A*4D
$GPGGA,181726.000,3352.1477,N,09832.8689,W,1,09,1.1,298.0,M,-23.7,M,25.8,0000*78
$GPGSA,A,3,11,31,22,12,01,25,14,18,32,,,,1.8,1.1,1.4*34
$GPRMC,181726.000,A,3352.1477,N,09832.8689,W,29.97,0.95,030412,,,A*47
$GPGGA,181727.000,3352.1561,N,09832.8689,W,1,09,1.1,298.1,M,-23.7,M,25.8,0000*7E
$GPGSA,A,3,11,31,22,12,01,25,14,18,32,,,,1.8,1.1,1.4*34
$GPRMC,181727.000,A,3352.1561,N,09832.8689,W,29.64,0.24,030412,,,A*46
$GPGGA,181728.000,3352.1645,N,09832.8689,W,1,09,1.1,298.2,M,-23.7,M,25.8,0000*77
$GPGSA,A,3,11,31,22,12,01,25,14,18,32,,,,1.8,1.1,1.4*34
$GPRMC,181728.000,A,3352.1645,N,09832.8689,W,29.73,0.15,030412,,,A*48
$GPGGA,181729.000,3352.1728,N,09832.8687,W,1,09,1.1,298.4,M,-23.7,M,25.8,0000*74
$GPGSA,A,3,11,31,22,12,01,25,14,18,32,,,,1.8,1.1,1.4*34
$GPGSV,3,1,11,22,62,095,35,14,61,010,25,31,55,192,31,11,25,292,21*76
$GPGSV,3,2,11,25,21,096,24,18,20,115,25,01,19,315,20,32,15,307,21*72
$GPGSV,3,3,11,12,11,056,23,19,05,254,16,48,36,230,24*4F
$GPRMC,181729.000,A,3352.1728,N,09832.8687,W,29.52,1.00,030412,,,A*4B
$GPGGA,181730.000,3352.1811,N,09832.8685,W,1,09,1.1,298.7,M,-23.7,M,25.8,0000*78
$GPGSA,A,3,11,31,22,12,01,25,14,18,32,,,,1.8,1.1,1.4*34
$GPRMC,181730.000,A,3352.1811,N,09832.8685,W,29.42,1.32,030412,,,A*44
$GPGGA,181731.000,3352.1895,N,09832.8686,W,1,09,1.1,298.8,M,-23.7,M,25.8,0000*79
$GPGSA,A,3,11,31,22,12,01,25,14,18,32,,,,1.8,1.1,1.4*34
$GPRMC,181731.000,A,3352.1895,N,09832.8686,W,29.75,0.12,030412,,,A*4D
$GPGGA,181732.000,3352.1979,N,09832.8686,W,1,09,1.1,299.0,M,-23.7,M,25.8,0000*70
$GPGSA,A,3,11,31,22,12,01,25,14,18,32,,,,1.8,1.1,1.4*34
$GPRMC,181732.000,A,3352.1979,N,09832.8686,W,29.76,359.83,030412,,,A*49
$GPGGA,181733.000,3352.2062,N,09832.8687,W,1,09,1.1,299.1,M,-23.7,M,25.8,0000*71
$GPGSA,A,3,11,31,22,12,01,25,14,18,32,,,,1.8,1.1,1.4*34
$GPRMC,181733.000,A,3352.2062,N,09832.8687,W,29.48,359.57,030412,,,A*4D
$GPGGA,181734.000,3352.2145,N,09832.8689,W,1,09,1.1,299.3,M,-23.7,M,25.8,0000*7E
$GPGSA,A,3,11,31,22,12,01,25,14,18,32,,,,1.8,1.1,1.4*34
$GPGSV,3,1,11,22,62,095,34,14,61,010,13,31,55,192,32,11,25,292,27*77
$GPGSV,3,2,11,25,21,096,24,18,20,115,26,01,19,315,32,32,15,307,21*72
$GPGSV,3,3,11,12,11,056,22,19,05,254,16,48,36,230,30*4B
$GPRMC,181734.000,A,3352.2145,N,09832.8689,W,29.19,359.34,030412,,,A*41
$GPGGA,181735.000,3352.2227,N,09832.8689,W,1,09,1.1,299.5,M,-23.7,M,25.8,0000*7E
$GPGSA,A,3,11,31,22,12,01,25,14,18,32,,,,1.8,1.1,1.4*34
$GPRMC,181735.000,A,3352.2227,N,09832.8689,W,29.31,0.42,030412,,,A*43
$GPGGA,181736.000,3352.2309,N,09832.8688,W,1,09,1.1,299.7,M,-23.7,M,25.8,0000*73
$GPGSA,A,3,11,31,22,12,01,25,14,18,32,,,,1.8,1.1,1.4*34
$GPRMC,181736.000,A,3352.2309,N,09832.8688,W,29.03,0.95,030412,,,A*47
$GPGGA,181737.000,3352.2390,N,09832.8688,W,1,09,1.1,299.9,M,-23.7,M,25.8,0000*7C
$GPGSA,A,3,11,31,22,12,01,25,14,18,32,,,,1.8,1.1,1.4*34
$GPRMC,181737.000,A,3352.2390,N,09832.8688,W,28.71,0.04,030412,,,A*4A
$GPGGA,181738.000,3352.2469,N,09832.8688,W,1,09,1.1,299.9,M,-23.7,M,25.8,0000*72
$GPGSA,A,3,11,31,22,12,01,25,14,18,32,,,,1.8,1.1,1.4*34
$GPRMC,181738.000,A,3352.2469,N,09832.8688,W,28.44,0.55,030412,,,A*46
$GPGGA,181739.000,3352.2548,N,09832.8687,W,1,09,1.1,300.0,M,-23.7,M,25.8,0000*76
$GPGSA,A,3,11,31,22,12,01,25,14,18,32,,,,1.8,1.1,1.4*34
$GPGSV,3,1,10,22,62,095,34,14,61,010,18,31,55,192,32,11,25,292,23*79
$GPGSV,3,2,10,25,21,096,24,18,20,115,26,01,19,315,33,32,15,307,21*72
$GPGSV,3,3,10,12,11,056,22,19,05,254,23*77
$GPRMC,181739.000,A,3352.2548,N,09832.8687,W,27.94,0.53,030412,,,A*4E
$GPGGA,181740.000,3352.2622,N,09832.8687,W,1,09,1.1,300.1,M,-23.7,M,25.8,0000*76
$GPGSA,A,3,11,31,22,12,01,25,14,18,32,,,,1.8,1.1,1.4*34
$GPRMC,181740.000,A,3352.2622,N,09832.8687,W,26.45,0.39,030412,,,A*4E
$GPGGA,181741.000,3352.2690,N,09832.8688,W,1,09,1.1,300.3,M,-23.7,M,25.8,0000*73
$GPGSA,A,3,11,31,22,12,01,25,14,18,32,,,,1.8,1.1,1.4*34
$GPRMC,181741.000,A,3352.2690,N,09832.8688,W,24.04,359.99,030412,,,A*4B
$GPGGA,181742.000,3352.2750,N,09832.8687,W,1,09,1.1,300.6,M,-23.7,M,25.8,0000*77
$GPGSA,A,3,11,31,22,12,01,25,14,18,32,,,,1.8,1.1,1.4*34
$GPRMC,181742.000,A,3352.2750,N,09832.8687,W,21.30,0.79,030412,,,A*49
$GPGGA,181743.000,3352.2801,N,09832.8686,W,1,09,1.1,300.8,M,-23.7,M,25.8,0000*72
$GPGSA,A,3,11,31,22,12,01,25,14,18,32,,,,1.8,1.1,1.4*34
$GPRMC,181743.000,A,3352.2801,N,09832.8686,W,17.99,1.38,030412,,,A*40
$GPGGA,181744.000,3352.2842,N,09832.8685,W,1,09,1.1,301.1,M,-23.7,M,25.8,0000*79
$GPGSA,A,3,11,31,22,12,01,25,14,18,32,,,,1.8,1.1,1.4*34
$GPGSV,3,1,10,22,62,095,33,14,61,010,29,31,55,192,31,11,25,292,21*7D
$GPGSV,3,2,10,25,21,096,23,18,20,115,27,01,19,315,33,32,15,307,21*74
$GPGSV,3,3,10,12,11,056,22,19,05,254,12*75
$GPRMC,181744.000,A,3352.2842,N,09832.8685,W,14.71,1.88,030412,,,A*4D
$GPGGA,181745.000,3352.2875,N,09832.8684,W,1,09,1.1,301.5,M,-23.7,M,25.8,0000*79
$GPGSA,A,3,11,31,22,12,01,25,14,18,32,,,,1.8,1.1,1.4*34
$GPRMC,181745.000,A,3352.2875,N,09832.8684,W,11.44,2.94,030412,,,A*44
$GPGGA,181746.000,3352.2898,N,09832.8683,W,1,09,1.1,301.9,M,-23.7,M,25.8,0000*72
$GPGSA,A,3,11,31,22,12,01,25,14,18,32,,,,1.8,1.1,1.4*34
$GPRMC,181746.000,A,3352.2898,N,09832.8683,W,8.01,3.22,030412,,,A*76
$GPGGA,181747.000,3352.2910,N,09832.8683,W,1,09,1.1,302.2,M,-23.7,M,25.8,0000*7A
$GPGSA,A,3,11,31,22,12,01,25,14,18,32,,,,1.8,1.1,1.4*34
$GPRMC,181747.000,A,3352.2910,N,09832.8683,W,4.27,3.78,030412,,,A*71
$GPGGA,181748.000,3352.2914,N,09832.8683,W,1,09,1.1,302.5,M,-23.7,M,25.8,0000*76
$GPGSA,A,3,11,31,22,12,01,25,14,18,32,,,,1.8,1.1,1.4*34
$GPRMC,181748.000,A,3352.2914,N,09832.8683,W,1.36,6.68,030412,,,A*7B
$GPGGA,181749.000,3352.2914,N,09832.8684,W,1,09,1.1,302.7,M,-23.7,M,25.8,0000*72
$GPGSA,A,3,11,31,22,12,01,25,14,18,32,,,,1.8,1.1,1.4*34
$GPGSV,3,1,10,22,62,095,33,14,61,010,31,31,55,192,25,11,25,292,22*72
$GPGSV,3,2,10,25,21,096,23,18,20,115,28,01,19,315,32,32,15,307,21*7A
$GPGSV,3,3,10,12,11,056,24,19,05,254,24*76
$GPRMC,181749.000,A,3352.2914,N,09832.8684,W,0.14,187.17,030412,,,A*7C
$GPGGA,181750.000,3352.2913,N,09832.8685,W,1,09,1.1,303.0,M,-23.7,M,25.8,0000*7A
$GPGSA,A,3,11,31,22,12,01,25,14,18,32,,,,1.8,1.1,1.4*34
$GPRMC,181750.000,A,3352.2913,N,09832.8685,W,0.12,191.27,030412,,,A*70
$GPGGA,181751.000,3352.2912,N,09832.8686,W,1,09,1.1,303.2,M,-23.7,M,25.8,0000*7B
$GPGSA,A,3,11,31,22,12,01,25,14,18,32,,,,1.8,1.1,1.4*34
$GPRMC,181751.000,A,3352.2912,N,09832.8686,W,0.16,95.27,030412,,,A*42
$GPGGA,181752.000,3352.2912,N,09832.8686,W,1,09,1.1,303.5,M,-23.7,M,25.8,0000*7F
$GPGSA,A,3,11,31,22,12,01,25,14,18,32,,,,1.8,1.1,1.4*34
$GPRMC,181752.000,A,3352.2912,N,09832.8686,W,0.27,84.19,030412,,,A*4E
$GPGGA,181753.000,3352.2911,N,09832.8686,W,1,09,1.1,303.7,M,-23.7,M,25.8,0000*7F
$GPGSA,A,3,11,31,22,12,01,25,14,18,32,,,,1.8,1.1,1.4*34
$GPRMC,181753.000,A,3352.2911,N,09832.8686,W,0.18,98.13,030412,,,A*47
$GPGGA,181754.000,3352.2909,N,09832.8687,W,1,09,1.1,304.0,M,-23.7,M,25.8,0000*70
$GPGSA,A,3,11,31,22,12,01,25,14,18,32,,,,1.8,1.1,1.4*34
$GPGSV,3,1,10,22,62,095,34,14,61,010,31,31,55,192,27,11,25,292,23*76
$GPGSV,3,2,10,25,21,096,19,18,20,115,28,01,19,315,32,32,15,307,21*73
$GPGSV,3,3,10,12,11,056,25,19,05,254,24*77
$GPRMC,181754.000,A,3352.2909,N,09832.8687,W,0.03,277.38,030412,,,A*78
$GPGGA,181755.000,3352.2908,N,09832.8688,W,1,09,1.1,304.2,M,-23.7,M,25.8,0000*7D
$GPGSA,A,3,11,31,22,12,01,25,14,18,32,,,,1.8,1.1,1.4*34
$GPRMC,181755.000,A,3352.2908,N,09832.8688,W,0.03,348.80,030412,,,A*79
$GPGGA,181756.000,3352.2907,N,09832.8688,W,1,09,1.1,304.4,M,-23.7,M,25.8,0000*77
$GPGSA,A,3,11,31,22,12,01,25,14,18,32,,,,1.8,1.1,1.4*34
$GPRMC,181756.000,A,3352.2907,N,09832.8688,W,0.15,108.46,030412,,,A*7E
$GPGGA,181757.000,3352.2906,N,09832.8689,W,1,09,1.1,304.6,M,-23.7,M,25.8,0000*74
$GPGSA,A,3,11,31,22,12,01,25,14,18,32,,,,1.8,1.1,1.4*34
$GPRMC,181757.000,A,3352.2906,N,09832.8689,W,0.07,96.84,030412,,,A*44
$GPGGA,181758.000,3352.2905,N,09832.8689,W,1,09,1.1,304.7,M,-23.7,M,25.8,0000*79
$GPGSA,A,3,11,31,22,12,01,25,14,18,32,,,,1.8,1.1,1.4*34
$GPRMC,181758.000,A,3352.2905,N,09832.8689,W,0.13,78.40,030412,,,A*45
$GPGGA,181759.000,3352.2904,N,09832.8690,W,1,09,1.1,304.9,M,-23.7,M,25.8,0000*7F
$GPGSA,A,3,11,31,22,12,01,25,14,18,32,,,,1.8,1.1,1.4*34
$GPGSV,3,1,10,22,62,095,34,14,61,010,31,31,55,192,28,11,25,292,23*79
$GPGSV,3,2,10,25,21,096,19,18,20,115,29,01,19,315,31,32,15,307,21*71
$GPGSV,3,3,10,12,11,056,26,19,05,254,24*74
$GPRMC,181759.000,A,3352.2904,N,09832.8690,W,0.20,74.74,030412,,,A*46
$GPGGA,181800.000,3352.2902,N,09832.8690,W,1,09,1.1,305.1,M,-23.7,M,25.8,0000*73
$GPGSA,A,3,11,31,22,12,01,25,14,18,32,,,,1.8,1.1,1.4*34
$GPRMC,181800.000,A,3352.2902,N,09832.8690,W,0.07,161.46,030412,,,A*72
$GPGGA,181801.000,3352.2901,N,09832.8691,W,1,09,1.1,305.3,M,-23.7,M,25.8,0000*72
$GPGSA,A,3,11,31,22,12,01,25,14,18,32,,,,1.8,1.1,1.4*34
$GPRMC,181801.000,A,3352.2901,N,09832.8691,W,0.07,253.11,030412,,,A*71
$GPGGA,181802.000,3352.2900,N,09832.8692,W,1,09,1.1,305.4,M,-23.7,M,25.8,0000*74
$GPGSA,A,3,11,31,22,12,01,25,14,18,32,,,,1.8,1.1,1.4*34
$GPRMC,181802.000,A,3352.2900,N,09832.8692,W,0.13,278.30,030412,,,A*7F
$GPGGA,181803.000,3352.2899,N,09832.8693,W,1,09,1.1,305.6,M,-23.7,M,25.8,0000*77
$GPGSA,A,3,11,31,22,12,01,25,14,18,32,,,,1.8,1.1,1.4*34
$GPRMC,181803.000,A,3352.2899,N,09832.8693,W,0.06,261.28,030412,,,A*7B
$GPGGA,181804.000,3352.2898,N,09832.8694,W,1,09,1.1,305.7,M,-23.7,M,25.8,0000*77
$GPGSA,A,3,11,31,22,12,01,25,14,18,32,,,,1.8,1.1,1.4*34
$GPGSV,3,1,10,22,62,095,34,14,61,010,31,31,55,192,29,11,25,292,24*7F
$GPGSV,3,2,10,25,21,096,20,18,20,115,29,01,19,315,31,32,15,307,21*7B
$GPGSV,3,3,10,12,11,056,27,19,05,254,23*72
$GPRMC,181804.000,A,3352.2898,N,09832.8694,W,0.12,268.15,030412,,,A*78
$GPGGA,181805.000,3352.2898,N,09832.8695,W,1,09,1.1,305.8,M,-23.7,M,25.8,0000*78
$GPGSA,A,3,11,31,22,12,01,25,14,18,32,,,,1.8,1.1,1.4*34
$GPRMC,181805.000,A,3352.2898,N,09832.8695,W,0.29,335.65,030412,,,A*7E
$GPGGA,181806.000,3352.2898,N,09832.8695,W,1,09,1.1,305.8,M,-23.7,M,25.8,0000*7B
$GPGSA,A,3,11,31,22,12,01,25,14,18,32,,,,1.8,1.1,1.4*34
$GPRMC,181806.000,A,3352.2898,N,09832.8695,W,0.48,0.72,030412,,,A*79
$GPGGA,181807.000,3352.2898,N,09832.8696,W,1,09,1.1,305.8,M,-23.7,M,25.8,0000*79
$GPGSA,A,3,11,31,22,12,01,25,14,18,32,,,,1.8,1.1,1.4*34
$GPRMC,181807.000,A,3352.2898,N,09832.8696,W,0.40,358.38,030412,,,A*73
$GPGGA,181808.000,3352.2898,N,09832.8696,W,1,09,1.1,305.7,M,-23.7,M,25.8,0000*79
$GPGSA,A,3,11,31,22,12,01,25,14,18,32,,,,1.8,1.1,1.4*34
$GPRMC,181808.000,A,3352.2898,N,09832.8696,W,0.10,341.19,030412,,,A*72
$GPGGA,181809.000,3352.2897,N,09832.8695,W,1,09,1.1,305.7,M,-23.7,M,25.8,0000*74
$GPGSA,A,3,11,31,22,12,01,25,14,18,32,,,,1.8,1.1,1.4*34
$GPGSV,3,1,10,22,62,095,33,14,61,010,31,31,55,192,30,11,25,292,24*70
$GPGSV,3,2,10,25,21,096,30,18,20,115,28,01,19,315,32,32,15,307,20*79
$GPGSV,3,3,10,12,11,056,28,19,05,254,23*7D
$GPRMC,181809.000,A,3352.2897,N,09832.8695,W,0.17,104.73,030412,,,A*77
$GPGGA,181810.000,3352.2896,N,09832.8695,W,1,09,1.1,305.6,M,-23.7,M,25.8,0000*7C
$GPGSA,A,3,11,31,22,12,01,25,14,18,32,,,,1.8,1.1,1.4*34
$GPRMC,181810.000,A,3352.2896,N,09832.8695,W,0.13,114.43,030412,,,A*78
$GPGGA,181811.000,3352.2895,N,09832.8695,W,1,09,1.1,305.6,M,-23.7,M,25.8,0000*7E
$GPGSA,A,3,11,31,22,12,01,25,14,18,32,,,,1.8,1.1,1.4*34
$GPRMC,181811.000,A,3352.2895,N,09832.8695,W,0.11,111.59,030412,,,A*76
$GPGGA,181812.000,3352.2894,N,09832.8694,W,1,09,1.1,305.5,M,-23.7,M,25.8,0000*7E
$GPGSA,A,3,11,31,22,12,01,25,14,18,32,,,,1.8,1.1,1.4*34
$GPRMC,181812.000,A,3352.2894,N,09832.8694,W,0.08,91.06,030412,,,A*4E
$GPGGA,181813.000,3352.2894,N,09832.8694,W,1,09,1.1,305.4,M,-23.7,M,25.8,0000*7E
$GPGSA,A,3,11,31,22,12,01,25,14,18,32,,,,1.8,1.1,1.4*34
$GPRMC,181813.000,A,3352.2894,N,09832.8694,W,0.03,27.14,030412,,,A*4A
$GPGGA,181814.000,3352.2893,N,09832.8693,W,1,09,1.1,305.3,M,-23.7,M,25.8,0000*7E
$GPGSA,A,3,11,31,22,12,01,25,14,18,32,,,,1.8,1.1,1.4*34
$GPGSV,3,1,10,22,62,095,33,14,61,010,30,31,55,192,30,11,25,292,24*71
$GPGSV,3,2,10,25,21,096,30,18,20,115,28,01,19,315,32,32,15,307,20*79
$GPGSV,3,3,10,12,11,056,29,19,05,254,23*7C
$GPRMC,181814.000,A,3352.2893,N,09832.8693,W,0.16,106.24,030412,,,A*78
$GPGGA,181815.000,3352.2892,N,09832.8693,W,1,09,1.1,305.2,M,-23.7,M,25.8,0000*7F
$GPGSA,A,3,11,31,22,12,01,25,14,18,32,,,,1.8,1.1,1.4*34
$GPRMC,181815.000,A,3352.2892,N,09832.8693,W,0.12,120.96,030412,,,A*71
$GPGGA,181816.000,3352.2891,N,09832.8692,W,1,09,1.1,305.2,M,-23.7,M,25.8,0000*7E
$GPGSA,A,3,11,31,22,12,01,25,14,18,32,,,,1.8,1.1,1.4*34
$GPRMC,181816.000,A,3352.2891,N,09832.8692,W,0.12,113.50,030412,,,A*7A
$GPGGA,181817.000,3352.2891,N,09832.8692,W,1,09,1.1,305.1,M,-23.7,M,25.8,0000*7C
$GPGSA,A,3,11,31,22,12,01,25,14,18,32,,,,1.8,1.1,1.4*34
$GPRMC,181817.000,A,3352.2891,N,09832.8692,W,0.09,118.13,030412,,,A*7D
$GPGGA,181818.000,3352.2890,N,09832.8691,W,1,09,1.1,305.1,M,-23.7,M,25.8,0000*71
$GPGSA,A,3,11,31,22,12,01,25,14,18,32,,,,1.8,1.1,1.4*34
$GPRMC,181818.000,A,3352.2890,N,09832.8691,W,0.11,112.21,030412,,,A*72
$GPGGA,181819.000,3352.2890,N,09832.8691,W,1,09,1.1,305.0,M,-23.7,M,25.8,0000*71
$GPGSA,A,3,11,31,22,12,01,25,14,18,32,,,,1.8,1.1,1.4*34
$GPGSV,3,1,10,22,62,095,33,14,61,010,30,31,55,192,31,11,25,292,24*70
$GPGSV,3,2,10,25,21,096,29,18,20,115,28,01,19,315,32,32,15,307,20*71
$GPGSV,3,3,10,12,11,056,30,19,05,254,23*74
$GPRMC,181819.000,A,3352.2890,N,09832.8691,W,0.06,96.35,030412,,,A*4D
$GPGGA,181820.000,3352.2889,N,09832.8690,W,1,09,1.1,305.0,M,-23.7,M,25.8,0000*72
$GPGSA,A,3,11,31,22,12,01,25,14,18,32,,,,1.8,1.1,1.4*34
$GPRMC,181820.000,A,3352.2889,N,09832.8690,W,0.09,76.64,030412,,,A*4B
$GPGGA,181821.000,3352.2891,N,09832.8690,W,1,09,1.1,304.9,M,-23.7,M,25.8,0000*72
$GPGSA,A,3,11,31,22,12,01,25,14,18,32,,,,1.8,1.1,1.4*34
$GPRMC,181821.000,A,3352.2891,N,09832.8690,W,0.61,0.44,030412,,,A*7E
$GPGGA,181822.000,3352.2895,N,09832.8689,W,1,09,1.1,304.9,M,-23.7,M,25.8,0000*7D
$GPGSA,A,3,11,31,22,12,01,25,14,18,32,,,,1.8,1.1,1.4*34
$GPRMC,181822.000,A,3352.2895,N,09832.8689,W,1.60,1.00,030412,,,A*70
$GPGGA,181823.000,3352.2907,N,09832.8689,W,1,09,1.1,304.9,M,-23.7,M,25.8,0000*76
$GPGSA,A,3,11,31,22,12,01,25,14,18,32,,,,1.8,1.1,1.4*34
$GPRMC,181823.000,A,3352.2907,N,09832.8689,W,4.48,0.42,030412,,,A*73
$GPGGA,181824.000,3352.2927,N,09832.8686,W,1,09,1.1,305.0,M,-23.7,M,25.8,0000*74
$GPGSA,A,3,11,31,22,12,01,25,14,18,32,,,,1.8,1.1,1.4*34
$GPGSV,3,1,10,22,62,095,33,14,61,010,30,31,55,192,32,11,25,292,18*7C
$GPGSV,3,2,10,25,21,096,27,18,20,115,28,01,19,315,32,32,15,307,21*7E
$GPGSV,3,3,10,12,11,056,21,19,05,254,13*77
$GPRMC,181824.000,A,3352.2927,N,09832.8686,W,7.69,5.36,030412,,,A*7F
$GPGGA,181825.000,3352.2955,N,09832.8684,W,1,09,1.1,305.2,M,-23.7,M,25.8,0000*70
$GPGSA,A,3,11,31,22,12,01,25,14,18,32,,,,1.8,1.1,1.4*34
$GPRMC,181825.000,A,3352.2955,N,09832.8684,W,10.12,2.41,030412,,,A*44
$GPGGA,181826.000,3352.2987,N,09832.8683,W,1,09,1.1,305.4,M,-23.7,M,25.8,0000*7D
$GPGSA,A,3,11,31,22,12,01,25,14,18,32,,,,1.8,1.1,1.4*34
$GPRMC,181826.000,A,3352.2987,N,09832.8683,W,11.69,1.69,030412,,,A*4B
$GPGGA,181827.000,3352.3023,N,09832.8680,W,1,09,1.1,305.5,M,-23.7,M,25.8,0000*78
$GPGSA,A,3,11,31,22,12,01,25,14,18,32,,,,1.8,1.1,1.4*34
$GPRMC,181827.000,A,3352.3023,N,09832.8680,W,13.05,3.07,030412,,,A*4D
$GPGGA,181828.000,3352.3065,N,09832.8678,W,1,09,1.1,305.6,M,-23.7,M,25.8,0000*71
$GPGSA,A,3,11,31,22,12,01,25,14,18,32,,,,1.8,1.1,1.4*34
$GPRMC,181828.000,A,3352.3065,N,09832.8678,W,14.90,2.28,030412,,,A*40
$GPGGA,181829.000,3352.3112,N,09832.8675,W,1,09,1.1,305.7,M,-23.7,M,25.8,0000*7D
$GPGSA,A,3,11,31,22,12,01,25,14,18,32,,,,1.8,1.1,1.4*34
$GPGSV,3,1,10,22,62,095,33,14,61,010,23,31,55,192,30,11,25,292,31*77
$GPGSV,3,2,10,25,21,096,22,18,20,115,20,01,19,315,24,32,15,307,22*77
$GPGSV,3,3,10,12,11,056,33,19,05,254,18*7F
$GPRMC,181829.000,A,3352.3112,N,09832.8675,W,17.26,2.41,030412,,,A*4C
$GPGGA,181830.000,3352.3165,N,09832.8672,W,1,09,1.1,305.7,M,-23.7,M,25.8,0000*72
$GPGSA,A,3,11,31,22,12,01,25,14,18,32,,,,1.8,1.1,1.4*34
$GPRMC,181830.000,A,3352.3165,N,09832.8672,W,19.10,2.31,030412,,,A*4F
$GPGGA,181831.000,3352.3221,N,09832.8671,W,1,08,1.2,305.7,M,-23.7,M,25.8,0000*71
$GPGSA,A,3,31,22,12,01,25,14,18,32,,,,,1.9,1.2,1.4*36
$GPRMC,181831.000,A,3352.3221,N,09832.8671,W,20.07,1.34,030412,,,A*44
$GPGGA,181832.000,3352.3281,N,09832.8666,W,1,09,1.1,305.7,M,-23.7,M,25.8,0000*7C
$GPGSA,A,3,11,31,22,12,01,25,14,18,32,,,,1.8,1.1,1.4*34
$GPRMC,181832.000,A,3352.3281,N,09832.8666,W,21.71,3.15,030412,,,A*4A
$GPGGA,181833.000,3352.3346,N,09832.8661,W,1,09,1.1,305.7,M,-23.7,M,25.8,0000*70
$GPGSA,A,3,11,31,22,12,01,25,14,18,32,,,,1.8,1.1,1.4*34
$GPRMC,181833.000,A,3352.3346,N,09832.8661,W,23.23,4.10,030412,,,A*41
$GPGGA,181834.000,3352.3414,N,09832.8656,W,1,09,1.1,305.8,M,-23.7,M,25.8,0000*7C
$GPGSA,A,3,11,31,22,12,01,25,14,18,32,,,,1.8,1.1,1.4*34
$GPGSV,3,1,10,22,62,095,33,14,61,010,36,31,55,192,24,11,25,292,25*73
$GPGSV,3,2,10,25,21,096,22,18,20,115,22,01,19,315,33,32,15,307,29*78
$GPGSV,3,3,10,12,11,056,19,19,05,254,17*78
$GPRMC,181834.000,A,3352.3414,N,09832.8656,W,24.03,3.11,030412,,,A*41
$GPGGA,181835.000,3352.3484,N,09832.8652,W,1,09,1.1,305.8,M,-23.7,M,25.8,0000*70
$GPGSA,A,3,11,31,22,12,01,25,14,18,32,,,,1.8,1.1,1.4*34
$GPRMC,181835.000,A,3352.3484,N,09832.8652,W,25.24,2.83,030412,,,A*43
$GPGGA,181836.000,3352.3559,N,09832.8653,W,1,09,1.1,305.9,M,-23.7,M,25.8,0000*72
$GPGSA,A,3,11,31,22,12,01,25,14,18,32,,,,1.8,1.1,1.4*34
$GPRMC,181836.000,A,3352.3559,N,09832.8653,W,26.53,358.97,030412,,,A*4A
$GPGGA,181837.000,3352.3637,N,09832.8656,W,1,09,1.1,305.9,M,-23.7,M,25.8,0000*7D
$GPGSA,A,3,11,31,22,12,01,25,14,18,32,,,,1.8,1.1,1.4*34
$GPRMC,181837.000,A,3352.3637,N,09832.8656,W,27.74,358.07,030412,,,A*48
$GPGGA,181838.000,3352.3718,N,09832.8659,W,1,09,1.1,305.8,M,-23.7,M,25.8,0000*70
$GPGSA,A,3,11,31,22,12,01,25,14,18,32,,,,1.8,1.1,1.4*34
$GPRMC,181838.000,A,3352.3718,N,09832.8659,W,28.89,358.12,030412,,,A*4D
$GPGGA,181839.000,3352.3802,N,09832.8662,W,1,09,1.1,305.8,M,-23.7,M,25.8,0000*7D
$GPGSA,A,3,11,31,22,12,01,25,14,18,32,,,,1.8,1.1,1.4*34
$GPGSV,3,1,11,22,62,095,22,14,61,010,22,31,55,192,33,11,25,292,34*71
$GPGSV,3,2,11,25,21,096,30,18,20,115,30,01,19,315,33,32,15,307,25*75
$GPGSV,3,3,11,12,11,056,25,19,05,254,,51,49,195,39*4E
$GPRMC,181839.000,A,3352.3802,N,09832.8662,W,29.71,358.26,030412,,,A*41
$GPGGA,181840.000,3352.3887,N,09832.8665,W,1,09,1.1,305.6,M,-23.7,M,25.8,0000*77
$GPGSA,A,3,11,31,22,12,01,25,14,18,32,,,,1.8,1.1,1.4*34
$GPRMC,181840.000,A,3352.3887,N,09832.8665,W,30.29,358.18,030412,,,A*4D
$GPGGA,181841.000,3352.3973,N,09832.8668,W,1,09,1.1,305.3,M,-23.7,M,25.8,0000*74
$GPGSA,A,3,11,31,22,12,01,25,14,18,32,,,,1.8,1.1,1.4*34
$GPRMC,181841.000,A,3352.3973,N,09832.8668,W,30.55,358.19,030412,,,A*41
$GPGGA,181842.000,3352.4060,N,09832.8672,W,1,09,1.1,305.1,M,-23.7,M,25.8,0000*72
$GPGSA,A,3,11,31,22,12,01,25,14,18,32,,,,1.8,1.1,1.4*34
$GPRMC,181842.000,A,3352.4060,N,09832.8672,W,30.59,357.80,030412,,,A*46
$GPGGA,181843.000,3352.4161,N,09832.8675,W,2,09,1.1,303.6,M,-23.7,M,0.8,0000*41
$GPGSA,A,3,11,31,22,12,01,25,14,18,32,,,,1.8,1.1,1.4*34
$GPRMC,181843.000,A,3352.4161,N,09832.8675,W,30.41,356.13,030412,,,D*47
$GPGGA,181844.000,3352.4247,N,09832.8682,W,2,09,1.1,303.4,M,-23.7,M,0.8,0000*4B
$GPGSA,A,3,11,31,22,12,01,25,14,18,32,,,,1.8,1.1,1.4*34
$GPGSV,3,1,11,22,62,095,18,14,61,010,35,31,55,192,34,11,25,292,34*79
$GPGSV,3,2,11,25,21,096,25,18,20,115,25,01,19,315,33,32,15,307,25*75
$GPGSV,3,3,11,12,11,056,23,19,05,254,13,51,49,195,37*44
$GPRMC,181844.000,A,3352.4247,N,09832.8682,W,30.44,354.97,030412,,,D*44
$GPGGA,181845.000,3352.4333,N,09832.8691,W,2,09,1.1,303.1,M,-23.7,M,1.8,0000*4E
$GPGSA,A,3,11,31,22,12,01,25,14,18,32,,,,1.8,1.1,1.4*34
$GPRMC,181845.000,A,3352.4333,N,09832.8691,W,30.51,354.63,030412,,,D*4A
$GPGGA,181846.000,3352.4418,N,09832.8701,W,2,09,1.1,302.8,M,-23.7,M,2.8,0000*40
$GPGSA,A,3,11,31,22,12,01,25,14,18,32,,,,1.8,1.1,1.4*34
$GPRMC,181846.000,A,3352.4418,N,09832.8701,W,30.57,354.54,030412,,,D*4D
$GPGGA,181847.000,3352.4503,N,09832.8711,W,2,09,1.1,302.4,M,-23.7,M,3.8,0000*46
$GPGSA,A,3,11,31,22,12,01,25,14,18,32,,,,1.8,1.1,1.4*34
$GPRMC,181847.000,A,3352.4503,N,09832.8711,W,30.15,354.47,030412,,,D*42
$GPGGA,181848.000,3352.4585,N,09832.8721,W,2,09,1.1,302.3,M,-23.7,M,0.8,0000*40
$GPGSA,A,3,11,31,22,12,01,25,14,18,32,,,,1.8,1.1,1.4*34
$GPRMC,181848.000,A,3352.4585,N,09832.8721,W,29.24,354.38,030412,,,D*42
$GPGGA,181849.000,3352.4666,N,09832.8731,W,2,08,1.2,302.0,M,-23.7,M,,0000*69
$GPGSA,A,3,11,31,22,12,01,25,14,18,,,,,1.9,1.2,1.5*36
$GPGSV,3,1,11,22,62,095,20,14,61,010,35,31,55,192,35,11,25,292,34*73
$GPGSV,3,2,11,25,21,096,26,18,20,115,26,01,19,315,29,32,15,307,24*7F
$GPGSV,3,3,11,12,11,056,19,19,05,254,21,51,49,195,37*4C
$GPRMC,181849.000,A,3352.4666,N,09832.8731,W,28.81,354.26,030412,,,D*4D
$GPGGA,181850.000,3352.4745,N,09832.8740,W,2,09,1.1,301.7,M,-23.7,M,0.8,0000*47
$GPGSA,A,3,11,31,22,12,01,25,14,18,32,,,,1.8,1.1,1.4*34
$GPRMC,181850.000,A,3352.4745,N,09832.8740,W,28.41,355.49,030412,,,D*47
$GPGGA,181851.000,3352.4824,N,09832.8746,W,2,08,1.2,301.2,M,-23.7,M,1.8,0000*4E
$GPGSA,A,3,11,31,22,12,25,14,18,32,,,,,1.8,1.2,1.4*36
$GPRMC,181851.000,A,3352.4824,N,09832.8746,W,28.03,356.49,030412,,,D*4D
$GPGGA,181852.000,3352.4902,N,09832.8751,W,2,09,1.1,300.8,M,-23.7,M,2.8,0000*44
$GPGSA,A,3,11,31,22,12,01,25,14,18,32,,,,1.8,1.1,1.4*34
$GPRMC,181852.000,A,3352.4902,N,09832.8751,W,28.01,357.50,030412,,,D*46
$GPGGA,181853.000,3352.4980,N,09832.8755,W,2,08,1.1,300.7,M,-23.7,M,0.8,0000*47
$GPGSA,A,3,11,31,12,01,25,14,18,32,,,,,2.0,1.1,1.7*3C
$GPRMC,181853.000,A,3352.4980,N,09832.8755,W,27.91,358.70,030412,,,D*42
$GPGGA,181854.000,3352.5058,N,09832.8755,W,2,09,1.1,300.6,M,-23.7,M,0.8,0000*4D
$GPGSA,A,3,11,31,22,12,01,25,14,18,32,,,,1.8,1.1,1.4*34
$GPGSV,3,1,11,22,62,095,31,14,61,010,26,31,55,192,35,11,25,292,18*7F
$GPGSV,3,2,11,25,21,096,24,18,20,115,28,01,19,315,34,32,15,307,27*7C
$GPGSV,3,3,11,12,11,056,23,19,05,254,20,51,49,195,37*44
$GPRMC,181854.000,A,3352.5058,N,09832.8755,W,28.00,359.83,030412,,,D*42
$GPGGA,181855.000,3352.5137,N,09832.8754,W,2,09,1.1,300.6,M,-23.7,M,0.8,0000*45
$GPGSA,A,3,11,31,22,12,01,25,14,18,32,,,,1.8,1.1,1.4*34
$GPRMC,181855.000,A,3352.5137,N,09832.8754,W,28.15,0.91,030412,,,D*42
$GPGGA,181856.000,3352.5218,N,09832.8750,W,2,09,1.1,300.8,M,-23.7,M,0.8,0000*42
$GPGSA,A,3,11,31,22,12,01,25,14,18,32,,,,1.8,1.1,1.4*34
$GPRMC,181856.000,A,3352.5218,N,09832.8750,W,28.88,1.85,030412,,,D*4B
$GPGGA,181857.000,3352.5300,N,09832.8747,W,2,09,1.1,300.9,M,-23.7,M,1.8,0000*4D
$GPGSA,A,3,11,31,22,12,01,25,14,18,32,,,,1.8,1.1,1.4*34
$GPRMC,181857.000,A,3352.5300,N,09832.8747,W,28.80,2.49,030412,,,D*4F
$GPGGA,181858.000,3352.5377,N,09832.8743,W,2,08,1.2,300.1,M,-23.7,M,2.8,0000*4F
$GPGSA,A,3,11,31,22,12,01,25,14,18,,,,,1.9,1.2,1.5*36
$GPRMC,181858.000,A,3352.5377,N,09832.8743,W,28.32,3.37,030412,,,D*45
$GPGGA,181859.000,3352.5455,N,09832.8737,W,2,09,1.1,299.7,M,-23.7,M,3.8,0000*4E
$GPGSA,A,3,11,31,22,12,01,25,14,18,32,,,,1.8,1.1,1.4*34
$GPGSV,3,1,11,22,62,095,32,14,61,010,29,31,55,192,31,11,25,292,26*7A
$GPGSV,3,2,11,25,21,096,22,18,20,115,19,01,19,315,31,32,15,307,24*7E
$GPGSV,3,3,11,12,11,056,31,19,05,254,16,51,49,195,31*44
$GPRMC,181859.000,A,3352.5455,N,09832.8737,W,28.04,4.24,030412,,,D*40
$GPGGA,181900.000,3352.5532,N,09832.8728,W,2,09,1.1,299.8,M,-23.7,M,4.8,0000*45
$GPGSA,A,3,11,31,22,12,01,25,14,18,32,,,,1.8,1.1,1.4*34
$GPRMC,181900.000,A,3352.5532,N,09832.8728,W,28.03,5.51,030412,,,D*47
$GPGGA,181901.000,3352.5609,N,09832.8719,W,2,09,1.1,299.9,M,-23.7,M,5.8,0000*4D
$GPGSA,A,3,11,31,22,12,01,25,14,18,32,,,,1.8,1.1,1.4*34
$GPRMC,181901.000,A,3352.5609,N,09832.8719,W,27.75,6.29,030412,,,D*4D
$GPGGA,181902.000,3352.5685,N,09832.8708,W,2,09,1.1,299.6,M,-23.7,M,6.8,0000*46
$GPGSA,A,3,11,31,22,12,01,25,14,18,32,,,,1.8,1.1,1.4*34
$GPRMC,181902.000,A,3352.5685,N,09832.8708,W,27.43,6.63,030412,,,D*41
$GPGGA,181903.000,3352.5759,N,09832.8698,W,2,09,1.1,299.4,M,-23.7,M,7.8,0000*4C
$GPGSA,A,3,11,31,22,12,01,25,14,18,32,,,,1.8,1.1,1.4*34
$GPRMC,181903.000,A,3352.5759,N,09832.8698,W,26.74,6.73,030412,,,D*4C
$GPGGA,181904.000,3352.5832,N,09832.8687,W,2,09,1.1,299.3,M,-23.7,M,8.8,0000*4F
$GPGSA,A,3,11,31,22,12,01,25,14,18,32,,,,1.8,1.1,1.4*34
$GPGSV,3,1,10,22,62,095,28,14,61,010,32,31,55,192,31,11,25,292,25*79
$GPGSV,3,2,10,25,21,096,29,18,20,115,20,01,19,315,32,32,15,307,29*70
$GPGSV,3,3,10,12,11,056,32,19,05,254,16*70
$GPRMC,181904.000,A,3352.5832,N,09832.8687,W,26.35,6.67,030412,,,D*47
$GPGGA,181905.000,3352.5905,N,09832.8677,W,2,09,1.1,299.2,M,-23.7,M,9.8,0000*44
$GPGSA,A,3,11,31,22,12,01,25,14,18,32,,,,1.8,1.1,1.4*34
$GPRMC,181905.000,A,3352.5905,N,09832.8677,W,26.07,6.69,030412,,,D*43
$GPGGA,181906.000,3352.5975,N,09832.8667,W,2,09,1.1,298.9,M,-23.7,M,10.8,0000*73
$GPGSA,A,3,11,31,22,12,01,25,14,18,32,,,,1.8,1.1,1.4*34
$GPRMC,181906.000,A,3352.5975,N,09832.8667,W,25.45,6.66,030412,,,D*4C
$GPGGA,181907.000,3352.6044,N,09832.8658,W,2,09,1.1,298.8,M,-23.7,M,11.8,0000*76
$GPGSA,A,3,11,31,22,12,01,25,14,18,32,,,,1.8,1.1,1.4*34
$GPRMC,181907.000,A,3352.6044,N,09832.8658,W,24.62,5.96,030412,,,D*41
$GPGGA,181908.000,3352.6111,N,09832.8651,W,2,09,1.1,298.8,M,-23.7,M,12.8,0000*72
$GPGSA,A,3,11,31,22,12,01,25,14,18,32,,,,1.8,1.1,1.4*34
$GPRMC,181908.000,A,3352.6111,N,09832.8651,W,24.27,4.46,030412,,,D*4B
$GPGGA,181909.000,3352.6178,N,09832.8644,W,2,09,1.1,299.0,M,-23.7,M,13.8,0000*70
$GPGSA,A,3,11,31,22,12,01,25,14,18,32,,,,1.8,1.1,1.4*34
$GPGSV,3,1,11,22,62,095,28,14,61,010,28,31,55,192,31,11,25,292,26*70
$GPGSV,3,2,11,25,21,096,21,18,20,115,20,01,19,315,32,32,15,307,22*72
$GPGSV,3,3,11,12,11,056,32,19,05,254,15,51,49,195,32*47
$GPRMC,181909.000,A,3352.6178,N,09832.8644,W,23.85,4.55,030412,,,D*4C
$GPGGA,181910.000,3352.6245,N,09832.8637,W,2,09,1.1,299.0,M,-23.7,M,14.8,0000*76
$GPGSA,A,3,11,31,22,12,01,25,14,18,32,,,,1.8,1.1,1.4*34
$GPRMC,181910.000,A,3352.6245,N,09832.8637,W,24.40,4.34,030412,,,D*44
$GPGGA,181911.000,3352.6313,N,09832.8631,W,2,09,1.1,299.1,M,-23.7,M,15.8,0000*73
$GPGSA,A,3,11,31,22,12,01,25,14,18,32,,,,1.8,1.1,1.4*34
$GPRMC,181911.000,A,3352.6313,N,09832.8631,W,24.72,3.78,030412,,,D*4F
$GPGGA,181912.000,3352.6382,N,09832.8625,W,2,09,1.1,299.4,M,-23.7,M,16.8,0000*7B
$GPGSA,A,3,11,31,22,12,01,25,14,18,32,,,,1.8,1.1,1.4*34
$GPRMC,181912.000,A,3352.6382,N,09832.8625,W,24.86,3.44,030412,,,D*45
$GPGGA,181913.000,3352.6450,N,09832.8619,W,2,09,1.1,299.7,M,-23.7,M,17.8,0000*7F
$GPGSA,A,3,11,31,22,12,01,25,14,18,32,,,,1.8,1.1,1.4*34
$GPRMC,181913.000,A,3352.6450,N,09832.8619,W,24.31,3.89,030412,,,D*4E
$GPGGA,181914.000,3352.6511,N,09832.8613,W,2,09,1.1,299.7,M,-23.7,M,18.8,0000*79
$GPGSA,A,3,11,31,22,12,01,25,14,18,32,,,,1.8,1.1,1.4*34
$GPGSV,3,1,11,22,62,095,29,14,61,010,27,31,55,192,31,11,25,292,26*7E
$GPGSV,3,2,11,25,21,096,23,18,20,115,22,01,19,315,31,32,15,307,25*76
$GPGSV,3,3,11,12,11,056,33,19,05,254,21,51,49,195,29*4B
$GPRMC,181914.000,A,3352.6511,N,09832.8613,W,21.50,4.44,030412,,,D*43
$GPGGA,181915.000,3352.6565,N,09832.8609,W,2,09,1.1,299.7,M,-23.7,M,1.8,0000*48
$GPGSA,A,3,11,31,22,12,01,25,14,18,32,,,,1.8,1.1,1.4*34
$GPRMC,181915.000,A,3352.6565,N,09832.8609,W,19.15,4.34,030412,,,D*47
$GPGGA,181916.000,3352.6612,N,09832.8605,W,2,08,1.1,299.5,M,-23.7,M,2.8,0000*44
$GPGSA,A,3,11,31,12,01,25,14,18,32,,,,,2.0,1.1,1.7*3C
$GPRMC,181916.000,A,3352.6612,N,09832.8605,W,17.06,4.14,030412,,,D*45
$GPGGA,181917.000,3352.6653,N,09832.8602,W,2,09,1.1,299.6,M,-23.7,M,3.8,0000*44
$GPGSA,A,3,11,31,22,12,01,25,14,18,32,,,,1.8,1.1,1.4*34
$GPRMC,181917.000,A,3352.6653,N,09832.8602,W,14.38,3.59,030412,,,D*46
$GPGGA,181918.000,3352.6688,N,09832.8601,W,2,09,1.1,299.4,M,-23.7,M,4.8,0000*4B
$GPGSA,A,3,11,31,22,12,01,25,14,18,32,,,,1.8,1.1,1.4*34
$GPRMC,181918.000,A,3352.6688,N,09832.8601,W,12.86,2.78,030412,,,D*4D
$GPGGA,181919.000,3352.6717,N,09832.8600,W,2,09,1.1,299.3,M,-23.7,M,5.8,0000*4A
$GPGSA,A,3,11,31,22,12,01,25,14,18,32,,,,1.8,1.1,1.4*34
$GPGSV,3,1,11,22,62,095,32,14,61,010,29,31,55,192,30,11,25,292,32*7E
$GPGSV,3,2,11,25,21,096,23,18,20,115,23,01,19,315,26,32,15,307,14*73
$GPGSV,3,3,11,12,11,056,33,19,05,254,21,51,49,195,33*40
$GPRMC,181919.000,A,3352.6717,N,09832.8600,W,10.30,2.31,030412,,,D*48
$GPGGA,181920.000,3352.6739,N,09832.8600,W,2,09,1.1,299.0,M,-23.7,M,6.8,0000*4C
$GPGSA,A,3,11,31,22,12,01,25,14,18,32,,,,1.8,1.1,1.4*34
$GPRMC,181920.000,A,3352.6739,N,09832.8600,W,7.69,3.17,030412,,,D*71
$GPGGA,181921.000,3352.6754,N,09832.8600,W,2,09,1.1,298.8,M,-23.7,M,7.8,0000*4E
$GPGSA,A,3,11,31,22,12,01,25,14,18,32,,,,1.8,1.1,1.4*34
$GPRMC,181921.000,A,3352.6754,N,09832.8600,W,5.10,3.26,030412,,,D*75
$GPGGA,181922.000,3352.6762,N,09832.8600,W,2,09,1.1,298.4,M,-23.7,M,8.8,0000*4B
$GPGSA,A,3,11,31,22,12,01,25,14,18,32,,,,1.8,1.1,1.4*34
$GPRMC,181922.000,A,3352.6762,N,09832.8600,W,3.00,2.50,030412,,,D*74
$GPGGA,181923.000,3352.6764,N,09832.8598,W,2,09,1.1,297.3,M,-23.7,M,9.8,0000*47
$GPGSA,A,3,11,31,22,12,01,25,14,18,32,,,,1.8,1.1,1.4*34
$GPRMC,181923.000,A,3352.6764,N,09832.8598,W,1.29,15.23,030412,,,D*4A
$GPGGA,181924.000,3352.6761,N,09832.8598,W,2,09,1.1,296.5,M,-23.7,M,,0000*6D
$GPGSA,A,3,11,31,22,12,01,25,14,18,32,,,,1.8,1.1,1.4*34
$GPGSV,3,1,11,22,62,095,33,14,61,010,27,31,55,192,30,11,25,292,32*71
$GPGSV,3,2,11,25,21,096,24,18,20,115,23,01,19,315,26,32,15,307,18*78
$GPGSV,3,3,11,12,11,056,23,19,05,254,12,51,49,195,34*46
$GPRMC,181924.000,A,3352.6761,N,09832.8598,W,0.15,187.28,030412,,,D*77
$GPGGA,181925.000,3352.6757,N,09832.8597,W,2,08,1.2,295.2,M,-23.7,M,,0000*60
$GPGSA,A,3,11,31,22,12,01,25,14,18,,,,,1.9,1.2,1.5*36
$GPRMC,181925.000,A,3352.6757,N,09832.8597,W,0.39,196.89,030412,,,D*79
$GPGGA,181926.000,3352.6753,N,09832.8597,W,2,08,1.2,294.3,M,-23.7,M,,0000*67
$GPGSA,A,3,11,31,22,12,01,25,14,18,,,,,1.9,1.2,1.5*36
$GPRMC,181926.000,A,3352.6753,N,09832.8597,W,0.29,148.11,030412,,,D*7D
$GPGGA,181927.000,3352.6750,N,09832.8596,W,2,08,1.2,293.4,M,-23.7,M,1.8,0000*43
$GPGSA,A,3,11,31,22,12,01,25,14,18,,,,,1.9,1.2,1.5*36
$GPRMC,181927.000,A,3352.6750,N,09832.8596,W,0.37,105.55,030412,,,D*78
$GPGGA,181928.000,3352.6746,N,09832.8596,W,2,08,1.2,292.4,M,-23.7,M,2.8,0000*49
$GPGSA,A,3,11,31,22,12,01,25,14,18,,,,,1.9,1.2,1.5*36
$GPRMC,181928.000,A,3352.6746,N,09832.8596,W,0.28,142.62,030412,,,D*79
$GPGGA,181929.000,3352.6743,N,09832.8596,W,2,08,1.2,291.6,M,-23.7,M,3.8,0000*4D
$GPGSA,A,3,11,31,22,12,01,25,14,18,,,,,1.9,1.2,1.5*36
$GPGSV,3,1,11,22,62,095,32,14,61,010,28,31,55,192,29,11,25,292,31*74
$GPGSV,3,2,11,25,21,096,25,18,20,115,23,01,19,315,26,32,15,307,*70
$GPGSV,3,3,11,12,11,056,20,19,05,254,12,51,49,195,35*44
$GPRMC,181929.000,A,3352.6743,N,09832.8596,W,0.33,191.14,030412,,,D*78
$GPGGA,181930.000,3352.6739,N,09832.8596,W,2,08,1.2,290.6,M,-23.7,M,,0000*6C
$GPGSA,A,3,11,31,22,12,01,25,14,18,,,,,1.9,1.2,1.5*36
$GPRMC,181930.000,A,3352.6739,N,09832.8596,W,0.31,202.50,030412,,,D*76
$GPGGA,181931.000,3352.6736,N,09832.8596,W,2,08,1.2,289.7,M,-23.7,M,,0000*6B
$GPGSA,A,3,11,31,22,12,01,25,14,18,,,,,1.9,1.2,1.5*36
$GPRMC,181931.000,A,3352.6736,N,09832.8596,W,0.17,86.87,030412,,,D*48
$GPGGA,181932.000,3352.6735,N,09832.8595,W,2,08,1.2,288.8,M,-23.7,M,,0000*66
$GPGSA,A,3,11,31,22,12,01,25,14,18,,,,,1.9,1.2,1.5*36
$GPRMC,181932.000,A,3352.6735,N,09832.8595,W,0.63,17.98,030412,,,D*4E
$GPGGA,181933.000,3352.6737,N,09832.8597,W,2,07,1.5,288.9,M,-23.7,M,,0000*6E
$GPGSA,A,3,11,22,12,01,25,14,18,,,,,,2.1,1.5,1.5*38
$GPRMC,181933.000,A,3352.6737,N,09832.8597,W,1.05,343.55,030412,,,D*7D
$GPGGA,181934.000,3352.6744,N,09832.8599,W,2,07,1.5,289.3,M,-23.7,M,1.8,0000*4F
$GPGSA,A,3,11,22,12,01,25,14,18,,,,,,2.1,1.5,1.5*38
$GPGSV,3,1,11,22,62,095,32,14,61,010,28,31,55,192,,11,25,292,32*7C
$GPGSV,3,2,11,25,21,096,25,18,20,115,24,01,19,315,26,32,15,307,*77
$GPGSV,3,3,11,12,11,056,21,19,05,254,12,51,49,195,35*45
$GPRMC,181934.000,A,3352.6744,N,09832.8599,W,2.99,352.24,030412,,,D*70
$GPGGA,181935.000,3352.6756,N,09832.8601,W,2,08,1.2,289.2,M,-23.7,M,2.8,0000*45
$GPGSA,A,3,11,31,22,12,01,25,14,18,,,,,1.9,1.2,1.5*36
$GPRMC,181935.000,A,3352.6756,N,09832.8601,W,5.42,357.77,030412,,,D*72
$GPGGA,181936.000,3352.6779,N,09832.8601,W,2,09,1.1,289.4,M,-23.7,M,0.8,0000*4D
$GPGSA,A,3,11,31,22,12,01,25,14,18,32,,,,1.8,1.1,1.4*34
$GPRMC,181936.000,A,3352.6779,N,09832.8601,W,8.66,359.32,030412,,,D*78
$GPGGA,181937.000,3352.6808,N,09832.8600,W,2,09,1.1,289.1,M,-23.7,M,0.8,0000*41
$GPGSA,A,3,11,31,22,12,01,25,14,18,32,,,,1.8,1.1,1.4*34
$GPRMC,181937.000,A,3352.6808,N,09832.8600,W,10.52,359.95,030412,,,D*42
$GPGGA,181938.000,3352.6840,N,09832.8601,W,2,09,1.1,288.6,M,-23.7,M,0.8,0000*45
$GPGSA,A,3,11,31,22,12,01,25,14,18,32,,,,1.8,1.1,1.4*34
$GPRMC,181938.000,A,3352.6840,N,09832.8601,W,11.47,358.46,030412,,,D*4A
$GPGGA,181939.000,3352.6873,N,09832.8602,W,2,09,1.1,288.3,M,-23.7,M,0.8,0000*42
$GPGSA,A,3,11,31,22,12,01,25,14,18,32,,,,1.8,1.1,1.4*34
$GPGSV,3,1,11,22,62,095,33,14,61,010,32,31,55,192,30,11,25,292,28*7E
$GPGSV,3,2,11,25,21,096,26,18,20,115,25,01,19,315,29,32,15,307,30*79
$GPGSV,3,3,11,12,11,056,23,19,05,254,28,51,49,195,36*4D
$GPRMC,181939.000,A,3352.6873,N,09832.8602,W,13.08,358.30,030412,,,D*40
$GPGGA,181940.000,3352.6916,N,09832.8604,W,2,09,1.1,288.8,M,-23.7,M,1.8,0000*42
$GPGSA,A,3,11,31,22,12,01,25,14,18,32,,,,1.8,1.1,1.4*34
$GPRMC,181940.000,A,3352.6916,N,09832.8604,W,15.00,357.50,030412,,,D*4D
$GPGGA,181941.000,3352.6961,N,09832.8608,W,2,09,1.1,289.4,M,-23.7,M,2.8,0000*41
$GPGSA,A,3,11,31,22,12,01,25,14,18,32,,,,1.8,1.1,1.4*34
$GPRMC,181941.000,A,3352.6961,N,09832.8608,W,16.72,356.91,030412,,,D*4A
$GPGGA,181942.000,3352.7012,N,09832.8612,W,2,07,1.2,290.0,M,-23.7,M,0.8,0000*46
$GPGSA,A,3,11,31,22,12,25,14,18,,,,,,2.0,1.2,1.6*3E
$GPRMC,181942.000,A,3352.7012,N,09832.8612,W,18.29,356.72,030412,,,D*43
$GPGGA,181943.000,3352.7067,N,09832.8617,W,2,07,1.2,291.7,M,-23.7,M,0.8,0000*46
$GPGSA,A,3,31,22,12,25,14,18,32,,,,,,1.9,1.2,1.5*36
$GPRMC,181943.000,A,3352.7067,N,09832.8617,W,19.10,357.62,030412,,,D*4E
$GPGGA,181944.000,3352.7125,N,09832.8619,W,2,06,1.5,293.0,M,-23.7,M,0.8,0000*4B
$GPGSA,A,3,11,31,22,25,14,18,,,,,,,2.3,1.5,1.7*38
$GPGSV,3,1,11,22,62,095,35,14,61,010,27,31,55,192,31,11,25,292,14*72
$GPGSV,3,2,11,25,21,096,31,18,20,115,26,01,19,315,07,32,15,307,12*70
$GPGSV,3,3,11,12,11,056,15,19,05,254,15,51,49,195,36*46
$GPRMC,181944.000,A,3352.7125,N,09832.8619,W,19.98,358.18,030412,,,D*42
$GPGGA,181945.000,3352.7184,N,09832.8618,W,2,09,1.1,294.0,M,-23.7,M,1.8,0000*4D
$GPGSA,A,3,11,31,22,12,01,25,14,18,32,,,,1.8,1.1,1.4*34
$GPRMC,181945.000,A,3352.7184,N,09832.8618,W,20.85,358.78,030412,,,D*49
$GPGGA,181946.000,3352.7242,N,09832.8620,W,0,00,,294.4,M,-23.7,M,,0000*4A
$GPGSA,A,1,,,,,,,,,,,,,,,*1E
$GPRMC,181946.000,V,3352.7242,N,09832.8620,W,,,030412,,,N*6B
$GPGGA,181947.000,3352.7300,N,09832.8621,W,0,00,,294.7,M,-23.7,M,,0000*4E
$GPGSA,A,1,,,,,,,,,,,,,,,*1E
$GPRMC,181947.000,V,3352.7300,N,09832.8621,W,,,030412,,,N*6C
$GPGGA,181948.000,3352.7370,N,09832.8624,W,2,07,1.8,295.3,M,-23.7,M,4.8,0000*46
$GPGSA,A,3,11,31,22,12,01,25,32,,,,,,3.2,1.8,2.7*39
$GPRMC,181948.000,A,3352.7370,N,09832.8624,W,24.04,359.33,030412,,,D*41
$GPGGA,181949.000,3352.7442,N,09832.8637,W,2,08,1.3,296.5,M,-23.7,M,5.8,0000*43
$GPGSA,A,3,11,31,22,12,01,25,14,32,,,,,2.1,1.3,1.6*37
$GPGSV,3,1,10,22,62,095,29,14,61,010,37,31,55,192,25,11,25,292,36*7A
$GPGSV,3,2,10,25,21,096,20,18,20,115,,01,19,315,33,32,15,307,15*75
$GPGSV,3,3,10,12,11,056,26,19,05,254,10*73
$GPRMC,181949.000,A,3352.7442,N,09832.8637,W,24.93,356.88,030412,,,D*45
$GPGGA,181950.000,3352.7516,N,09832.8644,W,2,08,1.3,297.0,M,-23.7,M,6.8,0000*48
$GPGSA,A,3,11,31,22,12,01,25,14,32,,,,,2.1,1.3,1.6*37
$GPRMC,181950.000,A,3352.7516,N,09832.8644,W,24.60,355.65,030412,,,D*45
$GPGGA,181951.000,3352.7586,N,09832.8654,W,2,09,1.1,297.9,M,-23.7,M,7.8,0000*4A
$GPGSA,A,3,11,31,22,12,01,25,14,18,32,,,,1.8,1.1,1.4*34
$GPRMC,181951.000,A,3352.7586,N,09832.8654,W,25.08,353.35,030412,,,D*40
$GPGGA,181952.000,3352.7656,N,09832.8667,W,2,09,1.1,298.4,M,-23.7,M,8.8,0000*4A
$GPGSA,A,3,11,31,22,12,01,25,14,18,32,,,,1.8,1.1,1.4*34
$GPRMC,181952.000,A,3352.7656,N,09832.8667,W,25.13,351.08,030412,,,D*4B
$GPGGA,181953.000,3352.7726,N,09832.8681,W,2,09,1.1,299.1,M,-23.7,M,9.8,0000*40
$GPGSA,A,3,11,31,22,12,01,25,14,18,32,,,,1.8,1.1,1.4*34
$GPRMC,181953.000,A,3352.7726,N,09832.8681,W,25.71,349.69,030412,,,D*4E
$GPGGA,181954.000,3352.7797,N,09832.8698,W,2,09,1.1,299.6,M,-23.7,M,0.8,0000*4B
$GPGSA,A,3,11,31,22,12,01,25,14,18,32,,,,1.8,1.1,1.4*34
$GPGSV,3,1,11,22,62,095,33,14,61,010,37,31,55,192,29,11,25,292,37*7D
$GPGSV,3,2,11,25,21,096,32,18,20,115,32,01,19,315,33,32,15,307,33*72
$GPGSV,3,3,11,12,11,056,27,19,05,254,23,51,49,195,36*42
$GPRMC,181954.000,A,3352.7797,N,09832.8698,W,25.82,347.71,030412,,,D*40
$GPGGA,181955.000,3352.7871,N,09832.8717,W,2,09,1.1,299.7,M,-23.7,M,0.8,0000*4A
$GPGSA,A,3,11,31,22,12,01,25,14,18,32,,,,1.8,1.1,1.4*34
$GPRMC,181955.000,A,3352.7871,N,09832.8717,W,26.65,346.71,030412,,,D*4B
$GPGGA,181956.000,3352.7947,N,09832.8740,W,2,09,1.1,300.1,M,-23.7,M,0.8,0000*48
$GPGSA,A,3,11,31,22,12,01,25,14,18,32,,,,1.8,1.1,1.4*34
$GPRMC,181956.000,A,3352.7947,N,09832.8740,W,27.41,344.95,030412,,,D*41
$GPGGA,181957.000,3352.8023,N,09832.8765,W,2,09,1.1,300.5,M,-23.7,M,0.8,0000*4E
$GPGSA,A,3,11,31,22,12,01,25,14,18,32,,,,1.8,1.1,1.4*34
$GPRMC,181957.000,A,3352.8023,N,09832.8765,W,28.15,343.66,030412,,,D*46
$GPGGA,181958.000,3352.8100,N,09832.8792,W,2,09,1.1,300.8,M,-23.7,M,1.8,0000*45
$GPGSA,A,3,11,31,22,12,01,25,14,18,32,,,,1.8,1.1,1.4*34
$GPRMC,181958.000,A,3352.8100,N,09832.8792,W,28.20,342.36,030412,,,D*43
$GPGGA,181959.000,3352.8177,N,09832.8821,W,2,09,1.1,301.1,M,-23.7,M,2.8,0000*48
$GPGSA,A,3,11,31,22,12,01,25,14,18,32,,,,1.8,1.1,1.4*34
$GPGSV,3,1,11,22,62,095,28,14,61,010,34,31,55,192,36,11,25,292,33*7E
$GPGSV,3,2,11,25,21,096,29,18,20,115,29,01,19,315,26,32,15,307,33*76
$GPGSV,3,3,11,12,11,056,25,19,05,254,22,51,49,195,31*46
$GPRMC,181959.000,A,3352.8177,N,09832.8821,W,28.75,341.75,030412,,,D*41
$GPGGA,182000.000,3352.8254,N,09832.8853,W,2,09,1.1,301.2,M,-23.7,M,0.8,0000*48
$GPGSA,A,3,11,31,22,12,01,25,14,18,32,,,,1.8,1.1,1.4*34
$GPRMC,182000.000,A,3352.8254,N,09832.8853,W,29.21,340.80,030412,,,D*4B
$GPGGA,182001.000,3352.8331,N,09832.8887,W,2,08,1.3,301.4,M,-23.7,M,0.8,0000*47
$GPGSA,A,3,11,31,22,12,01,25,14,32,,,,,2.1,1.3,1.6*37
$GPRMC,182001.000,A,3352.8331,N,09832.8887,W,29.09,338.87,030412,,,D*43
$GPGGA,182002.000,3352.8407,N,09832.8923,W,2,09,1.1,301.5,M,-23.7,M,0.8,0000*4B
$GPGSA,A,3,11,31,22,12,01,25,14,18,32,,,,1.8,1.1,1.4*34
$GPRMC,182002.000,A,3352.8407,N,09832.8923,W,29.19,337.63,030412,,,D*49
$GPGGA,182003.000,3352.8482,N,09832.8963,W,2,09,1.1,301.2,M,-23.7,M,1.8,0000*45
$GPGSA,A,3,11,31,22,12,01,25,14,18,32,,,,1.8,1.1,1.4*34
$GPRMC,182003.000,A,3352.8482,N,09832.8963,W,29.18,336.09,030412,,,D*4D
$GPGGA,182004.000,3352.8558,N,09832.9003,W,2,09,1.1,301.3,M,-23.7,M,2.8,0000*48
$GPGSA,A,3,11,31,22,12,01,25,14,18,32,,,,1.8,1.1,1.4*34
$GPGSV,3,1,11,22,62,095,33,14,61,010,35,31,55,192,25,11,25,292,25*70
$GPGSV,3,2,11,25,21,096,29,18,20,115,26,01,19,315,19,32,15,307,33*75
$GPGSV,3,3,11,12,11,056,25,19,05,254,11,51,49,195,28*4E
$GPRMC,182004.000,A,3352.8558,N,09832.9003,W,29.40,335.17,030412,,,D*43
$GPGGA,182005.000,3352.8633,N,09832.9046,W,2,08,1.4,301.3,M,-23.7,M,3.8,0000*43
$GPGSA,A,3,11,22,12,01,25,14,18,32,,,,,2.0,1.4,1.5*39
$GPRMC,182005.000,A,3352.8633,N,09832.9046,W,29.75,333.92,030412,,,D*40
$GPGGA,182006.000,3352.8707,N,09832.9089,W,2,08,1.4,301.1,M,-23.7,M,0.8,0000*44
$GPGSA,A,3,11,22,12,01,25,14,18,32,,,,,2.0,1.4,1.5*39
$GPRMC,182006.000,A,3352.8707,N,09832.9089,W,29.66,333.39,030412,,,D*45
$GPGGA,182007.000,3352.8780,N,09832.9135,W,2,08,1.3,301.1,M,-23.7,M,0.8,0000*4B
$GPGSA,A,3,11,31,22,12,01,25,14,32,,,,,2.1,1.3,1.6*37
$GPRMC,182007.000,A,3352.8780,N,09832.9135,W,29.51,333.02,030412,,,D*41
$GPGGA,182008.000,3352.8852,N,09832.9181,W,2,09,1.1,301.1,M,-23.7,M,0.8,0000*48
$GPGSA,A,3,11,31,22,12,01,25,14,18,32,,,,1.8,1.1,1.4*34
$GPRMC,182008.000,A,3352.8852,N,09832.9181,W,29.22,332.95,030412,,,D*4A
$GPGGA,182009.000,3352.8924,N,09832.9226,W,2,09,1.1,301.4,M,-23.7,M,0.8,0000*42
$GPGSA,A,3,11,31,22,12,01,25,14,18,32,,,,1.8,1.1,1.4*34
$GPGSV,3,1,11,22,62,095,34,14,61,010,35,31,55,192,34,11,25,292,26*74
$GPGSV,3,2,11,25,21,096,30,18,20,115,33,01,19,315,29,32,15,307,32*7B
$GPGSV,3,3,11,12,11,056,16,19,05,254,19,51,49,195,31*4E
$GPRMC,182009.000,A,3352.8924,N,09832.9226,W,29.19,333.30,030412,,,D*43
$GPGGA,182010.000,3352.8997,N,09832.9269,W,2,09,1.1,301.3,M,-23.7,M,0.8,0000*4E
$GPGSA,A,3,11,31,22,12,01,25,14,18,32,,,,1.8,1.1,1.4*34
$GPRMC,182010.000,A,3352.8997,N,09832.9269,W,29.01,333.98,030412,,,D*43
$GPGGA,182011.000,3352.9066,N,09832.9315,W,2,09,1.1,301.8,M,-23.7,M,1.8,0000*49
$GPGSA,A,3,11,31,22,12,01,25,14,18,32,,,,1.8,1.1,1.4*34
$GPRMC,182011.000,A,3352.9066,N,09832.9315,W,28.67,333.48,030412,,,D*42
$GPGGA,182012.000,3352.9138,N,09832.9358,W,2,09,1.1,301.6,M,-23.7,M,0.8,0000*46
$GPGSA,A,3,11,31,22,12,01,25,14,18,32,,,,1.8,1.1,1.4*34
$GPRMC,182012.000,A,3352.9138,N,09832.9358,W,28.45,333.86,030412,,,D*40
$GPGGA,182013.000,3352.9207,N,09832.9401,W,2,09,1.1,302.0,M,-23.7,M,0.8,0000*46
$GPGSA,A,3,11,31,22,12,01,25,14,18,32,,,,1.8,1.1,1.4*34
$GPRMC,182013.000,A,3352.9207,N,09832.9401,W,28.12,333.47,030412,,,D*4A
$GPGGA,182014.000,3352.9272,N,09832.9443,W,2,09,1.1,301.9,M,-23.7,M,1.8,0000*4E
$GPGSA,A,3,11,31,22,12,01,25,14,18,32,,,,1.8,1.1,1.4*34
$GPGSV,3,1,11,22,62,095,35,14,61,010,36,31,55,192,32,11,25,292,26*70
$GPGSV,3,2,11,25,21,096,22,18,20,115,32,01,19,315,26,32,15,307,25*70
$GPGSV,3,3,11,12,11,056,15,19,05,254,08,51,49,195,27*4A
$GPRMC,182014.000,A,3352.9272,N,09832.9443,W,25.53,333.30,030412,,,D*41
$GPGGA,182015.000,3352.9330,N,09832.9480,W,2,09,1.1,302.1,M,-23.7,M,2.8,0000*4F
$GPGSA,A,3,11,31,22,12,01,25,14,18,32,,,,1.8,1.1,1.4*34
$GPRMC,182015.000,A,3352.9330,N,09832.9480,W,22.89,333.04,030412,,,D*4F
$GPGGA,182016.000,3352.9381,N,09832.9516,W,2,09,1.1,302.7,M,-23.7,M,3.8,0000*4F
$GPGSA,A,3,11,31,22,12,01,25,14,18,32,,,,1.8,1.1,1.4*34
$GPRMC,182016.000,A,3352.9381,N,09832.9516,W,21.18,332.95,030412,,,D*4A
$GPGGA,182017.000,3352.9433,N,09832.9548,W,2,09,1.1,302.8,M,-23.7,M,4.8,0000*43
$GPGSA,A,3,11,31,22,12,01,25,14,18,32,,,,1.8,1.1,1.4*34
$GPRMC,182017.000,A,3352.9433,N,09832.9548,W,20.74,333.49,030412,,,D*45
$GPGGA,182018.000,3352.9486,N,09832.9577,W,2,09,1.1,302.9,M,-23.7,M,0.8,0000*4B
$GPGSA,A,3,11,31,22,12,01,25,14,18,32,,,,1.8,1.1,1.4*34
$GPRMC,182018.000,A,3352.9486,N,09832.9577,W,21.37,335.68,030412,,,D*4B
$GPGGA,182019.000,3352.9543,N,09832.9608,W,2,08,1.4,303.1,M,-23.7,M,1.8,0000*45
$GPGSA,A,3,11,22,12,01,25,14,18,32,,,,,2.0,1.4,1.5*39
$GPGSV,3,1,11,22,62,095,34,14,61,010,36,31,55,192,,11,25,292,27*71
$GPGSV,3,2,11,25,21,096,26,18,20,115,29,01,19,315,23,32,15,307,27*79
$GPGSV,3,3,11,12,11,056,24,19,05,254,,51,49,195,30*46
$GPRMC,182019.000,A,3352.9543,N,09832.9608,W,22.86,334.37,030412,,,D*4B
$GPGGA,182020.000,3352.9602,N,09832.9644,W,2,08,1.4,303.4,M,-23.7,M,0.8,0000*45
$GPGSA,A,3,11,22,12,01,25,14,18,32,,,,,2.0,1.4,1.5*39
$GPRMC,182020.000,A,3352.9602,N,09832.9644,W,24.45,332.20,030412,,,D*46
$GPGGA,182021.000,3352.9666,N,09832.9682,W,2,09,1.1,303.4,M,-23.7,M,1.8,0000*49
$GPGSA,A,3,11,22,12,01,25,14,31,18,32,,,,1.8,1.1,1.4*34
$GPRMC,182021.000,A,3352.9666,N,09832.9682,W,26.12,333.94,030412,,,D*41
$GPGGA,182022.000,3352.9733,N,09832.9721,W,2,09,1.1,303.6,M,-23.7,M,2.8,0000*42
$GPGSA,A,3,11,22,12,01,25,14,31,18,32,,,,1.8,1.1,1.4*34
