$GPGGA,012636.000,3353.7529,N,09832.0199,W,2,08,1.6,328.9,M,-23.7,M,0.8,0000*41
$GPGSA,A,3,23,11,19,07,13,03,06,16,,,,,2.6,1.6,2.0*3D
$GPRMC,012636.000,A,3353.7529,N,09832.0199,W,0.07,117.17,300312,,,D*72
$GPGGA,012637.000,3353.7529,N,09832.0207,W,2,08,1.6,326.9,M,-23.7,M,0.8,0000*4A
$GPGSA,A,3,23,11,19,07,13,03,06,16,,,,,2.6,1.6,2.0*3D
$GPRMC,012637.000,A,3353.7529,N,09832.0207,W,0.13,162.25,300312,,,D*71
$GPGGA,012638.000,3353.7529,N,09832.0207,W,2,08,1.6,326.9,M,-23.7,M,1.8,0000*44
$GPGSA,A,3,23,11,19,07,13,03,06,16,,,,,2.6,1.6,2.0*3D
$GPGSV,3,1,12,13,74,203,37,07,56,334,38,19,55,109,27,23,44,167,38*78
$GPGSV,3,2,12,03,39,055,41,06,26,048,30,08,25,304,,10,16,263,*73
$GPGSV,3,3,12,16,14,050,25,28,13,244,,11,13,147,24,05,02,314,*77
$GPRMC,012638.000,A,3353.7529,N,09832.0207,W,0.09,150.22,300312,,,D*73
$GPGGA,012639.000,3353.7530,N,09832.0217,W,2,08,1.6,324.2,M,-23.7,M,0.8,0000*44
$GPGSA,A,3,23,11,19,07,13,03,06,16,,,,,2.6,1.6,2.0*3D
$GPRMC,012639.000,A,3353.7530,N,09832.0217,W,0.07,248.90,300312,,,D*76
$GPGGA,012640.000,3353.7530,N,09832.0225,W,2,08,1.6,322.3,M,-23.7,M,0.8,0000*4C
$GPGSA,A,3,23,11,19,07,13,03,06,16,,,,,2.6,1.6,2.0*3D
$GPRMC,012640.000,A,3353.7530,N,09832.0225,W,0.09,265.57,300312,,,D*73
$GPGGA,012641.000,3353.7531,N,09832.0232,W,2,08,1.6,320.6,M,-23.7,M,0.8,0000*4D
$GPGSA,A,3,23,11,19,07,13,03,06,16,,,,,2.6,1.6,2.0*3D
$GPRMC,012641.000,A,3353.7531,N,09832.0232,W,0.08,237.74,300312,,,D*72
$GPGGA,012642.000,3353.7531,N,09832.0238,W,2,08,1.6,319.1,M,-23.7,M,1.8,0000*48
$GPGSA,A,3,23,11,19,07,13,03,06,16,,,,,2.6,1.6,2.0*3D
$GPRMC,012642.000,A,3353.7531,N,09832.0238,W,0.06,277.34,300312,,,D*75
$GPGGA,012643.000,3353.7531,N,09832.0244,W,2,08,1.6,317.6,M,-23.7,M,2.8,0000*48
$GPGSA,A,3,23,11,19,07,13,03,06,16,,,,,2.6,1.6,2.0*3D
$GPGSV,3,1,12,13,74,203,37,07,56,334,38,19,55,109,28,23,44,167,38*77
$GPGSV,3,2,12,03,39,055,41,06,26,048,30,08,25,304,,10,16,263,*73
$GPGSV,3,3,12,16,14,050,25,28,13,244,,11,13,147,25,05,02,314,*76
$GPRMC,012643.000,A,3353.7531,N,09832.0244,W,0.07,266.87,300312,,,D*76
$GPGGA,012644.000,3353.7532,N,09832.0250,W,2,08,1.6,316.1,M,-23.7,M,3.8,0000*4E
$GPGSA,A,3,23,11,19,07,13,03,06,16,,,,,2.6,1.6,2.0*3D
$GPRMC,012644.000,A,3353.7532,N,09832.0250,W,0.07,278.57,300312,,,D*75
$GPGGA,012645.000,3353.7532,N,09832.0255,W,2,08,1.6,314.8,M,-23.7,M,0.8,0000*42
$GPGSA,A,3,23,11,19,07,13,03,06,16,,,,,2.6,1.6,2.0*3D
$GPRMC,012645.000,A,3353.7532,N,09832.0255,W,0.09,235.92,300312,,,D*7F
$GPGGA,012646.000,3353.7532,N,09832.0259,W,2,08,1.6,313.5,M,-23.7,M,0.8,0000*47
$GPGSA,A,3,23,11,19,07,13,03,06,16,,,,,2.6,1.6,2.0*3D
$GPRMC,012646.000,A,3353.7532,N,09832.0259,W,0.08,234.62,300312,,,D*7F
$GPGGA,012647.000,3353.7532,N,09832.0264,W,2,08,1.6,312.1,M,-23.7,M,0.8,0000*4D
$GPGSA,A,3,23,11,19,07,13,03,06,16,,,,,2.6,1.6,2.0*3D
$GPRMC,012647.000,A,3353.7532,N,09832.0264,W,0.11,251.92,300312,,,D*74
$GPGGA,012648.000,3353.7532,N,09832.0268,W,2,08,1.6,310.8,M,-23.7,M,1.8,0000*44
$GPGSA,A,3,23,11,19,07,13,03,06,16,,,,,2.6,1.6,2.0*3D
$GPGSV,3,1,12,13,74,203,36,07,56,334,38,19,55,109,29,23,44,167,38*77
$GPGSV,3,2,12,03,39,055,41,06,26,048,30,08,25,304,20,10,16,263,*71
$GPGSV,3,3,12,16,14,050,25,28,13,244,,11,13,147,25,05,02,314,*76
$GPRMC,012648.000,A,3353.7532,N,09832.0268,W,0.10,265.37,300312,,,D*7E
$GPGGA,012649.000,3353.7533,N,09832.0272,W,2,08,1.6,309.5,M,-23.7,M,0.8,0000*4B
$GPGSA,A,3,23,11,19,07,13,03,06,16,,,,,2.6,1.6,2.0*3D
$GPRMC,012649.000,A,3353.7533,N,09832.0272,W,0.14,261.86,300312,,,D*7F
$GPGGA,012650.000,3353.7533,N,09832.0276,W,2,08,1.6,308.4,M,-23.7,M,1.8,0000*46
$GPGSA,A,3,23,11,19,07,13,03,06,16,,,,,2.6,1.6,2.0*3D
$GPRMC,012650.000,A,3353.7533,N,09832.0276,W,0.10,258.29,300312,,,D*78
$GPGGA,012651.000,3353.7533,N,09832.0279,W,2,08,1.6,307.3,M,-23.7,M,0.8,0000*41
$GPGSA,A,3,23,11,19,07,13,03,06,16,,,,,2.6,1.6,2.0*3D
$GPRMC,012651.000,A,3353.7533,N,09832.0279,W,0.15,288.11,300312,,,D*75
$GPGGA,012652.000,3353.7533,N,09832.0282,W,2,08,1.6,306.4,M,-23.7,M,0.8,0000*40
$GPGSA,A,3,23,11,19,07,13,03,06,16,,,,,2.6,1.6,2.0*3D
$GPRMC,012652.000,A,3353.7533,N,09832.0282,W,0.14,291.10,300312,,,D*7A
$GPGGA,012653.000,3353.7533,N,09832.0285,W,2,08,1.6,305.6,M,-23.7,M,0.8,0000*47
$GPGSA,A,3,23,11,19,07,13,03,06,16,,,,,2.6,1.6,2.0*3D
$GPGSV,3,1,12,13,74,203,36,07,56,334,38,19,55,109,30,23,44,167,39*7E
$GPGSV,3,2,12,03,39,055,41,06,26,048,30,08,25,304,21,10,16,263,*70
$GPGSV,3,3,12,16,14,050,25,28,13,244,,11,13,147,25,05,02,314,*76
$GPRMC,012653.000,A,3353.7533,N,09832.0285,W,0.01,204.70,300312,,,D*72
$GPGGA,012654.000,3353.7533,N,09832.0287,W,2,08,1.6,305.0,M,-23.7,M,1.8,0000*45
$GPGSA,A,3,23,11,19,07,13,03,06,16,,,,,2.6,1.6,2.0*3D
$GPRMC,012654.000,A,3353.7533,N,09832.0287,W,0.08,273.93,300312,,,D*73
$GPGGA,012655.000,3353.7533,N,09832.0289,W,2,08,1.6,304.5,M,-23.7,M,2.8,0000*4D
$GPGSA,A,3,23,11,19,07,13,03,06,16,,,,,2.6,1.6,2.0*3D
$GPRMC,012655.000,A,3353.7533,N,09832.0289,W,0.02,168.99,300312,,,D*75
$GPGGA,012656.000,3353.7533,N,09832.0290,W,2,08,1.6,304.0,M,-23.7,M,3.8,0000*42
$GPGSA,A,3,23,11,19,07,13,03,06,16,,,,,2.6,1.6,2.0*3D
$GPRMC,012656.000,A,3353.7533,N,09832.0290,W,0.01,126.89,300312,,,D*76
$GPGGA,012657.000,3353.7533,N,09832.0292,W,2,08,1.6,303.6,M,-23.7,M,0.8,0000*43
$GPGSA,A,3,23,11,19,07,13,03,06,16,,,,,2.6,1.6,2.0*3D
$GPRMC,012657.000,A,3353.7533,N,09832.0292,W,0.05,183.14,300312,,,D*7A
$GPGGA,012658.000,3353.7533,N,09832.0293,W,2,08,1.6,303.2,M,-23.7,M,0.8,0000*49
$GPGSA,A,3,23,11,19,07,13,03,06,16,,,,,2.6,1.6,2.0*3D
$GPGSV,3,1,12,13,74,203,37,07,56,334,38,19,55,109,30,23,44,167,39*7F
$GPGSV,3,2,12,03,39,055,41,06,26,048,29,08,25,304,20,10,16,263,*79
$GPGSV,3,3,12,16,14,050,25,28,13,244,,11,13,147,26,05,02,314,*75
$GPRMC,012658.000,A,3353.7533,N,09832.0293,W,0.14,133.78,300312,,,D*75
$GPGGA,012659.000,3353.7532,N,09832.0294,W,2,09,1.0,302.8,M,-23.7,M,0.8,0000*42
$GPGSA,A,3,23,11,19,07,13,03,06,16,28,,,,1.6,1.0,1.2*33
$GPRMC,012659.000,A,3353.7532,N,09832.0294,W,0.07,252.43,300312,,,D*7C
$GPGGA,012700.000,3353.7532,N,09832.0296,W,2,09,1.0,302.3,M,-23.7,M,1.8,0000*47
$GPGSA,A,3,23,11,19,07,13,03,06,16,28,,,,1.6,1.0,1.2*33
$GPRMC,012700.000,A,3353.7532,N,09832.0296,W,0.12,246.19,300312,,,D*7D
$GPGGA,012701.000,3353.7532,N,09832.0297,W,2,09,1.0,302.0,M,-23.7,M,0.8,0000*45
$GPGSA,A,3,23,11,19,07,13,03,06,16,28,,,,1.6,1.0,1.2*33
$GPRMC,012701.000,A,3353.7532,N,09832.0297,W,0.09,89.14,300312,,,D*4B
$GPGGA,012702.000,3353.7532,N,09832.0297,W,2,09,1.0,301.9,M,-23.7,M,1.8,0000*4D
$GPGSA,A,3,23,11,19,07,13,03,06,16,28,,,,1.6,1.0,1.2*33
$GPRMC,012702.000,A,3353.7532,N,09832.0297,W,0.16,102.60,300312,,,D*77
$GPGGA,012703.000,3353.7532,N,09832.0298,W,2,09,1.0,301.9,M,-23.7,M,0.8,0000*42
$GPGSA,A,3,23,11,19,07,13,03,06,16,28,,,,1.6,1.0,1.2*33
$GPGSV,3,1,12,13,74,203,37,07,56,334,38,19,55,109,30,23,44,167,40*71
$GPGSV,3,2,12,03,39,055,41,06,26,048,29,08,25,304,19,10,16,263,*73
$GPGSV,3,3,12,16,14,050,26,28,13,244,21,11,13,147,26,05,02,314,*75
$GPRMC,012703.000,A,3353.7532,N,09832.0298,W,0.12,76.71,300312,,,D*4F
$GPGGA,012704.000,3353.7532,N,09832.0299,W,2,09,1.0,301.6,M,-23.7,M,0.8,0000*4B
$GPGSA,A,3,23,11,19,07,13,03,06,16,28,,,,1.6,1.0,1.2*33
$GPRMC,012704.000,A,3353.7532,N,09832.0299,W,0.06,297.13,300312,,,D*75
$GPGGA,012705.000,3353.7532,N,09832.0299,W,2,09,1.0,301.6,M,-23.7,M,0.8,0000*4A
$GPGSA,A,3,23,11,19,07,13,03,06,16,28,,,,1.6,1.0,1.2*33
$GPRMC,012705.000,A,3353.7532,N,09832.0299,W,0.25,91.91,300312,,,D*4B
$GPGGA,012706.000,3353.7532,N,09832.0299,W,2,09,1.0,301.6,M,-23.7,M,0.8,0000*49
$GPGSA,A,3,23,11,19,07,13,03,06,16,28,,,,1.6,1.0,1.2*33
$GPRMC,012706.000,A,3353.7532,N,09832.0299,W,0.23,90.65,300312,,,D*44
$GPGGA,012707.000,3353.7532,N,09832.0299,W,2,09,1.0,301.5,M,-23.7,M,1.8,0000*4A
$GPGSA,A,3,23,11,19,07,13,03,06,16,28,,,,1.6,1.0,1.2*33
$GPRMC,012707.000,A,3353.7532,N,09832.0299,W,0.16,93.18,300312,,,D*4A
$GPGGA,012708.000,3353.7532,N,09832.0299,W,2,09,1.0,301.4,M,-23.7,M,2.8,0000*47
$GPGSA,A,3,23,11,19,07,13,03,06,16,28,,,,1.6,1.0,1.2*33
$GPGSV,3,1,12,13,74,203,37,07,56,334,38,19,55,109,30,23,44,167,40*71
$GPGSV,3,2,12,03,39,055,41,06,26,048,28,08,25,304,19,10,16,263,*72
$GPGSV,3,3,12,16,14,050,26,28,13,244,22,11,13,147,27,05,02,314,*77
$GPRMC,012708.000,A,3353.7532,N,09832.0299,W,0.13,91.13,300312,,,D*49
$GPGGA,012709.000,3353.7532,N,09832.0299,W,2,09,1.0,301.3,M,-23.7,M,0.8,0000*43
$GPGSA,A,3,23,11,19,07,13,03,06,16,28,,,,1.6,1.0,1.2*33
$GPRMC,012709.000,A,3353.7532,N,09832.0299,W,0.19,104.77,300312,,,D*7D
$GPGGA,012710.000,3353.7532,N,09832.0299,W,2,09,1.0,301.3,M,-23.7,M,0.8,0000*4B
$GPGSA,A,3,23,11,19,07,13,03,06,16,28,,,,1.6,1.0,1.2*33
$GPRMC,012710.000,A,3353.7532,N,09832.0299,W,0.22,99.51,300312,,,D*4C
$GPGGA,012711.000,3353.7532,N,09832.0299,W,2,09,1.0,301.3,M,-23.7,M,0.8,0000*4A
$GPGSA,A,3,23,11,19,07,13,03,06,16,28,,,,1.6,1.0,1.2*33
$GPRMC,012711.000,A,3353.7532,N,09832.0299,W,0.14,119.25,300312,,,D*72
$GPGGA,012712.000,3353.7531,N,09832.0300,W,2,09,1.0,301.2,M,-23.7,M,1.8,0000*4B
$GPGSA,A,3,23,11,19,07,13,03,06,16,28,,,,1.6,1.0,1.2*33
$GPRMC,012712.000,A,3353.7531,N,09832.0300,W,0.07,186.21,300312,,,D*73
$GPGGA,012713.000,3353.7531,N,09832.0301,W,2,09,1.0,301.1,M,-23.7,M,0.8,0000*49
$GPGSA,A,3,23,11,19,07,13,03,06,16,28,,,,1.6,1.0,1.2*33
$GPGSV,3,1,12,13,74,203,37,07,56,334,39,19,55,109,30,23,44,167,40*70
$GPGSV,3,2,12,03,39,055,41,06,26,048,27,08,25,304,19,10,16,263,*7D
$GPGSV,3,3,12,16,14,050,27,28,13,244,22,11,13,147,28,05,02,314,*79
$GPRMC,012713.000,A,3353.7531,N,09832.0301,W,0.07,213.88,300312,,,D*7F
$GPGGA,012714.000,3353.7531,N,09832.0301,W,2,09,1.0,301.1,M,-23.7,M,1.8,0000*4F
$GPGSA,A,3,23,11,19,07,13,03,06,16,28,,,,1.6,1.0,1.2*33
$GPRMC,012714.000,A,3353.7531,N,09832.0301,W,0.14,114.02,300312,,,D*7C
$GPGGA,012715.000,3353.7531,N,09832.0301,W,2,09,1.0,301.2,M,-23.7,M,0.8,0000*4C
$GPGSA,A,3,23,11,19,07,13,03,06,16,28,,,,1.6,1.0,1.2*33
$GPRMC,012715.000,A,3353.7531,N,09832.0301,W,0.11,95.72,300312,,,D*47
$GPGGA,012716.000,3353.7531,N,09832.0301,W,2,09,1.0,301.3,M,-23.7,M,0.8,0000*4E
$GPGSA,A,3,23,11,19,07,13,03,06,16,28,,,,1.6,1.0,1.2*33
$GPRMC,012716.000,A,3353.7531,N,09832.0301,W,0.12,94.02,300312,,,D*41
$GPGGA,012717.000,3353.7531,N,09832.0302,W,2,09,1.0,301.2,M,-23.7,M,0.8,0000*4D
$GPGSA,A,3,23,11,19,07,13,03,06,16,28,,,,1.6,1.0,1.2*33
$GPRMC,012717.000,A,3353.7531,N,09832.0302,W,0.11,89.37,300312,,,D*4A
$GPGGA,012718.000,3353.7531,N,09832.0302,W,2,09,1.0,301.1,M,-23.7,M,1.8,0000*40
$GPGSA,A,3,23,11,19,07,13,03,06,16,28,,,,1.6,1.0,1.2*33
$GPGSV,3,1,12,13,74,203,36,07,56,334,39,19,55,109,31,23,44,167,40*70
$GPGSV,3,2,12,03,39,055,41,06,26,048,27,08,25,304,20,10,16,263,*77
$GPGSV,3,3,12,16,14,050,27,28,13,244,22,11,13,147,28,05,02,314,*79
$GPRMC,012718.000,A,3353.7531,N,09832.0302,W,0.10,79.44,300312,,,D*4F
$GPGGA,012719.000,3353.7531,N,09832.0302,W,2,09,1.0,301.0,M,-23.7,M,2.8,0000*43
$GPGSA,A,3,23,11,19,07,13,03,06,16,28,,,,1.6,1.0,1.3*32
$GPRMC,012719.000,A,3353.7531,N,09832.0302,W,0.10,86.70,300312,,,D*49
$GPGGA,012720.000,3353.7531,N,09832.0302,W,2,09,1.0,300.9,M,-23.7,M,3.8,0000*40
$GPGSA,A,3,23,11,19,07,13,03,06,16,28,,,,1.6,1.0,1.3*32
$GPRMC,012720.000,A,3353.7531,N,09832.0302,W,0.14,87.14,300312,,,D*44
$GPGGA,012721.000,3353.7531,N,09832.0302,W,2,09,1.0,301.0,M,-23.7,M,0.8,0000*4A
$GPGSA,A,3,23,11,19,07,13,03,06,16,28,,,,1.6,1.0,1.3*32
$GPRMC,012721.000,A,3353.7531,N,09832.0302,W,0.16,98.06,300312,,,D*4A
$GPGGA,012722.000,3353.7531,N,09832.0302,W,2,09,1.0,301.0,M,-23.7,M,0.8,0000*49
$GPGSA,A,3,23,11,19,07,13,03,06,16,28,,,,1.6,1.0,1.3*32
$GPRMC,012722.000,A,3353.7531,N,09832.0302,W,0.21,96.96,300312,,,D*4A
$GPGGA,012723.000,3353.7531,N,09832.0302,W,2,09,1.0,301.1,M,-23.7,M,0.8,0000*49
$GPGSA,A,3,23,11,19,07,13,03,06,16,28,,,,1.6,1.0,1.3*32
$GPGSV,3,1,12,13,74,203,36,07,56,334,39,19,55,109,31,23,44,167,39*7E
$GPGSV,3,2,12,03,39,055,41,06,26,048,26,08,25,304,20,10,16,263,*76
$GPGSV,3,3,12,16,14,050,27,28,13,244,19,11,13,147,28,05,02,314,*71
$GPRMC,012723.000,A,3353.7531,N,09832.0302,W,0.11,119.80,300312,,,D*79
$GPGGA,012724.000,3353.7531,N,09832.0302,W,2,09,1.0,301.2,M,-23.7,M,0.8,0000*4D
$GPGSA,A,3,23,11,19,07,13,03,06,16,28,,,,1.6,1.0,1.3*32
$GPRMC,012724.000,A,3353.7531,N,09832.0302,W,0.08,128.81,300312,,,D*75
$GPGGA,012725.000,3353.7530,N,09832.0302,W,2,09,1.0,301.4,M,-23.7,M,0.8,0000*4B
$GPGSA,A,3,23,11,19,07,13,03,06,16,28,,,,1.6,1.0,1.3*32
$GPRMC,012725.000,A,3353.7530,N,09832.0302,W,0.18,109.62,300312,,,D*7A
$GPGGA,012726.000,3353.7530,N,09832.0302,W,2,09,1.0,301.6,M,-23.7,M,1.8,0000*4B
$GPGSA,A,3,23,11,19,07,13,03,06,16,28,,,,1.6,1.0,1.3*32
$GPRMC,012726.000,A,3353.7530,N,09832.0302,W,0.15,107.66,300312,,,D*7E
$GPGGA,012727.000,3353.7530,N,09832.0302,W,2,09,1.0,301.8,M,-23.7,M,0.8,0000*45
$GPGSA,A,3,23,11,19,07,13,03,06,16,28,,,,1.6,1.0,1.3*32
$GPRMC,012727.000,A,3353.7530,N,09832.0302,W,0.19,92.91,300312,,,D*46
$GPGGA,012728.000,3353.7530,N,09832.0302,W,2,09,1.0,301.9,M,-23.7,M,0.8,0000*4B
$GPGSA,A,3,23,11,19,07,13,03,06,16,28,,,,1.6,1.0,1.3*32
$GPGSV,3,1,12,13,74,203,35,07,56,334,39,19,55,109,31,23,44,167,39*7D
$GPGSV,3,2,12,03,39,055,41,06,26,048,26,08,25,304,20,10,16,263,*76
$GPGSV,3,3,12,16,14,050,27,28,13,244,17,11,13,147,28,05,02,314,*7F
$GPRMC,012728.000,A,3353.7530,N,09832.0302,W,0.08,94.80,300312,,,D*4F
$GPGGA,012729.000,3353.7530,N,09832.0302,W,2,09,1.0,301.9,M,-23.7,M,0.8,0000*4A
$GPGSA,A,3,23,11,19,07,13,03,06,16,28,,,,1.6,1.0,1.3*32
$GPRMC,012729.000,A,3353.7530,N,09832.0302,W,0.18,85.62,300312,,,D*43
$GPGGA,012730.000,3353.7530,N,09832.0302,W,2,09,1.0,301.9,M,-23.7,M,0.8,0000*42
$GPGSA,A,3,23,11,19,07,13,03,06,16,28,,,,1.6,1.0,1.3*32
$GPRMC,012730.000,A,3353.7530,N,09832.0302,W,0.14,84.66,300312,,,D*42
$GPGGA,012731.000,3353.7530,N,09832.0302,W,2,09,1.0,301.8,M,-23.7,M,1.8,0000*43
$GPGSA,A,3,23,11,19,07,13,03,06,16,28,,,,1.6,1.0,1.3*32
$GPRMC,012731.000,A,3353.7530,N,09832.0302,W,0.11,86.47,300312,,,D*47
$GPGGA,012732.000,3353.7531,N,09832.0303,W,2,09,1.0,301.8,M,-23.7,M,2.8,0000*43
$GPGSA,A,3,23,11,19,07,13,03,06,16,28,,,,1.6,1.0,1.3*32
$GPRMC,012732.000,A,3353.7531,N,09832.0303,W,0.13,78.96,300312,,,D*4B
$GPGGA,012733.000,3353.7530,N,09832.0302,W,2,09,1.0,302.0,M,-23.7,M,0.8,0000*4B
$GPGSA,A,3,23,11,19,07,13,03,06,16,28,,,,1.6,1.0,1.3*32
$GPGSV,3,1,12,13,74,203,35,07,56,334,39,19,55,109,32,23,44,167,39*7E
$GPGSV,3,2,12,03,39,055,40,06,26,048,26,08,25,304,20,10,16,263,*77
$GPGSV,3,3,12,16,14,050,27,28,13,244,16,11,13,147,29,05,02,314,*7F
$GPRMC,012733.000,A,3353.7530,N,09832.0302,W,0.33,94.86,300312,,,D*4B
$GPGGA,012734.000,3353.7530,N,09832.0301,W,2,09,1.0,302.2,M,-23.7,M,0.8,0000*4D
$GPGSA,A,3,23,11,19,07,13,03,06,16,28,,,,1.6,1.0,1.3*32
$GPRMC,012734.000,A,3353.7530,N,09832.0301,W,0.38,95.24,300312,,,D*4D
$GPGGA,012735.000,3353.7530,N,09832.0300,W,2,09,1.0,302.4,M,-23.7,M,0.8,0000*4B
$GPGSA,A,3,23,11,19,07,13,03,06,16,28,,,,1.6,1.0,1.3*32
$GPRMC,012735.000,A,3353.7530,N,09832.0300,W,0.28,100.71,300312,,,D*71
$GPGGA,012736.000,3353.7530,N,09832.0300,W,2,09,1.0,302.6,M,-23.7,M,1.8,0000*4B
$GPGSA,A,3,23,11,19,07,13,03,06,16,28,,,,1.6,1.0,1.3*32
$GPRMC,012736.000,A,3353.7530,N,09832.0300,W,0.19,109.49,300312,,,D*72
$GPGGA,012737.000,3353.7530,N,09832.0300,W,2,09,1.0,302.8,M,-23.7,M,2.8,0000*47
$GPGSA,A,3,23,11,19,07,13,03,06,16,28,,,,1.6,1.0,1.3*32
$GPRMC,012737.000,A,3353.7530,N,09832.0300,W,0.24,104.76,300312,,,D*7C
$GPGGA,012738.000,3353.7530,N,09832.0300,W,2,09,1.0,302.9,M,-23.7,M,3.8,0000*48
$GPGSA,A,3,23,11,19,07,13,03,06,16,28,,,,1.6,1.0,1.3*32
$GPGSV,3,1,12,13,74,203,35,07,56,334,39,19,55,109,32,23,44,167,39*7E
$GPGSV,3,2,12,03,39,055,40,06,26,048,26,08,25,304,20,10,16,263,*77
$GPGSV,3,3,12,16,14,050,28,28,13,244,16,11,13,147,29,05,02,314,*70
$GPRMC,012738.000,A,3353.7530,N,09832.0300,W,0.14,123.93,300312,,,D*7E
$GPGGA,012739.000,3353.7529,N,09832.0300,W,2,09,1.0,303.1,M,-23.7,M,0.8,0000*4B
$GPGSA,A,3,23,11,19,07,13,03,06,16,28,,,,1.6,1.0,1.3*32
$GPRMC,012739.000,A,3353.7529,N,09832.0300,W,0.24,93.91,300312,,,D*4C
$GPGGA,012740.000,3353.7529,N,09832.0300,W,2,09,1.0,303.3,M,-23.7,M,0.8,0000*47
$GPGSA,A,3,23,11,19,07,13,03,06,16,28,,,,1.6,1.0,1.3*32
$GPRMC,012740.000,A,3353.7529,N,09832.0300,W,0.25,91.40,300312,,,D*4D
$GPGGA,012741.000,3353.7529,N,09832.0300,W,2,09,1.0,303.5,M,-23.7,M,0.8,0000*40
$GPGSA,A,3,23,11,19,07,13,03,06,16,28,,,,1.6,1.0,1.3*32
$GPRMC,012741.000,A,3353.7529,N,09832.0300,W,0.43,90.69,300312,,,D*46
$GPGGA,012742.000,3353.7529,N,09832.0299,W,2,09,1.0,303.8,M,-23.7,M,1.8,0000*4E
$GPGSA,A,3,23,11,19,07,13,03,06,16,28,,,,1.6,1.0,1.3*32
$GPRMC,012742.000,A,3353.7529,N,09832.0299,W,0.47,92.06,300312,,,D*4B
$GPGGA,012743.000,3353.7529,N,09832.0298,W,2,09,1.0,304.1,M,-23.7,M,2.8,0000*43
$GPGSA,A,3,23,11,19,07,13,03,06,16,28,,,,1.6,1.0,1.3*32
$GPGSV,3,1,12,13,74,203,34,07,56,334,39,19,55,109,31,23,44,167,39*7C
$GPGSV,3,2,12,03,39,055,40,06,26,048,27,08,25,304,20,10,16,263,*76
$GPGSV,3,3,12,16,14,050,28,28,13,244,15,11,13,147,29,05,02,314,*73
$GPRMC,012743.000,A,3353.7529,N,09832.0298,W,0.48,90.73,300312,,,D*44
$GPGGA,012744.000,3353.7529,N,09832.0297,W,2,09,1.0,304.2,M,-23.7,M,3.8,0000*49
$GPGSA,A,3,23,11,19,07,13,03,06,16,28,,,,1.6,1.0,1.3*32
$GPRMC,012744.000,A,3353.7529,N,09832.0297,W,0.35,92.69,300312,,,D*4F
$GPGGA,012745.000,3353.7529,N,09832.0297,W,2,09,1.0,304.1,M,-23.7,M,0.8,0000*48
$GPGSA,A,3,23,11,19,07,13,03,06,16,28,,,,1.6,1.0,1.3*32
$GPRMC,012745.000,A,3353.7529,N,09832.0297,W,0.27,101.91,300312,,,D*71
$GPGGA,012746.000,3353.7529,N,09832.0297,W,2,09,1.0,304.0,M,-23.7,M,0.8,0000*4A
$GPGSA,A,3,23,11,19,07,13,03,06,16,28,,,,1.6,1.0,1.3*32
$GPRMC,012746.000,A,3353.7529,N,09832.0297,W,0.17,119.47,300312,,,D*73
$GPGGA,012747.000,3353.7529,N,09832.0298,W,2,09,1.0,303.9,M,-23.7,M,0.8,0000*4A
$GPGSA,A,3,23,11,19,07,13,03,06,16,28,,,,1.6,1.0,1.3*32
$GPRMC,012747.000,A,3353.7529,N,09832.0298,W,0.06,182.42,300312,,,D*7A
$GPGGA,012748.000,3353.7529,N,09832.0299,W,2,09,1.0,303.8,M,-23.7,M,0.8,0000*45
$GPGSA,A,3,23,11,19,07,13,03,06,16,28,,,,1.6,1.0,1.3*32
$GPGSV,3,1,12,13,74,203,34,07,56,334,39,19,55,109,31,23,44,167,38*7D
$GPGSV,3,2,12,03,39,055,40,06,26,048,27,08,25,304,21,10,16,263,20*75
$GPGSV,3,3,12,16,14,050,28,28,13,244,16,11,13,147,30,05,02,314,*78
$GPRMC,012748.000,A,3353.7529,N,09832.0299,W,0.06,204.77,300312,,,D*7F
$GPGGA,012749.000,3353.7529,N,09832.0301,W,2,09,1.0,303.5,M,-23.7,M,1.8,0000*48
$GPGSA,A,3,23,11,19,07,13,03,06,16,28,,,,1.6,1.0,1.3*32
$GPRMC,012749.000,A,3353.7529,N,09832.0301,W,0.10,231.09,300312,,,D*76
$GPGGA,012750.000,3353.7529,N,09832.0302,W,2,09,1.0,303.4,M,-23.7,M,2.8,0000*41
$GPGSA,A,3,23,11,19,07,13,03,06,16,28,,,,1.6,1.0,1.3*32
$GPRMC,012750.000,A,3353.7529,N,09832.0302,W,0.06,212.03,300312,,,D*71
$GPGGA,012751.000,3353.7529,N,09832.0303,W,2,09,1.0,303.3,M,-23.7,M,0.8,0000*44
$GPGSA,A,3,23,11,19,07,13,03,06,16,28,,,,1.6,1.0,1.3*32
$GPRMC,012751.000,A,3353.7529,N,09832.0303,W,0.07,255.58,300312,,,D*7D
$GPGGA,012752.000,3353.7529,N,09832.0304,W,2,09,1.0,303.1,M,-23.7,M,0.8,0000*42
$GPGSA,A,3,23,11,19,07,13,03,06,16,28,,,,1.6,1.0,1.3*32
$GPRMC,012752.000,A,3353.7529,N,09832.0304,W,0.12,261.21,300312,,,D*74
$GPGGA,012753.000,3353.7529,N,09832.0302,W,2,09,1.0,304.0,M,-23.7,M,0.8,0000*43
$GPGSA,A,3,23,11,19,07,13,03,06,16,28,,,,1.6,1.0,1.3*32
$GPGSV,3,1,12,13,74,203,34,07,56,334,39,19,55,109,30,23,44,167,38*7C
$GPGSV,3,2,12,03,39,055,40,06,26,048,27,08,25,304,22,10,16,263,21*77
$GPGSV,3,3,12,16,14,050,29,28,13,244,16,11,13,147,30,05,02,314,*79
$GPRMC,012753.000,A,3353.7529,N,09832.0302,W,0.03,111.10,300312,,,D*75
$GPGGA,012754.000,3353.7529,N,09832.0302,W,2,09,1.0,304.1,M,-23.7,M,0.8,0000*45
$GPGSA,A,3,23,11,19,07,13,03,06,16,28,,,,1.6,1.0,1.3*32
$GPRMC,012754.000,A,3353.7529,N,09832.0302,W,0.02,183.04,300312,,,D*7D
$GPGGA,012755.000,3353.7529,N,09832.0303,W,2,09,1.0,304.2,M,-23.7,M,0.8,0000*46
$GPGSA,A,3,23,11,19,07,13,03,06,16,28,,,,1.6,1.0,1.3*32
$GPRMC,012755.000,A,3353.7529,N,09832.0303,W,0.02,136.90,300312,,,D*7E
$GPGGA,012756.000,3353.7529,N,09832.0303,W,2,09,1.0,304.3,M,-23.7,M,0.8,0000*44
$GPGSA,A,3,23,11,19,07,13,03,06,16,28,,,,1.6,1.0,1.3*32
$GPRMC,012756.000,A,3353.7529,N,09832.0303,W,0.03,249.55,300312,,,D*7E
$GPGGA,012757.000,3353.7529,N,09832.0303,W,2,09,1.0,304.4,M,-23.7,M,0.8,0000*42
$GPGSA,A,3,23,11,19,07,13,03,06,16,28,,,,1.6,1.0,1.3*32
$GPRMC,012757.000,A,3353.7529,N,09832.0303,W,0.11,112.45,300312,,,D*70
$GPGGA,012758.000,3353.7529,N,09832.0303,W,2,09,1.0,304.5,M,-23.7,M,0.8,0000*4C
$GPGSA,A,3,23,11,19,07,13,03,06,16,28,,,,1.6,1.0,1.3*32
$GPGSV,3,1,12,13,74,203,33,07,56,334,39,19,55,109,29,23,44,167,38*73
$GPGSV,3,2,12,03,39,055,40,06,26,048,27,08,25,304,22,10,16,263,21*77
$GPGSV,3,3,12,16,14,050,29,28,13,244,14,11,13,147,30,05,02,314,*7B
$GPRMC,012758.000,A,3353.7529,N,09832.0303,W,0.10,110.89,300312,,,D*7C
$GPGGA,012759.000,3353.7529,N,09832.0301,W,2,09,1.0,305.1,M,-23.7,M,0.8,0000*4A
$GPGSA,A,3,23,11,19,07,13,03,06,16,28,,,,1.6,1.0,1.3*32
$GPRMC,012759.000,A,3353.7529,N,09832.0301,W,0.20,100.11,300312,,,D*7C
$GPGGA,012800.000,3353.7529,N,09832.0298,W,2,09,1.0,305.8,M,-23.7,M,1.8,0000*40
$GPGSA,A,3,23,11,19,07,13,03,06,16,28,,,,1.6,1.0,1.3*32
$GPRMC,012800.000,A,3353.7529,N,09832.0298,W,0.25,94.88,300312,,,D*47
$GPGGA,012801.000,3353.7529,N,09832.0295,W,2,09,1.0,306.6,M,-23.7,M,2.8,0000*42
$GPGSA,A,3,23,11,19,07,13,03,06,16,28,,,,1.6,1.0,1.3*32
$GPRMC,012801.000,A,3353.7529,N,09832.0295,W,0.33,98.13,300312,,,D*42
$GPGGA,012802.000,3353.7528,N,09832.0292,W,2,09,1.0,307.3,M,-23.7,M,3.8,0000*42
$GPGSA,A,3,23,11,19,07,13,03,06,16,28,,,,1.6,1.0,1.3*32
$GPRMC,012802.000,A,3353.7528,N,09832.0292,W,0.37,97.74,300312,,,D*4D
$GPGGA,012803.000,3353.7528,N,09832.0290,W,2,08,1.6,308.0,M,-23.7,M,0.8,0000*49
$GPGSA,A,3,23,11,19,07,13,03,06,16,,,,,2.6,1.6,2.0*3D
$GPGSV,3,1,12,13,74,203,32,07,56,334,39,19,55,109,28,23,44,167,38*73
$GPGSV,3,2,12,03,39,055,40,06,26,048,27,08,25,304,22,10,16,263,22*74
$GPGSV,3,3,12,16,14,050,29,28,13,244,,11,13,147,30,05,02,314,*7E
$GPRMC,012803.000,A,3353.7528,N,09832.0290,W,0.23,95.67,300312,,,D*4B
$GPGGA,012804.000,3353.7528,N,09832.0287,W,2,08,1.6,308.7,M,-23.7,M,0.8,0000*4F
$GPGSA,A,3,23,11,19,07,13,03,06,16,,,,,2.6,1.6,2.0*3D
$GPRMC,012804.000,A,3353.7528,N,09832.0287,W,0.25,95.74,300312,,,D*4E
$GPGGA,012805.000,3353.7528,N,09832.0285,W,2,08,1.7,309.4,M,-23.7,M,0.8,0000*4F
$GPGSA,A,3,23,11,19,07,13,03,06,16,,,,,2.6,1.7,2.0*3C
$GPRMC,012805.000,A,3353.7528,N,09832.0285,W,0.36,89.91,300312,,,D*49
$GPGGA,012806.000,3353.7528,N,09832.0281,W,2,08,1.7,310.1,M,-23.7,M,1.8,0000*44
$GPGSA,A,3,23,11,19,07,13,03,06,16,,,,,2.6,1.7,2.0*3C
$GPRMC,012806.000,A,3353.7528,N,09832.0281,W,0.40,92.75,300312,,,D*4F
$GPGGA,012807.000,3353.7528,N,09832.0278,W,2,08,1.7,310.8,M,-23.7,M,2.8,0000*49
$GPGSA,A,3,23,11,19,07,13,03,06,16,,,,,2.6,1.7,2.0*3C
$GPRMC,012807.000,A,3353.7528,N,09832.0278,W,0.42,91.95,300312,,,D*47
$GPGGA,012808.000,3353.7528,N,09832.0275,W,2,08,1.7,311.6,M,-23.7,M,3.8,0000*45
$GPGSA,A,3,23,11,19,07,13,03,06,16,,,,,2.6,1.7,2.0*3C
$GPGSV,3,1,12,13,74,203,32,07,56,334,39,19,55,109,27,23,44,167,38*7C
$GPGSV,3,2,12,03,39,055,40,06,26,048,26,08,25,304,22,10,16,263,22*75
$GPGSV,3,3,12,16,14,050,30,28,13,244,,11,13,147,31,05,02,314,*77
$GPRMC,012808.000,A,3353.7528,N,09832.0275,W,0.42,91.86,300312,,,D*47
$GPGGA,012809.000,3353.7528,N,09832.0272,W,2,08,1.7,312.3,M,-23.7,M,0.8,0000*46
$GPGSA,A,3,23,11,19,07,13,03,06,16,,,,,2.6,1.7,2.0*3C
$GPRMC,012809.000,A,3353.7528,N,09832.0272,W,0.45,95.26,300312,,,D*48
$GPGGA,012810.000,3353.7527,N,09832.0269,W,2,08,1.7,313.0,M,-23.7,M,0.8,0000*49
$GPGSA,A,3,23,11,19,07,13,03,06,16,,,,,2.6,1.7,2.0*3C
$GPRMC,012810.000,A,3353.7527,N,09832.0269,W,0.45,95.74,300312,,,D*42
$GPGGA,012811.000,3353.7527,N,09832.0267,W,2,08,1.7,313.6,M,-23.7,M,0.8,0000*40
$GPGSA,A,3,23,11,19,07,13,03,06,16,,,,,2.6,1.7,2.0*3C
$GPRMC,012811.000,A,3353.7527,N,09832.0267,W,0.30,100.22,300312,,,D*71
$GPGGA,012812.000,3353.7527,N,09832.0265,W,2,08,1.7,314.2,M,-23.7,M,1.8,0000*43
$GPGSA,A,3,23,11,19,07,13,03,06,16,,,,,2.6,1.7,2.0*3C
$GPRMC,012812.000,A,3353.7527,N,09832.0265,W,0.31,98.41,300312,,,D*44
$GPGGA,012813.000,3353.7527,N,09832.0263,W,2,08,1.7,314.8,M,-23.7,M,2.8,0000*4D
$GPGSA,A,3,23,11,19,07,13,03,06,16,,,,,2.6,1.7,2.0*3C
$GPGSV,3,1,12,13,74,203,31,07,56,334,39,19,55,109,26,23,44,167,38*7E
$GPGSV,3,2,12,03,39,055,40,06,26,048,26,08,25,304,23,10,16,263,22*74
$GPGSV,3,3,12,16,14,050,29,28,13,244,,11,13,147,31,05,02,314,*7F
$GPRMC,012813.000,A,3353.7527,N,09832.0263,W,0.32,100.74,300312,,,D*76
$GPGGA,012814.000,3353.7527,N,09832.0261,W,2,08,1.7,315.3,M,-23.7,M,3.8,0000*43
$GPGSA,A,3,23,11,19,07,13,03,06,16,,,,,2.6,1.7,2.0*3C
$GPRMC,012814.000,A,3353.7527,N,09832.0261,W,0.29,100.47,300312,,,D*79
$GPGGA,012815.000,3353.7526,N,09832.0259,W,2,08,1.7,315.9,M,-23.7,M,0.8,0000*41
$GPGSA,A,3,23,11,19,07,13,03,06,16,,,,,2.6,1.7,2.0*3C
$GPRMC,012815.000,A,3353.7526,N,09832.0259,W,0.29,97.86,300312,,,D*40
$GPGGA,012816.000,3353.7526,N,09832.0257,W,2,08,1.7,316.5,M,-23.7,M,0.8,0000*43
$GPGSA,A,3,23,11,19,07,13,03,06,16,,,,,2.6,1.7,2.0*3C
$GPRMC,012816.000,A,3353.7526,N,09832.0257,W,0.27,96.71,300312,,,D*4A
$GPGGA,012817.000,3353.7526,N,09832.0254,W,2,08,1.7,317.1,M,-23.7,M,0.8,0000*44
$GPGSA,A,3,23,11,19,07,13,03,06,16,,,,,2.6,1.7,2.0*3C
$GPRMC,012817.000,A,3353.7526,N,09832.0254,W,0.42,94.09,300312,,,D*46
$GPGGA,012818.000,3353.7526,N,09832.0252,W,2,08,1.7,317.7,M,-23.7,M,0.8,0000*4B
$GPGSA,A,3,23,11,19,07,13,03,06,16,,,,,2.6,1.7,2.0*3C
$GPGSV,3,1,12,13,74,203,31,07,56,334,39,19,55,109,27,23,44,167,38*7F
$GPGSV,3,2,12,03,39,055,40,06,26,048,26,08,25,304,22,10,16,263,22*75
$GPGSV,3,3,12,16,14,050,29,28,13,244,,11,13,147,31,05,02,314,*7F
$GPRMC,012818.000,A,3353.7526,N,09832.0252,W,0.42,94.57,300312,,,D*44
$GPGGA,012819.000,3353.7526,N,09832.0249,W,2,08,1.7,318.4,M,-23.7,M,1.8,0000*4D
$GPGSA,A,3,23,11,19,07,13,03,06,16,,,,,2.6,1.7,2.0*3C
$GPRMC,012819.000,A,3353.7526,N,09832.0249,W,0.45,93.39,300312,,,D*47
$GPGGA,012820.000,3353.7526,N,09832.0246,W,2,08,1.7,318.9,M,-23.7,M,0.8,0000*44
$GPGSA,A,3,23,11,19,07,13,03,06,16,,,,,2.6,1.7,2.0*3C
$GPRMC,012820.000,A,3353.7526,N,09832.0246,W,0.43,95.98,300312,,,D*49
$GPGGA,012821.000,3353.7526,N,09832.0244,W,2,08,1.7,319.5,M,-23.7,M,0.8,0000*4A
$GPGSA,A,3,23,11,19,07,13,03,06,16,,,,,2.6,1.7,2.0*3C
$GPRMC,012821.000,A,3353.7526,N,09832.0244,W,0.44,99.27,300312,,,D*45
$GPGGA,012822.000,3353.7525,N,09832.0242,W,2,08,1.7,320.0,M,-23.7,M,0.8,0000*43
$GPGSA,A,3,23,11,19,07,13,03,06,16,,,,,2.6,1.7,2.0*3C
$GPRMC,012822.000,A,3353.7525,N,09832.0242,W,0.45,100.72,300312,,,D*73
$GPGGA,012823.000,3353.7525,N,09832.0240,W,2,08,1.7,320.4,M,-23.7,M,0.8,0000*44
$GPGSA,A,3,23,11,19,07,13,03,06,16,,,,,2.6,1.7,2.0*3C
$GPGSV,3,1,12,13,74,203,31,07,56,334,40,19,55,109,27,23,44,167,38*71
$GPGSV,3,2,12,03,39,055,41,06,26,048,26,08,25,304,21,10,16,263,22*77
$GPGSV,3,3,12,16,14,050,29,28,13,244,,11,13,147,31,05,02,314,*7F
$GPRMC,012823.000,A,3353.7525,N,09832.0240,W,0.29,109.31,300312,,,D*74
$GPGGA,012824.000,3353.7525,N,09832.0239,W,2,08,1.7,320.8,M,-23.7,M,1.8,0000*40
$GPGSA,A,3,23,11,19,07,13,03,06,16,,,,,2.6,1.7,2.0*3C
$GPRMC,012824.000,A,3353.7525,N,09832.0239,W,0.26,108.95,300312,,,D*7D
$GPGGA,012825.000,3353.7525,N,09832.0238,W,2,08,1.7,321.2,M,-23.7,M,2.8,0000*48
$GPGSA,A,3,23,11,19,07,13,03,06,16,,,,,2.6,1.7,2.0*3C
$GPRMC,012825.000,A,3353.7525,N,09832.0238,W,0.26,108.10,300312,,,D*70
$GPGGA,012826.000,3353.7524,N,09832.0237,W,2,08,1.7,321.5,M,-23.7,M,3.8,0000*43
$GPGSA,A,3,23,11,19,07,13,03,06,16,,,,,2.6,1.7,2.0*3C
$GPRMC,012826.000,A,3353.7524,N,09832.0237,W,0.24,106.71,300312,,,D*76
$GPGGA,012827.000,3353.7524,N,09832.0235,W,2,08,1.7,321.9,M,-23.7,M,0.8,0000*4F
$GPGSA,A,3,23,11,19,07,13,03,06,16,,,,,2.6,1.7,2.0*3C
$GPRMC,012827.000,A,3353.7524,N,09832.0235,W,0.24,102.91,300312,,,D*7F
$GPGGA,012828.000,3353.7524,N,09832.0234,W,2,08,1.7,322.3,M,-23.7,M,0.8,0000*48
$GPGSA,A,3,23,11,19,07,13,03,06,16,,,,,2.6,1.7,2.0*3C
$GPGSV,3,1,12,13,74,203,31,07,56,334,40,19,55,109,27,23,44,167,39*70
$GPGSV,3,2,12,03,39,055,41,06,26,048,26,08,25,304,22,10,16,263,21*77
$GPGSV,3,3,12,16,14,050,28,28,13,244,,11,13,147,31,05,02,314,*7E
$GPRMC,012828.000,A,3353.7524,N,09832.0234,W,0.21,99.38,300312,,,D*44
$GPGGA,012829.000,3353.7524,N,09832.0233,W,2,08,1.7,322.7,M,-23.7,M,0.8,0000*4A
$GPGSA,A,3,23,11,19,07,13,03,06,16,,,,,2.6,1.7,2.0*3C
$GPRMC,012829.000,A,3353.7524,N,09832.0233,W,0.37,93.21,300312,,,D*47
$GPGGA,012830.000,3353.7524,N,09832.0231,W,2,08,1.7,323.1,M,-23.7,M,1.8,0000*46
$GPGSA,A,3,23,11,19,07,13,03,06,16,,,,,2.6,1.7,2.0*3C
$GPRMC,012830.000,A,3353.7524,N,09832.0231,W,0.38,94.69,300312,,,D*49
$GPGGA,012831.000,3353.7524,N,09832.0229,W,2,08,1.7,323.5,M,-23.7,M,2.8,0000*49
$GPGSA,A,3,23,11,19,07,13,03,06,16,,,,,2.6,1.7,2.0*3C
$GPRMC,012831.000,A,3353.7524,N,09832.0229,W,0.41,92.56,300312,,,D*45
$GPGGA,012832.000,3353.7524,N,09832.0228,W,2,09,1.0,323.7,M,-23.7,M,0.8,0000*4D
$GPGSA,A,3,23,11,19,07,13,03,06,16,28,,,,1.6,1.0,1.3*32
$GPRMC,012832.000,A,3353.7524,N,09832.0228,W,0.29,96.41,300312,,,D*4B
$GPGGA,012833.000,3353.7524,N,09832.0226,W,2,09,1.0,324.2,M,-23.7,M,0.8,0000*40
$GPGSA,A,3,23,11,19,07,13,03,06,16,28,,,,1.6,1.0,1.3*32
$GPGSV,3,1,12,13,74,203,30,07,56,334,40,19,55,109,28,23,44,167,39*7E
$GPGSV,3,2,12,03,39,055,41,06,26,048,27,08,25,304,23,10,16,263,21*77
$GPGSV,3,3,12,16,14,050,28,28,13,244,19,11,13,147,31,05,02,314,*76
$GPRMC,012833.000,A,3353.7524,N,09832.0226,W,0.43,97.57,300312,,,D*4E
$GPGGA,012834.000,3353.7523,N,09832.0224,W,2,09,1.0,324.6,M,-23.7,M,0.8,0000*46
$GPGSA,A,3,23,11,19,07,13,03,06,16,28,,,,1.6,1.0,1.3*32
$GPRMC,012834.000,A,3353.7523,N,09832.0224,W,0.40,101.09,300312,,,D*7A
$GPGGA,012835.000,3353.7523,N,09832.0223,W,2,09,1.0,324.8,M,-23.7,M,0.8,0000*4E
$GPGSA,A,3,23,11,19,07,13,03,06,16,28,,,,1.6,1.0,1.3*32
$GPRMC,012835.000,A,3353.7523,N,09832.0223,W,0.21,119.87,300312,,,D*74
$GPGGA,012836.000,3353.7523,N,09832.0223,W,2,09,1.0,324.9,M,-23.7,M,1.8,0000*4D
$GPGSA,A,3,23,11,19,07,13,03,06,16,28,,,,1.6,1.0,1.3*32
$GPRMC,012836.000,A,3353.7523,N,09832.0223,W,0.20,123.09,300312,,,D*79
$GPGGA,012837.000,3353.7523,N,09832.0223,W,2,09,1.0,325.0,M,-23.7,M,2.8,0000*47
$GPGSA,A,3,23,11,19,07,13,03,06,16,28,,,,1.6,1.0,1.3*32
$GPRMC,012837.000,A,3353.7523,N,09832.0223,W,0.17,127.97,300312,,,D*7F
$GPGGA,012838.000,3353.7522,N,09832.0223,W,2,09,1.0,325.1,M,-23.7,M,3.8,0000*49
$GPGSA,A,3,23,11,19,07,13,03,06,16,28,,,,1.6,1.0,1.3*32
$GPGSV,3,1,12,13,74,203,30,07,56,334,40,19,55,109,27,23,44,167,39*71
$GPGSV,3,2,12,03,39,055,42,06,26,048,27,08,25,304,24,10,16,263,21*73
$GPGSV,3,3,12,16,14,050,27,28,13,244,19,11,13,147,31,05,02,314,*79
$GPRMC,012838.000,A,3353.7522,N,09832.0223,W,0.16,129.48,300312,,,D*7C
$GPGGA,012839.000,3353.7522,N,09832.0222,W,2,09,1.0,325.4,M,-23.7,M,0.8,0000*4F
$GPGSA,A,3,23,11,19,07,13,03,06,16,28,,,,1.6,1.0,1.3*32
$GPRMC,012839.000,A,3353.7522,N,09832.0222,W,0.20,96.19,300312,,,D*48
$GPGGA,012840.000,3353.7522,N,09832.0221,W,2,09,1.0,326.0,M,-23.7,M,0.8,0000*45
$GPGSA,A,3,23,11,19,07,13,03,06,16,28,,,,1.6,1.0,1.3*32
$GPRMC,012840.000,A,3353.7522,N,09832.0221,W,0.24,94.68,300312,,,D*45
$GPGGA,012841.000,3353.7522,N,09832.0219,W,2,09,1.0,326.7,M,-23.7,M,0.8,0000*48
$GPGSA,A,3,23,11,19,07,13,03,06,16,28,,,,1.6,1.0,1.3*32
$GPRMC,012841.000,A,3353.7522,N,09832.0219,W,0.42,91.63,300312,,,D*41
$GPGGA,012842.000,3353.7522,N,09832.0217,W,2,09,1.0,327.4,M,-23.7,M,0.8,0000*47
$GPGSA,A,3,23,11,19,07,13,03,06,16,28,,,,1.6,1.0,1.3*32
$GPRMC,012842.000,A,3353.7522,N,09832.0217,W,0.45,91.16,300312,,,D*49
$GPGGA,012843.000,3353.7521,N,09832.0215,W,2,09,1.0,328.1,M,-23.7,M,0.8,0000*4D
$GPGSA,A,3,23,11,19,07,13,03,06,16,28,,,,1.6,1.0,1.3*32
$GPGSV,3,1,12,13,74,203,29,07,56,334,40,19,55,109,26,23,44,167,39*78
$GPGSV,3,2,12,03,39,055,42,06,26,048,28,08,25,304,24,10,16,263,21*7C
$GPGSV,3,3,12,16,14,050,27,28,13,244,17,11,13,147,30,05,02,314,*76
$GPRMC,012843.000,A,3353.7521,N,09832.0215,W,0.47,92.38,300312,,,D*44
$GPGGA,012844.000,3353.7521,N,09832.0213,W,2,09,1.0,328.8,M,-23.7,M,1.8,0000*44
$GPGSA,A,3,23,11,19,07,13,03,06,16,28,,,,1.6,1.0,1.3*32
$GPRMC,012844.000,A,3353.7521,N,09832.0213,W,0.50,92.98,300312,,,D*49
$GPGGA,012845.000,3353.7521,N,09832.0210,W,2,09,1.0,329.6,M,-23.7,M,0.8,0000*48
$GPGSA,A,3,23,11,19,07,13,03,06,16,28,,,,1.6,1.0,1.3*32
$GPRMC,012845.000,A,3353.7521,N,09832.0210,W,0.53,95.81,300312,,,D*47
$GPGGA,012846.000,3353.7521,N,09832.0208,W,2,09,1.0,330.2,M,-23.7,M,0.8,0000*4E
$GPGSA,A,3,23,11,19,07,13,03,06,16,28,,,,1.6,1.0,1.3*32
$GPRMC,012846.000,A,3353.7521,N,09832.0208,W,0.53,98.94,300312,,,D*44
$GPGGA,012847.000,3353.7520,N,09832.0207,W,2,09,1.0,330.7,M,-23.7,M,0.8,0000*44
$GPGSA,A,3,23,11,19,07,13,03,06,16,28,,,,1.6,1.0,1.3*32
$GPRMC,012847.000,A,3353.7520,N,09832.0207,W,0.32,112.06,300312,,,D*74
$GPGGA,012848.000,3353.7520,N,09832.0207,W,2,09,1.0,331.0,M,-23.7,M,1.8,0000*4C
$GPGSA,A,3,23,11,19,07,13,03,06,16,28,,,,1.6,1.0,1.3*32
$GPGSV,3,1,12,13,73,201,29,07,57,335,40,19,55,106,26,23,42,167,40*7A
$GPGSV,3,2,12,03,38,054,42,08,26,305,24,06,25,047,28,10,16,262,22*70
$GPGSV,3,3,12,28,14,245,17,11,14,146,30,16,13,051,27,05,02,313,*77
$GPRMC,012848.000,A,3353.7520,N,09832.0207,W,0.27,118.36,300312,,,D*76
$GPGGA,012849.000,3353.7519,N,09832.0207,W,2,09,1.0,331.3,M,-23.7,M,2.8,0000*47
$GPGSA,A,3,23,11,19,07,13,03,06,16,28,,,,1.6,1.0,1.3*32
$GPRMC,012849.000,A,3353.7519,N,09832.0207,W,0.16,123.75,300312,,,D*70
$GPGGA,012850.000,3353.7519,N,09832.0207,W,2,09,1.0,331.5,M,-23.7,M,0.8,0000*4B
$GPGSA,A,3,23,11,19,07,13,03,06,16,28,,,,1.6,1.0,1.3*32
$GPRMC,012850.000,A,3353.7519,N,09832.0207,W,0.17,125.27,300312,,,D*78
$GPGGA,012851.000,3353.7519,N,09832.0206,W,2,09,1.0,331.8,M,-23.7,M,0.8,0000*46
$GPGSA,A,3,23,11,19,07,13,03,06,16,28,,,,1.6,1.0,1.3*32
$GPRMC,012851.000,A,3353.7519,N,09832.0206,W,0.14,97.92,300312,,,D*4D
$GPGGA,012852.000,3353.7519,N,09832.0206,W,2,09,1.0,332.1,M,-23.7,M,0.8,0000*4F
$GPGSA,A,3,23,11,19,07,13,03,06,16,28,,,,1.6,1.0,1.3*32
$GPRMC,012852.000,A,3353.7519,N,09832.0206,W,0.13,109.24,300312,,,D*72
$GPGGA,012853.000,3353.7519,N,09832.0206,W,2,09,1.0,332.3,M,-23.7,M,0.8,0000*4C
$GPGSA,A,3,23,11,19,07,13,03,06,16,28,,,,1.6,1.0,1.3*32
$GPGSV,3,1,12,13,73,201,28,07,57,335,40,19,55,106,25,23,42,167,40*78
$GPGSV,3,2,12,03,38,054,42,08,26,305,24,06,25,047,29,10,16,262,23*70
$GPGSV,3,3,12,28,14,245,17,11,14,146,29,16,13,051,27,05,02,313,*7F
$GPRMC,012853.000,A,3353.7519,N,09832.0206,W,0.20,91.53,300312,,,D*43
$GPGGA,012854.000,3353.7519,N,09832.0205,W,2,09,1.0,332.5,M,-23.7,M,1.8,0000*4F
$GPGSA,A,3,23,11,19,07,13,03,06,16,28,,,,1.6,1.0,1.3*32
$GPRMC,012854.000,A,3353.7519,N,09832.0205,W,0.20,93.42,300312,,,D*45
$GPGGA,012855.000,3353.7519,N,09832.0205,W,2,09,1.0,332.8,M,-23.7,M,2.8,0000*40
$GPGSA,A,3,23,11,19,07,13,03,06,16,28,,,,1.6,1.0,1.3*32
$GPRMC,012855.000,A,3353.7519,N,09832.0205,W,0.22,93.32,300312,,,D*41
$GPGGA,012856.000,3353.7519,N,09832.0204,W,2,09,1.0,333.1,M,-23.7,M,0.8,0000*48
$GPGSA,A,3,23,11,19,07,13,03,06,16,28,,,,1.6,1.0,1.3*32
$GPRMC,012856.000,A,3353.7519,N,09832.0204,W,0.23,94.32,300312,,,D*45
$GPGGA,012857.000,3353.7518,N,09832.0203,W,2,09,1.0,333.4,M,-23.7,M,0.8,0000*4A
$GPGSA,A,3,23,11,19,07,13,03,06,16,28,,,,1.6,1.0,1.3*32
$GPRMC,012857.000,A,3353.7518,N,09832.0203,W,0.24,102.47,300312,,,D*79
$GPGGA,012858.000,3353.7518,N,09832.0202,W,2,09,1.0,333.7,M,-23.7,M,0.8,0000*47
$GPGSA,A,3,23,11,19,07,13,03,06,16,28,,,,1.6,1.0,1.3*32
$GPGSV,3,1,12,13,73,201,27,07,57,335,40,19,55,106,25,23,42,167,40*77
$GPGSV,3,2,12,03,38,054,42,08,26,305,23,06,25,047,29,10,16,262,24*70
$GPGSV,3,3,12,28,14,245,17,11,14,146,28,16,13,051,26,05,02,313,*7F
$GPRMC,012858.000,A,3353.7518,N,09832.0202,W,0.27,102.40,300312,,,D*73
$GPGGA,012859.000,3353.7518,N,09832.0202,W,2,09,1.0,333.8,M,-23.7,M,0.8,0000*49
$GPGSA,A,3,23,11,19,07,13,03,06,16,28,,,,1.6,1.0,1.3*32
$GPRMC,012859.000,A,3353.7518,N,09832.0202,W,0.11,137.64,300312,,,D*77
$GPGGA,012900.000,3353.7518,N,09832.0202,W,2,09,1.0,334.0,M,-23.7,M,1.8,0000*4A
$GPGSA,A,3,23,11,19,07,13,03,06,16,28,,,,1.6,1.0,1.3*32
$GPRMC,012900.000,A,3353.7518,N,09832.0202,W,0.08,153.25,300312,,,D*75
$GPGGA,012901.000,3353.7517,N,09832.0203,W,2,09,1.0,334.2,M,-23.7,M,2.8,0000*44
$GPGSA,A,3,23,11,19,07,13,03,06,16,28,,,,1.6,1.0,1.3*32
$GPRMC,012901.000,A,3353.7517,N,09832.0203,W,0.12,133.01,300312,,,D*71
$GPGGA,012902.000,3353.7517,N,09832.0203,W,2,09,1.0,334.4,M,-23.7,M,3.8,0000*40
$GPGSA,A,3,23,11,19,07,13,03,06,16,28,,,,1.6,1.0,1.3*32
$GPRMC,012902.000,A,3353.7517,N,09832.0203,W,0.11,132.73,300312,,,D*75
$GPGGA,012903.000,3353.7517,N,09832.0203,W,2,09,1.0,334.6,M,-23.7,M,0.8,0000*40
$GPGSA,A,3,23,11,19,07,13,03,06,16,28,,,,1.6,1.0,1.3*32
$GPGSV,3,1,12,13,73,201,27,07,57,335,40,19,55,106,26,23,42,167,40*74
$GPGSV,3,2,12,03,38,054,42,08,26,305,19,06,25,047,29,10,16,262,25*78
$GPGSV,3,3,12,28,14,245,15,11,14,146,27,16,13,051,26,05,02,313,*72
$GPRMC,012903.000,A,3353.7517,N,09832.0203,W,0.07,102.06,300312,,,D*72
$GPGGA,012904.000,3353.7516,N,09832.0202,W,2,09,1.0,335.8,M,-23.7,M,0.8,0000*48
$GPGSA,A,3,23,11,19,07,13,03,06,16,28,,,,1.6,1.0,1.3*32
$GPRMC,012904.000,A,3353.7516,N,09832.0202,W,0.09,103.41,300312,,,D*79
$GPGGA,012905.000,3353.7516,N,09832.0200,W,2,09,1.0,336.9,M,-23.7,M,0.8,0000*49
$GPGSA,A,3,23,11,19,07,13,03,06,16,28,,,,1.6,1.0,1.3*32
$GPRMC,012905.000,A,3353.7516,N,09832.0200,W,0.36,96.84,300312,,,D*42
$GPGGA,012906.000,3353.7517,N,09832.0206,W,2,09,1.0,334.7,M,-23.7,M,1.8,0000*40
$GPGSA,A,3,23,11,19,07,13,03,06,16,28,,,,1.6,1.0,1.3*32
$GPRMC,012906.000,A,3353.7517,N,09832.0206,W,0.27,100.95,300312,,,D*78
$GPGGA,012907.000,3353.7516,N,09832.0205,W,2,09,1.0,335.7,M,-23.7,M,0.8,0000*43
$GPGSA,A,3,23,11,19,07,13,03,06,16,28,,,,1.6,1.0,1.3*32
$GPRMC,012907.000,A,3353.7516,N,09832.0205,W,0.28,96.04,300312,,,D*42
$GPGGA,012908.000,3353.7518,N,09832.0212,W,2,09,1.0,333.1,M,-23.7,M,1.8,0000*45
$GPGSA,A,3,23,11,19,07,13,03,06,16,28,,,,1.6,1.0,1.3*32
$GPGSV,3,1,12,13,73,201,26,07,57,335,40,19,55,106,27,23,42,167,40*74
$GPGSV,3,2,12,03,38,054,42,08,26,305,18,06,25,047,28,10,16,262,26*7B
$GPGSV,3,3,12,28,14,245,16,11,14,146,27,16,13,051,26,05,02,313,*71
$GPRMC,012908.000,A,3353.7518,N,09832.0212,W,0.19,97.28,300312,,,D*48
$GPGGA,012909.000,3353.7519,N,09832.0218,W,2,09,1.0,330.8,M,-23.7,M,0.8,0000*44
$GPGSA,A,3,23,11,19,07,13,03,06,16,28,,,,1.6,1.0,1.3*32
$GPRMC,012909.000,A,3353.7519,N,09832.0218,W,0.14,120.12,300312,,,D*7B
$GPGGA,012910.000,3353.7520,N,09832.0223,W,2,09,1.0,328.9,M,-23.7,M,0.8,0000*46
$GPGSA,A,3,23,11,19,07,13,03,06,16,28,,,,1.6,1.0,1.3*32
$GPRMC,012910.000,A,3353.7520,N,09832.0223,W,0.21,108.33,300312,,,D*7E
$GPGGA,012911.000,3353.7521,N,09832.0227,W,2,09,1.0,327.1,M,-23.7,M,0.8,0000*45
$GPGSA,A,3,23,11,19,07,13,03,06,16,28,,,,1.6,1.0,1.3*32
$GPRMC,012911.000,A,3353.7521,N,09832.0227,W,0.06,178.85,300312,,,D*75
$GPGGA,012912.000,3353.7521,N,09832.0232,W,2,09,1.0,325.4,M,-23.7,M,1.8,0000*44
$GPGSA,A,3,23,11,19,07,13,03,06,16,28,,,,1.6,1.0,1.3*32
$GPRMC,012912.000,A,3353.7521,N,09832.0232,W,0.05,172.83,300312,,,D*7D
$GPGGA,012913.000,3353.7522,N,09832.0236,W,2,09,1.0,323.9,M,-23.7,M,0.8,0000*48
$GPGSA,A,3,23,11,19,07,13,03,06,16,28,,,,1.6,1.0,1.3*32
$GPGSV,3,1,12,13,73,201,26,07,57,335,40,19,55,106,27,23,42,167,40*74
$GPGSV,3,2,12,03,38,054,42,08,26,305,19,06,25,047,28,10,16,262,26*7A
$GPGSV,3,3,12,28,14,245,17,11,14,146,27,16,13,051,26,05,02,313,*70
$GPRMC,012913.000,A,3353.7522,N,09832.0236,W,0.05,172.51,300312,,,D*74
$GPGGA,012914.000,3353.7523,N,09832.0240,W,2,09,1.0,322.4,M,-23.7,M,0.8,0000*43
$GPGSA,A,3,23,11,19,07,13,03,06,16,28,,,,1.6,1.0,1.3*32
$GPRMC,012914.000,A,3353.7523,N,09832.0240,W,0.07,211.23,300312,,,D*72
$GPGGA,012915.000,3353.7523,N,09832.0243,W,2,09,1.0,321.1,M,-23.7,M,0.8,0000*47
$GPGSA,A,3,23,11,19,07,13,03,06,16,28,,,,1.6,1.0,1.3*32
$GPRMC,012915.000,A,3353.7523,N,09832.0243,W,0.03,299.30,300312,,,D*76
$GPGGA,012916.000,3353.7524,N,09832.0246,W,2,09,1.0,319.9,M,-23.7,M,0.8,0000*45
$GPGSA,A,3,23,11,19,07,13,03,06,16,28,,,,1.6,1.0,1.3*32
$GPRMC,012916.000,A,3353.7524,N,09832.0246,W,0.02,313.10,300312,,,D*77
$GPGGA,012917.000,3353.7525,N,09832.0249,W,2,09,1.0,318.8,M,-23.7,M,0.8,0000*4A
$GPGSA,A,3,23,11,19,07,13,03,06,16,28,,,,1.6,1.0,1.3*32
$GPRMC,012917.000,A,3353.7525,N,09832.0249,W,0.14,90.06,300312,,,D*40
$GPGGA,012918.000,3353.7525,N,09832.0251,W,2,09,1.0,317.7,M,-23.7,M,1.8,0000*4D
$GPGSA,A,3,23,11,19,07,13,03,06,16,28,,,,1.6,1.0,1.3*32
$GPGSV,3,1,12,13,73,201,25,07,57,335,40,19,55,106,27,23,42,167,41*76
$GPGSV,3,2,12,03,38,054,42,08,26,305,21,06,25,047,27,10,16,262,26*7E
$GPGSV,3,3,12,28,14,245,19,11,14,146,28,16,13,051,25,05,02,313,*72
$GPRMC,012918.000,A,3353.7525,N,09832.0251,W,0.16,84.98,300312,,,D*46
$GPGGA,012919.000,3353.7526,N,09832.0253,W,2,09,1.0,316.5,M,-23.7,M,2.8,0000*4D
$GPGSA,A,3,23,11,19,07,13,03,06,16,28,,,,1.6,1.0,1.3*32
$GPRMC,012919.000,A,3353.7526,N,09832.0253,W,0.08,74.57,300312,,,D*45
$GPGGA,012920.000,3353.7526,N,09832.0255,W,2,09,1.0,315.7,M,-23.7,M,3.8,0000*41
$GPGSA,A,3,23,11,19,07,13,03,06,16,28,,,,1.6,1.0,1.3*32
$GPRMC,012920.000,A,3353.7526,N,09832.0255,W,0.17,85.88,300312,,,D*4B
$GPGGA,012921.000,3353.7527,N,09832.0256,W,2,09,1.0,314.9,M,-23.7,M,0.8,0000*4E
$GPGSA,A,3,23,11,19,07,13,03,06,16,28,,,,1.6,1.0,1.3*32
$GPRMC,012921.000,A,3353.7527,N,09832.0256,W,0.20,105.88,300312,,,D*75
$GPGGA,012922.000,3353.7527,N,09832.0258,W,2,09,1.0,314.0,M,-23.7,M,0.8,0000*4A
$GPGSA,A,3,23,11,19,07,13,03,06,16,28,,,,1.6,1.0,1.3*32
$GPRMC,012922.000,A,3353.7527,N,09832.0258,W,0.10,137.63,300312,,,D*7F
$GPGGA,012923.000,3353.7527,N,09832.0260,W,2,09,1.0,313.0,M,-23.7,M,0.8,0000*47
$GPGSA,A,3,23,11,19,07,13,03,06,16,28,,,,1.6,1.0,1.3*32
$GPGSV,3,1,12,13,73,201,26,07,57,335,40,19,55,106,27,23,42,167,41*75
$GPGSV,3,2,12,03,38,054,42,08,26,305,22,06,25,047,26,10,16,262,25*7F
$GPGSV,3,3,12,28,14,245,20,11,14,146,29,16,13,051,25,05,02,313,*79
$GPRMC,012923.000,A,3353.7527,N,09832.0260,W,0.07,202.94,300312,,,D*7E
$GPGGA,012924.000,3353.7527,N,09832.0262,W,2,09,1.0,312.3,M,-23.7,M,1.8,0000*41
$GPGSA,A,3,23,11,19,07,13,03,06,16,28,,,,1.6,1.0,1.3*32
$GPRMC,012924.000,A,3353.7527,N,09832.0262,W,0.09,134.68,300312,,,D*70
$GPGGA,012925.000,3353.7528,N,09832.0263,W,2,09,1.0,311.6,M,-23.7,M,2.8,0000*4B
$GPGSA,A,3,23,11,19,07,13,03,06,16,28,,,,1.6,1.0,1.3*32
$GPRMC,012925.000,A,3353.7528,N,09832.0263,W,0.09,126.23,300312,,,D*73
$GPGGA,012926.000,3353.7528,N,09832.0265,W,2,09,1.0,310.7,M,-23.7,M,3.8,0000*4F
$GPGSA,A,3,23,11,19,07,13,03,06,16,28,,,,1.6,1.0,1.3*32
$GPRMC,012926.000,A,3353.7528,N,09832.0265,W,0.09,215.01,300312,,,D*75
$GPGGA,012927.000,3353.7528,N,09832.0267,W,2,09,1.0,310.1,M,-23.7,M,0.8,0000*49
$GPGSA,A,3,23,11,19,07,13,03,06,16,28,,,,1.6,1.0,1.3*32
$GPRMC,012927.000,A,3353.7528,N,09832.0267,W,0.05,118.06,300312,,,D*73
$GPGGA,012928.000,3353.7529,N,09832.0268,W,2,09,1.0,309.6,M,-23.7,M,0.8,0000*47
$GPGSA,A,3,23,11,19,07,13,03,06,16,28,,,,1.6,1.0,1.3*32
$GPGSV,3,1,12,13,73,201,26,07,57,335,40,19,55,106,27,23,42,167,40*74
$GPGSV,3,2,12,03,38,054,42,08,26,305,23,06,25,047,25,10,16,262,25*7D
$GPGSV,3,3,12,28,14,245,21,11,14,146,29,16,13,051,24,05,02,313,*79
$GPRMC,012928.000,A,3353.7529,N,09832.0268,W,0.08,97.39,300312,,,D*45
$GPGGA,012929.000,3353.7529,N,09832.0269,W,2,09,1.0,308.9,M,-23.7,M,0.8,0000*49
$GPGSA,A,3,23,11,19,07,13,03,06,16,28,,,,1.6,1.0,1.3*32
$GPRMC,012929.000,A,3353.7529,N,09832.0269,W,0.08,88.41,300312,,,D*44
$GPGGA,012930.000,3353.7529,N,09832.0270,W,2,09,1.0,309.4,M,-23.7,M,1.8,0000*44
$GPGSA,A,3,23,11,19,07,13,03,06,16,28,,,,1.6,1.0,1.3*32
$GPRMC,012930.000,A,3353.7529,N,09832.0270,W,0.06,99.63,300312,,,D*4A
$GPGGA,012931.000,3353.7529,N,09832.0272,W,2,09,1.0,309.7,M,-23.7,M,0.8,0000*45
$GPGSA,A,3,23,11,19,07,13,03,06,16,28,,,,1.6,1.0,1.3*32
$GPRMC,012931.000,A,3353.7529,N,09832.0272,W,0.12,85.50,300312,,,D*41
$GPGGA,012932.000,3353.7528,N,09832.0270,W,2,09,1.0,311.1,M,-23.7,M,1.8,0000*4B
$GPGSA,A,3,23,11,19,07,13,03,06,16,28,,,,1.6,1.0,1.3*32
$GPRMC,012932.000,A,3353.7528,N,09832.0270,W,0.11,93.55,300312,,,D*40
$GPGGA,012933.000,3353.7527,N,09832.0268,W,2,09,1.0,312.3,M,-23.7,M,0.8,0000*4C
$GPGSA,A,3,23,11,19,07,13,03,06,16,28,,,,1.6,1.0,1.3*32
$GPGSV,3,1,12,13,73,201,27,07,57,335,40,19,55,106,20,23,42,167,40*72
$GPGSV,3,2,12,03,38,054,42,08,26,305,23,06,25,047,23,10,16,262,23*7D
$GPGSV,3,3,12,28,14,245,21,11,14,146,29,16,13,051,18,05,02,313,*76
$GPRMC,012933.000,A,3353.7527,N,09832.0268,W,0.23,102.53,300312,,,D*79
$GPGGA,012934.000,3353.7527,N,09832.0266,W,2,09,1.0,313.2,M,-23.7,M,0.8,0000*45
$GPGSA,A,3,23,11,19,07,13,03,06,16,28,,,,1.6,1.0,1.3*32
$GPRMC,012934.000,A,3353.7527,N,09832.0266,W,0.25,104.73,300312,,,D*72
$GPGGA,012935.000,3353.7527,N,09832.0264,W,2,09,1.0,314.0,M,-23.7,M,0.8,0000*43
$GPGSA,A,3,23,11,19,07,13,03,06,16,28,,,,1.6,1.0,1.3*32
$GPRMC,012935.000,A,3353.7527,N,09832.0264,W,0.19,130.29,300312,,,D*76
$GPGGA,012936.000,3353.7526,N,09832.0263,W,2,09,1.0,314.9,M,-23.7,M,1.8,0000*4E
$GPGSA,A,3,23,11,19,07,13,03,06,16,28,,,,1.6,1.0,1.3*32
$GPRMC,012936.000,A,3353.7526,N,09832.0263,W,0.16,133.89,300312,,,D*75
$GPGGA,012937.000,3353.7525,N,09832.0261,W,2,09,1.0,316.3,M,-23.7,M,2.8,0000*45
$GPGSA,A,3,23,11,19,07,13,03,06,16,28,,,,1.6,1.0,1.3*32
$GPRMC,012937.000,A,3353.7525,N,09832.0261,W,0.20,138.79,300312,,,D*74
$GPGGA,012938.000,3353.7524,N,09832.0260,W,2,09,1.0,317.6,M,-23.7,M,3.8,0000*4F
$GPGSA,A,3,23,11,19,07,13,03,06,16,28,,,,1.6,1.0,1.3*32
$GPGSV,3,1,12,13,73,201,28,07,57,335,40,19,55,106,21,23,42,167,40*7C
$GPGSV,3,2,12,03,38,054,42,08,26,305,22,06,25,047,23,10,16,262,22*7D
$GPGSV,3,3,12,28,14,245,22,11,14,146,29,16,13,051,17,05,02,313,*7A
$GPRMC,012938.000,A,3353.7524,N,09832.0260,W,0.20,135.42,300312,,,D*7E
$GPGGA,012939.000,3353.7523,N,09832.0258,W,2,09,1.0,319.1,M,-23.7,M,0.8,0000*48
$GPGSA,A,3,23,11,19,07,13,03,06,16,28,,,,1.6,1.0,1.3*32
$GPRMC,012939.000,A,3353.7523,N,09832.0258,W,0.20,115.81,300312,,,D*7E
$GPGGA,012940.000,3353.7522,N,09832.0256,W,2,09,1.0,320.2,M,-23.7,M,0.8,0000*40
$GPGSA,A,3,23,11,19,07,13,03,06,16,28,,,,1.6,1.0,1.3*32
$GPRMC,012940.000,A,3353.7522,N,09832.0256,W,0.12,110.74,300312,,,D*71
$GPGGA,012941.000,3353.7521,N,09832.0249,W,2,09,1.0,323.2,M,-23.7,M,0.8,0000*4F
$GPGSA,A,3,23,11,19,07,13,03,06,16,28,,,,1.6,1.0,1.3*32
$GPRMC,012941.000,A,3353.7521,N,09832.0249,W,0.40,100.30,300312,,,D*7B
$GPGGA,012942.000,3353.7520,N,09832.0243,W,2,09,1.0,325.7,M,-23.7,M,1.8,0000*45
$GPGSA,A,3,23,11,19,07,13,03,06,16,28,,,,1.6,1.0,1.3*32
$GPRMC,012942.000,A,3353.7520,N,09832.0243,W,0.53,98.31,300312,,,D*40
$GPGGA,012943.000,3353.7520,N,09832.0238,W,2,09,1.0,327.7,M,-23.7,M,2.8,0000*49
$GPGSA,A,3,23,11,19,07,13,03,06,16,28,,,,1.6,1.0,1.3*32
$GPGSV,3,1,12,13,73,201,29,07,57,335,40,19,55,106,22,23,42,167,40*7E
$GPGSV,3,2,12,03,38,054,42,08,26,305,22,06,25,047,18,10,16,262,21*76
$GPGSV,3,3,12,28,14,245,23,11,14,146,29,16,13,051,17,05,02,313,*7B
$GPRMC,012943.000,A,3353.7520,N,09832.0238,W,0.44,97.32,300312,,,D*47
$GPGGA,012944.000,3353.7519,N,09832.0233,W,2,09,1.0,329.4,M,-23.7,M,3.8,0000*43
$GPGSA,A,3,23,11,19,07,13,03,06,16,28,,,,1.6,1.0,1.3*32
$GPRMC,012944.000,A,3353.7519,N,09832.0233,W,0.43,99.19,300312,,,D*41
$GPGGA,012945.000,3353.7519,N,09832.0230,W,2,09,1.0,330.8,M,-23.7,M,0.8,0000*46
$GPGSA,A,3,23,11,19,07,13,03,06,16,28,,,,1.6,1.0,1.3*32
$GPRMC,012945.000,A,3353.7519,N,09832.0230,W,0.47,106.38,300312,,,D*73
$GPGGA,012946.000,3353.7518,N,09832.0227,W,2,09,1.0,332.1,M,-23.7,M,0.8,0000*49
$GPGSA,A,3,23,11,19,07,13,03,06,16,28,,,,1.6,1.0,1.3*32
$GPRMC,012946.000,A,3353.7518,N,09832.0227,W,0.46,109.80,300312,,,D*7A
$GPGGA,012947.000,3353.7518,N,09832.0225,W,2,09,1.0,332.9,M,-23.7,M,0.8,0000*42
$GPGSA,A,3,23,11,19,07,13,03,06,16,28,,,,1.6,1.0,1.3*32
$GPRMC,012947.000,A,3353.7518,N,09832.0225,W,0.38,111.86,300312,,,D*7F
$GPGGA,012948.000,3353.7517,N,09832.0223,W,2,09,1.0,333.8,M,-23.7,M,0.8,0000*44
$GPGSA,A,3,23,11,19,07,13,03,06,16,28,,,,1.6,1.0,1.3*32
$GPGSV,3,1,12,13,73,201,30,07,57,335,40,19,55,106,23,23,42,167,40*77
$GPGSV,3,2,12,03,38,054,42,08,26,305,21,06,25,047,19,10,16,262,21*74
$GPGSV,3,3,12,28,14,245,23,11,14,146,29,16,13,051,15,05,02,313,*79
$GPRMC,012948.000,A,3353.7517,N,09832.0223,W,0.42,108.67,300312,,,D*73
$GPGGA,012949.000,3353.7517,N,09832.0221,W,2,09,1.0,334.4,M,-23.7,M,0.8,0000*4C
$GPGSA,A,3,23,11,19,07,13,03,06,16,28,,,,1.6,1.0,1.3*32
$GPRMC,012949.000,A,3353.7517,N,09832.0221,W,0.41,103.87,300312,,,D*76
$GPGGA,012950.000,3353.7516,N,09832.0220,W,2,09,1.0,335.0,M,-23.7,M,1.8,0000*40
$GPGSA,A,3,23,11,19,07,13,03,06,16,28,,,,1.6,1.0,1.3*32
$GPRMC,012950.000,A,3353.7516,N,09832.0220,W,0.36,110.17,300312,,,D*75
$GPGGA,012951.000,3353.7516,N,09832.0219,W,2,09,1.0,335.6,M,-23.7,M,0.8,0000*4C
$GPGSA,A,3,23,11,19,07,13,03,06,16,28,,,,1.6,1.0,1.3*32
$GPRMC,012951.000,A,3353.7516,N,09832.0219,W,0.44,101.29,300312,,,D*76
$GPGGA,012952.000,3353.7516,N,09832.0217,W,2,09,1.0,336.1,M,-23.7,M,0.8,0000*45
$GPGSA,A,3,23,11,19,07,13,03,06,16,28,,,,1.6,1.0,1.3*32
$GPRMC,012952.000,A,3353.7516,N,09832.0217,W,0.41,103.59,300312,,,D*7B
$GPGGA,012953.000,3353.7516,N,09832.0216,W,2,09,1.0,336.6,M,-23.7,M,0.8,0000*42
$GPGSA,A,3,23,11,19,07,13,03,06,16,28,,,,1.6,1.0,1.3*32
$GPGSV,3,1,12,13,73,201,31,07,57,335,40,19,55,106,18,23,42,167,40*7E
$GPGSV,3,2,12,03,38,054,42,08,26,305,21,06,25,047,19,10,16,262,22*77
$GPGSV,3,3,12,28,14,245,24,11,14,146,28,16,13,051,15,05,02,313,*7F
$GPRMC,012953.000,A,3353.7516,N,09832.0216,W,0.40,94.86,300312,,,D*47
$GPGGA,012954.000,3353.7516,N,09832.0215,W,2,09,1.0,336.8,M,-23.7,M,1.8,0000*49
$GPGSA,A,3,23,11,19,07,13,03,06,16,28,,,,1.6,1.0,1.3*32
$GPRMC,012954.000,A,3353.7516,N,09832.0215,W,0.38,98.22,300312,,,D*4E
$GPGGA,012955.000,3353.7515,N,09832.0214,W,2,09,1.0,336.7,M,-23.7,M,0.8,0000*44
$GPGSA,A,3,23,11,19,07,13,03,06,16,28,,,,1.6,1.0,1.3*32
$GPRMC,012955.000,A,3353.7515,N,09832.0214,W,0.33,101.08,300312,,,D*7F
$GPGGA,012956.000,3353.7515,N,09832.0212,W,2,09,1.0,336.9,M,-23.7,M,1.8,0000*4E
$GPGSA,A,3,23,11,19,07,13,03,06,16,28,,,,1.6,1.0,1.3*32
$GPRMC,012956.000,A,3353.7515,N,09832.0212,W,0.36,107.36,300312,,,D*74
$GPGGA,012957.000,3353.7514,N,09832.0211,W,2,09,1.0,336.6,M,-23.7,M,0.8,0000*43
$GPGSA,A,3,23,11,19,07,13,03,06,16,28,,,,1.6,1.0,1.3*32
$GPRMC,012957.000,A,3353.7514,N,09832.0211,W,0.24,108.14,300312,,,D*7B
$GPGGA,012958.000,3353.7514,N,09832.0211,W,2,09,1.0,336.3,M,-23.7,M,0.8,0000*49
$GPGSA,A,3,23,11,19,07,13,03,06,16,28,,,,1.6,1.0,1.3*32
$GPGSV,3,1,12,13,73,201,32,07,57,335,39,19,55,106,17,23,42,167,40*7C
$GPGSV,3,2,12,03,38,054,42,08,26,305,21,06,25,047,18,10,16,262,22*76
$GPGSV,3,3,12,28,14,245,24,11,14,146,27,16,13,051,16,05,02,313,*73
$GPRMC,012958.000,A,3353.7514,N,09832.0211,W,0.23,105.48,300312,,,D*77
$GPGGA,012959.000,3353.7514,N,09832.0211,W,2,09,1.0,335.9,M,-23.7,M,0.8,0000*41
$GPGSA,A,3,23,11,19,07,13,03,06,16,28,,,,1.6,1.0,1.3*32
$GPRMC,012959.000,A,3353.7514,N,09832.0211,W,0.17,117.01,300312,,,D*7F
$GPGGA,013000.000,3353.7514,N,09832.0212,W,2,09,1.0,335.2,M,-23.7,M,0.8,0000*4D
$GPGSA,A,3,23,11,19,07,13,03,06,16,28,,,,1.6,1.0,1.3*32
$GPRMC,013000.000,A,3353.7514,N,09832.0212,W,0.09,157.49,300312,,,D*7F
$GPGGA,013001.000,3353.7513,N,09832.0213,W,2,09,1.0,334.7,M,-23.7,M,0.8,0000*4E
$GPGSA,A,3,23,11,19,07,13,03,06,16,28,,,,1.6,1.0,1.3*32
$GPRMC,013001.000,A,3353.7513,N,09832.0213,W,0.23,120.51,300312,,,D*79
$GPGGA,013002.000,3353.7513,N,09832.0213,W,2,09,1.0,334.4,M,-23.7,M,1.8,0000*4F
$GPGSA,A,3,23,11,19,07,13,03,06,16,28,,,,1.6,1.0,1.3*32
$GPRMC,013002.000,A,3353.7513,N,09832.0213,W,0.18,119.32,300312,,,D*7D
$GPGGA,013003.000,3353.7513,N,09832.0214,W,2,09,1.0,334.1,M,-23.7,M,0.8,0000*4D
$GPGSA,A,3,23,11,19,07,13,03,06,16,28,,,,1.6,1.0,1.3*32
$GPGSV,3,1,12,13,73,201,32,07,57,335,39,19,55,106,17,23,42,167,40*7C
$GPGSV,3,2,12,03,38,054,42,08,26,305,21,06,25,047,17,10,16,262,23*78
$GPGSV,3,3,12,28,14,245,23,11,14,146,27,16,13,051,19,05,02,313,*7B
$GPRMC,013003.000,A,3353.7513,N,09832.0214,W,0.15,106.05,300312,,,D*7C
$GPGGA,013004.000,3353.7513,N,09832.0214,W,2,09,1.0,333.6,M,-23.7,M,0.8,0000*4A
$GPGSA,A,3,23,11,19,07,13,03,06,16,28,,,,1.6,1.0,1.3*32
$GPRMC,013004.000,A,3353.7513,N,09832.0214,W,0.06,210.07,300312,,,D*7F
$GPGGA,013005.000,3353.7513,N,09832.0215,W,2,09,1.0,333.0,M,-23.7,M,0.8,0000*4C
$GPGSA,A,3,23,11,19,07,13,03,06,16,28,,,,1.6,1.0,1.3*32
$GPRMC,013005.000,A,3353.7513,N,09832.0215,W,0.21,73.07,300312,,,D*4D
$GPGGA,013006.000,3353.7513,N,09832.0216,W,2,09,1.0,332.1,M,-23.7,M,1.8,0000*4D
$GPGSA,A,3,23,11,19,07,13,03,06,16,28,,,,1.6,1.0,1.3*32
$GPRMC,013006.000,A,3353.7513,N,09832.0216,W,0.23,79.21,300312,,,D*41
$GPGGA,013007.000,3353.7514,N,09832.0218,W,2,09,1.0,330.8,M,-23.7,M,2.8,0000*4D
$GPGSA,A,3,23,11,19,07,13,03,06,16,28,,,,1.6,1.0,1.3*32
$GPRMC,013007.000,A,3353.7514,N,09832.0218,W,0.17,59.97,300312,,,D*41
$GPGGA,013008.000,3353.7514,N,09832.0218,W,2,09,1.0,330.6,M,-23.7,M,3.8,0000*4D
$GPGSA,A,3,23,11,19,07,13,03,06,16,28,,,,1.6,1.0,1.3*32
$GPGSV,3,1,12,13,73,201,33,07,57,335,39,19,55,106,18,23,42,167,39*7C
$GPGSV,3,2,12,03,38,054,41,08,26,305,22,06,25,047,16,10,16,262,25*7F
$GPGSV,3,3,12,28,14,245,22,11,14,146,26,16,13,051,20,05,02,313,*71
$GPRMC,013008.000,A,3353.7514,N,09832.0218,W,0.10,41.35,300312,,,D*48
$GPGGA,013009.000,3353.7514,N,09832.0219,W,2,09,1.0,330.2,M,-23.7,M,0.8,0000*4A
$GPGSA,A,3,23,11,19,07,13,03,06,16,28,,,,1.6,1.0,1.3*32
$GPRMC,013009.000,A,3353.7514,N,09832.0219,W,0.05,170.40,300312,,,D*7D
$GPGGA,013010.000,3353.7513,N,09832.0219,W,2,09,1.0,330.5,M,-23.7,M,0.8,0000*42
$GPGSA,A,3,23,11,19,07,13,03,06,16,28,,,,1.6,1.0,1.3*32
$GPRMC,013010.000,A,3353.7513,N,09832.0219,W,0.07,166.26,300312,,,D*77
$GPGGA,013011.000,3353.7513,N,09832.0218,W,2,09,1.0,330.8,M,-23.7,M,0.8,0000*4F
$GPGSA,A,3,23,11,19,07,13,03,06,16,28,,,,1.6,1.0,1.3*32
$GPRMC,013011.000,A,3353.7513,N,09832.0218,W,0.18,115.43,300312,,,D*7E
$GPGGA,013012.000,3353.7512,N,09832.0217,W,2,09,1.0,331.2,M,-23.7,M,1.8,0000*48
$GPGSA,A,3,23,11,19,07,13,03,06,16,28,,,,1.6,1.0,1.3*32
$GPRMC,013012.000,A,3353.7512,N,09832.0217,W,0.22,116.30,300312,,,D*7D
$GPGGA,013013.000,3353.7511,N,09832.0216,W,2,09,1.0,331.9,M,-23.7,M,2.8,0000*43
$GPGSA,A,3,23,11,19,07,13,03,06,16,28,,,,1.6,1.0,1.3*32
$GPGSV,3,1,12,13,73,201,33,07,57,335,39,19,55,106,20,23,42,167,39*77
$GPGSV,3,2,12,03,38,054,41,08,26,305,22,06,25,047,15,10,16,262,26*7F
$GPGSV,3,3,12,28,14,245,17,11,14,146,26,16,13,051,21,05,02,313,*76
$GPRMC,013013.000,A,3353.7511,N,09832.0216,W,0.25,118.40,300312,,,D*70
$GPGGA,013014.000,3353.7511,N,09832.0216,W,2,09,1.0,332.4,M,-23.7,M,3.8,0000*4B
$GPGSA,A,3,23,11,19,07,13,03,06,16,28,,,,1.6,1.0,1.3*32
$GPRMC,013014.000,A,3353.7511,N,09832.0216,W,0.27,108.23,300312,,,D*71
$GPGGA,013015.000,3353.7511,N,09832.0215,W,2,09,1.0,332.9,M,-23.7,M,0.8,0000*47
$GPGSA,A,3,23,11,19,07,13,03,06,16,28,,,,1.6,1.0,1.3*32
$GPRMC,013015.000,A,3353.7511,N,09832.0215,W,0.29,95.43,300312,,,D*4E
$GPGGA,013016.000,3353.7510,N,09832.0213,W,2,09,1.0,333.6,M,-23.7,M,0.8,0000*4D
$GPGSA,A,3,23,11,19,07,13,03,06,16,28,,,,1.6,1.0,1.3*32
$GPRMC,013016.000,A,3353.7510,N,09832.0213,W,0.37,97.81,300312,,,D*49
$GPGGA,013017.000,3353.7510,N,09832.0212,W,2,09,1.0,334.6,M,-23.7,M,0.8,0000*4A
$GPGSA,A,3,23,11,19,07,13,03,06,16,28,,,,1.6,1.0,1.3*32
$GPRMC,013017.000,A,3353.7510,N,09832.0212,W,0.46,89.04,300312,,,D*4D
$GPGGA,013018.000,3353.7510,N,09832.0210,W,2,09,1.0,335.1,M,-23.7,M,0.8,0000*41
$GPGSA,A,3,23,11,19,07,13,03,06,16,28,,,,1.6,1.0,1.3*32
$GPGSV,3,1,12,13,73,201,34,07,57,335,39,19,55,106,20,23,42,167,39*70
$GPGSV,3,2,12,03,38,054,41,08,26,305,22,06,25,047,13,10,16,262,26*79
$GPGSV,3,3,12,28,14,245,16,11,14,146,26,16,13,051,22,05,02,313,*74
$GPRMC,013018.000,A,3353.7510,N,09832.0210,W,0.51,88.67,300312,,,D*42
$GPGGA,013019.000,3353.7510,N,09832.0209,W,2,08,1.0,335.3,M,-23.7,M,1.8,0000*4A
$GPGSA,A,3,23,11,19,07,13,03,16,28,,,,,1.6,1.0,1.3*34
$GPRMC,013019.000,A,3353.7510,N,09832.0209,W,0.45,97.09,300312,,,D*48
$GPGGA,013020.000,3353.7510,N,09832.0208,W,2,08,1.0,335.1,M,-23.7,M,0.8,0000*42
$GPGSA,A,3,23,11,19,07,13,03,16,28,,,,,1.6,1.0,1.3*34
$GPRMC,013020.000,A,3353.7510,N,09832.0208,W,0.33,99.47,300312,,,D*46
$GPGGA,013021.000,3353.7510,N,09832.0208,W,2,08,1.0,334.8,M,-23.7,M,0.8,0000*4B
$GPGSA,A,3,23,11,19,07,13,03,16,28,,,,,1.6,1.0,1.3*34
$GPRMC,013021.000,A,3353.7510,N,09832.0208,W,0.25,105.89,300312,,,D*76
$GPGGA,013022.000,3353.7510,N,09832.0208,W,2,08,1.0,334.7,M,-23.7,M,0.8,0000*47
$GPGSA,A,3,23,11,19,07,13,03,16,28,,,,,1.6,1.0,1.3*34
$GPRMC,013022.000,A,3353.7510,N,09832.0208,W,0.20,98.72,300312,,,D*41
$GPGGA,013023.000,3353.7510,N,09832.0208,W,2,08,1.0,334.8,M,-23.7,M,0.8,0000*49
$GPGSA,A,3,23,11,19,07,13,03,16,28,,,,,1.6,1.0,1.3*34
$GPGSV,3,1,12,13,73,201,34,07,57,335,39,19,55,106,20,23,42,167,39*70
$GPGSV,3,2,12,03,38,054,41,08,26,305,22,06,25,047,,10,16,262,26*7B
$GPGSV,3,3,12,28,14,245,15,11,14,146,27,16,13,051,22,05,02,313,*76
$GPRMC,013023.000,A,3353.7510,N,09832.0208,W,0.17,123.67,300312,,,D*71
$GPGGA,013024.000,3353.7510,N,09832.0208,W,2,08,1.0,334.2,M,-23.7,M,1.8,0000*45
$GPGSA,A,3,23,11,19,07,13,03,16,28,,,,,1.6,1.0,1.3*34
$GPRMC,013024.000,A,3353.7510,N,09832.0208,W,0.10,136.46,300312,,,D*76
$GPGGA,013025.000,3353.7511,N,09832.0209,W,2,08,1.0,333.4,M,-23.7,M,2.8,0000*46
$GPGSA,A,3,23,11,19,07,13,03,16,28,,,,,1.6,1.0,1.3*34
$GPRMC,013025.000,A,3353.7511,N,09832.0209,W,0.16,126.43,300312,,,D*75
$GPGGA,013026.000,3353.7511,N,09832.0209,W,2,08,1.0,333.1,M,-23.7,M,3.8,0000*41
$GPGSA,A,3,23,11,19,07,13,03,16,28,,,,,1.6,1.0,1.3*34
$GPRMC,013026.000,A,3353.7511,N,09832.0209,W,0.27,106.33,300312,,,D*71
$GPGGA,013027.000,3353.7512,N,09832.0208,W,2,08,1.0,332.6,M,-23.7,M,0.8,0000*47
$GPGSA,A,3,23,11,19,07,13,03,16,28,,,,,1.6,1.0,1.3*34
$GPRMC,013027.000,A,3353.7512,N,09832.0208,W,0.25,92.89,300312,,,D*4D
$GPGGA,013028.000,3353.7512,N,09832.0208,W,2,08,1.0,332.3,M,-23.7,M,0.8,0000*4D
$GPGSA,A,3,23,11,19,07,13,03,16,28,,,,,1.6,1.0,1.3*34
$GPGSV,3,1,12,13,73,201,34,07,57,335,39,19,55,106,21,23,42,167,39*71
$GPGSV,3,2,12,03,38,054,41,08,26,305,21,06,25,047,,10,16,262,26*78
$GPGSV,3,3,12,28,14,245,17,11,14,146,27,16,13,051,23,05,02,313,*75
$GPRMC,013028.000,A,3353.7512,N,09832.0208,W,0.26,95.63,300312,,,D*42
$GPGGA,013029.000,3353.7513,N,09832.0208,W,2,08,1.0,331.8,M,-23.7,M,0.8,0000*45
$GPGSA,A,3,23,11,19,07,13,03,16,28,,,,,1.6,1.0,1.3*34
$GPRMC,013029.000,A,3353.7513,N,09832.0208,W,0.29,91.65,300312,,,D*4F
$GPGGA,013030.000,3353.7514,N,09832.0208,W,2,08,1.0,331.1,M,-23.7,M,1.8,0000*42
$GPGSA,A,3,23,11,19,07,13,03,16,28,,,,,1.6,1.0,1.3*34
$GPRMC,013030.000,A,3353.7514,N,09832.0208,W,0.11,67.88,300312,,,D*41
$GPGGA,013031.000,3353.7514,N,09832.0209,W,2,09,1.0,330.4,M,-23.7,M,2.8,0000*44
$GPGSA,A,3,23,11,19,07,13,03,06,16,28,,,,1.6,1.0,1.3*32
$GPRMC,013031.000,A,3353.7514,N,09832.0209,W,0.07,47.35,300312,,,D*42
$GPGGA,013032.000,3353.7515,N,09832.0210,W,2,09,1.0,329.7,M,-23.7,M,3.8,0000*44
$GPGSA,A,3,23,11,19,07,13,03,06,16,28,,,,1.6,1.0,1.3*32
$GPRMC,013032.000,A,3353.7515,N,09832.0210,W,0.03,336.11,300312,,,D*7F
$GPGGA,013033.000,3353.7516,N,09832.0212,W,2,09,1.0,328.9,M,-23.7,M,0.8,0000*48
$GPGSA,A,3,23,11,19,07,13,03,06,16,28,,,,1.6,1.0,1.3*32
$GPGSV,3,1,12,13,73,201,34,07,57,335,39,19,55,106,20,23,42,167,38*71
$GPGSV,3,2,12,03,38,054,41,08,26,305,21,06,25,047,15,10,16,262,25*7F
$GPGSV,3,3,12,28,14,245,19,11,14,146,28,16,13,051,23,05,02,313,*74
$GPRMC,013033.000,A,3353.7516,N,09832.0212,W,0.06,317.44,300312,,,D*79
$GPGGA,013034.000,3353.7516,N,09832.0212,W,2,09,1.0,328.7,M,-23.7,M,0.8,0000*41
$GPGSA,A,3,23,11,19,07,13,03,06,16,28,,,,1.6,1.0,1.3*32
$GPRMC,013034.000,A,3353.7516,N,09832.0212,W,0.08,106.55,300312,,,D*72
$GPGGA,013035.000,3353.7517,N,09832.0212,W,2,09,1.0,328.5,M,-23.7,M,0.8,0000*43
