$GPGGA,235618.000,3353.7516,N,09832.0233,W,2,08,1.2,330.9,M,-23.7,M,0.8,0000*48
$GPGSA,A,3,06,16,23,20,03,13,30,19,,,,,1.9,1.2,1.5*35
$GPGSV,3,1,12,23,80,158,19,13,64,320,28,03,49,100,43,16,40,040,37*75
$GPGSV,3,2,12,06,40,080,38,07,35,300,,19,31,146,38,10,22,295,*75
$GPGSV,3,3,12,20,15,200,14,30,14,048,18,08,06,280,,32,05,179,*77
$GPRMC,235618.000,A,3353.7516,N,09832.0233,W,0.09,279.32,030412,,,D*73
$GPGGA,235619.000,3353.7515,N,09832.0234,W,2,08,1.2,330.6,M,-23.7,M,0.8,0000*42
$GPGSA,A,3,06,16,23,20,03,13,30,19,,,,,1.9,1.2,1.5*35
$GPRMC,235619.000,A,3353.7515,N,09832.0234,W,0.26,235.44,030412,,,D*72
$GPGGA,235620.000,3353.7515,N,09832.0235,W,2,08,1.2,330.2,M,-23.7,M,0.8,0000*4D
$GPGSA,A,3,06,16,23,20,03,13,30,19,,,,,1.9,1.2,1.5*35
$GPRMC,235620.000,A,3353.7515,N,09832.0235,W,0.15,215.73,030412,,,D*7F
$GPGGA,235621.000,3353.7515,N,09832.0235,W,2,08,1.2,329.9,M,-23.7,M,1.8,0000*4E
$GPGSA,A,3,06,16,23,20,03,13,30,19,,,,,1.9,1.2,1.5*35
$GPRMC,235621.000,A,3353.7515,N,09832.0235,W,0.40,62.44,030412,,,D*48
$GPGGA,235622.000,3353.7515,N,09832.0234,W,2,09,0.9,329.9,M,-23.7,M,0.8,0000*46
$GPGSA,A,3,06,16,23,20,07,03,13,30,19,,,,1.7,0.9,1.5*36
$GPRMC,235622.000,A,3353.7515,N,09832.0234,W,0.50,69.59,030412,,,D*4C
$GPGGA,235623.000,3353.7515,N,09832.0233,W,2,09,0.9,330.0,M,-23.7,M,1.8,0000*40
$GPGSA,A,3,06,16,23,20,07,03,13,30,19,,,,1.7,0.9,1.5*36
$GPGSV,3,1,12,23,80,158,19,13,64,320,28,03,49,100,42,16,40,040,37*74
$GPGSV,3,2,12,06,40,080,38,07,35,300,22,19,31,146,38,10,22,295,*75
$GPGSV,3,3,12,20,15,200,17,30,14,048,19,08,06,280,,32,05,179,*75
$GPRMC,235623.000,A,3353.7515,N,09832.0233,W,0.28,82.89,030412,,,D*4D
$GPGGA,235624.000,3353.7515,N,09832.0233,W,2,09,0.9,330.0,M,-23.7,M,0.8,0000*46
$GPGSA,A,3,06,16,23,20,07,03,13,30,19,,,,1.7,0.9,1.5*36
$GPRMC,235624.000,A,3353.7515,N,09832.0233,W,0.06,174.10,030412,,,D*7E
$GPGGA,235625.000,3353.7515,N,09832.0234,W,2,09,0.9,329.8,M,-23.7,M,1.8,0000*41
$GPGSA,A,3,06,16,23,20,07,03,13,30,19,,,,1.7,0.9,1.5*36
$GPRMC,235625.000,A,3353.7515,N,09832.0234,W,0.11,236.54,030412,,,D*7B
$GPGGA,235626.000,3353.7516,N,09832.0234,W,2,09,0.9,329.5,M,-23.7,M,2.8,0000*4F
$GPGSA,A,3,06,16,23,20,07,03,13,30,19,,,,1.7,0.9,1.5*36
$GPRMC,235626.000,A,3353.7516,N,09832.0234,W,0.16,16.32,030412,,,D*4C
$GPGGA,235627.000,3353.7516,N,09832.0234,W,2,09,0.9,329.1,M,-23.7,M,3.8,0000*4B
$GPGSA,A,3,06,16,23,20,07,03,13,30,19,,,,1.7,0.9,1.5*36
$GPRMC,235627.000,A,3353.7516,N,09832.0234,W,0.25,54.18,030412,,,D*43
$GPGGA,235628.000,3353.7516,N,09832.0235,W,2,09,0.9,328.8,M,-23.7,M,4.8,0000*4A
$GPGSA,A,3,06,16,23,20,07,03,13,30,19,,,,1.7,0.9,1.5*36
$GPGSV,3,1,12,23,80,158,18,13,64,320,28,03,49,100,42,16,40,040,37*75
$GPGSV,3,2,12,06,40,080,38,07,35,300,22,19,31,146,38,10,22,295,*75
$GPGSV,3,3,12,20,15,200,17,30,14,048,20,08,06,280,,32,05,179,*7F
$GPRMC,235628.000,A,3353.7516,N,09832.0235,W,0.12,47.79,030412,,,D*4C
$GPGGA,235629.000,3353.7517,N,09832.0234,W,2,09,0.9,328.5,M,-23.7,M,0.8,0000*42
$GPGSA,A,3,06,16,23,20,07,03,13,30,19,,,,1.7,0.9,1.4*37
$GPRMC,235629.000,A,3353.7517,N,09832.0234,W,0.25,94.10,030412,,,D*48
$GPGGA,235630.000,3353.7516,N,09832.0234,W,2,09,0.9,328.4,M,-23.7,M,0.8,0000*4A
$GPGSA,A,3,06,16,23,20,07,03,13,30,19,,,,1.7,0.9,1.4*37
$GPRMC,235630.000,A,3353.7516,N,09832.0234,W,0.33,107.91,030412,,,D*74
$GPGGA,235631.000,3353.7516,N,09832.0233,W,2,09,0.9,328.3,M,-23.7,M,0.8,0000*4B
$GPGSA,A,3,06,16,23,20,07,03,13,30,19,,,,1.7,0.9,1.4*37
$GPRMC,235631.000,A,3353.7516,N,09832.0233,W,0.42,95.49,030412,,,D*4B
$GPGGA,235632.000,3353.7516,N,09832.0233,W,2,09,0.9,328.4,M,-23.7,M,0.8,0000*4F
$GPGSA,A,3,06,16,23,20,07,03,13,30,19,,,,1.7,0.9,1.4*37
$GPRMC,235632.000,A,3353.7516,N,09832.0233,W,0.56,89.08,030412,,,D*45
$GPGGA,235633.000,3353.7516,N,09832.0232,W,2,08,1.0,328.3,M,-23.7,M,1.8,0000*40
$GPGSA,A,3,06,16,20,07,03,13,30,19,,,,,2.0,1.0,1.8*36
$GPGSV,3,1,12,23,80,158,,13,64,320,28,03,49,100,42,16,40,040,37*7C
$GPGSV,3,2,12,06,40,080,38,07,35,300,22,19,31,146,38,10,22,295,*75
$GPGSV,3,3,12,20,15,200,18,30,14,048,20,08,06,280,,32,05,179,*70
$GPRMC,235633.000,A,3353.7516,N,09832.0232,W,0.59,69.85,030412,,,D*41
$GPGGA,235634.000,3353.7516,N,09832.0231,W,2,08,1.0,328.6,M,-23.7,M,2.8,0000*42
$GPGSA,A,3,06,16,20,07,03,13,30,19,,,,,2.0,1.0,1.8*36
$GPRMC,235634.000,A,3353.7516,N,09832.0231,W,0.42,87.14,030412,,,D*47
$GPGGA,235635.000,3353.7516,N,09832.0231,W,2,08,1.0,328.8,M,-23.7,M,0.8,0000*4F
$GPGSA,A,3,06,16,20,07,03,13,30,19,,,,,2.0,1.0,1.8*36
$GPRMC,235635.000,A,3353.7516,N,09832.0231,W,0.09,197.19,030412,,,D*74
$GPGGA,235636.000,3353.7516,N,09832.0232,W,2,08,1.0,328.7,M,-23.7,M,0.8,0000*40
$GPGSA,A,3,06,16,20,07,03,13,30,19,,,,,2.0,1.0,1.8*36
$GPRMC,235636.000,A,3353.7516,N,09832.0232,W,0.08,174.90,030412,,,D*79
$GPGGA,235637.000,3353.7516,N,09832.0233,W,2,08,1.0,328.7,M,-23.7,M,0.8,0000*40
$GPGSA,A,3,06,16,20,07,03,13,30,19,,,,,2.0,1.0,1.8*36
$GPRMC,235637.000,A,3353.7516,N,09832.0233,W,0.19,222.35,030412,,,D*76
$GPGGA,235638.000,3353.7516,N,09832.0234,W,2,08,1.0,328.6,M,-23.7,M,0.8,0000*49
$GPGSA,A,3,06,16,20,07,03,13,30,19,,,,,2.0,1.0,1.8*36
$GPGSV,3,1,12,23,80,158,,13,64,320,28,03,49,100,42,16,40,040,37*7C
$GPGSV,3,2,12,06,40,080,38,07,35,300,23,19,31,146,38,10,22,295,*74
$GPGSV,3,3,12,20,15,200,17,30,14,048,21,08,06,280,,32,05,179,*7E
$GPRMC,235638.000,A,3353.7516,N,09832.0234,W,0.09,270.98,030412,,,D*7F
$GPGGA,235639.000,3353.7516,N,09832.0234,W,2,08,1.0,328.5,M,-23.7,M,1.8,0000*4A
$GPGSA,A,3,06,16,20,07,03,13,30,19,,,,,2.0,1.0,1.8*36
$GPRMC,235639.000,A,3353.7516,N,09832.0234,W,0.04,343.21,030412,,,D*70
$GPGGA,235640.000,3353.7516,N,09832.0235,W,2,08,1.0,328.4,M,-23.7,M,0.8,0000*45
$GPGSA,A,3,06,16,20,07,03,13,30,19,,,,,2.0,1.0,1.8*36
$GPRMC,235640.000,A,3353.7516,N,09832.0235,W,0.30,54.29,030412,,,D*45
$GPGGA,235641.000,3353.7517,N,09832.0235,W,2,08,1.0,328.2,M,-23.7,M,1.8,0000*42
$GPGSA,A,3,06,16,20,07,03,13,30,19,,,,,2.0,1.0,1.8*36
$GPRMC,235641.000,A,3353.7517,N,09832.0235,W,0.13,27.43,030412,,,D*4C
$GPGGA,235642.000,3353.7517,N,09832.0236,W,2,08,1.0,328.3,M,-23.7,M,0.8,0000*42
$GPGSA,A,3,06,16,20,07,03,13,30,19,,,,,2.0,1.0,1.8*36
$GPRMC,235642.000,A,3353.7517,N,09832.0236,W,0.06,235.57,030412,,,D*7C
$GPGGA,235643.000,3353.7517,N,09832.0236,W,2,08,1.0,328.4,M,-23.7,M,0.8,0000*44
$GPGSA,A,3,06,16,20,07,03,13,30,19,,,,,2.0,1.0,1.8*36
$GPGSV,3,1,12,23,80,158,,13,64,320,28,03,49,100,42,06,40,080,38*7E
$GPGSV,3,2,12,16,40,040,37,07,36,301,24,19,32,146,38,10,22,295,*70
$GPGSV,3,3,12,20,15,200,17,30,14,048,22,08,06,280,,32,05,179,*7D
$GPRMC,235643.000,A,3353.7517,N,09832.0236,W,0.05,354.46,030412,,,D*78
$GPGGA,235644.000,3353.7517,N,09832.0236,W,2,08,1.0,328.7,M,-23.7,M,0.8,0000*40
$GPGSA,A,3,06,16,20,07,03,13,30,19,,,,,2.0,1.0,1.8*36
$GPRMC,235644.000,A,3353.7517,N,09832.0236,W,0.33,84.62,030412,,,D*42
$GPGGA,235645.000,3353.7517,N,09832.0236,W,2,08,1.0,328.8,M,-23.7,M,1.8,0000*4F
$GPGSA,A,3,06,16,20,07,03,13,30,19,,,,,2.0,1.0,1.8*36
$GPRMC,235645.000,A,3353.7517,N,09832.0236,W,0.46,52.15,030412,,,D*4A
$GPGGA,235646.000,3353.7517,N,09832.0235,W,2,08,1.0,329.1,M,-23.7,M,0.8,0000*46
$GPGSA,A,3,06,16,20,07,03,13,30,19,,,,,2.0,1.0,1.8*36
$GPRMC,235646.000,A,3353.7517,N,09832.0235,W,0.44,63.50,030412,,,D*4B
$GPGGA,235647.000,3353.7518,N,09832.0235,W,2,08,1.0,329.5,M,-23.7,M,1.8,0000*4D
$GPGSA,A,3,06,16,20,07,03,13,30,19,,,,,2.0,1.0,1.8*36
$GPRMC,235647.000,A,3353.7518,N,09832.0235,W,0.30,76.30,030412,,,D*44
$GPGGA,235648.000,3353.7517,N,09832.0234,W,2,08,1.0,329.9,M,-23.7,M,0.8,0000*41
$GPGSA,A,3,06,16,20,07,03,13,30,19,,,,,2.0,1.0,1.8*36
$GPGSV,3,1,12,23,80,158,,13,64,320,28,03,49,100,42,06,40,080,38*7E
$GPGSV,3,2,12,16,40,040,37,07,36,301,26,19,32,146,38,10,22,295,*72
$GPGSV,3,3,12,20,15,200,17,30,14,048,22,08,06,280,,32,04,179,*7C
$GPRMC,235648.000,A,3353.7517,N,09832.0234,W,0.19,80.31,030412,,,D*46
$GPGGA,235649.000,3353.7518,N,09832.0234,W,2,09,0.9,329.9,M,-23.7,M,0.8,0000*46
$GPGSA,A,3,06,16,23,20,07,03,13,30,19,,,,1.7,0.9,1.4*37
$GPRMC,235649.000,A,3353.7518,N,09832.0234,W,0.41,59.42,030412,,,D*45
$GPGGA,235650.000,3353.7518,N,09832.0234,W,2,09,0.9,330.0,M,-23.7,M,0.8,0000*4F
$GPGSA,A,3,06,16,23,20,07,03,13,30,19,,,,1.7,0.9,1.4*37
$GPRMC,235650.000,A,3353.7518,N,09832.0234,W,0.30,27.14,030412,,,D*41
$GPGGA,235651.000,3353.7519,N,09832.0234,W,2,09,0.9,330.3,M,-23.7,M,0.8,0000*4C
$GPGSA,A,3,06,16,23,20,07,03,13,30,19,,,,1.7,0.9,1.4*37
$GPRMC,235651.000,A,3353.7519,N,09832.0234,W,0.24,32.05,030412,,,D*40
$GPGGA,235652.000,3353.7519,N,09832.0234,W,2,09,0.9,330.4,M,-23.7,M,1.8,0000*49
$GPGSA,A,3,06,16,23,20,07,03,13,30,19,,,,1.7,0.9,1.4*37
$GPRMC,235652.000,A,3353.7519,N,09832.0234,W,0.21,46.20,030412,,,D*42
$GPGGA,235653.000,3353.7519,N,09832.0235,W,2,09,0.9,330.6,M,-23.7,M,2.8,0000*48
$GPGSA,A,3,06,16,23,20,07,03,13,30,19,,,,1.7,0.9,1.4*37
$GPGSV,3,1,12,23,80,158,19,13,64,320,28,03,49,100,42,06,40,080,38*76
$GPGSV,3,2,12,16,40,040,38,07,36,301,26,19,32,146,38,10,22,295,*7D
$GPGSV,3,3,12,20,15,200,16,30,14,048,22,08,06,280,,32,04,179,*7D
$GPRMC,235653.000,A,3353.7519,N,09832.0235,W,0.02,5.18,030412,,,D*7F
$GPGGA,235654.000,3353.7519,N,09832.0236,W,2,09,0.9,330.6,M,-23.7,M,0.8,0000*4E
$GPGSA,A,3,06,16,23,20,07,03,13,30,19,,,,1.7,0.9,1.4*37
$GPRMC,235654.000,A,3353.7519,N,09832.0236,W,0.20,30.79,030412,,,D*4A
$GPGGA,235655.000,3353.7520,N,09832.0236,W,2,09,0.9,330.6,M,-23.7,M,0.8,0000*45
$GPGSA,A,3,06,16,23,20,07,03,13,30,19,,,,1.7,0.9,1.4*37
$GPRMC,235655.000,A,3353.7520,N,09832.0236,W,0.26,9.71,030412,,,D*75
$GPGGA,235656.000,3353.7520,N,09832.0236,W,2,09,0.9,330.8,M,-23.7,M,0.8,0000*48
$GPGSA,A,3,06,16,23,20,07,03,13,30,19,,,,1.7,0.9,1.4*37
$GPRMC,235656.000,A,3353.7520,N,09832.0236,W,0.26,115.88,030412,,,D*7C
$GPGGA,235657.000,3353.7519,N,09832.0237,W,2,09,0.9,330.9,M,-23.7,M,1.8,0000*42
$GPGSA,A,3,06,16,23,20,07,03,13,30,19,,,,1.7,0.9,1.4*37
$GPRMC,235657.000,A,3353.7519,N,09832.0237,W,0.17,215.31,030412,,,D*75
$GPGGA,235658.000,3353.7519,N,09832.0237,W,2,09,0.9,330.9,M,-23.7,M,2.8,0000*4E
$GPGSA,A,3,06,16,23,20,07,03,13,30,19,,,,1.7,0.9,1.4*37
$GPGSV,3,1,12,23,80,158,21,13,64,320,28,03,49,100,43,06,40,080,38*7C
$GPGSV,3,2,12,16,40,040,38,07,36,301,26,19,32,146,38,10,22,295,*7D
$GPGSV,3,3,12,20,15,200,14,30,14,048,21,08,06,280,,32,04,179,*7C
$GPRMC,235658.000,A,3353.7519,N,09832.0237,W,0.13,209.13,030412,,,D*73
$GPGGA,235659.000,3353.7518,N,09832.0238,W,2,09,0.9,330.8,M,-23.7,M,3.8,0000*41
$GPGSA,A,3,06,16,23,20,07,03,13,30,19,,,,1.7,0.9,1.4*37
$GPRMC,235659.000,A,3353.7518,N,09832.0238,W,0.07,152.42,030412,,,D*70
$GPGGA,235700.000,3353.7518,N,09832.0238,W,2,09,0.9,330.7,M,-23.7,M,0.8,0000*40
$GPGSA,A,3,06,16,23,20,07,03,13,30,19,,,,1.7,0.9,1.4*37
$GPRMC,235700.000,A,3353.7518,N,09832.0238,W,0.01,64.64,030412,,,D*4B
$GPGGA,235701.000,3353.7518,N,09832.0238,W,2,08,1.2,330.7,M,-23.7,M,0.8,0000*4A
$GPGSA,A,3,06,16,23,07,03,13,30,19,,,,,2.3,1.2,1.9*35
$GPRMC,235701.000,A,3353.7518,N,09832.0238,W,0.09,47.36,030412,,,D*44
$GPGGA,235702.000,3353.7518,N,09832.0239,W,2,08,1.2,330.9,M,-23.7,M,0.8,0000*46
$GPGSA,A,3,06,16,23,07,03,13,30,19,,,,,2.3,1.2,1.9*35
$GPRMC,235702.000,A,3353.7518,N,09832.0239,W,0.02,318.00,030412,,,D*71
$GPGGA,235703.000,3353.7518,N,09832.0239,W,2,08,1.2,330.8,M,-23.7,M,1.8,0000*47
$GPGSA,A,3,06,16,23,07,03,13,30,19,,,,,2.3,1.2,1.9*35
$GPGSV,3,1,12,23,80,158,22,13,64,320,28,03,49,100,43,06,40,080,38*7F
$GPGSV,3,2,12,16,40,040,38,07,36,301,25,19,32,146,38,10,22,295,*7E
$GPGSV,3,3,12,20,15,200,,30,14,048,21,08,06,280,,32,04,179,*79
$GPRMC,235703.000,A,3353.7518,N,09832.0239,W,0.23,34.85,030412,,,D*43
$GPGGA,235704.000,3353.7518,N,09832.0240,W,2,08,1.2,330.6,M,-23.7,M,2.8,0000*43
$GPGSA,A,3,06,16,23,07,03,13,30,19,,,,,2.3,1.2,1.9*35
$GPRMC,235704.000,A,3353.7518,N,09832.0240,W,0.25,37.55,030412,,,D*42
$GPGGA,235705.000,3353.7519,N,09832.0240,W,2,08,1.2,330.5,M,-23.7,M,3.8,0000*41
$GPGSA,A,3,06,16,23,07,03,13,30,19,,,,,2.3,1.2,1.9*35
$GPRMC,235705.000,A,3353.7519,N,09832.0240,W,0.27,47.34,030412,,,D*40
$GPGGA,235706.000,3353.7519,N,09832.0240,W,2,08,1.2,330.4,M,-23.7,M,0.8,0000*40
$GPGSA,A,3,06,16,23,07,03,13,30,19,,,,,2.3,1.2,1.9*35
$GPRMC,235706.000,A,3353.7519,N,09832.0240,W,0.19,62.85,030412,,,D*43
$GPGGA,235707.000,3353.7519,N,09832.0240,W,2,08,1.2,330.2,M,-23.7,M,0.8,0000*47
$GPGSA,A,3,06,16,23,07,03,13,30,19,,,,,2.3,1.2,1.9*35
$GPRMC,235707.000,A,3353.7519,N,09832.0240,W,0.09,32.94,030412,,,D*46
$GPGGA,235708.000,3353.7519,N,09832.0240,W,2,08,1.2,330.0,M,-23.7,M,0.8,0000*4A
$GPGSA,A,3,06,16,23,07,03,13,30,19,,,,,2.3,1.2,1.9*35
$GPGSV,3,1,12,23,80,158,23,13,64,320,28,03,49,100,43,06,40,080,38*7E
$GPGSV,3,2,12,16,40,040,38,07,36,301,25,19,32,146,38,10,22,295,*7E
$GPGSV,3,3,12,20,15,200,,30,14,048,20,08,06,280,,32,04,179,*78
$GPRMC,235708.000,A,3353.7519,N,09832.0240,W,0.23,65.84,030412,,,D*42
$GPGGA,235709.000,3353.7519,N,09832.0241,W,2,08,1.2,329.7,M,-23.7,M,1.8,0000*44
$GPGSA,A,3,06,16,23,07,03,13,30,19,,,,,2.3,1.2,1.9*35
$GPRMC,235709.000,A,3353.7519,N,09832.0241,W,0.11,39.26,030412,,,D*42
$GPGGA,235710.000,3353.7519,N,09832.0241,W,2,08,1.2,329.5,M,-23.7,M,2.8,0000*4D
$GPGSA,A,3,06,16,23,07,03,13,30,19,,,,,2.3,1.2,1.9*35
$GPRMC,235710.000,A,3353.7519,N,09832.0241,W,0.09,71.29,030412,,,D*40
$GPGGA,235711.000,3353.7518,N,09832.0241,W,2,08,1.2,329.5,M,-23.7,M,3.8,0000*4C
$GPGSA,A,3,06,16,23,07,03,13,30,19,,,,,2.3,1.2,1.9*35
$GPRMC,235711.000,A,3353.7518,N,09832.0241,W,0.11,86.44,030412,,,D*4A
$GPGGA,235712.000,3353.7518,N,09832.0241,W,2,08,1.2,329.4,M,-23.7,M,0.8,0000*4D
$GPGSA,A,3,06,16,23,07,03,13,30,19,,,,,2.3,1.2,1.9*35
$GPRMC,235712.000,A,3353.7518,N,09832.0241,W,0.16,56.68,030412,,,D*4D
$GPGGA,235713.000,3353.7518,N,09832.0242,W,2,08,1.2,329.3,M,-23.7,M,0.8,0000*48
$GPGSA,A,3,06,16,23,07,03,13,30,19,,,,,2.3,1.2,1.9*35
$GPGSV,3,1,12,23,80,158,22,13,64,320,29,03,49,100,43,06,40,080,38*7E
$GPGSV,3,2,12,16,40,040,38,07,36,301,24,19,32,146,38,10,22,294,*7E
$GPGSV,3,3,12,20,15,200,,30,14,048,20,08,06,280,,32,04,179,*78
$GPRMC,235713.000,A,3353.7518,N,09832.0242,W,0.18,43.54,030412,,,D*4A
$GPGGA,235714.000,3353.7519,N,09832.0242,W,2,08,1.2,329.1,M,-23.7,M,0.8,0000*4C
$GPGSA,A,3,06,16,23,07,03,13,30,19,,,,,2.3,1.2,1.9*35
$GPRMC,235714.000,A,3353.7519,N,09832.0242,W,0.26,39.22,030412,,,D*4D
$GPGGA,235715.000,3353.7519,N,09832.0242,W,2,08,1.2,328.9,M,-23.7,M,1.8,0000*45
$GPGSA,A,3,06,16,23,07,03,13,30,19,,,,,2.3,1.2,1.9*35
$GPRMC,235715.000,A,3353.7519,N,09832.0242,W,0.17,326.03,030412,,,D*70
$GPGGA,235716.000,3353.7519,N,09832.0244,W,2,09,0.9,328.7,M,-23.7,M,0.8,0000*44
$GPGSA,A,3,06,16,23,20,07,03,13,30,19,,,,1.7,0.9,1.4*37
$GPRMC,235716.000,A,3353.7519,N,09832.0244,W,0.35,288.24,030412,,,D*75
$GPGGA,235717.000,3353.7520,N,09832.0245,W,2,09,0.9,328.3,M,-23.7,M,0.8,0000*4A
$GPGSA,A,3,06,16,23,20,07,03,13,30,19,,,,1.7,0.9,1.4*37
$GPRMC,235717.000,A,3353.7520,N,09832.0245,W,0.25,289.97,030412,,,D*77
$GPGGA,235718.000,3353.7520,N,09832.0246,W,2,09,0.9,328.2,M,-23.7,M,0.8,0000*47
$GPGSA,A,3,06,16,23,20,07,03,13,30,19,,,,1.7,0.9,1.4*37
$GPGSV,3,1,12,23,80,158,21,13,64,320,30,03,49,100,43,06,40,080,38*75
$GPGSV,3,2,12,16,40,040,38,07,36,301,24,19,32,146,38,10,22,294,*7E
$GPGSV,3,3,12,20,15,200,17,30,14,048,21,08,06,280,,32,04,179,*7F
$GPRMC,235718.000,A,3353.7520,N,09832.0246,W,0.13,264.11,030412,,,D*73
$GPGGA,235719.000,3353.7519,N,09832.0248,W,2,09,0.9,328.2,M,-23.7,M,0.8,0000*42
$GPGSA,A,3,06,16,23,20,07,03,13,30,19,,,,1.7,0.9,1.4*37
$GPRMC,235719.000,A,3353.7519,N,09832.0248,W,0.33,255.67,030412,,,D*77
$GPGGA,235720.000,3353.7519,N,09832.0248,W,2,09,0.9,328.3,M,-23.7,M,0.8,0000*49
$GPGSA,A,3,06,16,23,20,07,03,13,30,19,,,,1.7,0.9,1.4*37
$GPRMC,235720.000,A,3353.7519,N,09832.0248,W,0.20,97.59,030412,,,D*4E
$GPGGA,235721.000,3353.7518,N,09832.0248,W,2,09,0.9,328.2,M,-23.7,M,1.8,0000*49
$GPGSA,A,3,06,16,23,20,07,03,13,30,19,,,,1.7,0.9,1.4*37
$GPRMC,235721.000,A,3353.7518,N,09832.0248,W,0.02,181.90,030412,,,D*7D
$GPGGA,235722.000,3353.7518,N,09832.0248,W,2,09,0.9,328.1,M,-23.7,M,2.8,0000*4A
$GPGSA,A,3,06,16,23,20,07,03,13,30,19,,,,1.7,0.9,1.4*37
$GPRMC,235722.000,A,3353.7518,N,09832.0248,W,0.12,144.50,030412,,,D*7A
$GPGGA,235723.000,3353.7518,N,09832.0248,W,2,09,0.9,328.0,M,-23.7,M,0.8,0000*48
$GPGSA,A,3,06,16,23,20,07,03,13,30,19,,,,1.7,0.9,1.4*37
$GPGSV,3,1,12,23,80,158,20,13,64,320,30,03,49,100,43,06,40,080,38*74
$GPGSV,3,2,12,16,40,040,38,07,36,301,24,19,32,146,38,10,22,294,*7E
$GPGSV,3,3,12,20,15,200,16,30,14,048,21,08,06,280,,32,04,179,*7E
$GPRMC,235723.000,A,3353.7518,N,09832.0248,W,0.06,128.28,030412,,,D*7B
$GPGGA,235724.000,3353.7518,N,09832.0248,W,2,09,0.9,327.8,M,-23.7,M,0.8,0000*48
$GPGSA,A,3,06,16,23,20,07,03,13,30,19,,,,1.7,0.9,1.4*37
$GPRMC,235724.000,A,3353.7518,N,09832.0248,W,0.34,58.77,030412,,,D*41
$GPGGA,235725.000,3353.7518,N,09832.0247,W,2,09,0.9,327.5,M,-23.7,M,0.8,0000*4B
$GPGSA,A,3,06,16,23,20,07,03,13,30,19,,,,1.7,0.9,1.4*37
$GPRMC,235725.000,A,3353.7518,N,09832.0247,W,0.43,71.47,030412,,,D*47
$GPGGA,235726.000,3353.7519,N,09832.0247,W,2,09,0.9,327.5,M,-23.7,M,0.8,0000*49
$GPGSA,A,3,06,16,23,20,07,03,13,30,19,,,,1.7,0.9,1.4*37
$GPRMC,235726.000,A,3353.7519,N,09832.0247,W,0.19,30.38,030412,,,D*47
$GPGGA,235727.000,3353.7519,N,09832.0246,W,2,09,0.9,327.6,M,-23.7,M,1.8,0000*4B
$GPGSA,A,3,06,16,23,20,07,03,13,30,19,,,,1.7,0.9,1.4*37
$GPRMC,235727.000,A,3353.7519,N,09832.0246,W,0.38,63.95,030412,,,D*45
$GPGGA,235728.000,3353.7520,N,09832.0246,W,2,09,0.9,327.8,M,-23.7,M,2.8,0000*43
$GPGSA,A,3,06,16,23,20,07,03,13,30,19,,,,1.7,0.9,1.4*37
$GPGSV,3,1,12,23,80,158,19,13,64,320,31,03,49,100,43,06,40,080,38*7F
$GPGSV,3,2,12,16,40,040,38,07,36,301,24,19,32,146,39,10,22,294,*7F
$GPGSV,3,3,12,20,15,200,16,30,14,048,22,08,06,280,,32,04,179,*7D
$GPRMC,235728.000,A,3353.7520,N,09832.0246,W,0.26,49.88,030412,,,D*4B
$GPGGA,235729.000,3353.7520,N,09832.0246,W,2,09,0.9,327.6,M,-23.7,M,3.8,0000*4D
$GPGSA,A,3,06,16,23,20,07,03,13,30,19,,,,1.7,0.9,1.4*37
$GPRMC,235729.000,A,3353.7520,N,09832.0246,W,0.26,45.17,030412,,,D*40
$GPGGA,235730.000,3353.7520,N,09832.0246,W,2,09,0.9,327.4,M,-23.7,M,0.8,0000*44
$GPGSA,A,3,06,16,23,20,07,03,13,30,19,,,,1.7,0.9,1.4*37
$GPRMC,235730.000,A,3353.7520,N,09832.0246,W,0.21,71.18,030412,,,D*47
$GPGGA,235731.000,3353.7520,N,09832.0246,W,2,09,0.9,327.5,M,-23.7,M,0.8,0000*44
$GPGSA,A,3,06,16,23,20,07,03,13,30,19,,,,1.7,0.9,1.4*37
$GPRMC,235731.000,A,3353.7520,N,09832.0246,W,0.08,238.85,030412,,,D*76
$GPGGA,235732.000,3353.7520,N,09832.0247,W,2,09,0.9,327.6,M,-23.7,M,0.8,0000*45
$GPGSA,A,3,06,16,23,20,07,03,13,30,19,,,,1.7,0.9,1.4*37
$GPRMC,235732.000,A,3353.7520,N,09832.0247,W,0.19,241.01,030412,,,D*76
$GPGGA,235733.000,3353.7519,N,09832.0248,W,2,09,0.9,327.4,M,-23.7,M,1.8,0000*42
$GPGSA,A,3,06,16,23,20,07,03,13,30,19,,,,1.7,0.9,1.4*37
$GPGSV,3,1,12,23,80,158,19,13,64,320,32,03,49,100,43,06,40,080,38*7C
$GPGSV,3,2,12,16,40,040,38,07,36,301,24,19,32,146,39,10,22,294,*7F
$GPGSV,3,3,12,20,15,200,15,30,14,048,23,08,06,280,,32,04,179,*7F
$GPRMC,235733.000,A,3353.7519,N,09832.0248,W,0.26,273.29,030412,,,D*75
$GPGGA,235734.000,3353.7519,N,09832.0249,W,2,09,0.9,327.5,M,-23.7,M,2.8,0000*46
$GPGSA,A,3,06,16,23,20,07,03,13,30,19,,,,1.7,0.9,1.4*37
$GPRMC,235734.000,A,3353.7519,N,09832.0249,W,0.20,225.51,030412,,,D*79
$GPGGA,235735.000,3353.7519,N,09832.0248,W,2,09,0.9,327.4,M,-23.7,M,3.8,0000*46
$GPGSA,A,3,06,16,23,20,07,03,13,30,19,,,,1.7,0.9,1.4*37
$GPRMC,235735.000,A,3353.7519,N,09832.0248,W,0.25,93.25,030412,,,D*40
$GPGGA,235736.000,3353.7519,N,09832.0248,W,2,09,0.9,327.4,M,-23.7,M,0.8,0000*46
$GPGSA,A,3,06,16,23,20,07,03,13,30,19,,,,1.7,0.9,1.4*37
$GPRMC,235736.000,A,3353.7519,N,09832.0248,W,0.12,49.75,030412,,,D*45
$GPGGA,235737.000,3353.7519,N,09832.0248,W,2,09,0.9,327.2,M,-23.7,M,0.8,0000*41
$GPGSA,A,3,06,16,23,20,07,03,13,30,19,,,,1.7,0.9,1.4*37
$GPRMC,235737.000,A,3353.7519,N,09832.0248,W,0.27,68.59,030412,,,D*4F
$GPGGA,235738.000,3353.7519,N,09832.0248,W,2,09,0.9,327.0,M,-23.7,M,0.8,0000*4C
$GPGSA,A,3,06,16,23,20,07,03,13,30,19,,,,1.7,0.9,1.4*37
$GPGSV,3,1,12,23,80,158,20,13,64,320,32,03,49,100,43,06,40,080,39*77
$GPGSV,3,2,12,16,40,040,38,07,36,301,24,19,32,146,39,10,22,294,*7F
$GPGSV,3,3,12,20,15,200,15,30,14,048,23,08,06,280,,32,04,179,*7F
$GPRMC,235738.000,A,3353.7519,N,09832.0248,W,0.14,321.78,030412,,,D*7D
$GPGGA,235739.000,3353.7519,N,09832.0248,W,2,09,0.9,327.1,M,-23.7,M,0.8,0000*4C
$GPGSA,A,3,06,16,23,20,07,03,13,30,19,,,,1.7,0.9,1.4*37
$GPRMC,235739.000,A,3353.7519,N,09832.0248,W,0.27,269.79,030412,,,D*70
$GPGGA,235740.000,3353.7519,N,09832.0249,W,2,09,0.9,327.1,M,-23.7,M,1.8,0000*42
$GPGSA,A,3,06,16,23,20,07,03,13,30,19,,,,1.7,0.9,1.4*37
$GPRMC,235740.000,A,3353.7519,N,09832.0249,W,0.30,61.17,030412,,,D*4B
$GPGGA,235741.000,3353.7520,N,09832.0248,W,2,09,0.9,327.0,M,-23.7,M,2.8,0000*4A
$GPGSA,A,3,06,16,23,20,07,03,13,30,19,,,,1.7,0.9,1.4*37
$GPRMC,235741.000,A,3353.7520,N,09832.0248,W,0.25,64.74,030412,,,D*45
$GPGGA,235742.000,3353.7519,N,09832.0248,W,2,09,0.9,327.1,M,-23.7,M,0.8,0000*40
$GPGSA,A,3,06,16,23,20,07,03,13,30,19,,,,1.7,0.9,1.4*37
$GPRMC,235742.000,A,3353.7519,N,09832.0248,W,0.14,236.39,030412,,,D*72
$GPGGA,235743.000,3353.7519,N,09832.0249,W,2,09,0.9,327.2,M,-23.7,M,0.8,0000*43
$GPGSA,A,3,06,16,23,20,07,03,13,30,19,,,,1.7,0.9,1.4*37
$GPGSV,3,1,12,23,80,158,20,13,64,320,33,03,49,100,42,06,40,080,39*77
$GPGSV,3,2,12,16,40,040,38,07,36,301,24,19,32,146,38,10,22,294,*7E
$GPGSV,3,3,12,20,15,200,13,30,14,048,24,08,06,280,,32,04,179,*7E
$GPRMC,235743.000,A,3353.7519,N,09832.0249,W,0.24,258.91,030412,,,D*7B
$GPGGA,235744.000,3353.7519,N,09832.0249,W,2,09,0.9,327.0,M,-23.7,M,0.8,0000*46
$GPGSA,A,3,06,16,23,20,07,03,13,30,19,,,,1.7,0.9,1.4*37
$GPRMC,235744.000,A,3353.7519,N,09832.0249,W,0.24,82.10,030412,,,D*40
$GPGGA,235745.000,3353.7519,N,09832.0249,W,2,09,0.9,327.0,M,-23.7,M,1.8,0000*46
$GPGSA,A,3,06,16,23,20,07,03,13,30,19,,,,1.7,0.9,1.4*37
$GPRMC,235745.000,A,3353.7519,N,09832.0249,W,0.05,109.77,030412,,,D*71
$GPGGA,235746.000,3353.7519,N,09832.0249,W,2,08,1.2,326.7,M,-23.7,M,2.8,0000*4B
$GPGSA,A,3,06,16,23,07,03,13,30,19,,,,,2.3,1.2,1.9*35
$GPRMC,235746.000,A,3353.7519,N,09832.0249,W,0.28,71.43,030412,,,D*44
$GPGGA,235747.000,3353.7518,N,09832.0248,W,2,08,1.2,326.6,M,-23.7,M,0.8,0000*49
$GPGSA,A,3,06,16,23,07,03,13,30,19,,,,,2.3,1.2,1.9*35
$GPRMC,235747.000,A,3353.7518,N,09832.0248,W,0.27,89.67,030412,,,D*4B
$GPGGA,235748.000,3353.7519,N,09832.0248,W,2,08,1.2,326.5,M,-23.7,M,0.8,0000*44
$GPGSA,A,3,06,16,23,07,03,13,30,19,,,,,2.3,1.2,1.9*35
$GPGSV,3,1,12,23,79,158,20,13,64,320,33,03,49,099,42,06,40,079,39*76
$GPGSV,3,2,12,16,40,040,38,07,36,301,24,19,32,146,38,10,22,294,*7E
$GPGSV,3,3,12,20,14,200,,30,14,048,24,08,07,280,,32,04,179,*7C
$GPRMC,235748.000,A,3353.7519,N,09832.0248,W,0.18,2.95,030412,,,D*77
$GPGGA,235749.000,3353.7519,N,09832.0247,W,2,08,1.2,326.2,M,-23.7,M,0.8,0000*4D
$GPGSA,A,3,06,16,23,07,03,13,30,19,,,,,2.3,1.2,1.9*35
$GPRMC,235749.000,A,3353.7519,N,09832.0247,W,0.39,56.58,030412,,,D*4A
$GPGGA,235750.000,3353.7519,N,09832.0246,W,2,08,1.2,326.3,M,-23.7,M,0.8,0000*45
$GPGSA,A,3,06,16,23,07,03,13,30,19,,,,,2.3,1.2,1.9*35
$GPRMC,235750.000,A,3353.7519,N,09832.0246,W,0.27,66.85,030412,,,D*4F
$GPGGA,235751.000,3353.7520,N,09832.0246,W,2,08,1.2,326.2,M,-23.7,M,1.8,0000*4E
$GPGSA,A,3,06,16,23,07,03,13,30,19,,,,,2.3,1.2,1.9*35
$GPRMC,235751.000,A,3353.7520,N,09832.0246,W,0.20,23.00,030412,,,D*4F
$GPGGA,235752.000,3353.7520,N,09832.0246,W,2,08,1.2,326.3,M,-23.7,M,2.8,0000*4F
$GPGSA,A,3,06,16,23,07,03,13,30,19,,,,,2.3,1.2,1.9*35
$GPRMC,235752.000,A,3353.7520,N,09832.0246,W,0.29,73.71,030412,,,D*46
$GPGGA,235753.000,3353.7520,N,09832.0245,W,2,08,1.2,326.2,M,-23.7,M,3.8,0000*4D
$GPGSA,A,3,06,16,23,07,03,13,30,19,,,,,2.3,1.2,1.9*35
$GPGSV,3,1,12,23,79,158,21,13,64,320,34,03,49,099,42,06,40,079,39*70
$GPGSV,3,2,12,16,40,040,39,07,36,301,24,19,32,146,38,10,22,294,*7F
$GPGSV,3,3,12,20,14,200,,30,14,048,24,08,07,280,,32,04,179,*7C
$GPRMC,235753.000,A,3353.7520,N,09832.0245,W,0.47,68.37,030412,,,D*44
$GPGGA,235754.000,3353.7520,N,09832.0244,W,2,08,1.2,326.4,M,-23.7,M,0.8,0000*4E
$GPGSA,A,3,06,16,23,07,03,13,30,19,,,,,2.3,1.2,1.9*35
$GPRMC,235754.000,A,3353.7520,N,09832.0244,W,0.21,101.91,030412,,,D*70
$GPGGA,235755.000,3353.7519,N,09832.0244,W,2,08,1.2,326.4,M,-23.7,M,0.8,0000*45
$GPGSA,A,3,06,16,23,07,03,13,30,19,,,,,2.3,1.2,1.9*35
$GPRMC,235755.000,A,3353.7519,N,09832.0244,W,0.18,74.86,030412,,,D*44
$GPGGA,235756.000,3353.7519,N,09832.0244,W,2,08,1.2,326.4,M,-23.7,M,0.8,0000*46
$GPGSA,A,3,06,16,23,07,03,13,30,19,,,,,2.3,1.2,1.9*35
$GPRMC,235756.000,A,3353.7519,N,09832.0244,W,0.07,53.91,030412,,,D*4A
$GPGGA,235757.000,3353.7519,N,09832.0243,W,2,08,1.2,326.4,M,-23.7,M,1.8,0000*41
$GPGSA,A,3,06,16,23,07,03,13,30,19,,,,,2.3,1.2,1.9*35
$GPRMC,235757.000,A,3353.7519,N,09832.0243,W,0.18,80.60,030412,,,D*42
$GPGGA,235758.000,3353.7519,N,09832.0243,W,2,08,1.2,326.4,M,-23.7,M,2.8,0000*4D
$GPGSA,A,3,06,16,23,07,03,13,30,19,,,,,2.3,1.2,1.9*35
$GPGSV,3,1,12,23,79,158,21,13,64,320,34,03,49,099,42,06,40,079,39*70
$GPGSV,3,2,12,16,40,040,39,07,36,301,25,19,32,146,38,10,22,294,*7E
$GPGSV,3,3,12,20,14,200,,30,14,048,25,08,07,280,,32,04,179,*7D
$GPRMC,235758.000,A,3353.7519,N,09832.0243,W,0.10,93.41,030412,,,D*44
$GPGGA,235759.000,3353.7518,N,09832.0243,W,2,08,1.2,326.6,M,-23.7,M,3.8,0000*4E
$GPGSA,A,3,06,16,23,07,03,13,30,19,,,,,2.3,1.2,1.9*35
$GPRMC,235759.000,A,3353.7518,N,09832.0243,W,0.08,93.20,030412,,,D*4A
$GPGGA,235800.000,3353.7518,N,09832.0243,W,2,08,1.2,326.7,M,-23.7,M,0.8,0000*4F
$GPGSA,A,3,06,16,23,07,03,13,30,19,,,,,2.3,1.2,1.9*35
$GPRMC,235800.000,A,3353.7518,N,09832.0243,W,0.14,38.49,030412,,,D*4A
$GPGGA,235801.000,3353.7518,N,09832.0242,W,2,08,1.2,326.7,M,-23.7,M,1.8,0000*4E
$GPGSA,A,3,06,16,23,07,03,13,30,19,,,,,2.3,1.2,1.9*35
$GPRMC,235801.000,A,3353.7518,N,09832.0242,W,0.27,60.60,030412,,,D*4C
$GPGGA,235802.000,3353.7518,N,09832.0242,W,2,08,1.2,326.8,M,-23.7,M,0.8,0000*43
$GPGSA,A,3,06,16,23,07,03,13,30,19,,,,,2.3,1.2,1.9*35
$GPRMC,235802.000,A,3353.7518,N,09832.0242,W,0.16,42.11,030412,,,D*4B
$GPGGA,235803.000,3353.7518,N,09832.0242,W,2,08,1.2,326.9,M,-23.7,M,0.8,0000*43
$GPGSA,A,3,06,16,23,07,03,13,30,19,,,,,2.3,1.2,1.9*35
$GPGSV,3,1,12,23,79,158,22,13,64,320,34,03,49,099,42,06,40,079,39*73
$GPGSV,3,2,12,16,40,040,39,07,36,301,25,19,32,146,39,10,22,294,*7F
$GPGSV,3,3,12,20,14,200,,30,14,048,25,08,07,280,,32,04,179,*7D
$GPRMC,235803.000,A,3353.7518,N,09832.0242,W,0.21,47.65,030412,,,D*48
$GPGGA,235804.000,3353.7519,N,09832.0242,W,2,08,1.2,326.9,M,-23.7,M,1.8,0000*44
$GPGSA,A,3,06,16,23,07,03,13,30,19,,,,,2.3,1.2,1.9*35
$GPRMC,235804.000,A,3353.7519,N,09832.0242,W,0.23,51.27,030412,,,D*4D
$GPGGA,235805.000,3353.7519,N,09832.0241,W,2,08,1.2,326.9,M,-23.7,M,0.8,0000*47
$GPGSA,A,3,06,16,23,07,03,13,30,19,,,,,2.3,1.2,1.9*35
$GPRMC,235805.000,A,3353.7519,N,09832.0241,W,0.22,50.19,030412,,,D*42
$GPGGA,235806.000,3353.7519,N,09832.0241,W,2,08,1.2,327.0,M,-23.7,M,0.8,0000*4C
$GPGSA,A,3,06,16,23,07,03,13,30,19,,,,,2.3,1.2,1.9*35
$GPRMC,235806.000,A,3353.7519,N,09832.0241,W,0.04,67.72,030412,,,D*4C
$GPGGA,235807.000,3353.7518,N,09832.0241,W,2,08,1.2,327.1,M,-23.7,M,0.8,0000*4D
$GPGSA,A,3,06,16,23,07,03,13,30,19,,,,,2.3,1.2,1.9*35
$GPRMC,235807.000,A,3353.7518,N,09832.0241,W,0.00,111.77,030412,,,D*7D
$GPGGA,235808.000,3353.7518,N,09832.0241,W,2,08,1.2,327.1,M,-23.7,M,0.8,0000*42
$GPGSA,A,3,06,16,23,07,03,13,30,19,,,,,2.3,1.2,1.9*35
$GPGSV,3,1,12,23,79,158,23,13,64,320,33,03,49,099,42,06,40,079,39*75
$GPGSV,3,2,12,16,40,040,39,07,36,301,26,19,32,146,39,10,22,294,*7C
$GPGSV,3,3,12,20,14,200,,30,14,048,26,08,07,280,,32,04,179,*7E
$GPRMC,235808.000,A,3353.7518,N,09832.0241,W,0.16,84.44,030412,,,D*48
$GPGGA,235809.000,3353.7518,N,09832.0241,W,2,08,1.2,327.2,M,-23.7,M,1.8,0000*41
$GPGSA,A,3,06,16,23,07,03,13,30,19,,,,,2.3,1.2,1.9*35
$GPRMC,235809.000,A,3353.7518,N,09832.0241,W,0.11,88.72,030412,,,D*47
$GPGGA,235810.000,3353.7517,N,09832.0241,W,2,08,1.2,327.2,M,-23.7,M,0.8,0000*47
$GPGSA,A,3,06,16,23,07,03,13,30,19,,,,,2.3,1.2,1.9*35
$GPRMC,235810.000,A,3353.7517,N,09832.0241,W,0.17,81.57,030412,,,D*48
$GPGGA,235811.000,3353.7517,N,09832.0241,W,2,08,1.2,327.3,M,-23.7,M,1.8,0000*46
$GPGSA,A,3,06,16,23,07,03,13,30,19,,,,,2.3,1.2,1.9*35
$GPRMC,235811.000,A,3353.7517,N,09832.0241,W,0.08,84.13,030412,,,D*42
$GPGGA,235812.000,3353.7517,N,09832.0240,W,2,08,1.2,327.3,M,-23.7,M,0.8,0000*45
$GPGSA,A,3,06,16,23,07,03,13,30,19,,,,,2.3,1.2,1.9*35
$GPRMC,235812.000,A,3353.7517,N,09832.0240,W,0.18,53.21,030412,,,D*4A
$GPGGA,235813.000,3353.7517,N,09832.0240,W,2,08,1.2,327.3,M,-23.7,M,0.8,0000*44
$GPGSA,A,3,06,16,23,07,03,13,30,19,,,,,2.3,1.2,1.9*35
$GPGSV,3,1,12,23,79,158,23,13,64,320,33,03,49,099,42,06,40,079,39*75
$GPGSV,3,2,12,16,40,040,38,07,36,301,25,19,32,146,39,10,22,294,*7E
$GPGSV,3,3,12,20,14,200,,30,14,048,26,08,07,280,,32,04,179,*7E
$GPRMC,235813.000,A,3353.7517,N,09832.0240,W,0.23,56.77,030412,,,D*45
$GPGGA,235814.000,3353.7517,N,09832.0239,W,2,09,0.9,327.3,M,-23.7,M,0.8,0000*46
$GPGSA,A,3,06,16,23,20,07,03,13,30,19,,,,1.7,0.9,1.4*37
$GPRMC,235814.000,A,3353.7517,N,09832.0239,W,0.08,17.64,030412,,,D*42
$GPGGA,235815.000,3353.7517,N,09832.0239,W,2,09,0.9,327.3,M,-23.7,M,1.8,0000*46
$GPGSA,A,3,06,16,23,20,07,03,13,30,19,,,,1.7,0.9,1.4*37
$GPRMC,235815.000,A,3353.7517,N,09832.0239,W,0.10,66.84,030412,,,D*42
$GPGGA,235816.000,3353.7517,N,09832.0239,W,2,09,0.9,327.2,M,-23.7,M,0.8,0000*45
$GPGSA,A,3,06,16,23,20,07,03,13,30,19,,,,1.7,0.9,1.4*37
$GPRMC,235816.000,A,3353.7517,N,09832.0239,W,0.19,74.72,030412,,,D*42
$GPGGA,235817.000,3353.7517,N,09832.0239,W,2,09,0.9,327.1,M,-23.7,M,1.8,0000*46
$GPGSA,A,3,06,16,23,20,07,03,13,30,19,,,,1.7,0.9,1.4*37
$GPRMC,235817.000,A,3353.7517,N,09832.0239,W,0.09,1.96,030412,,,D*7A
$GPGGA,235818.000,3353.7517,N,09832.0239,W,2,09,0.9,327.0,M,-23.7,M,0.8,0000*49
$GPGSA,A,3,06,16,23,20,07,03,13,30,19,,,,1.7,0.9,1.4*37
$GPGSV,3,1,12,23,79,159,23,13,65,320,33,03,49,099,42,06,40,079,39*75
$GPGSV,3,2,12,16,39,040,38,07,36,301,25,19,32,146,39,10,22,294,*70
$GPGSV,3,3,12,20,14,199,17,30,13,048,26,08,07,281,,32,04,178,*7C
$GPRMC,235818.000,A,3353.7517,N,09832.0239,W,0.09,63.26,030412,,,D*4A
$GPGGA,235819.000,3353.7517,N,09832.0239,W,2,09,0.9,326.9,M,-23.7,M,0.8,0000*40
$GPGSA,A,3,06,16,23,20,07,03,13,30,19,,,,1.7,0.9,1.4*37
$GPRMC,235819.000,A,3353.7517,N,09832.0239,W,0.04,134.46,030412,,,D*73
$GPGGA,235820.000,3353.7516,N,09832.0240,W,2,09,0.9,326.7,M,-23.7,M,0.8,0000*4B
$GPGSA,A,3,06,16,23,20,07,03,13,30,19,,,,1.7,0.9,1.4*37
$GPRMC,235820.000,A,3353.7516,N,09832.0240,W,0.06,178.67,030412,,,D*7F
$GPGGA,235821.000,3353.7516,N,09832.0240,W,2,09,0.9,326.7,M,-23.7,M,1.8,0000*4B
$GPGSA,A,3,06,16,23,20,07,03,13,30,19,,,,1.7,0.9,1.4*37
$GPRMC,235821.000,A,3353.7516,N,09832.0240,W,0.04,227.20,030412,,,D*76
$GPGGA,235822.000,3353.7516,N,09832.0239,W,2,09,0.9,326.7,M,-23.7,M,2.8,0000*45
$GPGSA,A,3,06,16,23,20,07,03,13,30,19,,,,1.7,0.9,1.4*37
$GPRMC,235822.000,A,3353.7516,N,09832.0239,W,0.25,85.80,030412,,,D*48
$GPGGA,235823.000,3353.7515,N,09832.0239,W,2,09,0.9,326.8,M,-23.7,M,3.8,0000*49
$GPGSA,A,3,06,16,23,20,07,03,13,30,19,,,,1.7,0.9,1.4*37
$GPGSV,3,1,12,23,79,159,23,13,65,320,33,03,49,099,42,06,40,079,39*75
$GPGSV,3,2,12,16,39,040,38,07,36,301,24,19,32,146,39,10,22,294,*71
$GPGSV,3,3,12,20,14,199,16,30,13,048,26,08,07,281,,32,04,178,*7D
$GPRMC,235823.000,A,3353.7515,N,09832.0239,W,0.21,67.85,030412,,,D*47
$GPGGA,235824.000,3353.7516,N,09832.0238,W,2,09,0.9,326.8,M,-23.7,M,0.8,0000*4F
$GPGSA,A,3,06,16,23,20,07,03,13,30,19,,,,1.7,0.9,1.4*37
$GPRMC,235824.000,A,3353.7516,N,09832.0238,W,0.39,57.72,030412,,,D*40
$GPGGA,235825.000,3353.7516,N,09832.0237,W,2,09,0.9,326.9,M,-23.7,M,0.8,0000*40
$GPGSA,A,3,06,16,23,20,07,03,13,30,19,,,,1.7,0.9,1.4*37
$GPRMC,235825.000,A,3353.7516,N,09832.0237,W,0.41,59.91,030412,,,D*42
$GPGGA,235826.000,3353.7516,N,09832.0236,W,2,09,0.9,327.0,M,-23.7,M,0.8,0000*4A
$GPGSA,A,3,06,16,23,20,07,03,13,30,19,,,,1.7,0.9,1.4*37
$GPRMC,235826.000,A,3353.7516,N,09832.0236,W,0.17,47.83,030412,,,D*4F
$GPGGA,235827.000,3353.7516,N,09832.0237,W,2,09,0.9,327.1,M,-23.7,M,0.8,0000*4B
$GPGSA,A,3,06,16,23,20,07,03,13,30,19,,,,1.7,0.9,1.4*37
$GPRMC,235827.000,A,3353.7516,N,09832.0237,W,0.08,322.83,030412,,,D*71
$GPGGA,235828.000,3353.7516,N,09832.0236,W,2,09,0.9,327.1,M,-23.7,M,1.8,0000*44
$GPGSA,A,3,06,16,23,20,07,03,13,30,19,,,,1.7,0.9,1.4*37
$GPGSV,3,1,12,23,79,159,22,13,65,320,33,03,49,099,41,06,40,079,38*76
$GPGSV,3,2,12,16,39,040,38,07,36,301,25,19,32,146,39,10,22,294,*70
$GPGSV,3,3,12,20,14,199,15,30,13,048,26,08,07,281,,32,04,178,*7E
$GPRMC,235828.000,A,3353.7516,N,09832.0236,W,0.14,56.63,030412,,,D*4C
$GPGGA,235829.000,3353.7516,N,09832.0236,W,2,09,0.9,327.2,M,-23.7,M,2.8,0000*45
$GPGSA,A,3,06,16,23,20,07,03,13,30,19,,,,1.7,0.9,1.4*37
$GPRMC,235829.000,A,3353.7516,N,09832.0236,W,0.08,15.86,030412,,,D*4C
$GPGGA,235830.000,3353.7516,N,09832.0236,W,2,09,0.9,327.2,M,-23.7,M,0.8,0000*4F
$GPGSA,A,3,06,16,23,20,07,03,13,30,19,,,,1.7,0.9,1.4*37
$GPRMC,235830.000,A,3353.7516,N,09832.0236,W,0.04,99.20,030412,,,D*40
$GPGGA,235831.000,3353.7516,N,09832.0237,W,2,09,0.9,327.2,M,-23.7,M,0.8,0000*4F
$GPGSA,A,3,06,16,23,20,07,03,13,30,19,,,,1.7,0.9,1.4*37
$GPRMC,235831.000,A,3353.7516,N,09832.0237,W,0.05,202.79,030412,,,D*7D
$GPGGA,235832.000,3353.7515,N,09832.0237,W,2,09,0.9,327.1,M,-23.7,M,0.8,0000*4C
$GPGSA,A,3,06,16,23,20,07,03,13,30,19,,,,1.7,0.9,1.4*37
$GPRMC,235832.000,A,3353.7515,N,09832.0237,W,0.08,228.22,030412,,,D*76
$GPGGA,235833.000,3353.7515,N,09832.0237,W,2,09,0.9,327.0,M,-23.7,M,1.8,0000*4D
$GPGSA,A,3,06,16,23,20,07,03,13,30,19,,,,1.7,0.9,1.4*37
$GPGSV,3,1,12,23,79,159,22,13,65,320,33,03,49,099,41,06,40,079,38*76
$GPGSV,3,2,12,16,39,040,38,07,36,301,25,19,32,146,39,10,22,294,*70
$GPGSV,3,3,12,20,14,199,14,30,13,048,26,08,07,281,,32,04,178,*7F
$GPRMC,235833.000,A,3353.7515,N,09832.0237,W,0.11,226.32,030412,,,D*70
$GPGGA,235834.000,3353.7514,N,09832.0238,W,2,09,0.9,326.9,M,-23.7,M,2.8,0000*4F
$GPGSA,A,3,06,16,23,20,07,03,13,30,19,,,,1.7,0.9,1.4*37
$GPRMC,235834.000,A,3353.7514,N,09832.0238,W,0.19,252.48,030412,,,D*7F
$GPGGA,235835.000,3353.7514,N,09832.0239,W,2,09,0.9,326.7,M,-23.7,M,3.8,0000*40
$GPGSA,A,3,06,16,23,20,07,03,13,30,19,,,,1.7,0.9,1.4*37
$GPRMC,235835.000,A,3353.7514,N,09832.0239,W,0.09,234.61,030412,,,D*75
$GPGGA,235836.000,3353.7514,N,09832.0239,W,2,09,0.9,326.5,M,-23.7,M,0.8,0000*42
$GPGSA,A,3,06,16,23,20,07,03,13,30,19,,,,1.7,0.9,1.4*37
$GPRMC,235836.000,A,3353.7514,N,09832.0239,W,0.22,278.56,030412,,,D*73
$GPGGA,235837.000,3353.7514,N,09832.0240,W,2,09,0.9,326.3,M,-23.7,M,0.8,0000*4B
$GPGSA,A,3,06,16,23,20,07,03,13,30,19,,,,1.7,0.9,1.4*37
$GPRMC,235837.000,A,3353.7514,N,09832.0240,W,0.08,40.78,030412,,,D*41
$GPGGA,235838.000,3353.7514,N,09832.0240,W,2,09,0.9,326.4,M,-23.7,M,0.8,0000*43
$GPGSA,A,3,06,16,23,20,07,03,13,30,19,,,,1.7,0.9,1.4*37
$GPGSV,3,1,12,23,79,159,22,13,65,320,33,03,49,099,41,06,40,079,38*76
$GPGSV,3,2,12,16,39,040,38,07,36,301,25,19,32,146,39,10,22,294,*70
$GPGSV,3,3,12,20,14,199,14,30,13,048,26,08,07,281,,32,04,178,*7F
$GPRMC,235838.000,A,3353.7514,N,09832.0240,W,0.11,30.31,030412,,,D*4C
$GPGGA,235839.000,3353.7514,N,09832.0239,W,2,09,0.9,326.5,M,-23.7,M,1.8,0000*4C
$GPGSA,A,3,06,16,23,20,07,03,13,30,19,,,,1.7,0.9,1.4*37
$GPRMC,235839.000,A,3353.7514,N,09832.0239,W,0.20,38.40,030412,,,D*4F
$GPGGA,235840.000,3353.7514,N,09832.0239,W,2,09,0.9,326.4,M,-23.7,M,2.8,0000*40
$GPGSA,A,3,06,16,23,20,07,03,13,30,19,,,,1.7,0.9,1.4*37
$GPRMC,235840.000,A,3353.7514,N,09832.0239,W,0.12,24.70,030412,,,D*4E
$GPGGA,235841.000,3353.7514,N,09832.0239,W,2,09,0.9,326.3,M,-23.7,M,3.8,0000*47
$GPGSA,A,3,06,16,23,20,07,03,13,30,19,,,,1.7,0.9,1.4*37
$GPRMC,235841.000,A,3353.7514,N,09832.0239,W,0.11,61.70,030412,,,D*4D
$GPGGA,235842.000,3353.7514,N,09832.0238,W,2,09,0.9,326.2,M,-23.7,M,0.8,0000*47
$GPGSA,A,3,06,16,23,20,07,03,13,30,19,,,,1.7,0.9,1.4*37
$GPRMC,235842.000,A,3353.7514,N,09832.0238,W,0.28,99.61,030412,,,D*42
$GPGGA,235843.000,3353.7514,N,09832.0238,W,2,09,0.9,326.2,M,-23.7,M,0.8,0000*46
$GPGSA,A,3,06,16,23,20,07,03,13,30,19,,,,1.7,0.9,1.4*37
$GPGSV,3,1,12,23,79,159,23,13,65,320,33,03,49,099,41,06,40,079,39*76
$GPGSV,3,2,12,16,39,040,38,07,36,301,24,19,32,146,40,10,22,294,*7F
$GPGSV,3,3,12,20,14,199,13,30,13,048,27,08,07,281,,32,04,178,*79
$GPRMC,235843.000,A,3353.7514,N,09832.0238,W,0.18,256.38,030412,,,D*7D
$GPGGA,235844.000,3353.7513,N,09832.0239,W,2,09,0.9,326.0,M,-23.7,M,0.8,0000*45
$GPGSA,A,3,06,16,23,20,07,03,13,30,19,,,,1.7,0.9,1.4*37
$GPRMC,235844.000,A,3353.7513,N,09832.0239,W,0.32,259.79,030412,,,D*7E
$GPGGA,235845.000,3353.7513,N,09832.0241,W,2,09,0.9,325.7,M,-23.7,M,1.8,0000*4E
$GPGSA,A,3,06,16,23,20,07,03,13,30,19,,,,1.7,0.9,1.4*37
$GPRMC,235845.000,A,3353.7513,N,09832.0241,W,0.43,266.98,030412,,,D*75
$GPGGA,235846.000,3353.7513,N,09832.0241,W,2,09,0.9,325.7,M,-23.7,M,2.8,0000*4E
$GPGSA,A,3,06,16,23,20,07,03,13,30,19,,,,1.7,0.9,1.4*37
$GPRMC,235846.000,A,3353.7513,N,09832.0241,W,0.06,300.42,030412,,,D*71
$GPGGA,235847.000,3353.7513,N,09832.0241,W,2,09,0.9,325.5,M,-23.7,M,3.8,0000*4C
$GPGSA,A,3,06,16,23,20,07,03,13,30,19,,,,1.7,0.9,1.4*37
$GPRMC,235847.000,A,3353.7513,N,09832.0241,W,0.23,93.43,030412,,,D*4F
$GPGGA,235848.000,3353.7513,N,09832.0241,W,2,09,0.9,325.3,M,-23.7,M,0.8,0000*46
$GPGSA,A,3,06,16,23,20,07,03,13,30,19,,,,1.7,0.9,1.4*37
$GPGSV,3,1,12,23,79,159,23,13,65,320,33,03,49,098,41,06,40,079,39*77
$GPGSV,3,2,12,16,39,041,38,07,36,301,23,19,32,145,40,10,22,294,*7A
$GPGSV,3,3,12,20,14,199,13,30,13,048,27,08,07,281,,32,04,178,*79
$GPRMC,235848.000,A,3353.7513,N,09832.0241,W,0.16,344.64,030412,,,D*7A
$GPGGA,235849.000,3353.7513,N,09832.0241,W,2,09,0.9,325.2,M,-23.7,M,0.8,0000*46
$GPGSA,A,3,06,16,23,20,07,03,13,30,19,,,,1.7,0.9,1.4*37
$GPRMC,235849.000,A,3353.7513,N,09832.0241,W,0.13,354.01,030412,,,D*7C
$GPGGA,235850.000,3353.7513,N,09832.0241,W,2,09,0.9,325.1,M,-23.7,M,0.8,0000*4D
$GPGSA,A,3,06,16,23,20,07,03,13,30,19,,,,1.7,0.9,1.4*37
$GPRMC,235850.000,A,3353.7513,N,09832.0241,W,0.18,17.80,030412,,,D*42
$GPGGA,235851.000,3353.7514,N,09832.0240,W,2,09,0.9,325.1,M,-23.7,M,0.8,0000*4A
$GPGSA,A,3,06,16,23,20,07,03,13,30,19,,,,1.7,0.9,1.4*37
$GPRMC,235851.000,A,3353.7514,N,09832.0240,W,0.34,59.69,030412,,,D*46
$GPGGA,235852.000,3353.7514,N,09832.0238,W,2,09,0.9,325.1,M,-23.7,M,1.8,0000*47
$GPGSA,A,3,06,16,23,20,07,03,13,30,19,,,,1.7,0.9,1.4*37
$GPRMC,235852.000,A,3353.7514,N,09832.0238,W,0.56,74.84,030412,,,D*42
$GPGGA,235853.000,3353.7514,N,09832.0237,W,2,09,0.9,325.2,M,-23.7,M,2.8,0000*49
$GPGSA,A,3,06,16,23,20,07,03,13,30,19,,,,1.7,0.9,1.4*37
$GPGSV,3,1,12,23,79,159,24,13,65,320,33,03,49,098,41,06,40,079,39*70
$GPGSV,3,2,12,16,39,041,38,07,36,301,23,19,32,145,40,10,22,294,17*7C
$GPGSV,3,3,12,20,14,199,13,30,13,048,27,08,07,281,,32,04,178,*79
$GPRMC,235853.000,A,3353.7514,N,09832.0237,W,0.57,74.68,030412,,,D*4F
$GPGGA,235854.000,3353.7514,N,09832.0235,W,2,09,0.9,325.4,M,-23.7,M,0.8,0000*48
$GPGSA,A,3,06,16,23,20,07,03,13,30,19,,,,1.7,0.9,1.4*37
$GPRMC,235854.000,A,3353.7514,N,09832.0235,W,0.53,86.89,030412,,,D*4C
$GPGGA,235855.000,3353.7514,N,09832.0234,W,2,09,0.9,325.6,M,-23.7,M,0.8,0000*4A
$GPGSA,A,3,06,16,23,20,07,03,13,30,19,,,,1.7,0.9,1.4*37
$GPRMC,235855.000,A,3353.7514,N,09832.0234,W,0.37,81.56,030412,,,D*4B
$GPGGA,235856.000,3353.7514,N,09832.0232,W,2,09,0.9,325.8,M,-23.7,M,0.8,0000*41
$GPGSA,A,3,06,16,23,20,07,03,13,30,19,,,,1.7,0.9,1.4*37
$GPRMC,235856.000,A,3353.7514,N,09832.0232,W,0.47,92.48,030412,,,D*44
$GPGGA,235857.000,3353.7514,N,09832.0232,W,2,09,0.9,325.9,M,-23.7,M,1.8,0000*40
$GPGSA,A,3,06,16,23,20,07,03,13,30,19,,,,1.7,0.9,1.4*37
$GPRMC,235857.000,A,3353.7514,N,09832.0232,W,0.19,81.90,030412,,,D*49
$GPGGA,235858.000,3353.7514,N,09832.0231,W,2,09,0.9,326.0,M,-23.7,M,0.8,0000*47
$GPGSA,A,3,06,16,23,20,07,03,13,30,19,,,,1.7,0.9,1.4*37
$GPGSV,3,1,12,23,79,159,25,13,65,320,33,03,49,098,41,06,40,079,39*71
$GPGSV,3,2,12,16,39,041,38,07,36,301,23,19,32,145,40,10,22,294,17*7C
$GPGSV,3,3,12,20,14,199,13,30,13,048,28,08,07,281,,32,04,178,*76
$GPRMC,235858.000,A,3353.7514,N,09832.0231,W,0.05,41.85,030412,,,D*40
$GPGGA,235859.000,3353.7513,N,09832.0231,W,2,09,0.9,326.1,M,-23.7,M,0.8,0000*40
$GPGSA,A,3,06,16,23,20,07,03,13,30,19,,,,1.7,0.9,1.4*37
$GPRMC,235859.000,A,3353.7513,N,09832.0231,W,0.20,89.29,030412,,,D*43
$GPGGA,235900.000,3353.7514,N,09832.0231,W,2,09,0.9,326.1,M,-23.7,M,0.8,0000*4A
$GPGSA,A,3,06,16,23,20,07,03,13,30,19,,,,1.7,0.9,1.4*37
$GPRMC,235900.000,A,3353.7514,N,09832.0231,W,0.14,357.03,030412,,,D*76
$GPGGA,235901.000,3353.7514,N,09832.0231,W,2,09,0.9,326.2,M,-23.7,M,0.8,0000*48
$GPGSA,A,3,06,16,23,20,07,03,13,30,19,,,,1.7,0.9,1.4*37
$GPRMC,235901.000,A,3353.7514,N,09832.0231,W,0.19,48.16,030412,,,D*43
$GPGGA,235902.000,3353.7514,N,09832.0231,W,2,09,0.9,326.4,M,-23.7,M,0.8,0000*4D
$GPGSA,A,3,06,16,23,20,07,03,13,30,19,,,,1.7,0.9,1.4*37
$GPRMC,235902.000,A,3353.7514,N,09832.0231,W,0.27,52.99,030412,,,D*41
$GPGGA,235903.000,3353.7514,N,09832.0231,W,2,08,1.2,326.5,M,-23.7,M,1.8,0000*47
$GPGSA,A,3,06,16,23,07,03,13,30,19,,,,,2.3,1.2,1.9*35
$GPGSV,3,1,12,23,79,159,26,13,65,320,32,03,49,098,41,06,40,079,39*73
$GPGSV,3,2,12,16,39,041,38,07,36,301,24,19,32,145,40,10,22,294,17*7B
$GPGSV,3,3,12,20,14,199,12,30,13,048,28,08,07,281,,32,04,178,*77
$GPRMC,235903.000,A,3353.7514,N,09832.0231,W,0.18,26.07,030412,,,D*48
$GPGGA,235904.000,3353.7515,N,09832.0230,W,2,08,1.2,326.7,M,-23.7,M,2.8,0000*41
$GPGSA,A,3,06,16,23,07,03,13,30,19,,,,,2.3,1.2,1.9*35
$GPRMC,235904.000,A,3353.7515,N,09832.0230,W,0.24,52.05,030412,,,D*41
$GPGGA,235905.000,3353.7515,N,09832.0230,W,2,08,1.2,326.8,M,-23.7,M,3.8,0000*4E
$GPGSA,A,3,06,16,23,07,03,13,30,19,,,,,2.3,1.2,1.9*35
$GPRMC,235905.000,A,3353.7515,N,09832.0230,W,0.28,62.69,030412,,,D*45
$GPGGA,235906.000,3353.7515,N,09832.0229,W,2,08,1.2,327.0,M,-23.7,M,0.8,0000*4F
$GPGSA,A,3,06,16,23,07,03,13,30,19,,,,,2.3,1.2,1.9*35
$GPRMC,235906.000,A,3353.7515,N,09832.0229,W,0.35,91.58,030412,,,D*4C
$GPGGA,235907.000,3353.7515,N,09832.0229,W,2,08,1.2,327.1,M,-23.7,M,0.8,0000*4F
$GPGSA,A,3,06,16,23,07,03,13,30,19,,,,,2.3,1.2,1.9*35
$GPRMC,235907.000,A,3353.7515,N,09832.0229,W,0.09,48.99,030412,,,D*4B
$GPGGA,235908.000,3353.7514,N,09832.0229,W,2,08,1.2,327.2,M,-23.7,M,0.8,0000*42
$GPGSA,A,3,06,16,23,07,03,13,30,19,,,,,2.3,1.2,1.9*35
$GPGSV,3,1,12,23,79,159,26,13,65,320,32,03,49,098,40,06,40,079,39*72
$GPGSV,3,2,12,16,39,041,38,07,36,301,24,19,32,145,41,10,22,294,18*75
$GPGSV,3,3,12,20,14,199,,30,13,048,28,08,07,281,,32,04,178,*74
$GPRMC,235908.000,A,3353.7514,N,09832.0229,W,0.24,103.92,030412,,,D*7F
$GPGGA,235909.000,3353.7514,N,09832.0229,W,2,08,1.2,327.3,M,-23.7,M,0.8,0000*42
$GPGSA,A,3,06,16,23,07,03,13,30,19,,,,,2.3,1.2,1.9*35
$GPRMC,235909.000,A,3353.7514,N,09832.0229,W,0.14,97.64,030412,,,D*48
$GPGGA,235910.000,3353.7514,N,09832.0229,W,2,08,1.2,327.3,M,-23.7,M,1.8,0000*4B
$GPGSA,A,3,06,16,23,07,03,13,30,19,,,,,2.3,1.2,1.9*35
$GPRMC,235910.000,A,3353.7514,N,09832.0229,W,0.11,276.57,030412,,,D*78
$GPGGA,235911.000,3353.7514,N,09832.0230,W,2,08,1.2,327.2,M,-23.7,M,2.8,0000*40
$GPGSA,A,3,06,16,23,07,03,13,30,19,,,,,2.3,1.2,1.9*35
$GPRMC,235911.000,A,3353.7514,N,09832.0230,W,0.19,285.76,030412,,,D*76
$GPGGA,235912.000,3353.7514,N,09832.0231,W,2,08,1.2,327.2,M,-23.7,M,0.8,0000*40
$GPGSA,A,3,06,16,23,07,03,13,30,19,,,,,2.3,1.2,1.9*35
$GPRMC,235912.000,A,3353.7514,N,09832.0231,W,0.23,313.86,030412,,,D*7C
$GPGGA,235913.000,3353.7514,N,09832.0232,W,2,08,1.2,327.1,M,-23.7,M,0.8,0000*41
$GPGSA,A,3,06,16,23,07,03,13,30,19,,,,,2.3,1.2,1.9*35
$GPGSV,3,1,12,23,79,159,27,13,65,320,31,03,49,098,40,06,40,079,39*70
$GPGSV,3,2,12,16,39,041,38,07,36,301,24,19,32,145,41,10,22,294,19*74
$GPGSV,3,3,12,20,14,199,,30,13,048,28,08,07,281,,32,04,178,*74
$GPRMC,235913.000,A,3353.7514,N,09832.0232,W,0.24,314.72,030412,,,D*75
$GPGGA,235914.000,3353.7514,N,09832.0232,W,2,08,1.2,327.3,M,-23.7,M,0.8,0000*44
$GPGSA,A,3,06,16,23,07,03,13,30,19,,,,,2.3,1.2,1.9*35
$GPRMC,235914.000,A,3353.7514,N,09832.0232,W,0.31,63.94,030412,,,D*4D
$GPGGA,235915.000,3353.7514,N,09832.0231,W,2,08,1.2,327.5,M,-23.7,M,1.8,0000*41
$GPGSA,A,3,06,16,23,07,03,13,30,19,,,,,2.3,1.2,1.9*35
$GPRMC,235915.000,A,3353.7514,N,09832.0231,W,0.29,64.90,030412,,,D*45
$GPGGA,235916.000,3353.7515,N,09832.0231,W,2,08,1.2,327.6,M,-23.7,M,0.8,0000*41
$GPGSA,A,3,06,16,23,07,03,13,30,19,,,,,2.3,1.2,1.9*35
$GPRMC,235916.000,A,3353.7515,N,09832.0231,W,0.17,358.97,030412,,,D*71
$GPGGA,235917.000,3353.7515,N,09832.0231,W,2,08,1.2,327.8,M,-23.7,M,1.8,0000*4F
$GPGSA,A,3,06,16,23,07,03,13,30,19,,,,,2.3,1.2,1.9*35
$GPRMC,235917.000,A,3353.7515,N,09832.0231,W,0.18,45.45,030412,,,D*4F
$GPGGA,235918.000,3353.7515,N,09832.0231,W,2,08,1.2,327.9,M,-23.7,M,2.8,0000*42
$GPGSA,A,3,06,16,23,07,03,13,30,19,,,,,2.3,1.2,1.9*35
$GPGSV,3,1,12,23,78,159,27,13,65,319,31,03,49,098,40,06,40,078,39*7A
$GPGSV,3,2,12,16,39,041,37,07,36,302,23,19,33,145,41,10,22,293,20*73
$GPGSV,3,3,12,20,14,199,,30,13,048,27,08,07,281,,32,04,178,*7B
$GPRMC,235918.000,A,3353.7515,N,09832.0231,W,0.18,353.79,030412,,,D*7B
$GPGGA,235919.000,3353.7515,N,09832.0231,W,2,08,1.2,328.0,M,-23.7,M,0.8,0000*47
$GPGSA,A,3,06,16,23,07,03,13,30,19,,,,,2.3,1.2,1.9*35
$GPRMC,235919.000,A,3353.7515,N,09832.0231,W,0.22,51.44,030412,,,D*4C
$GPGGA,235920.000,3353.7516,N,09832.0231,W,2,08,1.2,328.0,M,-23.7,M,0.8,0000*4E
$GPGSA,A,3,06,16,23,07,03,13,30,19,,,,,2.3,1.2,1.9*35
$GPRMC,235920.000,A,3353.7516,N,09832.0231,W,0.15,0.93,030412,,,D*7F
$GPGGA,235921.000,3353.7516,N,09832.0231,W,2,08,1.2,327.9,M,-23.7,M,0.8,0000*49
$GPGSA,A,3,06,16,23,07,03,13,30,19,,,,,2.3,1.2,1.9*35
$GPRMC,235921.000,A,3353.7516,N,09832.0231,W,0.18,33.59,030412,,,D*45
$GPGGA,235922.000,3353.7516,N,09832.0231,W,2,08,1.2,327.9,M,-23.7,M,0.8,0000*4A
$GPGSA,A,3,06,16,23,07,03,13,30,19,,,,,2.3,1.2,1.9*35
$GPRMC,235922.000,A,3353.7516,N,09832.0231,W,0.16,32.06,030412,,,D*43
$GPGGA,235923.000,3353.7517,N,09832.0231,W,2,08,1.2,327.9,M,-23.7,M,1.8,0000*4B
$GPGSA,A,3,06,16,23,07,03,13,30,19,,,,,2.3,1.2,1.9*35
$GPGSV,3,1,12,23,78,159,27,13,65,319,31,03,49,098,40,06,40,078,39*7A
$GPGSV,3,2,12,16,39,041,37,07,36,302,23,19,33,145,41,10,22,293,19*79
$GPGSV,3,3,12,20,14,199,,30,13,048,27,08,07,281,,32,04,178,*7B
$GPRMC,235923.000,A,3353.7517,N,09832.0231,W,0.17,29.92,030412,,,D*45
$GPGGA,235924.000,3353.7517,N,09832.0231,W,2,08,1.2,327.9,M,-23.7,M,0.8,0000*4D
$GPGSA,A,3,06,16,23,07,03,13,30,19,,,,,2.3,1.2,1.9*35
$GPRMC,235924.000,A,3353.7517,N,09832.0231,W,0.12,25.91,030412,,,D*48
$GPGGA,235925.000,3353.7517,N,09832.0231,W,2,09,0.9,327.8,M,-23.7,M,0.8,0000*46
$GPGSA,A,3,06,16,23,20,07,03,13,30,19,,,,1.7,0.9,1.4*37
$GPRMC,235925.000,A,3353.7517,N,09832.0231,W,0.16,70.86,030412,,,D*4B
$GPGGA,235926.000,3353.7517,N,09832.0230,W,2,09,0.9,327.9,M,-23.7,M,0.8,0000*45
$GPGSA,A,3,06,16,23,20,07,03,13,30,19,,,,1.7,0.9,1.4*37
$GPRMC,235926.000,A,3353.7517,N,09832.0230,W,0.22,61.89,030412,,,D*41
$GPGGA,235927.000,3353.7517,N,09832.0230,W,2,09,0.9,328.1,M,-23.7,M,1.8,0000*42
$GPGSA,A,3,06,16,23,20,07,03,13,30,19,,,,1.7,0.9,1.4*37
$GPRMC,235927.000,A,3353.7517,N,09832.0230,W,0.32,78.13,030412,,,D*4A
$GPGGA,235928.000,3353.7517,N,09832.0229,W,2,09,0.9,328.3,M,-23.7,M,2.8,0000*44
$GPGSA,A,3,06,16,23,20,07,03,13,30,19,,,,1.7,0.9,1.4*37
$GPGSV,3,1,12,23,78,159,27,13,65,319,31,03,49,098,40,06,40,078,38*7B
$GPGSV,3,2,12,16,39,041,37,07,36,302,23,19,33,145,41,10,22,293,19*79
$GPGSV,3,3,12,20,14,199,17,30,13,048,26,08,07,281,,32,04,178,*7C
$GPRMC,235928.000,A,3353.7517,N,09832.0229,W,0.47,84.46,030412,,,D*4C
$GPGGA,235929.000,3353.7516,N,09832.0228,W,2,09,0.9,328.6,M,-23.7,M,3.8,0000*41
$GPGSA,A,3,06,16,23,20,07,03,13,30,19,,,,1.7,0.9,1.4*37
$GPRMC,235929.000,A,3353.7516,N,09832.0228,W,0.33,76.12,030412,,,D*42
$GPGGA,235930.000,3353.7516,N,09832.0228,W,2,09,0.9,328.7,M,-23.7,M,0.8,0000*4B
$GPGSA,A,3,06,16,23,20,07,03,13,30,19,,,,1.7,0.9,1.4*37
$GPRMC,235930.000,A,3353.7516,N,09832.0228,W,0.06,7.02,030412,,,D*7B
$GPGGA,235931.000,3353.7516,N,09832.0228,W,2,09,0.9,328.8,M,-23.7,M,0.8,0000*45
$GPGSA,A,3,06,16,23,20,07,03,13,30,19,,,,1.7,0.9,1.4*37
$GPRMC,235931.000,A,3353.7516,N,09832.0228,W,0.11,288.12,030412,,,D*78
$GPGGA,235932.000,3353.7516,N,09832.0229,W,2,09,0.9,328.6,M,-23.7,M,0.8,0000*49
$GPGSA,A,3,06,16,23,20,07,03,13,30,19,,,,1.7,0.9,1.4*37
$GPRMC,235932.000,A,3353.7516,N,09832.0229,W,0.09,292.41,030412,,,D*7E
$GPGGA,235933.000,3353.7516,N,09832.0229,W,2,09,0.9,328.6,M,-23.7,M,1.8,0000*49
$GPGSA,A,3,06,16,23,20,07,03,13,30,19,,,,1.7,0.9,1.4*37
$GPGSV,3,1,12,23,78,159,27,13,65,319,31,03,49,098,40,06,40,078,38*7B
$GPGSV,3,2,12,16,39,041,37,07,36,302,22,19,33,145,41,10,22,293,18*79
$GPGSV,3,3,12,20,14,199,18,30,13,048,25,08,07,281,,32,04,178,*70
$GPRMC,235933.000,A,3353.7516,N,09832.0229,W,0.11,110.35,030412,,,D*7C
$GPGGA,235934.000,3353.7516,N,09832.0228,W,2,09,0.9,328.6,M,-23.7,M,2.8,0000*4C
$GPGSA,A,3,06,16,23,20,07,03,13,30,19,,,,1.7,0.9,1.4*37
$GPRMC,235934.000,A,3353.7516,N,09832.0228,W,0.42,87.40,030412,,,D*41
$GPGGA,235935.000,3353.7516,N,09832.0227,W,2,09,0.9,328.6,M,-23.7,M,3.8,0000*43
$GPGSA,A,3,06,16,23,20,07,03,13,30,19,,,,1.7,0.9,1.4*37
$GPRMC,235935.000,A,3353.7516,N,09832.0227,W,0.42,84.07,030412,,,D*4F
$GPGGA,235936.000,3353.7516,N,09832.0227,W,2,09,0.9,328.5,M,-23.7,M,0.8,0000*40
$GPGSA,A,3,06,16,23,20,07,03,13,30,19,,,,1.7,0.9,1.4*37
$GPRMC,235936.000,A,3353.7516,N,09832.0227,W,0.21,18.62,030412,,,D*4F
$GPGGA,235937.000,3353.7516,N,09832.0227,W,2,09,0.9,328.5,M,-23.7,M,1.8,0000*40
$GPGSA,A,3,06,16,23,20,07,03,13,30,19,,,,1.7,0.9,1.4*37
$GPRMC,235937.000,A,3353.7516,N,09832.0227,W,0.21,7.45,030412,,,D*75
$GPGGA,235938.000,3353.7517,N,09832.0227,W,2,09,0.9,328.5,M,-23.7,M,0.8,0000*4F
$GPGSA,A,3,06,16,23,20,07,03,13,30,19,,,,1.7,0.9,1.4*37
$GPGSV,3,1,12,23,78,159,28,13,65,319,31,03,49,098,40,06,40,078,39*75
$GPGSV,3,2,12,16,39,041,37,07,36,302,22,19,33,145,41,10,22,293,19*78
$GPGSV,3,3,12,20,14,199,18,30,13,048,24,08,07,281,,32,04,178,*71
$GPRMC,235938.000,A,3353.7517,N,09832.0227,W,0.32,53.00,030412,,,D*49
$GPGGA,235939.000,3353.7517,N,09832.0227,W,2,09,1.0,328.5,M,-23.7,M,0.8,0000*46
$GPGSA,A,3,06,16,23,20,07,03,13,30,19,,,,1.7,1.0,1.4*3F
$GPRMC,235939.000,A,3353.7517,N,09832.0227,W,0.26,34.39,030412,,,D*46
$GPGGA,235940.000,3353.7517,N,09832.0227,W,2,09,1.0,328.4,M,-23.7,M,1.8,0000*48
$GPGSA,A,3,06,16,23,20,07,03,13,30,19,,,,1.7,1.0,1.4*3F
$GPRMC,235940.000,A,3353.7517,N,09832.0227,W,0.23,56.21,030412,,,D*40
$GPGGA,235941.000,3353.7518,N,09832.0226,W,2,09,1.0,328.4,M,-23.7,M,2.8,0000*44
$GPGSA,A,3,06,16,23,20,07,03,13,30,19,,,,1.7,1.0,1.4*3F
$GPRMC,235941.000,A,3353.7518,N,09832.0226,W,0.35,50.64,030412,,,D*4F
$GPGGA,235942.000,3353.7518,N,09832.0226,W,2,09,1.0,328.4,M,-23.7,M,0.8,0000*45
$GPGSA,A,3,06,16,23,20,07,03,13,30,19,,,,1.7,1.0,1.4*3F
$GPRMC,235942.000,A,3353.7518,N,09832.0226,W,0.14,55.40,030412,,,D*4C
$GPGGA,235943.000,3353.7518,N,09832.0226,W,2,09,1.0,328.4,M,-23.7,M,0.8,0000*44
$GPGSA,A,3,06,16,23,20,07,03,13,30,19,,,,1.7,1.0,1.4*3F
$GPGSV,3,1,12,23,78,159,28,13,65,319,31,03,49,098,40,06,40,078,39*75
$GPGSV,3,2,12,16,39,041,36,07,36,302,23,19,33,145,41,10,22,293,20*72
$GPGSV,3,3,12,20,14,199,18,30,13,048,23,08,07,281,,32,04,178,*76
$GPRMC,235943.000,A,3353.7518,N,09832.0226,W,0.11,14.05,030412,,,D*4C
$GPGGA,235944.000,3353.7518,N,09832.0226,W,2,09,1.0,328.3,M,-23.7,M,0.8,0000*44
$GPGSA,A,3,06,16,23,20,07,03,13,30,19,,,,1.7,1.0,1.4*3F
$GPRMC,235944.000,A,3353.7518,N,09832.0226,W,0.16,83.58,030412,,,D*4A
$GPGGA,235945.000,3353.7517,N,09832.0226,W,2,09,1.0,328.3,M,-23.7,M,1.8,0000*4B
$GPGSA,A,3,06,16,23,20,07,03,13,30,19,,,,1.7,1.0,1.4*3F
$GPRMC,235945.000,A,3353.7517,N,09832.0226,W,0.12,109.03,030412,,,D*7D
$GPGGA,235946.000,3353.7517,N,09832.0226,W,2,09,1.0,328.4,M,-23.7,M,2.8,0000*4C
$GPGSA,A,3,06,16,23,20,07,03,13,30,19,,,,1.7,1.0,1.4*3F
$GPRMC,235946.000,A,3353.7517,N,09832.0226,W,0.18,111.64,030412,,,D*7C
$GPGGA,235947.000,3353.7517,N,09832.0227,W,2,09,1.0,328.3,M,-23.7,M,0.8,0000*49
$GPGSA,A,3,06,16,23,20,07,03,13,30,19,,,,1.7,1.0,1.4*3F
$GPRMC,235947.000,A,3353.7517,N,09832.0227,W,0.13,267.37,030412,,,D*73
$GPGGA,235948.000,3353.7517,N,09832.0227,W,2,09,1.0,328.2,M,-23.7,M,0.8,0000*47
$GPGSA,A,3,06,16,23,20,07,03,13,30,19,,,,1.7,1.0,1.4*3F
$GPGSV,3,1,12,23,78,159,28,13,65,319,32,03,49,098,40,06,40,078,39*76
$GPGSV,3,2,12,16,39,041,36,07,36,302,23,19,33,145,40,10,22,293,20*73
$GPGSV,3,3,12,20,14,199,17,30,13,048,22,08,07,281,,32,03,178,*7F
$GPRMC,235948.000,A,3353.7517,N,09832.0227,W,0.27,68.87,030412,,,D*4D
$GPGGA,235949.000,3353.7517,N,09832.0227,W,2,09,1.0,327.9,M,-23.7,M,0.8,0000*42
$GPGSA,A,3,06,16,23,20,07,03,13,30,19,,,,1.7,1.0,1.4*3F
$GPRMC,235949.000,A,3353.7517,N,09832.0227,W,0.21,0.14,030412,,,D*7E
$GPGGA,235950.000,3353.7518,N,09832.0227,W,2,09,1.0,327.8,M,-23.7,M,0.8,0000*44
$GPGSA,A,3,06,16,23,20,07,03,13,30,19,,,,1.7,1.0,1.4*3F
$GPRMC,235950.000,A,3353.7518,N,09832.0227,W,0.40,55.68,030412,,,D*45
$GPGGA,235951.000,3353.7518,N,09832.0227,W,2,09,1.0,327.8,M,-23.7,M,1.8,0000*44
$GPGSA,A,3,06,16,23,20,07,03,13,30,19,,,,1.7,1.0,1.4*3F
$GPRMC,235951.000,A,3353.7518,N,09832.0227,W,0.40,50.50,030412,,,D*4A
$GPGGA,235952.000,3353.7518,N,09832.0227,W,2,09,1.0,327.9,M,-23.7,M,2.8,0000*45
$GPGSA,A,3,06,16,23,20,07,03,13,30,19,,,,1.7,1.0,1.4*3F
$GPRMC,235952.000,A,3353.7518,N,09832.0227,W,0.18,14.21,030412,,,D*42
$GPGGA,235953.000,3353.7519,N,09832.0227,W,2,09,1.0,327.8,M,-23.7,M,0.8,0000*46
$GPGSA,A,3,06,16,23,20,07,03,13,30,19,,,,1.7,1.0,1.4*3F
$GPGSV,3,1,12,23,78,159,29,13,65,319,32,03,49,098,40,06,40,078,39*77
$GPGSV,3,2,12,16,39,041,36,07,36,302,22,19,33,145,40,10,22,293,20*72
$GPGSV,3,3,12,20,14,199,16,30,13,048,21,08,07,281,,32,03,178,*7D
$GPRMC,235953.000,A,3353.7519,N,09832.0227,W,0.29,20.17,030412,,,D*42
$GPGGA,235954.000,3353.7519,N,09832.0227,W,2,09,1.0,327.6,M,-23.7,M,0.8,0000*4F
$GPGSA,A,3,06,16,23,20,07,03,13,30,19,,,,1.7,1.0,1.4*3F
$GPRMC,235954.000,A,3353.7519,N,09832.0227,W,0.14,343.97,030412,,,D*75
$GPGGA,235955.000,3353.7519,N,09832.0228,W,2,09,1.0,327.5,M,-23.7,M,0.8,0000*42
$GPGSA,A,3,06,16,23,20,07,03,13,30,19,,,,1.7,1.0,1.4*3F
$GPRMC,235955.000,A,3353.7519,N,09832.0228,W,0.20,282.34,030412,,,D*79
$GPGGA,235956.000,3353.7519,N,09832.0229,W,2,09,1.0,327.4,M,-23.7,M,0.8,0000*41
$GPGSA,A,3,06,16,23,20,07,03,13,30,19,,,,1.7,1.0,1.4*3F
$GPRMC,235956.000,A,3353.7519,N,09832.0229,W,0.23,70.20,030412,,,D*42
$GPGGA,235957.000,3353.7519,N,09832.0228,W,2,09,1.0,327.3,M,-23.7,M,0.8,0000*46
$GPGSA,A,3,06,16,23,20,07,03,13,30,19,,,,1.7,1.0,1.4*3F
$GPRMC,235957.000,A,3353.7519,N,09832.0228,W,0.39,80.88,030412,,,D*44
$GPGGA,235958.000,3353.7518,N,09832.0227,W,2,09,1.0,327.4,M,-23.7,M,1.8,0000*41
$GPGSA,A,3,06,16,23,20,07,03,13,30,19,,,,1.7,1.0,1.4*3F
$GPGSV,3,1,12,23,78,159,30,13,65,319,32,03,49,098,40,06,40,078,39*7F
$GPGSV,3,2,12,16,39,041,36,07,36,302,21,19,33,145,40,10,22,293,21*70
$GPGSV,3,3,12,20,14,199,17,30,13,048,21,08,07,281,,32,03,178,*7C
$GPRMC,235958.000,A,3353.7518,N,09832.0227,W,0.26,102.81,030412,,,D*79
$GPGGA,235959.000,3353.7518,N,09832.0228,W,2,09,1.0,327.3,M,-23.7,M,2.8,0000*4B
$GPGSA,A,3,06,16,23,20,07,03,13,30,19,,,,1.7,1.0,1.4*3F
$GPRMC,235959.000,A,3353.7518,N,09832.0228,W,0.10,290.88,030412,,,D*73
$GPGGA,000000.000,3353.7519,N,09832.0229,W,2,09,1.0,326.9,M,-23.7,M,0.8,0000*43
$GPGSA,A,3,06,16,23,20,07,03,13,30,19,,,,1.7,1.0,1.4*3F
$GPRMC,000000.000,A,3353.7519,N,09832.0229,W,0.28,317.39,040412,,,D*7A
$GPGGA,000001.000,3353.7519,N,09832.0229,W,2,09,1.0,326.7,M,-23.7,M,0.8,0000*4C
$GPGSA,A,3,06,16,23,20,07,03,13,30,19,,,,1.7,1.0,1.4*3F
$GPRMC,000001.000,A,3353.7519,N,09832.0229,W,0.26,338.98,040412,,,D*73
$GPGGA,000002.000,3353.7520,N,09832.0230,W,2,08,1.3,326.5,M,-23.7,M,0.8,0000*4D
$GPGSA,A,3,06,16,23,20,03,13,30,19,,,,,1.9,1.3,1.4*35
$GPRMC,000002.000,A,3353.7520,N,09832.0230,W,0.23,335.14,040412,,,D*7E
$GPGGA,000003.000,3353.7520,N,09832.0230,W,2,08,1.3,326.3,M,-23.7,M,1.8,0000*4B
$GPGSA,A,3,06,16,23,20,03,13,30,19,,,,,1.9,1.3,1.4*35
$GPGSV,3,1,12,23,78,159,30,13,65,319,32,03,49,098,39,06,40,078,40*7F
$GPGSV,3,2,12,16,39,041,36,07,36,302,11,19,33,145,40,10,22,293,21*73
$GPGSV,3,3,12,20,14,199,18,30,13,048,20,08,07,281,,32,03,178,*72
$GPRMC,000003.000,A,3353.7520,N,09832.0230,W,0.30,25.66,040412,,,D*4A
$GPGGA,000004.000,3353.7520,N,09832.0230,W,2,08,1.3,326.5,M,-23.7,M,2.8,0000*49
$GPGSA,A,3,06,16,23,20,03,13,30,19,,,,,1.9,1.3,1.4*35
$GPRMC,000004.000,A,3353.7520,N,09832.0230,W,0.27,46.50,040412,,,D*4B
$GPGGA,000005.000,3353.7521,N,09832.0230,W,2,08,1.3,326.3,M,-23.7,M,3.8,0000*4E
$GPGSA,A,3,06,16,23,20,03,13,30,19,,,,,1.9,1.3,1.4*35
$GPRMC,000005.000,A,3353.7521,N,09832.0230,W,0.19,353.68,040412,,,D*7A
$GPGGA,000006.000,3353.7521,N,09832.0230,W,2,08,1.3,326.5,M,-23.7,M,0.8,0000*48
$GPGSA,A,3,06,16,23,20,03,13,30,19,,,,,1.9,1.3,1.4*35
$GPRMC,000006.000,A,3353.7521,N,09832.0230,W,0.18,70.27,040412,,,D*41
$GPGGA,000007.000,3353.7520,N,09832.0230,W,2,08,1.3,326.6,M,-23.7,M,0.8,0000*4B
$GPGSA,A,3,06,16,23,20,03,13,30,19,,,,,1.9,1.3,1.4*35
$GPRMC,000007.000,A,3353.7520,N,09832.0230,W,0.06,277.58,040412,,,D*73
$GPGGA,000008.000,3353.7520,N,09832.0231,W,2,08,1.3,326.4,M,-23.7,M,0.8,0000*47
$GPGSA,A,3,06,16,23,20,03,13,30,19,,,,,1.9,1.3,1.4*35
$GPGSV,3,1,12,23,78,159,31,13,65,319,33,03,49,098,39,06,40,078,40*7F
$GPGSV,3,2,12,16,39,041,36,07,36,302,,19,33,145,40,10,22,293,*70
$GPGSV,3,3,12,20,14,199,19,30,13,048,20,08,07,281,,32,03,178,*73
$GPRMC,000008.000,A,3353.7520,N,09832.0231,W,0.14,288.65,040412,,,D*70
$GPGGA,000009.000,3353.7520,N,09832.0232,W,2,08,1.3,326.2,M,-23.7,M,1.8,0000*42
$GPGSA,A,3,06,16,23,20,03,13,30,19,,,,,1.9,1.3,1.4*35
$GPRMC,000009.000,A,3353.7520,N,09832.0232,W,0.11,284.74,040412,,,D*7B
$GPGGA,000010.000,3353.7520,N,09832.0232,W,2,08,1.3,326.4,M,-23.7,M,0.8,0000*4D
$GPGSA,A,3,06,16,23,20,03,13,30,19,,,,,1.9,1.3,1.4*35
$GPRMC,000010.000,A,3353.7520,N,09832.0232,W,0.14,98.61,040412,,,D*4D
$GPGGA,000011.000,3353.7519,N,09832.0231,W,2,08,1.3,326.5,M,-23.7,M,0.8,0000*44
$GPGSA,A,3,06,16,23,20,03,13,30,19,,,,,1.9,1.3,1.4*35
$GPRMC,000011.000,A,3353.7519,N,09832.0231,W,0.23,71.86,040412,,,D*4F
$GPGGA,000012.000,3353.7520,N,09832.0231,W,2,08,1.3,326.4,M,-23.7,M,0.8,0000*4C
$GPGSA,A,3,06,16,23,20,03,13,30,19,,,,,1.9,1.3,1.4*35
$GPRMC,000012.000,A,3353.7520,N,09832.0231,W,0.30,53.36,040412,,,D*4F
$GPGGA,000013.000,3353.7520,N,09832.0231,W,2,08,1.3,326.2,M,-23.7,M,0.8,0000*4B
$GPGSA,A,3,06,16,23,20,03,13,30,19,,,,,1.9,1.3,1.4*35
$GPGSV,3,1,12,23,78,159,31,13,65,319,33,03,49,098,39,06,40,078,40*7F
$GPGSV,3,2,12,16,39,041,36,07,36,302,,19,33,145,40,10,22,293,*70
$GPGSV,3,3,12,20,14,199,20,30,13,048,20,08,07,281,,32,03,178,*79
$GPRMC,000013.000,A,3353.7520,N,09832.0231,W,0.13,1.28,040412,,,D*77
$GPGGA,000014.000,3353.7520,N,09832.0232,W,2,08,1.3,326.1,M,-23.7,M,0.8,0000*4C
$GPGSA,A,3,06,16,23,20,03,13,30,19,,,,,1.9,1.3,1.4*35
$GPRMC,000014.000,A,3353.7520,N,09832.0232,W,0.06,343.65,040412,,,D*7B
$GPGGA,000015.000,3353.7520,N,09832.0232,W,2,08,1.3,326.1,M,-23.7,M,1.8,0000*4C
$GPGSA,A,3,06,16,23,20,03,13,30,19,,,,,1.9,1.3,1.4*35
$GPRMC,000015.000,A,3353.7520,N,09832.0232,W,0.13,53.76,040412,,,D*4E
$GPGGA,000016.000,3353.7520,N,09832.0232,W,2,08,1.3,326.1,M,-23.7,M,2.8,0000*4C
$GPGSA,A,3,06,16,23,20,03,13,30,19,,,,,1.9,1.3,1.4*35
$GPRMC,000016.000,A,3353.7520,N,09832.0232,W,0.03,254.04,040412,,,D*7C
$GPGGA,000017.000,3353.7520,N,09832.0232,W,2,08,1.3,326.3,M,-23.7,M,3.8,0000*4E
$GPGSA,A,3,06,16,23,20,03,13,30,19,,,,,1.9,1.3,1.4*35
$GPRMC,000017.000,A,3353.7520,N,09832.0232,W,0.26,57.74,040412,,,D*4C
$GPGGA,000018.000,3353.7520,N,09832.0232,W,2,08,1.3,326.0,M,-23.7,M,0.8,0000*41
$GPGSA,A,3,06,16,23,20,03,13,30,19,,,,,1.9,1.3,1.4*35
