$GPGGA,091558.000,3353.7580,N,09832.0280,W,1,06,2.2,299.7,M,-23.7,M,18.8,0000*7F
$GPGSA,A,3,05,10,17,04,02,12,,,,,,,4.1,2.2,3.5*36
$GPRMC,091558.000,A,3353.7580,N,09832.0280,W,0.36,109.40,310312,,,A*71
$GPGGA,091559.000,3353.7579,N,09832.0278,W,1,06,2.2,300.1,M,-23.7,M,18.8,0000*78
$GPGSA,A,3,05,10,17,04,02,12,,,,,,,4.1,2.2,3.5*36
$GPRMC,091559.000,A,3353.7579,N,09832.0278,W,0.24,105.73,310312,,,A*7E
$GPGGA,091600.000,3353.7578,N,09832.0276,W,1,06,2.2,300.4,M,-23.7,M,18.8,0000*7D
$GPGSA,A,3,05,10,17,04,02,12,,,,,,,4.1,2.2,3.5*36
$GPGSV,3,1,11,02,73,347,39,12,66,286,33,10,51,081,37,04,43,043,32*75
$GPGSV,3,2,11,05,41,172,33,25,27,315,21,17,12,098,28,09,12,227,*79
$GPGSV,3,3,11,27,07,214,,29,04,294,,51,49,195,30*4B
$GPRMC,091600.000,A,3353.7578,N,09832.0276,W,0.27,124.64,310312,,,A*78
$GPGGA,091601.000,3353.7577,N,09832.0275,W,1,06,2.2,300.7,M,-23.7,M,18.8,0000*73
$GPGSA,A,3,05,10,17,04,02,12,,,,,,,4.1,2.2,3.5*36
$GPRMC,091601.000,A,3353.7577,N,09832.0275,W,0.21,112.92,310312,,,A*7F
$GPGGA,091602.000,3353.7577,N,09832.0274,W,1,06,2.2,301.1,M,-23.7,M,18.8,0000*76
$GPGSA,A,3,05,10,17,04,02,12,,,,,,,4.1,2.2,3.5*36
$GPRMC,091602.000,A,3353.7577,N,09832.0274,W,0.20,106.22,310312,,,A*72
$GPGGA,091603.000,3353.7576,N,09832.0273,W,1,06,2.2,301.3,M,-23.7,M,18.8,0000*73
$GPGSA,A,3,05,10,17,04,02,12,,,,,,,4.1,2.2,3.5*36
$GPRMC,091603.000,A,3353.7576,N,09832.0273,W,0.18,100.03,310312,,,A*7B
$GPGGA,091604.000,3353.7576,N,09832.0272,W,1,06,2.2,301.5,M,-23.7,M,18.8,0000*73
$GPGSA,A,3,05,10,17,04,02,12,,,,,,,4.1,2.2,3.5*36
$GPRMC,091604.000,A,3353.7576,N,09832.0272,W,0.15,102.31,310312,,,A*73
$GPGGA,091605.000,3353.7575,N,09832.0271,W,1,07,1.4,301.8,M,-23.7,M,18.8,0000*7B
$GPGSA,A,3,05,10,17,09,04,02,12,,,,,,2.3,1.4,1.8*31
$GPGSV,3,1,11,02,73,347,39,12,66,286,33,10,51,081,37,04,43,043,31*76
$GPGSV,3,2,11,05,41,172,33,25,27,315,21,17,12,098,28,09,12,227,19*71
$GPGSV,3,3,11,27,07,214,,29,04,294,,51,49,195,30*4B
$GPRMC,091605.000,A,3353.7575,N,09832.0271,W,0.26,75.95,310312,,,A*4D
$GPGGA,091606.000,3353.7575,N,09832.0270,W,1,07,1.4,302.1,M,-23.7,M,18.8,0000*73
$GPGSA,A,3,05,10,17,09,04,02,12,,,,,,2.3,1.4,1.8*31
$GPRMC,091606.000,A,3353.7575,N,09832.0270,W,0.35,72.10,310312,,,A*47
$GPGGA,091607.000,3353.7575,N,09832.0270,W,1,07,1.4,302.3,M,-23.7,M,18.8,0000*70
$GPGSA,A,3,05,10,17,09,04,02,12,,,,,,2.3,1.4,1.8*31
$GPRMC,091607.000,A,3353.7575,N,09832.0270,W,0.11,123.16,310312,,,A*73
$GPGGA,091608.000,3353.7574,N,09832.0269,W,1,07,1.4,302.5,M,-23.7,M,18.8,0000*70
$GPGSA,A,3,05,10,17,09,04,02,12,,,,,,2.3,1.4,1.8*31
$GPRMC,091608.000,A,3353.7574,N,09832.0269,W,0.16,97.70,310312,,,A*4C
$GPGGA,091609.000,3353.7574,N,09832.0270,W,1,07,1.4,302.6,M,-23.7,M,18.8,0000*7A
$GPGSA,A,3,05,10,17,09,04,02,12,,,,,,2.3,1.4,1.8*31
$GPRMC,091609.000,A,3353.7574,N,09832.0270,W,0.08,154.07,310312,,,A*74
$GPGGA,091610.000,3353.7574,N,09832.0270,W,1,07,1.4,302.7,M,-23.7,M,18.8,0000*73
$GPGSA,A,3,05,10,17,09,04,02,12,,,,,,2.3,1.4,1.8*31
$GPGSV,3,1,11,02,73,347,39,12,66,286,33,10,51,081,37,04,43,043,31*76
$GPGSV,3,2,11,05,41,172,33,25,27,315,21,17,12,098,29,09,12,227,19*70
$GPGSV,3,3,11,27,07,214,,29,04,294,,51,49,195,30*4B
$GPRMC,091610.000,A,3353.7574,N,09832.0270,W,0.07,112.33,310312,,,A*76
$GPGGA,091611.000,3353.7574,N,09832.0270,W,1,07,1.4,302.9,M,-23.7,M,18.8,0000*7C
$GPGSA,A,3,05,10,17,09,04,02,12,,,,,,2.3,1.4,1.8*31
$GPRMC,091611.000,A,3353.7574,N,09832.0270,W,0.17,63.80,310312,,,A*49
$GPGGA,091612.000,3353.7573,N,09832.0270,W,1,07,1.4,302.9,M,-23.7,M,18.8,0000*78
$GPGSA,A,3,05,10,17,09,04,02,12,,,,,,2.3,1.4,1.8*31
$GPRMC,091612.000,A,3353.7573,N,09832.0270,W,0.08,173.57,310312,,,A*79
$GPGGA,091613.000,3353.7573,N,09832.0271,W,1,07,1.4,303.0,M,-23.7,M,18.8,0000*70
$GPGSA,A,3,05,10,17,09,04,02,12,,,,,,2.3,1.4,1.8*31
$GPRMC,091613.000,A,3353.7573,N,09832.0271,W,0.14,205.19,310312,,,A*7C
$GPGGA,091614.000,3353.7573,N,09832.0271,W,1,07,1.4,303.0,M,-23.7,M,18.8,0000*77
$GPGSA,A,3,05,10,17,09,04,02,12,,,,,,2.3,1.4,1.8*31
$GPRMC,091614.000,A,3353.7573,N,09832.0271,W,0.03,14.63,310312,,,A*42
$GPGGA,091615.000,3353.7574,N,09832.0271,W,1,07,1.4,303.1,M,-23.7,M,18.8,0000*70
$GPGSA,A,3,05,10,17,09,04,02,12,,,,,,2.3,1.4,1.8*31
$GPGSV,3,1,11,02,73,347,39,12,66,286,33,10,51,081,37,04,43,043,31*76
$GPGSV,3,2,11,05,41,172,33,25,27,315,21,17,12,098,30,09,12,227,19*78
$GPGSV,3,3,11,27,07,214,,29,04,294,,51,49,195,30*4B
$GPRMC,091615.000,A,3353.7574,N,09832.0271,W,0.26,41.35,310312,,,A*40
$GPGGA,091616.000,3353.7573,N,09832.0272,W,1,07,1.4,303.1,M,-23.7,M,18.8,0000*77
$GPGSA,A,3,05,10,17,09,04,02,12,,,,,,2.3,1.4,1.8*31
$GPRMC,091616.000,A,3353.7573,N,09832.0272,W,0.05,197.43,310312,,,A*7D
$GPGGA,091617.000,3353.7573,N,09832.0273,W,1,07,1.4,303.1,M,-23.7,M,18.8,0000*77
$GPGSA,A,3,05,10,17,09,04,02,12,,,,,,2.3,1.4,1.8*31
$GPRMC,091617.000,A,3353.7573,N,09832.0273,W,0.14,241.20,310312,,,A*70
$GPGGA,091618.000,3353.7573,N,09832.0274,W,1,07,1.4,303.0,M,-23.7,M,18.8,0000*7E
$GPGSA,A,3,05,10,17,09,04,02,12,,,,,,2.3,1.4,1.8*31
$GPRMC,091618.000,A,3353.7573,N,09832.0274,W,0.08,16.25,310312,,,A*40
$GPGGA,091619.000,3353.7574,N,09832.0274,W,1,07,1.4,303.0,M,-23.7,M,18.8,0000*78
$GPGSA,A,3,05,10,17,09,04,02,12,,,,,,2.3,1.4,1.8*31
$GPRMC,091619.000,A,3353.7574,N,09832.0274,W,0.27,38.24,310312,,,A*46
$GPGGA,091620.000,3353.7574,N,09832.0275,W,1,07,1.4,302.9,M,-23.7,M,18.8,0000*7B
$GPGSA,A,3,05,10,17,09,04,02,12,,,,,,2.3,1.4,1.8*31
$GPGSV,3,1,11,02,73,347,38,12,66,286,33,10,51,081,37,04,43,043,31*77
$GPGSV,3,2,11,05,41,172,33,25,27,315,21,17,12,098,31,09,12,227,19*79
$GPGSV,3,3,11,27,07,214,,29,04,294,,48,36,230,29*4F
$GPRMC,091620.000,A,3353.7574,N,09832.0275,W,0.06,290.27,310312,,,A*7D
$GPGGA,091621.000,3353.7575,N,09832.0275,W,1,07,1.4,302.8,M,-23.7,M,18.8,0000*7A
$GPGSA,A,3,05,10,17,09,04,02,12,,,,,,2.3,1.4,1.8*31
$GPRMC,091621.000,A,3353.7575,N,09832.0275,W,0.13,26.07,310312,,,A*44
$GPGGA,091622.000,3353.7575,N,09832.0275,W,1,07,1.4,302.7,M,-23.7,M,18.8,0000*76
$GPGSA,A,3,05,10,17,09,04,02,12,,,,,,2.3,1.4,1.8*31
$GPRMC,091622.000,A,3353.7575,N,09832.0275,W,0.25,36.87,310312,,,A*4B
$GPGGA,091623.000,3353.7575,N,09832.0276,W,1,07,1.4,302.6,M,-23.7,M,18.8,0000*75
$GPGSA,A,3,05,10,17,09,04,02,12,,,,,,2.3,1.4,1.8*31
$GPRMC,091623.000,A,3353.7575,N,09832.0276,W,0.05,282.19,310312,,,A*71
$GPGGA,091624.000,3353.7575,N,09832.0278,W,1,07,1.4,302.4,M,-23.7,M,18.8,0000*7E
$GPGSA,A,3,05,10,17,09,04,02,12,,,,,,2.3,1.4,1.8*31
$GPRMC,091624.000,A,3353.7575,N,09832.0278,W,0.19,243.26,310312,,,A*74
$GPGGA,091625.000,3353.7575,N,09832.0279,W,1,07,1.4,302.2,M,-23.7,M,18.8,0000*78
$GPGSA,A,3,05,10,17,09,04,02,12,,,,,,2.3,1.4,1.8*31
$GPGSV,3,1,11,02,73,347,38,12,66,286,33,10,51,081,37,04,43,043,31*77
$GPGSV,3,2,11,05,41,172,33,25,27,315,20,17,12,098,33,09,12,227,20*70
$GPGSV,3,3,11,27,07,214,,29,04,294,,48,36,230,29*4F
$GPRMC,091625.000,A,3353.7575,N,09832.0279,W,0.25,250.88,310312,,,A*7D
$GPGGA,091626.000,3353.7576,N,09832.0280,W,1,07,1.4,302.0,M,-23.7,M,18.8,0000*7C
$GPGSA,A,3,05,10,17,09,04,02,12,,,,,,2.3,1.4,1.8*31
$GPRMC,091626.000,A,3353.7576,N,09832.0280,W,0.16,10.53,310312,,,A*4B
$GPGGA,091627.000,3353.7576,N,09832.0280,W,1,07,1.4,301.9,M,-23.7,M,18.8,0000*77
$GPGSA,A,3,05,10,17,09,04,02,12,,,,,,2.3,1.4,1.8*31
$GPRMC,091627.000,A,3353.7576,N,09832.0280,W,0.26,23.64,310312,,,A*4D
$GPGGA,091628.000,3353.7577,N,09832.0280,W,1,07,1.4,301.8,M,-23.7,M,18.8,0000*78
$GPGSA,A,3,05,10,17,09,04,02,12,,,,,,2.3,1.4,1.8*31
$GPRMC,091628.000,A,3353.7577,N,09832.0280,W,0.28,35.60,310312,,,A*4E
$GPGGA,091629.000,3353.7577,N,09832.0281,W,1,07,1.4,301.8,M,-23.7,M,18.8,0000*78
$GPGSA,A,3,05,10,17,09,04,02,12,,,,,,2.3,1.4,1.8*31
$GPRMC,091629.000,A,3353.7577,N,09832.0281,W,0.05,340.18,310312,,,A*7F
$GPGGA,091630.000,3353.7577,N,09832.0281,W,1,07,1.4,301.7,M,-23.7,M,18.8,0000*7F
$GPGSA,A,3,05,10,17,09,04,02,12,,,,,,2.3,1.4,1.8*31
$GPGSV,3,1,11,02,73,347,38,12,66,286,34,10,51,081,37,04,43,043,31*70
$GPGSV,3,2,11,05,41,172,33,25,27,315,19,17,12,098,33,09,12,227,19*70
$GPGSV,3,3,11,27,07,214,,29,04,294,,48,36,230,29*4F
$GPRMC,091630.000,A,3353.7577,N,09832.0281,W,0.12,38.32,310312,,,A*45
$GPGGA,091631.000,3353.7577,N,09832.0282,W,1,07,1.4,301.6,M,-23.7,M,18.8,0000*7C
$GPGSA,A,3,05,10,17,09,04,02,12,,,,,,2.3,1.4,1.8*31
$GPRMC,091631.000,A,3353.7577,N,09832.0282,W,0.09,253.59,310312,,,A*7F
$GPGGA,091632.000,3353.7578,N,09832.0282,W,1,07,1.4,301.6,M,-23.7,M,18.8,0000*70
$GPGSA,A,3,05,10,17,09,04,02,12,,,,,,2.3,1.4,1.8*31
$GPRMC,091632.000,A,3353.7578,N,09832.0282,W,0.19,39.84,310312,,,A*4C
$GPGGA,091633.000,3353.7578,N,09832.0282,W,1,07,1.4,301.5,M,-23.7,M,18.8,0000*72
$GPGSA,A,3,05,10,17,09,04,02,12,,,,,,2.3,1.4,1.8*31
$GPRMC,091633.000,A,3353.7578,N,09832.0282,W,0.09,45.47,310312,,,A*48
$GPGGA,091634.000,3353.7577,N,09832.0283,W,1,07,1.4,301.5,M,-23.7,M,18.8,0000*7B
$GPGSA,A,3,05,10,17,09,04,02,12,,,,,,2.3,1.4,1.8*31
$GPRMC,091634.000,A,3353.7577,N,09832.0283,W,0.09,230.46,310312,,,A*70
$GPGGA,091635.000,3353.7577,N,09832.0284,W,1,07,1.4,301.4,M,-23.7,M,18.8,0000*7C
$GPGSA,A,3,05,10,17,09,04,02,12,,,,,,2.3,1.4,1.7*3E
$GPGSV,3,1,11,02,73,347,38,12,66,286,34,10,51,081,37,04,43,043,31*70
$GPGSV,3,2,11,05,41,172,33,25,27,315,19,17,12,098,34,09,12,227,19*77
$GPGSV,3,3,11,27,07,214,,29,04,294,,48,36,230,29*4F
$GPRMC,091635.000,A,3353.7577,N,09832.0284,W,0.13,237.25,310312,,,A*7F
$GPGGA,091636.000,3353.7577,N,09832.0284,W,1,07,1.4,301.4,M,-23.7,M,18.8,0000*7F
$GPGSA,A,3,05,10,17,09,04,02,12,,,,,,2.3,1.4,1.7*3E
$GPRMC,091636.000,A,3353.7577,N,09832.0284,W,0.18,35.50,310312,,,A*45
$GPGGA,091637.000,3353.7578,N,09832.0284,W,1,07,1.4,301.4,M,-23.7,M,18.8,0000*71
$GPGSA,A,3,05,10,17,09,04,02,12,,,,,,2.3,1.4,1.7*3E
$GPRMC,091637.000,A,3353.7578,N,09832.0284,W,0.24,42.15,310312,,,A*45
$GPGGA,091638.000,3353.7578,N,09832.0283,W,1,07,1.4,301.5,M,-23.7,M,18.8,0000*78
$GPGSA,A,3,05,10,17,09,04,02,12,,,,,,2.3,1.4,1.7*3E
$GPRMC,091638.000,A,3353.7578,N,09832.0283,W,0.33,48.61,310312,,,A*42
$GPGGA,091639.000,3353.7579,N,09832.0282,W,1,07,1.4,301.6,M,-23.7,M,18.8,0000*7A
$GPGSA,A,3,05,10,17,09,04,02,12,,,,,,2.3,1.4,1.7*3E
$GPRMC,091639.000,A,3353.7579,N,09832.0282,W,0.37,57.32,310312,,,A*4F
$GPGGA,091640.000,3353.7575,N,09832.0285,W,2,07,1.4,302.0,M,-23.7,M,,0000*66
$GPGSA,A,3,05,10,17,09,04,02,12,,,,,,2.3,1.4,1.7*3E
$GPGSV,3,1,11,02,73,347,39,12,66,286,34,10,51,081,37,04,43,043,31*71
$GPGSV,3,2,11,05,41,172,33,25,27,315,19,17,12,098,34,09,12,227,18*76
$GPGSV,3,3,11,27,07,214,,29,04,294,,48,36,230,30*47
$GPRMC,091640.000,A,3353.7575,N,09832.0285,W,0.21,75.95,310312,,,D*45
$GPGGA,091641.000,3353.7575,N,09832.0284,W,2,07,1.4,302.3,M,-23.7,M,1.8,0000*42
$GPGSA,A,3,05,10,17,09,04,02,12,,,,,,2.3,1.4,1.7*3E
$GPRMC,091641.000,A,3353.7575,N,09832.0284,W,0.33,68.30,310312,,,D*45
$GPGGA,091642.000,3353.7574,N,09832.0283,W,2,07,1.4,302.7,M,-23.7,M,,0000*64
$GPGSA,A,3,05,10,17,09,04,02,12,,,,,,2.3,1.4,1.7*3E
$GPRMC,091642.000,A,3353.7574,N,09832.0283,W,0.40,66.78,310312,,,D*46
$GPGGA,091643.000,3353.7574,N,09832.0283,W,2,07,1.4,302.8,M,-23.7,M,3.8,0000*4F
$GPGSA,A,3,05,10,17,09,04,02,12,,,,,,2.3,1.4,1.7*3E
$GPRMC,091643.000,A,3353.7574,N,09832.0283,W,0.19,145.01,310312,,,D*75
$GPGGA,091644.000,3353.7573,N,09832.0283,W,2,07,1.4,302.7,M,-23.7,M,4.8,0000*47
$GPGSA,A,3,05,10,17,09,04,02,12,,,,,,2.3,1.4,1.7*3E
$GPRMC,091644.000,A,3353.7573,N,09832.0283,W,0.20,181.73,310312,,,D*72
$GPGGA,091645.000,3353.7573,N,09832.0284,W,2,07,1.4,302.8,M,-23.7,M,5.8,0000*4F
$GPGSA,A,3,05,10,17,09,04,02,12,,,,,,2.3,1.4,1.7*3E
$GPGSV,3,1,11,02,73,347,39,12,66,286,34,10,51,081,38,04,43,043,32*7D
$GPGSV,3,2,11,05,41,172,33,25,27,315,19,17,12,098,35,09,12,227,19*76
$GPGSV,3,3,11,27,07,214,,29,04,294,,48,36,230,29*4F
$GPRMC,091645.000,A,3353.7573,N,09832.0284,W,0.10,143.15,310312,,,D*79
$GPGGA,091646.000,3353.7572,N,09832.0283,W,2,07,1.4,303.0,M,-23.7,M,6.8,0000*40
$GPGSA,A,3,05,10,17,09,04,02,12,,,,,,2.3,1.4,1.7*3E
$GPRMC,091646.000,A,3353.7572,N,09832.0283,W,0.27,61.94,310312,,,D*40
$GPGGA,091647.000,3353.7572,N,09832.0283,W,2,07,1.4,303.1,M,-23.7,M,7.8,0000*41
$GPGSA,A,3,05,10,17,09,04,02,12,,,,,,2.3,1.4,1.7*3E
$GPRMC,091647.000,A,3353.7572,N,09832.0283,W,0.13,147.72,310312,,,D*7B
$GPGGA,091648.000,3353.7571,N,09832.0283,W,2,07,1.4,303.3,M,-23.7,M,8.8,0000*40
$GPGSA,A,3,05,10,17,09,04,02,12,,,,,,2.3,1.4,1.7*3E
$GPRMC,091648.000,A,3353.7571,N,09832.0283,W,0.20,78.41,310312,,,D*4A
$GPGGA,091649.000,3353.7571,N,09832.0283,W,2,07,1.4,303.2,M,-23.7,M,9.8,0000*41
$GPGSA,A,3,05,10,17,09,04,02,12,,,,,,2.3,1.4,1.7*3E
$GPRMC,091649.000,A,3353.7571,N,09832.0283,W,0.12,186.48,310312,,,D*73
$GPGGA,091650.000,3353.7571,N,09832.0283,W,2,07,1.4,303.2,M,-23.7,M,10.8,0000*71
$GPGSA,A,3,05,10,17,09,04,02,12,,,,,,2.3,1.4,1.7*3E
$GPGSV,3,1,11,02,73,347,39,12,66,286,34,10,51,081,38,04,43,043,32*7D
$GPGSV,3,2,11,05,41,172,34,25,27,315,19,17,12,098,35,09,12,227,20*7B
$GPGSV,3,3,11,27,07,214,21,29,04,294,,48,36,230,29*4C
$GPRMC,091650.000,A,3353.7571,N,09832.0283,W,0.10,167.93,310312,,,D*70
$GPGGA,091651.000,3353.7570,N,09832.0283,W,2,07,1.4,303.5,M,-23.7,M,11.8,0000*77
$GPGSA,A,3,05,10,17,09,04,02,12,,,,,,2.3,1.4,1.7*3E
$GPRMC,091651.000,A,3353.7570,N,09832.0283,W,0.26,59.18,310312,,,D*4A
$GPGGA,091652.000,3353.7570,N,09832.0283,W,2,07,1.4,303.5,M,-23.7,M,12.8,0000*77
$GPGSA,A,3,05,10,17,09,04,02,12,,,,,,2.3,1.4,1.7*3E
$GPRMC,091652.000,A,3353.7570,N,09832.0283,W,0.09,142.86,310312,,,D*78
$GPGGA,091653.000,3353.7570,N,09832.0283,W,2,07,1.4,303.6,M,-23.7,M,13.8,0000*74
$GPGSA,A,3,05,10,17,09,04,02,12,,,,,,2.3,1.4,1.7*3E
$GPRMC,091653.000,A,3353.7570,N,09832.0283,W,0.08,71.82,310312,,,D*4D
$GPGGA,091654.000,3353.7569,N,09832.0283,W,2,07,1.4,303.7,M,-23.7,M,14.8,0000*7D
$GPGSA,A,3,05,10,17,09,04,02,12,,,,,,2.3,1.4,1.7*3E
$GPRMC,091654.000,A,3353.7569,N,09832.0283,W,0.13,73.27,310312,,,D*45
$GPGGA,091655.000,3353.7569,N,09832.0283,W,2,07,1.4,303.6,M,-23.7,M,15.8,0000*7C
$GPGSA,A,3,05,10,17,09,04,02,12,,,,,,2.3,1.4,1.7*3E
$GPGSV,3,1,10,02,73,347,39,12,66,286,34,10,51,081,38,04,43,043,32*7C
$GPGSV,3,2,10,05,41,172,34,25,27,315,19,17,12,098,35,09,12,227,20*7A
$GPGSV,3,3,10,27,07,214,20,29,04,294,*7F
$GPRMC,091655.000,A,3353.7569,N,09832.0283,W,0.15,201.35,310312,,,D*76
$GPGGA,091656.000,3353.7569,N,09832.0284,W,2,07,1.4,303.4,M,-23.7,M,16.8,0000*79
$GPGSA,A,3,05,10,17,09,04,02,12,,,,,,2.3,1.4,1.7*3E
$GPRMC,091656.000,A,3353.7569,N,09832.0284,W,0.19,218.37,310312,,,D*74
$GPGGA,091657.000,3353.7568,N,09832.0284,W,2,07,1.4,303.5,M,-23.7,M,17.8,0000*79
$GPGSA,A,3,05,10,17,09,04,02,12,,,,,,2.3,1.4,1.7*3E
$GPRMC,091657.000,A,3353.7568,N,09832.0284,W,0.22,39.75,310312,,,D*4B
$GPGGA,091658.000,3353.7568,N,09832.0284,W,1,07,1.4,303.7,M,-23.7,M,18.8,0000*78
$GPGSA,A,3,05,10,17,09,04,02,12,,,,,,2.3,1.4,1.7*3E
$GPRMC,091658.000,A,3353.7568,N,09832.0284,W,0.20,48.95,310312,,,A*4B
$GPGGA,091659.000,3353.7568,N,09832.0284,W,1,07,1.4,303.7,M,-23.7,M,18.8,0000*79
$GPGSA,A,3,05,10,17,09,04,02,12,,,,,,2.3,1.4,1.7*3E
$GPRMC,091659.000,A,3353.7568,N,09832.0284,W,0.07,188.96,310312,,,A*71
$GPGGA,091700.000,3353.7568,N,09832.0284,W,1,07,1.4,303.7,M,-23.7,M,18.8,0000*74
$GPGSA,A,3,05,10,17,09,04,02,12,,,,,,2.3,1.4,1.7*3E
$GPGSV,3,1,10,02,73,347,39,12,66,286,34,10,51,081,38,04,43,043,31*7F
$GPGSV,3,2,10,05,41,172,35,25,27,315,19,17,12,098,35,09,12,227,20*7B
$GPGSV,3,3,10,27,07,214,,29,04,294,*7D
$GPRMC,091700.000,A,3353.7568,N,09832.0284,W,0.09,222.42,310312,,,A*78
$GPGGA,091701.000,3353.7568,N,09832.0285,W,1,07,1.4,303.6,M,-23.7,M,18.8,0000*75
$GPGSA,A,3,05,10,17,09,04,02,12,,,,,,2.3,1.4,1.7*3E
$GPRMC,091701.000,A,3353.7568,N,09832.0285,W,0.16,234.17,310312,,,A*71
$GPGGA,091702.000,3353.7568,N,09832.0285,W,1,07,1.4,303.5,M,-23.7,M,18.8,0000*75
$GPGSA,A,3,05,10,17,09,04,02,12,,,,,,2.3,1.4,1.7*3E
$GPRMC,091702.000,A,3353.7568,N,09832.0285,W,0.10,268.48,310312,,,A*77
$GPGGA,091703.000,3353.7568,N,09832.0285,W,1,07,1.4,303.5,M,-23.7,M,18.8,0000*74
$GPGSA,A,3,05,10,17,09,04,02,12,,,,,,2.3,1.4,1.7*3E
$GPRMC,091703.000,A,3353.7568,N,09832.0285,W,0.05,340.37,310312,,,A*71
$GPGGA,091704.000,3353.7568,N,09832.0285,W,1,07,1.4,303.4,M,-23.7,M,18.8,0000*72
$GPGSA,A,3,05,10,17,09,04,02,12,,,,,,2.3,1.4,1.7*3E
$GPRMC,091704.000,A,3353.7568,N,09832.0285,W,0.16,9.71,310312,,,A*78
$GPGGA,091705.000,3353.7569,N,09832.0286,W,1,07,1.4,303.4,M,-23.7,M,18.8,0000*71
$GPGSA,A,3,05,10,17,09,04,02,12,,,,,,2.3,1.4,1.7*3E
$GPGSV,3,1,10,02,73,347,39,12,66,286,34,10,51,081,38,04,43,043,31*7F
$GPGSV,3,2,10,05,41,172,35,25,27,315,21,17,12,098,35,09,12,227,21*71
$GPGSV,3,3,10,27,07,214,,29,04,294,*7D
$GPRMC,091705.000,A,3353.7569,N,09832.0286,W,0.06,339.20,310312,,,A*7E
$GPGGA,091706.000,3353.7569,N,09832.0286,W,1,07,1.4,303.3,M,-23.7,M,18.8,0000*75
$GPGSA,A,3,05,10,17,09,04,02,12,,,,,,2.3,1.4,1.7*3E
$GPRMC,091706.000,A,3353.7569,N,09832.0286,W,0.08,259.15,310312,,,A*72
$GPGGA,091707.000,3353.7569,N,09832.0286,W,1,07,1.4,303.2,M,-23.7,M,18.8,0000*75
$GPGSA,A,3,05,10,17,09,04,02,12,,,,,,2.3,1.4,1.7*3E
$GPRMC,091707.000,A,3353.7569,N,09832.0286,W,0.17,29.84,310312,,,A*40
$GPGGA,091708.000,3353.7569,N,09832.0286,W,1,07,1.4,303.2,M,-23.7,M,18.8,0000*7A
$GPGSA,A,3,05,10,17,09,04,02,12,,,,,,2.3,1.4,1.7*3E
$GPRMC,091708.000,A,3353.7569,N,09832.0286,W,0.15,29.01,310312,,,A*40
$GPGGA,091709.000,3353.7569,N,09832.0286,W,1,07,1.4,303.1,M,-23.7,M,18.8,0000*78
$GPGSA,A,3,05,10,17,09,04,02,12,,,,,,2.3,1.4,1.7*3E
$GPRMC,091709.000,A,3353.7569,N,09832.0286,W,0.05,256.05,310312,,,A*7E
$GPGGA,091710.000,3353.7569,N,09832.0286,W,1,07,1.4,303.1,M,-23.7,M,18.8,0000*70
$GPGSA,A,3,05,10,17,09,04,02,12,,,,,,2.3,1.4,1.7*3E
$GPGSV,3,1,10,02,73,347,39,12,66,286,33,10,51,081,38,04,43,043,30*79
$GPGSV,3,2,10,05,41,172,35,25,27,315,22,17,12,098,35,09,12,227,22*71
$GPGSV,3,3,10,27,07,214,,29,04,294,*7D
$GPRMC,091710.000,A,3353.7569,N,09832.0286,W,0.09,29.47,310312,,,A*46
$GPGGA,091711.000,3353.7570,N,09832.0286,W,1,07,1.4,303.1,M,-23.7,M,18.8,0000*79
$GPGSA,A,3,05,10,17,09,04,02,12,,,,,,2.3,1.4,1.7*3E
$GPRMC,091711.000,A,3353.7570,N,09832.0286,W,0.25,37.56,310312,,,A*4E
$GPGGA,091712.000,3353.7570,N,09832.0286,W,1,07,1.4,303.1,M,-23.7,M,18.8,0000*7A
$GPGSA,A,3,05,10,17,09,04,02,12,,,,,,2.3,1.4,1.7*3E
$GPRMC,091712.000,A,3353.7570,N,09832.0286,W,0.08,47.18,310312,,,A*4F
$GPGGA,091713.000,3353.7570,N,09832.0286,W,1,07,1.4,303.1,M,-23.7,M,18.8,0000*7B
$GPGSA,A,3,05,10,17,09,04,02,12,,,,,,2.3,1.4,1.7*3E
$GPRMC,091713.000,A,3353.7570,N,09832.0286,W,0.16,46.81,310312,,,A*40
$GPGGA,091714.000,3353.7570,N,09832.0286,W,1,07,1.4,303.0,M,-23.7,M,18.8,0000*7D
$GPGSA,A,3,05,10,17,09,04,02,12,,,,,,2.3,1.4,1.7*3E
$GPRMC,091714.000,A,3353.7570,N,09832.0286,W,0.03,42.32,310312,,,A*4F
$GPGGA,091715.000,3353.7570,N,09832.0286,W,1,07,1.4,303.0,M,-23.7,M,18.8,0000*7C
$GPGSA,A,3,05,10,17,09,04,02,12,,,,,,2.3,1.4,1.7*3E
$GPGSV,3,1,10,02,73,347,39,12,66,286,34,10,51,081,39,04,43,043,29*77
$GPGSV,3,2,10,05,41,172,35,25,27,315,23,17,12,098,35,09,12,227,21*73
$GPGSV,3,3,10,27,07,214,,29,04,294,*7D
$GPRMC,091715.000,A,3353.7570,N,09832.0286,W,0.11,51.97,310312,,,A*40
$GPGGA,091716.000,3353.7570,N,09832.0286,W,1,07,1.4,303.0,M,-23.7,M,18.8,0000*7F
$GPGSA,A,3,05,10,17,09,04,02,12,,,,,,2.3,1.4,1.7*3E
$GPRMC,091716.000,A,3353.7570,N,09832.0286,W,0.06,46.53,310312,,,A*4B
$GPGGA,091717.000,3353.7571,N,09832.0285,W,1,07,1.4,303.0,M,-23.7,M,18.8,0000*7C
$GPGSA,A,3,05,10,17,09,04,02,12,,,,,,2.3,1.4,1.7*3E
$GPRMC,091717.000,A,3353.7571,N,09832.0285,W,0.14,52.90,310312,,,A*41
$GPGGA,091718.000,3353.7571,N,09832.0285,W,1,07,1.4,303.0,M,-23.7,M,18.8,0000*73
$GPGSA,A,3,05,10,17,09,04,02,12,,,,,,2.3,1.4,1.7*3E
$GPRMC,091718.000,A,3353.7571,N,09832.0285,W,0.18,40.99,310312,,,A*48
$GPGGA,091719.000,3353.7571,N,09832.0285,W,1,07,1.4,303.0,M,-23.7,M,18.8,0000*72
$GPGSA,A,3,05,10,17,09,04,02,12,,,,,,2.3,1.4,1.7*3E
$GPRMC,091719.000,A,3353.7571,N,09832.0285,W,0.07,171.16,310312,,,A*73
$GPGGA,091720.000,3353.7571,N,09832.0286,W,1,07,1.4,302.9,M,-23.7,M,18.8,0000*73
$GPGSA,A,3,05,10,17,09,04,02,12,,,,,,2.3,1.4,1.7*3E
$GPGSV,3,1,10,02,73,347,39,12,66,286,34,10,51,081,39,04,43,043,28*76
$GPGSV,3,2,10,05,41,172,35,25,27,315,24,17,12,098,35,09,12,227,21*74
$GPGSV,3,3,10,27,07,214,,29,04,294,*7D
$GPRMC,091720.000,A,3353.7571,N,09832.0286,W,0.07,61.96,310312,,,A*42
$GPGGA,091721.000,3353.7571,N,09832.0286,W,1,07,1.4,302.9,M,-23.7,M,18.8,0000*72
$GPGSA,A,3,05,10,17,09,04,02,12,,,,,,2.3,1.4,1.7*3E
$GPRMC,091721.000,A,3353.7571,N,09832.0286,W,0.11,36.84,310312,,,A*45
$GPGGA,091722.000,3353.7571,N,09832.0286,W,1,07,1.4,302.7,M,-23.7,M,18.8,0000*7F
$GPGSA,A,3,05,10,17,09,04,02,12,,,,,,2.3,1.4,1.7*3E
$GPRMC,091722.000,A,3353.7571,N,09832.0286,W,0.09,341.45,310312,,,A*71
$GPGGA,091723.000,3353.7572,N,09832.0287,W,1,07,1.4,302.2,M,-23.7,M,18.8,0000*79
$GPGSA,A,3,05,10,17,09,04,02,12,,,,,,2.3,1.4,1.7*3E
$GPRMC,091723.000,A,3353.7572,N,09832.0287,W,0.15,301.00,310312,,,A*7A
$GPGGA,091724.000,3353.7574,N,09832.0287,W,1,07,1.4,301.6,M,-23.7,M,18.8,0000*7F
$GPGSA,A,3,05,10,17,09,04,02,12,,,,,,2.3,1.4,1.7*3E
$GPRMC,091724.000,A,3353.7574,N,09832.0287,W,0.25,322.32,310312,,,A*78
$GPGGA,091725.000,3353.7576,N,09832.0288,W,1,07,1.4,300.8,M,-23.7,M,18.8,0000*7C
$GPGSA,A,3,05,10,17,09,04,02,12,,,,,,2.3,1.4,1.7*3E
$GPGSV,3,1,10,02,73,347,39,12,66,286,34,10,51,081,39,04,43,043,26*78
$GPGSV,3,2,10,05,41,172,35,25,27,315,24,17,12,098,35,09,12,227,20*75
$GPGSV,3,3,10,27,07,214,,29,04,294,*7D
$GPRMC,091725.000,A,3353.7576,N,09832.0288,W,0.41,355.59,310312,,,A*7B
$GPGGA,091726.000,3353.7578,N,09832.0289,W,1,07,1.4,299.9,M,-23.7,M,18.8,0000*70
$GPGSA,A,3,05,10,17,09,04,02,12,,,,,,2.3,1.4,1.7*3E
$GPRMC,091726.000,A,3353.7578,N,09832.0289,W,0.36,334.68,310312,,,A*72
$GPGGA,091727.000,3353.7579,N,09832.0290,W,1,07,1.4,299.1,M,-23.7,M,18.8,0000*70
$GPGSA,A,3,05,10,17,09,04,02,12,,,,,,2.3,1.4,1.7*3E
$GPRMC,091727.000,A,3353.7579,N,09832.0290,W,0.28,285.55,310312,,,A*70
$GPGGA,091728.000,3353.7581,N,09832.0291,W,1,07,1.4,298.4,M,-23.7,M,18.8,0000*7D
$GPGSA,A,3,05,10,17,09,04,02,12,,,,,,2.3,1.4,1.7*3E
$GPRMC,091728.000,A,3353.7581,N,09832.0291,W,0.27,295.58,310312,,,A*7A
$GPGGA,091729.000,3353.7582,N,09832.0292,W,1,07,1.4,297.5,M,-23.7,M,18.8,0000*72
$GPGSA,A,3,05,10,17,09,04,02,12,,,,,,2.3,1.4,1.7*3E
$GPRMC,091729.000,A,3353.7582,N,09832.0292,W,0.37,300.59,310312,,,A*76
$GPGGA,091730.000,3353.7583,N,09832.0294,W,1,07,1.4,296.6,M,-23.7,M,18.8,0000*7F
$GPGSA,A,3,05,10,17,09,04,02,12,,,,,,2.3,1.4,1.7*3E
$GPGSV,3,1,10,02,73,347,39,12,66,286,34,10,51,081,39,04,43,043,26*78
$GPGSV,3,2,10,05,41,172,35,25,27,315,24,17,12,098,34,09,12,227,20*74
$GPGSV,3,3,10,27,07,214,,29,04,294,*7D
$GPRMC,091730.000,A,3353.7583,N,09832.0294,W,0.36,285.68,310312,,,A*76
$GPGGA,091731.000,3353.7585,N,09832.0294,W,1,07,1.4,295.7,M,-23.7,M,18.8,0000*7A
$GPGSA,A,3,05,10,17,09,04,02,12,,,,,,2.3,1.4,1.7*3E
$GPRMC,091731.000,A,3353.7585,N,09832.0294,W,0.41,339.50,310312,,,A*7C
$GPGGA,091732.000,3353.7587,N,09832.0295,W,1,07,1.4,294.8,M,-23.7,M,18.8,0000*74
$GPGSA,A,3,05,10,17,09,04,02,12,,,,,,2.3,1.4,1.7*3E
$GPRMC,091732.000,A,3353.7587,N,09832.0295,W,0.34,307.05,310312,,,A*73
$GPGGA,091733.000,3353.7589,N,09832.0296,W,1,07,1.4,294.0,M,-23.7,M,18.8,0000*70
$GPGSA,A,3,05,10,17,09,04,02,12,,,,,,2.3,1.4,1.7*3E
$GPRMC,091733.000,A,3353.7589,N,09832.0296,W,0.42,346.46,310312,,,A*7C
$GPGGA,091734.000,3353.7591,N,09832.0296,W,1,07,1.4,293.3,M,-23.7,M,18.8,0000*7A
$GPGSA,A,3,05,10,17,09,04,02,12,,,,,,2.3,1.4,1.7*3E
$GPRMC,091734.000,A,3353.7591,N,09832.0296,W,0.45,355.88,310312,,,A*75
$GPGGA,091735.000,3353.7593,N,09832.0296,W,1,07,1.4,292.6,M,-23.7,M,18.8,0000*7D
$GPGSA,A,3,05,10,17,09,04,02,12,,,,,,2.3,1.4,1.7*3E
$GPGSV,3,1,10,02,73,347,39,12,66,286,35,10,51,081,39,04,43,043,25*7A
$GPGSV,3,2,10,05,41,172,35,25,27,315,23,17,12,098,35,09,12,227,18*79
$GPGSV,3,3,10,27,07,214,,29,04,294,*7D
$GPRMC,091735.000,A,3353.7593,N,09832.0296,W,0.42,1.64,310312,,,A*71
$GPGGA,091736.000,3353.7594,N,09832.0296,W,1,07,1.4,291.9,M,-23.7,M,18.8,0000*75
$GPGSA,A,3,05,10,17,09,04,02,12,,,,,,2.3,1.4,1.7*3E
$GPRMC,091736.000,A,3353.7594,N,09832.0296,W,0.42,9.26,310312,,,A*7B
$GPGGA,091737.000,3353.7596,N,09832.0296,W,1,07,1.4,291.4,M,-23.7,M,18.8,0000*7B
$GPGSA,A,3,05,10,17,09,04,02,12,,,,,,2.3,1.4,1.7*3E
$GPRMC,091737.000,A,3353.7596,N,09832.0296,W,0.40,15.55,310312,,,A*43
$GPGGA,091738.000,3353.7597,N,09832.0296,W,1,07,1.4,291.0,M,-23.7,M,18.8,0000*71
$GPGSA,A,3,05,10,17,09,04,02,12,,,,,,2.3,1.4,1.7*3E
$GPRMC,091738.000,A,3353.7597,N,09832.0296,W,0.14,355.67,310312,,,A*7A
$GPGGA,091739.000,3353.7597,N,09832.0296,W,1,07,1.4,290.6,M,-23.7,M,18.8,0000*77
$GPGSA,A,3,05,10,17,09,04,02,12,,,,,,2.3,1.4,1.7*3E
$GPRMC,091739.000,A,3353.7597,N,09832.0296,W,0.14,276.03,310312,,,A*79
$GPGGA,091740.000,3353.7597,N,09832.0297,W,1,07,1.4,290.3,M,-23.7,M,18.8,0000*7D
$GPGSA,A,3,05,10,17,09,04,02,12,,,,,,2.3,1.4,1.7*3E
$GPGSV,3,1,10,02,73,347,39,12,66,286,35,10,51,081,38,04,43,043,25*7B
$GPGSV,3,2,10,05,41,172,35,25,27,315,23,17,12,098,35,09,12,227,17*76
$GPGSV,3,3,10,27,07,214,,29,04,294,*7D
$GPRMC,091740.000,A,3353.7597,N,09832.0297,W,0.18,261.60,310312,,,A*79
$GPGGA,091741.000,3353.7597,N,09832.0298,W,1,07,1.4,289.9,M,-23.7,M,18.8,0000*71
$GPGSA,A,3,05,10,17,09,04,02,12,,,,,,2.3,1.4,1.7*3E
$GPRMC,091741.000,A,3353.7597,N,09832.0298,W,0.20,262.76,310312,,,A*78
$GPGGA,091742.000,3353.7597,N,09832.0299,W,1,07,1.4,289.5,M,-23.7,M,18.8,0000*7F
$GPGSA,A,3,05,10,17,09,04,02,12,,,,,,2.3,1.4,1.7*3E
$GPRMC,091742.000,A,3353.7597,N,09832.0299,W,0.23,261.82,310312,,,A*71
$GPGGA,091743.000,3353.7596,N,09832.0300,W,1,07,1.4,289.2,M,-23.7,M,18.8,0000*79
$GPGSA,A,3,05,10,17,09,04,02,12,,,,,,2.3,1.4,1.7*3E
$GPRMC,091743.000,A,3353.7596,N,09832.0300,W,0.27,267.50,310312,,,A*7D
$GPGGA,091744.000,3353.7596,N,09832.0301,W,1,07,1.4,288.8,M,-23.7,M,18.8,0000*74
$GPGSA,A,3,05,10,17,09,04,02,12,,,,,,2.3,1.4,1.7*3E
$GPRMC,091744.000,A,3353.7596,N,09832.0301,W,0.25,285.30,310312,,,A*73
$GPGGA,091745.000,3353.7597,N,09832.0302,W,1,07,1.4,288.4,M,-23.7,M,18.8,0000*7B
$GPGSA,A,3,05,10,17,09,04,02,12,,,,,,2.3,1.4,1.7*3E
$GPGSV,3,1,10,02,73,347,39,12,66,286,35,10,51,081,38,04,43,043,26*78
$GPGSV,3,2,10,05,41,172,35,25,27,315,22,17,12,098,35,09,12,227,16*76
$GPGSV,3,3,10,27,07,214,,29,04,294,*7D
$GPRMC,091745.000,A,3353.7597,N,09832.0302,W,0.24,289.48,310312,,,A*72
$GPGGA,091746.000,3353.7597,N,09832.0303,W,1,07,1.4,288.0,M,-23.7,M,18.8,0000*7D
$GPGSA,A,3,05,10,17,09,04,02,12,,,,,,2.3,1.4,1.7*3E
$GPRMC,091746.000,A,3353.7597,N,09832.0303,W,0.23,285.61,310312,,,A*70
$GPGGA,091747.000,3353.7597,N,09832.0304,W,1,07,1.4,287.7,M,-23.7,M,18.8,0000*73
$GPGSA,A,3,05,10,17,09,04,02,12,,,,,,2.3,1.4,1.7*3E
$GPRMC,091747.000,A,3353.7597,N,09832.0304,W,0.29,283.70,310312,,,A*7A
$GPGGA,091748.000,3353.7596,N,09832.0305,W,1,07,1.4,287.3,M,-23.7,M,18.8,0000*78
$GPGSA,A,3,05,10,17,09,04,02,12,,,,,,2.3,1.4,1.7*3E
$GPRMC,091748.000,A,3353.7596,N,09832.0305,W,0.29,284.42,310312,,,A*73
$GPGGA,091749.000,3353.7596,N,09832.0306,W,1,07,1.4,286.9,M,-23.7,M,18.8,0000*71
$GPGSA,A,3,05,10,17,09,04,02,12,,,,,,2.3,1.4,1.7*3E
$GPRMC,091749.000,A,3353.7596,N,09832.0306,W,0.30,285.91,310312,,,A*76
$GPGGA,091750.000,3353.7597,N,09832.0307,W,1,07,1.4,286.5,M,-23.7,M,18.8,0000*75
$GPGSA,A,3,05,10,17,09,04,02,12,,,,,,2.3,1.4,1.7*3E
$GPGSV,3,1,11,02,72,350,39,12,66,284,35,10,51,079,38,05,42,172,35*7A
$GPGSV,3,2,11,04,42,044,26,25,28,315,22,17,12,099,36,09,11,226,16*7C
$GPGSV,3,3,11,27,06,213,,29,04,294,,13,00,069,*47
$GPRMC,091750.000,A,3353.7597,N,09832.0307,W,0.24,301.19,310312,,,A*76
$GPGGA,091751.000,3353.7597,N,09832.0308,W,1,07,1.4,286.2,M,-23.7,M,18.8,0000*7C
$GPGSA,A,3,05,10,17,09,04,02,12,,,,,,2.3,1.4,1.7*3E
$GPRMC,091751.000,A,3353.7597,N,09832.0308,W,0.25,294.95,310312,,,A*70
$GPGGA,091752.000,3353.7597,N,09832.0308,W,1,07,1.4,285.9,M,-23.7,M,18.8,0000*77
$GPGSA,A,3,05,10,17,09,04,02,12,,,,,,2.3,1.4,1.7*3E
$GPRMC,091752.000,A,3353.7597,N,09832.0308,W,0.23,340.55,310312,,,A*71
$GPGGA,091753.000,3353.7597,N,09832.0308,W,1,07,1.4,285.8,M,-23.7,M,18.8,0000*77
$GPGSA,A,3,05,10,17,09,04,02,12,,,,,,2.3,1.4,1.7*3E
$GPRMC,091753.000,A,3353.7597,N,09832.0308,W,0.25,17.18,310312,,,A*4E
$GPGGA,091754.000,3353.7597,N,09832.0308,W,1,07,1.4,285.6,M,-23.7,M,18.8,0000*7E
$GPGSA,A,3,05,10,17,09,04,02,12,,,,,,2.3,1.4,1.7*3E
$GPRMC,091754.000,A,3353.7597,N,09832.0308,W,0.11,326.77,310312,,,A*76
$GPGGA,091755.000,3353.7597,N,09832.0308,W,1,07,1.4,285.5,M,-23.7,M,18.8,0000*7C
$GPGSA,A,3,05,10,17,09,04,02,12,,,,,,2.3,1.4,1.7*3E
$GPGSV,3,1,12,02,72,350,39,12,66,284,35,10,51,079,38,05,42,172,35*79
$GPGSV,3,2,12,04,42,044,26,25,28,315,22,17,12,099,36,09,11,226,18*71
$GPGSV,3,3,12,27,06,213,,29,04,294,,13,00,069,,51,49,195,31*72
$GPRMC,091755.000,A,3353.7597,N,09832.0308,W,0.16,358.35,310312,,,A*7F
$GPGGA,091756.000,3353.7597,N,09832.0308,W,1,07,1.4,285.4,M,-23.7,M,18.8,0000*7E
$GPGSA,A,3,05,10,17,09,04,02,12,,,,,,2.3,1.4,1.7*3E
$GPRMC,091756.000,A,3353.7597,N,09832.0308,W,0.12,338.77,310312,,,A*78
$GPGGA,091757.000,3353.7597,N,09832.0308,W,1,07,1.4,285.2,M,-23.7,M,18.8,0000*79
$GPGSA,A,3,05,10,17,09,04,02,12,,,,,,2.3,1.4,1.7*3E
$GPRMC,091757.000,A,3353.7597,N,09832.0308,W,0.16,286.23,310312,,,A*78
$GPGGA,091758.000,3353.7597,N,09832.0309,W,1,07,1.4,285.0,M,-23.7,M,18.8,0000*75
$GPGSA,A,3,05,10,17,09,04,02,12,,,,,,2.3,1.4,1.7*3E
$GPRMC,091758.000,A,3353.7597,N,09832.0309,W,0.22,312.36,310312,,,A*79
$GPGGA,091759.000,3353.7598,N,09832.0309,W,1,07,1.4,284.7,M,-23.7,M,18.8,0000*7D
$GPGSA,A,3,05,10,17,09,04,02,12,,,,,,2.3,1.4,1.7*3E
$GPRMC,091759.000,A,3353.7598,N,09832.0309,W,0.22,330.17,310312,,,A*74
$GPGGA,091800.000,3353.7598,N,09832.0310,W,1,07,1.4,284.4,M,-23.7,M,18.8,0000*75
$GPGSA,A,3,05,10,17,09,04,02,12,,,,,,2.3,1.4,1.7*3E
$GPGSV,3,1,12,02,72,350,39,12,66,284,34,10,51,079,38,05,42,172,35*78
$GPGSV,3,2,12,04,42,044,25,25,28,315,22,17,12,099,37,09,11,226,20*78
$GPGSV,3,3,12,27,06,213,,29,04,294,,13,00,069,,51,49,195,31*72
$GPRMC,091800.000,A,3353.7598,N,09832.0310,W,0.16,289.83,310312,,,A*76
$GPGGA,091801.000,3353.7599,N,09832.0310,W,1,07,1.4,284.2,M,-23.7,M,18.8,0000*73
$GPGSA,A,3,05,10,17,09,04,02,12,,,,,,2.3,1.4,1.7*3E
$GPRMC,091801.000,A,3353.7599,N,09832.0310,W,0.17,357.28,310312,,,A*74
$GPGGA,091802.000,3353.7599,N,09832.0310,W,1,07,1.4,284.1,M,-23.7,M,18.8,0000*73
$GPGSA,A,3,05,10,17,09,04,02,12,,,,,,2.3,1.4,1.7*3E
$GPRMC,091802.000,A,3353.7599,N,09832.0310,W,0.13,321.20,310312,,,A*7A
$GPGGA,091803.000,3353.7599,N,09832.0310,W,1,07,1.4,283.9,M,-23.7,M,18.8,0000*7D
$GPGSA,A,3,05,10,17,09,04,02,12,,,,,,2.3,1.4,1.7*3E
$GPRMC,091803.000,A,3353.7599,N,09832.0310,W,0.22,24.08,310312,,,A*45
$GPGGA,091804.000,3353.7599,N,09832.0310,W,1,07,1.4,283.8,M,-23.7,M,18.8,0000*7B
$GPGSA,A,3,05,10,17,09,04,02,12,,,,,,2.3,1.4,1.7*3E
$GPRMC,091804.000,A,3353.7599,N,09832.0310,W,0.10,9.62,310312,,,A*70
$GPGGA,091805.000,3353.7600,N,09832.0310,W,1,07,1.4,283.7,M,-23.7,M,18.8,0000*76
$GPGSA,A,3,05,10,17,09,04,02,12,,,,,,2.3,1.4,1.7*3E
$GPGSV,3,1,12,02,72,350,39,12,66,284,34,10,51,079,38,05,42,172,36*7B
$GPGSV,3,2,12,04,42,044,25,25,28,315,22,17,12,099,37,09,11,226,22*7A
$GPGSV,3,3,12,27,06,213,,29,04,294,,13,00,069,,51,49,195,31*72
$GPRMC,091805.000,A,3353.7600,N,09832.0310,W,0.12,10.55,310312,,,A*4C
$GPGGA,091806.000,3353.7600,N,09832.0310,W,1,07,1.4,283.6,M,-23.7,M,18.8,0000*74
$GPGSA,A,3,05,10,17,09,04,02,12,,,,,,2.3,1.4,1.7*3E
$GPRMC,091806.000,A,3353.7600,N,09832.0310,W,0.06,321.51,310312,,,A*7F
$GPGGA,091807.000,3353.7601,N,09832.0310,W,1,07,1.4,283.4,M,-23.7,M,18.8,0000*76
$GPGSA,A,3,05,10,17,09,04,02,12,,,,,,2.3,1.4,1.7*3E
$GPRMC,091807.000,A,3353.7601,N,09832.0310,W,0.20,28.22,310312,,,A*45
$GPGGA,091808.000,3353.7601,N,09832.0309,W,1,07,1.4,283.4,M,-23.7,M,18.8,0000*71
$GPGSA,A,3,05,10,17,09,04,02,12,,,,,,2.3,1.4,1.7*3E
$GPRMC,091808.000,A,3353.7601,N,09832.0309,W,0.22,44.25,310312,,,A*4D
$GPGGA,091809.000,3353.7601,N,09832.0309,W,1,07,1.4,283.4,M,-23.7,M,18.8,0000*70
$GPGSA,A,3,05,10,17,09,04,02,12,,,,,,2.3,1.4,1.7*3E
$GPRMC,091809.000,A,3353.7601,N,09832.0309,W,0.01,287.72,310312,,,A*72
$GPGGA,091810.000,3353.7600,N,09832.0310,W,1,07,1.4,283.4,M,-23.7,M,18.8,0000*71
$GPGSA,A,3,05,10,17,09,04,02,12,,,,,,2.3,1.4,1.7*3E
$GPGSV,3,1,12,02,72,350,39,12,66,284,34,10,51,079,38,05,42,172,36*7B
$GPGSV,3,2,12,04,42,044,24,25,28,315,22,17,12,099,37,09,11,226,23*7A
$GPGSV,3,3,12,27,06,213,,29,04,294,,13,00,069,,51,49,195,31*72
$GPRMC,091810.000,A,3353.7600,N,09832.0310,W,0.04,210.60,310312,,,A*7B
$GPGGA,091811.000,3353.7600,N,09832.0310,W,1,07,1.4,283.5,M,-23.7,M,18.8,0000*71
$GPGSA,A,3,05,10,17,09,04,02,12,,,,,,2.3,1.4,1.7*3E
$GPRMC,091811.000,A,3353.7600,N,09832.0310,W,0.17,206.15,310312,,,A*7D
$GPGGA,091812.000,3353.7600,N,09832.0310,W,1,07,1.4,283.6,M,-23.7,M,18.8,0000*71
$GPGSA,A,3,05,10,17,09,04,02,12,,,,,,2.3,1.4,1.7*3E
$GPRMC,091812.000,A,3353.7600,N,09832.0310,W,0.18,46.27,310312,,,A*46
$GPGGA,091813.000,3353.7600,N,09832.0309,W,1,07,1.4,283.7,M,-23.7,M,18.8,0000*79
$GPGSA,A,3,05,10,17,09,04,02,12,,,,,,2.3,1.4,1.7*3E
$GPRMC,091813.000,A,3353.7600,N,09832.0309,W,0.24,45.09,310312,,,A*4F
$GPGGA,091814.000,3353.7599,N,09832.0308,W,1,07,1.4,284.1,M,-23.7,M,18.8,0000*7D
$GPGSA,A,3,05,10,17,09,04,02,12,,,,,,2.3,1.4,1.7*3E
$GPRMC,091814.000,A,3353.7599,N,09832.0308,W,0.10,102.76,310312,,,A*77
$GPGGA,091815.000,3353.7599,N,09832.0307,W,1,07,1.4,284.7,M,-23.7,M,18.8,0000*75
$GPGSA,A,3,05,10,17,09,04,02,12,,,,,,2.3,1.4,1.7*3E
$GPGSV,3,1,12,02,72,350,39,12,66,284,33,10,51,079,38,05,42,172,36*7C
$GPGSV,3,2,12,04,42,044,24,25,28,315,23,17,12,099,37,09,11,226,24*7C
$GPGSV,3,3,12,27,06,213,,29,04,294,,13,00,069,,51,49,195,31*72
$GPRMC,091815.000,A,3353.7599,N,09832.0307,W,0.20,90.17,310312,,,A*47
$GPGGA,091816.000,3353.7598,N,09832.0305,W,1,07,1.4,285.5,M,-23.7,M,18.8,0000*76
$GPGSA,A,3,05,10,17,09,04,02,12,,,,,,2.3,1.4,1.7*3E
$GPRMC,091816.000,A,3353.7598,N,09832.0305,W,0.21,97.86,310312,,,A*49
$GPGGA,091817.000,3353.7596,N,09832.0303,W,1,07,1.4,286.4,M,-23.7,M,18.8,0000*7D
$GPGSA,A,3,05,10,17,09,04,02,12,,,,,,2.3,1.4,1.7*3E
$GPRMC,091817.000,A,3353.7596,N,09832.0303,W,0.24,145.84,310312,,,A*79
$GPGGA,091818.000,3353.7595,N,09832.0301,W,1,07,1.4,287.5,M,-23.7,M,18.8,0000*73
$GPGSA,A,3,05,10,17,09,04,02,12,,,,,,2.3,1.4,1.7*3E
$GPRMC,091818.000,A,3353.7595,N,09832.0301,W,0.24,128.95,310312,,,A*7C
$GPGGA,091819.000,3353.7593,N,09832.0298,W,1,07,1.4,288.6,M,-23.7,M,18.8,0000*79
$GPGSA,A,3,05,10,17,09,04,02,12,,,,,,2.3,1.4,1.7*3E
$GPRMC,091819.000,A,3353.7593,N,09832.0298,W,0.27,140.77,310312,,,A*7B
$GPGGA,091820.000,3353.7591,N,09832.0296,W,1,07,1.4,289.8,M,-23.7,M,18.8,0000*70
$GPGSA,A,3,05,10,17,09,04,02,12,,,,,,2.3,1.4,1.7*3E
$GPGSV,3,1,12,02,72,351,39,12,66,283,33,10,50,079,37,05,43,172,36*75
$GPGSV,3,2,12,04,42,044,23,25,28,315,23,17,12,099,36,09,11,226,23*7D
$GPGSV,3,3,12,27,06,213,,29,04,294,,13,00,069,,51,49,195,31*72
$GPRMC,091820.000,A,3353.7591,N,09832.0296,W,0.28,131.60,310312,,,A*72
$GPGGA,091821.000,3353.7590,N,09832.0294,W,1,07,1.4,290.9,M,-23.7,M,18.8,0000*7B
$GPGSA,A,3,05,10,17,09,04,02,12,,,,,,2.3,1.4,1.7*3E
$GPRMC,091821.000,A,3353.7590,N,09832.0294,W,0.18,132.91,310312,,,A*7E
$GPGGA,091822.000,3353.7589,N,09832.0292,W,1,07,1.4,291.9,M,-23.7,M,18.8,0000*77
$GPGSA,A,3,05,10,17,09,04,02,12,,,,,,2.2,1.4,1.7*3F
$GPRMC,091822.000,A,3353.7589,N,09832.0292,W,0.16,130.92,310312,,,A*7C
$GPGGA,091823.000,3353.7587,N,09832.0290,W,1,07,1.4,292.8,M,-23.7,M,18.8,0000*78
$GPGSA,A,3,05,10,17,09,04,02,12,,,,,,2.2,1.4,1.7*3F
$GPRMC,091823.000,A,3353.7587,N,09832.0290,W,0.20,156.32,310312,,,A*7E
$GPGGA,091824.000,3353.7585,N,09832.0289,W,1,06,1.7,293.6,M,-23.7,M,18.8,0000*78
$GPGSA,A,3,05,10,17,09,02,12,,,,,,,2.5,1.7,1.8*30
$GPRMC,091824.000,A,3353.7585,N,09832.0289,W,0.18,148.49,310312,,,A*7B
$GPGGA,091825.000,3353.7584,N,09832.0287,W,1,06,1.7,294.4,M,-23.7,M,18.8,0000*73
$GPGSA,A,3,05,10,17,09,02,12,,,,,,,2.5,1.7,1.8*30
$GPGSV,3,1,12,02,72,351,39,12,66,283,33,10,50,079,37,05,43,172,36*75
$GPGSV,3,2,12,04,42,044,,25,28,315,24,17,12,099,36,09,11,226,23*7B
$GPGSV,3,3,12,27,06,213,,29,04,294,,13,00,069,,51,49,195,31*72
$GPRMC,091825.000,A,3353.7584,N,09832.0287,W,0.18,104.23,310312,,,A*71
$GPGGA,091826.000,3353.7583,N,09832.0286,W,1,06,1.7,295.2,M,-23.7,M,18.8,0000*71
$GPGSA,A,3,05,10,17,09,02,12,,,,,,,2.5,1.7,1.8*30
$GPRMC,091826.000,A,3353.7583,N,09832.0286,W,0.17,160.21,310312,,,A*7B
$GPGGA,091827.000,3353.7582,N,09832.0285,W,1,06,1.7,295.9,M,-23.7,M,18.8,0000*79
$GPGSA,A,3,05,10,17,09,02,12,,,,,,,2.5,1.7,1.8*30
$GPRMC,091827.000,A,3353.7582,N,09832.0285,W,0.12,127.12,310312,,,A*7E
$GPGGA,091828.000,3353.7580,N,09832.0284,W,1,06,1.7,296.5,M,-23.7,M,18.8,0000*7A
$GPGSA,A,3,05,10,17,09,02,12,,,,,,,2.5,1.7,1.8*30
$GPRMC,091828.000,A,3353.7580,N,09832.0284,W,0.12,153.92,310312,,,A*79
$GPGGA,091829.000,3353.7579,N,09832.0283,W,1,06,1.7,297.1,M,-23.7,M,18.8,0000*7F
$GPGSA,A,3,05,10,17,09,02,12,,,,,,,2.5,1.7,1.8*30
$GPRMC,091829.000,A,3353.7579,N,09832.0283,W,0.19,78.20,310312,,,A*43
$GPGGA,091830.000,3353.7579,N,09832.0281,W,1,06,1.7,297.8,M,-23.7,M,18.8,0000*7C
$GPGSA,A,3,05,10,17,09,02,12,,,,,,,2.5,1.7,1.8*30
$GPGSV,3,1,12,02,72,351,39,12,66,283,33,10,50,079,37,05,43,172,35*76
$GPGSV,3,2,12,04,42,044,,25,28,315,23,17,12,099,36,09,11,226,22*7D
$GPGSV,3,3,12,27,06,213,,29,04,294,,13,00,069,,51,49,195,31*72
$GPRMC,091830.000,A,3353.7579,N,09832.0281,W,0.31,64.53,310312,,,A*4A
$GPGGA,091831.000,3353.7578,N,09832.0281,W,1,06,1.7,298.3,M,-23.7,M,18.8,0000*78
$GPGSA,A,3,05,10,17,09,02,12,,,,,,,2.5,1.7,1.8*30
$GPRMC,091831.000,A,3353.7578,N,09832.0281,W,0.15,110.02,310312,,,A*7A
$GPGGA,091832.000,3353.7577,N,09832.0280,W,1,06,1.7,298.8,M,-23.7,M,18.8,0000*7E
$GPGSA,A,3,05,10,17,09,02,12,,,,,,,2.5,1.7,1.8*30
$GPRMC,091832.000,A,3353.7577,N,09832.0280,W,0.12,177.49,310312,,,A*7E
$GPGGA,091833.000,3353.7576,N,09832.0280,W,1,06,1.7,299.3,M,-23.7,M,18.8,0000*74
$GPGSA,A,3,05,10,17,09,02,12,,,,,,,2.5,1.7,1.8*30
$GPRMC,091833.000,A,3353.7576,N,09832.0280,W,0.17,78.82,310312,,,A*42
$GPGGA,091834.000,3353.7574,N,09832.0279,W,1,06,1.7,299.8,M,-23.7,M,18.8,0000*7C
$GPGSA,A,3,05,10,17,09,02,12,,,,,,,2.5,1.7,1.8*30
$GPRMC,091834.000,A,3353.7574,N,09832.0279,W,0.14,123.45,310312,,,A*76
$GPGGA,091835.000,3353.7574,N,09832.0278,W,1,06,1.7,300.4,M,-23.7,M,18.8,0000*71
$GPGSA,A,3,05,10,17,09,02,12,,,,,,,2.5,1.7,1.8*30
$GPGSV,3,1,12,02,72,351,39,12,66,283,33,10,50,079,37,05,43,172,35*76
$GPGSV,3,2,12,04,42,044,,25,28,315,23,17,12,099,36,09,11,226,21*7E
$GPGSV,3,3,12,27,06,213,,29,04,294,,13,00,069,,51,49,195,31*72
$GPRMC,091835.000,A,3353.7574,N,09832.0278,W,0.24,77.29,310312,,,A*4F
$GPGGA,091836.000,3353.7573,N,09832.0276,W,1,06,1.7,301.1,M,-23.7,M,18.8,0000*7F
$GPGSA,A,3,05,10,17,09,02,12,,,,,,,2.5,1.7,1.8*30
$GPRMC,091836.000,A,3353.7573,N,09832.0276,W,0.35,75.24,310312,,,A*4A
$GPGGA,091837.000,3353.7572,N,09832.0276,W,1,06,1.7,301.7,M,-23.7,M,18.8,0000*79
$GPGSA,A,3,05,10,17,09,02,12,,,,,,,2.5,1.7,1.8*30
$GPRMC,091837.000,A,3353.7572,N,09832.0276,W,0.18,126.58,310312,,,A*79
$GPGGA,091838.000,3353.7570,N,09832.0275,W,1,06,1.7,302.3,M,-23.7,M,18.8,0000*70
$GPGSA,A,3,05,10,17,09,02,12,,,,,,,2.5,1.7,1.8*30
$GPRMC,091838.000,A,3353.7570,N,09832.0275,W,0.20,150.37,310312,,,A*74
$GPGGA,091839.000,3353.7569,N,09832.0274,W,1,06,1.7,302.9,M,-23.7,M,18.8,0000*72
$GPGSA,A,3,05,10,17,09,02,12,,,,,,,2.5,1.7,1.8*30
$GPRMC,091839.000,A,3353.7569,N,09832.0274,W,0.17,140.56,310312,,,A*7E
$GPGGA,091840.000,3353.7568,N,09832.0273,W,1,06,1.7,303.6,M,-23.7,M,18.8,0000*74
$GPGSA,A,3,05,10,17,09,02,12,,,,,,,2.5,1.7,1.8*30
$GPGSV,3,1,12,02,72,351,38,12,66,283,33,10,50,079,37,05,43,172,35*77
$GPGSV,3,2,12,04,42,044,,25,28,315,22,17,12,099,36,09,11,226,22*7C
$GPGSV,3,3,12,27,06,213,,29,04,294,,13,00,069,,51,49,195,31*72
$GPRMC,091840.000,A,3353.7568,N,09832.0273,W,0.20,110.84,310312,,,A*78
$GPGGA,091841.000,3353.7566,N,09832.0272,W,1,06,1.7,304.2,M,-23.7,M,18.8,0000*79
$GPGSA,A,3,05,10,17,09,02,12,,,,,,,2.5,1.7,1.8*30
$GPRMC,091841.000,A,3353.7566,N,09832.0272,W,0.17,137.66,310312,,,A*7B
$GPGGA,091842.000,3353.7565,N,09832.0271,W,1,06,1.7,304.9,M,-23.7,M,18.8,0000*71
$GPGSA,A,3,05,10,17,09,02,12,,,,,,,2.5,1.7,1.8*30
$GPRMC,091842.000,A,3353.7565,N,09832.0271,W,0.15,147.96,310312,,,A*72
$GPGGA,091843.000,3353.7564,N,09832.0271,W,1,06,1.7,305.5,M,-23.7,M,18.8,0000*7C
$GPGSA,A,3,05,10,17,09,02,12,,,,,,,2.5,1.7,1.8*30
$GPRMC,091843.000,A,3353.7564,N,09832.0271,W,0.14,168.89,310312,,,A*70
$GPGGA,091844.000,3353.7563,N,09832.0269,W,1,06,1.7,306.1,M,-23.7,M,18.8,0000*72
$GPGSA,A,3,05,10,17,09,02,12,,,,,,,2.5,1.7,1.8*30
$GPRMC,091844.000,A,3353.7563,N,09832.0269,W,0.27,83.90,310312,,,A*45
$GPGGA,091845.000,3353.7562,N,09832.0268,W,1,06,1.7,306.8,M,-23.7,M,18.8,0000*7A
$GPGSA,A,3,05,10,17,09,02,12,,,,,,,2.5,1.7,1.8*30
$GPGSV,3,1,12,02,72,351,38,12,66,283,33,10,50,079,38,05,43,172,36*7B
$GPGSV,3,2,12,04,42,044,,25,28,315,22,17,12,099,36,09,11,226,22*7C
$GPGSV,3,3,12,27,06,213,,29,04,294,,13,00,069,,48,36,230,29*77
$GPRMC,091845.000,A,3353.7562,N,09832.0268,W,0.23,100.53,310312,,,A*75
$GPGGA,091846.000,3353.7561,N,09832.0266,W,1,06,1.7,307.6,M,-23.7,M,18.8,0000*7B
$GPGSA,A,3,05,10,17,09,02,12,,,,,,,2.5,1.7,1.8*30
$GPRMC,091846.000,A,3353.7561,N,09832.0266,W,0.31,89.05,310312,,,A*4B
$GPGGA,091847.000,3353.7560,N,09832.0264,W,1,06,1.7,308.5,M,-23.7,M,18.8,0000*75
$GPGSA,A,3,05,10,17,09,02,12,,,,,,,2.5,1.7,1.8*30
$GPRMC,091847.000,A,3353.7560,N,09832.0264,W,0.41,85.08,310312,,,A*4F
$GPGGA,091848.000,3353.7559,N,09832.0263,W,1,06,1.7,309.3,M,-23.7,M,18.8,0000*70
$GPGSA,A,3,05,10,17,09,02,12,,,,,,,2.5,1.7,1.8*30
$GPRMC,091848.000,A,3353.7559,N,09832.0263,W,0.29,106.84,310312,,,A*7D
$GPGGA,091849.000,3353.7558,N,09832.0261,W,1,06,1.7,310.2,M,-23.7,M,18.8,0000*7B
$GPGSA,A,3,05,10,17,09,02,12,,,,,,,2.5,1.7,1.8*30
$GPRMC,091849.000,A,3353.7558,N,09832.0261,W,0.33,97.77,310312,,,A*41
$GPGGA,091850.000,3353.7557,N,09832.0259,W,1,06,1.7,311.0,M,-23.7,M,18.8,0000*74
$GPGSA,A,3,05,10,17,09,02,12,,,,,,,2.5,1.7,1.8*30
$GPGSV,3,1,12,02,72,351,38,12,66,283,33,10,50,078,38,05,43,172,36*7A
$GPGSV,3,2,12,04,42,044,,25,28,315,22,17,11,099,36,09,11,226,22*7F
$GPGSV,3,3,12,27,06,213,,29,05,294,,13,00,069,,48,36,230,29*76
$GPRMC,091850.000,A,3353.7557,N,09832.0259,W,0.27,121.97,310312,,,A*7A
$GPGGA,091851.000,3353.7556,N,09832.0257,W,1,06,1.7,311.9,M,-23.7,M,18.8,0000*73
$GPGSA,A,3,05,10,17,09,02,12,,,,,,,2.5,1.7,1.8*30
$GPRMC,091851.000,A,3353.7556,N,09832.0257,W,0.39,91.88,310312,,,A*4F
$GPGGA,091852.000,3353.7554,N,09832.0256,W,1,06,1.7,312.7,M,-23.7,M,18.8,0000*7E
$GPGSA,A,3,05,10,17,09,02,12,,,,,,,2.5,1.7,1.8*30
$GPRMC,091852.000,A,3353.7554,N,09832.0256,W,0.25,122.27,310312,,,A*7E
$GPGGA,091853.000,3353.7553,N,09832.0255,W,1,06,1.7,313.4,M,-23.7,M,18.8,0000*79
$GPGSA,A,3,05,10,17,09,02,12,,,,,,,2.5,1.7,1.8*30
$GPRMC,091853.000,A,3353.7553,N,09832.0255,W,0.19,149.55,310312,,,A*7C
$GPGGA,091854.000,3353.7552,N,09832.0254,W,1,06,1.7,314.0,M,-23.7,M,18.8,0000*7D
$GPGSA,A,3,05,10,17,09,02,12,,,,,,,2.5,1.7,1.8*30
$GPRMC,091854.000,A,3353.7552,N,09832.0254,W,0.16,144.24,310312,,,A*7F
$GPGGA,091855.000,3353.7551,N,09832.0254,W,1,06,1.7,314.5,M,-23.7,M,18.8,0000*7A
$GPGSA,A,3,05,10,17,09,02,12,,,,,,,2.5,1.7,1.8*30
$GPGSV,3,1,12,02,72,351,38,12,66,283,34,10,50,078,38,05,43,172,36*7D
$GPGSV,3,2,12,04,42,044,,25,28,315,22,17,11,099,36,09,11,226,21*7C
$GPGSV,3,3,12,27,06,213,,29,05,294,,13,00,069,,48,36,230,29*76
$GPRMC,091855.000,A,3353.7551,N,09832.0254,W,0.09,164.67,310312,,,A*76
$GPGGA,091856.000,3353.7550,N,09832.0254,W,1,06,1.7,315.0,M,-23.7,M,18.8,0000*7C
$GPGSA,A,3,05,10,17,09,02,12,,,,,,,2.5,1.7,1.8*30
$GPRMC,091856.000,A,3353.7550,N,09832.0254,W,0.07,139.62,310312,,,A*77
$GPGGA,091857.000,3353.7550,N,09832.0253,W,1,06,1.7,315.4,M,-23.7,M,18.8,0000*7E
$GPGSA,A,3,05,10,17,09,02,12,,,,,,,2.5,1.7,1.8*30
$GPRMC,091857.000,A,3353.7550,N,09832.0253,W,0.24,62.55,310312,,,A*4B
$GPGGA,091858.000,3353.7550,N,09832.0252,W,1,06,1.7,315.8,M,-23.7,M,18.8,0000*7C
$GPGSA,A,3,05,10,17,09,02,12,,,,,,,2.5,1.7,1.8*30
$GPRMC,091858.000,A,3353.7550,N,09832.0252,W,0.31,65.85,310312,,,A*4B
$GPGGA,091859.000,3353.7550,N,09832.0251,W,1,06,1.7,316.3,M,-23.7,M,18.8,0000*76
$GPGSA,A,3,05,10,17,09,02,12,,,,,,,2.5,1.7,1.8*30
$GPRMC,091859.000,A,3353.7550,N,09832.0251,W,0.35,68.14,310312,,,A*48
$GPGGA,091900.000,3353.7549,N,09832.0250,W,1,06,1.7,316.8,M,-23.7,M,18.8,0000*79
$GPGSA,A,3,05,10,17,09,02,12,,,,,,,2.5,1.7,1.8*30
$GPGSV,3,1,12,02,72,351,38,12,66,283,34,10,50,078,39,05,43,172,37*7D
$GPGSV,3,2,12,04,42,044,,25,28,315,22,17,11,099,36,09,11,226,20*7D
$GPGSV,3,3,12,27,06,213,,29,05,294,,13,00,069,,48,36,230,29*76
$GPRMC,091900.000,A,3353.7549,N,09832.0250,W,0.32,75.19,310312,,,A*4A
$GPGGA,091901.000,3353.7549,N,09832.0248,W,1,06,1.7,317.4,M,-23.7,M,18.8,0000*7C
$GPGSA,A,3,05,10,17,09,02,12,,,,,,,2.5,1.7,1.8*30
$GPRMC,091901.000,A,3353.7549,N,09832.0248,W,0.41,77.53,310312,,,A*4A
$GPGGA,091902.000,3353.7548,N,09832.0246,W,1,06,1.7,318.0,M,-23.7,M,18.8,0000*7B
$GPGSA,A,3,05,10,17,09,02,12,,,,,,,2.5,1.7,1.8*30
$GPRMC,091902.000,A,3353.7548,N,09832.0246,W,0.47,79.17,310312,,,A*4E
$GPGGA,091903.000,3353.7547,N,09832.0245,W,1,06,1.7,318.7,M,-23.7,M,18.8,0000*71
$GPGSA,A,3,05,10,17,09,02,12,,,,,,,2.5,1.7,1.8*30
$GPRMC,091903.000,A,3353.7547,N,09832.0245,W,0.26,116.67,310312,,,A*7B
$GPGGA,091904.000,3353.7546,N,09832.0244,W,1,06,1.7,319.4,M,-23.7,M,18.8,0000*74
$GPGSA,A,3,05,10,17,09,02,12,,,,,,,2.5,1.7,1.8*30
$GPRMC,091904.000,A,3353.7546,N,09832.0244,W,0.23,115.61,310312,,,A*7C
$GPGGA,091905.000,3353.7546,N,09832.0243,W,1,06,1.7,320.0,M,-23.7,M,18.8,0000*7C
$GPGSA,A,3,05,10,17,09,02,12,,,,,,,2.5,1.7,1.8*30
$GPGSV,3,1,12,02,72,351,38,12,66,283,34,10,50,078,39,05,43,172,37*7D
$GPGSV,3,2,12,04,42,044,,25,28,315,23,17,11,099,36,09,11,226,20*7C
$GPGSV,3,3,12,27,06,213,,29,05,294,,13,00,069,,48,36,230,29*76
$GPRMC,091905.000,A,3353.7546,N,09832.0243,W,0.32,99.39,310312,,,A*42
$GPGGA,091906.000,3353.7545,N,09832.0241,W,1,06,1.7,320.7,M,-23.7,M,18.8,0000*79
$GPGSA,A,3,05,10,17,09,02,12,,,,,,,2.5,1.7,1.8*30
$GPRMC,091906.000,A,3353.7545,N,09832.0241,W,0.44,86.22,310312,,,A*45
$GPGGA,091907.000,3353.7544,N,09832.0240,W,1,06,1.7,321.4,M,-23.7,M,18.8,0000*7A
$GPGSA,A,3,05,10,17,09,02,12,,,,,,,2.5,1.7,1.8*30
$GPRMC,091907.000,A,3353.7544,N,09832.0240,W,0.31,101.83,310312,,,A*73
$GPGGA,091908.000,3353.7543,N,09832.0239,W,1,06,1.7,321.9,M,-23.7,M,18.8,0000*71
$GPGSA,A,3,05,10,17,09,02,12,,,,,,,2.5,1.7,1.8*30
$GPRMC,091908.000,A,3353.7543,N,09832.0239,W,0.21,134.98,310312,,,A*78
$GPGGA,091909.000,3353.7542,N,09832.0239,W,1,06,1.7,322.4,M,-23.7,M,18.8,0000*7F
$GPGSA,A,3,05,10,17,09,02,12,,,,,,,2.5,1.7,1.8*30
$GPRMC,091909.000,A,3353.7542,N,09832.0239,W,0.14,155.83,310312,,,A*73
$GPGGA,091910.000,3353.7542,N,09832.0238,W,1,07,1.4,322.8,M,-23.7,M,18.8,0000*78
$GPGSA,A,3,05,10,17,09,04,02,12,,,,,,2.2,1.4,1.7*3F
$GPGSV,3,1,12,02,72,351,37,12,66,283,34,10,50,078,39,05,43,172,38*7D
$GPGSV,3,2,12,04,42,044,22,25,28,315,23,17,11,099,36,09,11,226,19*76
$GPGSV,3,3,12,27,06,213,,29,05,294,,13,00,069,,48,36,230,29*76
$GPRMC,091910.000,A,3353.7542,N,09832.0238,W,0.24,108.40,310312,,,A*7E
$GPGGA,091911.000,3353.7541,N,09832.0238,W,1,07,1.4,323.1,M,-23.7,M,18.8,0000*72
$GPGSA,A,3,05,10,17,09,04,02,12,,,,,,2.2,1.4,1.7*3F
$GPRMC,091911.000,A,3353.7541,N,09832.0238,W,0.19,165.08,310312,,,A*75
$GPGGA,091912.000,3353.7540,N,09832.0239,W,1,07,1.4,323.3,M,-23.7,M,18.8,0000*73
$GPGSA,A,3,05,10,17,09,04,02,12,,,,,,2.2,1.4,1.7*3F
$GPRMC,091912.000,A,3353.7540,N,09832.0239,W,0.11,213.15,310312,,,A*70
$GPGGA,091913.000,3353.7539,N,09832.0240,W,1,07,1.4,323.3,M,-23.7,M,18.8,0000*72
$GPGSA,A,3,05,10,17,09,04,02,12,,,,,,2.2,1.4,1.7*3F
$GPRMC,091913.000,A,3353.7539,N,09832.0240,W,0.19,225.87,310312,,,A*77
$GPGGA,091914.000,3353.7539,N,09832.0241,W,1,07,1.4,323.3,M,-23.7,M,18.8,0000*74
$GPGSA,A,3,05,10,17,09,04,02,12,,,,,,2.2,1.4,1.7*3F
$GPRMC,091914.000,A,3353.7539,N,09832.0241,W,0.08,42.22,310312,,,A*4D
$GPGGA,091915.000,3353.7539,N,09832.0241,W,1,07,1.4,323.4,M,-23.7,M,18.8,0000*72
$GPGSA,A,3,05,10,17,09,04,02,12,,,,,,2.2,1.4,1.7*3F
$GPGSV,3,1,12,02,72,351,37,12,66,283,34,10,50,078,39,05,43,172,38*7D
$GPGSV,3,2,12,04,42,044,22,25,28,315,22,17,11,099,36,09,11,226,18*76
$GPGSV,3,3,12,27,06,213,,29,05,294,,13,00,069,,48,36,230,29*76
$GPRMC,091915.000,A,3353.7539,N,09832.0241,W,0.18,68.97,310312,,,A*4B
$GPGGA,091916.000,3353.7538,N,09832.0241,W,1,07,1.4,323.4,M,-23.7,M,18.8,0000*70
$GPGSA,A,3,05,10,17,09,04,02,12,,,,,,2.2,1.4,1.7*3F
$GPRMC,091916.000,A,3353.7538,N,09832.0241,W,0.07,170.47,310312,,,A*72
$GPGGA,091917.000,3353.7538,N,09832.0242,W,1,07,1.4,323.4,M,-23.7,M,18.8,0000*72
$GPGSA,A,3,05,10,17,09,04,02,12,,,,,,2.2,1.4,1.7*3F
$GPRMC,091917.000,A,3353.7538,N,09832.0242,W,0.02,125.13,310312,,,A*74
$GPGGA,091918.000,3353.7538,N,09832.0243,W,1,07,1.4,323.4,M,-23.7,M,18.8,0000*7C
$GPGSA,A,3,05,10,17,09,04,02,12,,,,,,2.2,1.4,1.7*3F
$GPRMC,091918.000,A,3353.7538,N,09832.0243,W,0.10,254.76,310312,,,A*7F
$GPGGA,091919.000,3353.7537,N,09832.0243,W,1,07,1.4,323.4,M,-23.7,M,18.8,0000*72
$GPGSA,A,3,05,10,17,09,04,02,12,,,,,,2.2,1.4,1.7*3F
$GPRMC,091919.000,A,3353.7537,N,09832.0243,W,0.05,86.80,310312,,,A*41
$GPGGA,091920.000,3353.7537,N,09832.0244,W,1,07,1.4,323.4,M,-23.7,M,18.8,0000*7F
$GPGSA,A,3,05,10,17,09,04,02,12,,,,,,2.2,1.4,1.7*3F
$GPGSV,3,1,12,02,72,351,38,12,66,283,33,10,50,078,40,05,43,172,38*7B
$GPGSV,3,2,12,04,42,044,22,25,28,315,22,17,11,099,37,09,11,226,19*76
$GPGSV,3,3,12,27,06,213,,29,05,294,,13,00,069,,48,36,230,29*76
$GPRMC,091920.000,A,3353.7537,N,09832.0244,W,0.05,311.35,310312,,,A*7F
$GPGGA,091921.000,3353.7537,N,09832.0244,W,1,07,1.4,323.5,M,-23.7,M,18.8,0000*7F
$GPGSA,A,3,05,10,17,09,04,02,12,,,,,,2.2,1.4,1.7*3F
$GPRMC,091921.000,A,3353.7537,N,09832.0244,W,0.14,2.43,310312,,,A*7E
$GPGGA,091922.000,3353.7537,N,09832.0245,W,1,07,1.4,323.5,M,-23.7,M,18.8,0000*7D
$GPGSA,A,3,05,10,17,09,04,02,12,,,,,,2.2,1.4,1.7*3F
$GPRMC,091922.000,A,3353.7537,N,09832.0245,W,0.21,8.61,310312,,,A*70
$GPGGA,091923.000,3353.7537,N,09832.0245,W,1,06,1.7,323.6,M,-23.7,M,18.8,0000*7D
$GPGSA,A,3,05,10,17,09,02,12,,,,,,,2.5,1.7,1.8*30
$GPRMC,091923.000,A,3353.7537,N,09832.0245,W,0.11,338.03,310312,,,A*76
$GPGGA,091924.000,3353.7537,N,09832.0245,W,1,06,1.7,323.7,M,-23.7,M,18.8,0000*7B
$GPGSA,A,3,05,10,17,09,02,12,,,,,,,2.5,1.7,1.8*30
$GPRMC,091924.000,A,3353.7537,N,09832.0245,W,0.09,343.20,310312,,,A*75
$GPGGA,091925.000,3353.7537,N,09832.0245,W,1,06,1.7,323.9,M,-23.7,M,18.8,0000*74
$GPGSA,A,3,05,10,17,09,02,12,,,,,,,2.5,1.7,1.8*30
$GPGSV,3,1,12,02,72,351,38,12,66,283,33,10,50,078,40,05,43,172,38*7B
$GPGSV,3,2,12,04,42,044,,25,28,315,21,17,11,099,37,09,11,226,20*7F
$GPGSV,3,3,12,27,06,213,,29,05,294,,13,00,069,,48,36,230,29*76
$GPRMC,091925.000,A,3353.7537,N,09832.0245,W,0.11,27.89,310312,,,A*4F
$GPGGA,091926.000,3353.7537,N,09832.0245,W,1,06,1.7,324.1,M,-23.7,M,18.8,0000*78
$GPGSA,A,3,05,10,17,09,02,12,,,,,,,2.5,1.7,1.8*30
$GPRMC,091926.000,A,3353.7537,N,09832.0245,W,0.07,352.48,310312,,,A*77
$GPGGA,091927.000,3353.7537,N,09832.0245,W,1,06,1.7,324.3,M,-23.7,M,18.8,0000*7B
$GPGSA,A,3,05,10,17,09,02,12,,,,,,,2.5,1.7,1.8*30
$GPRMC,091927.000,A,3353.7537,N,09832.0245,W,0.24,46.99,310312,,,A*4D
$GPGGA,091928.000,3353.7537,N,09832.0244,W,1,06,1.7,324.5,M,-23.7,M,18.8,0000*73
$GPGSA,A,3,05,10,17,09,02,12,,,,,,,2.5,1.7,1.8*30
$GPRMC,091928.000,A,3353.7537,N,09832.0244,W,0.16,37.99,310312,,,A*44
$GPGGA,091929.000,3353.7537,N,09832.0244,W,1,06,1.7,324.7,M,-23.7,M,18.8,0000*70
$GPGSA,A,3,05,10,17,09,02,12,,,,,,,2.5,1.7,1.8*30
$GPRMC,091929.000,A,3353.7537,N,09832.0244,W,0.02,322.09,310312,,,A*7E
$GPGGA,091930.000,3353.7536,N,09832.0245,W,1,06,1.7,324.9,M,-23.7,M,18.8,0000*76
$GPGSA,A,3,05,10,17,09,02,12,,,,,,,2.5,1.7,1.8*30
$GPGSV,3,1,12,02,72,351,37,12,66,283,33,10,50,078,40,05,43,172,38*74
$GPGSV,3,2,12,04,42,044,,25,28,315,20,17,11,099,37,09,11,226,20*7E
$GPGSV,3,3,12,27,06,213,,29,05,294,,13,00,069,,48,36,230,29*76
$GPRMC,091930.000,A,3353.7536,N,09832.0245,W,0.13,252.31,310312,,,A*7B
$GPGGA,091931.000,3353.7536,N,09832.0245,W,1,06,1.7,325.0,M,-23.7,M,18.8,0000*7F
$GPGSA,A,3,05,10,17,09,02,12,,,,,,,2.5,1.7,1.8*30
$GPRMC,091931.000,A,3353.7536,N,09832.0245,W,0.14,28.23,310312,,,A*41
$GPGGA,091932.000,3353.7537,N,09832.0244,W,1,06,1.7,325.2,M,-23.7,M,18.8,0000*7E
$GPGSA,A,3,05,10,17,09,02,12,,,,,,,2.5,1.7,1.8*30
$GPRMC,091932.000,A,3353.7537,N,09832.0244,W,0.19,44.05,310312,,,A*41
$GPGGA,091933.000,3353.7536,N,09832.0244,W,1,06,1.7,325.5,M,-23.7,M,18.8,0000*79
$GPGSA,A,3,05,10,17,09,02,12,,,,,,,2.5,1.7,1.8*30
$GPRMC,091933.000,A,3353.7536,N,09832.0244,W,0.06,31.11,310312,,,A*48
$GPGGA,091934.000,3353.7536,N,09832.0243,W,1,07,1.4,325.7,M,-23.7,M,18.8,0000*79
$GPGSA,A,3,05,10,17,09,04,02,12,,,,,,2.2,1.4,1.7*3F
$GPRMC,091934.000,A,3353.7536,N,09832.0243,W,0.08,117.91,310312,,,A*7B
$GPGGA,091935.000,3353.7535,N,09832.0243,W,1,07,1.4,325.9,M,-23.7,M,18.8,0000*75
$GPGSA,A,3,05,10,17,09,04,02,12,,,,,,2.2,1.4,1.7*3F
$GPGSV,3,1,12,02,72,351,37,12,66,283,32,10,50,078,40,05,43,172,38*75
$GPGSV,3,2,12,04,42,044,22,25,28,315,12,17,11,099,37,09,11,226,20*7F
$GPGSV,3,3,12,27,06,213,,29,05,294,,13,00,069,,48,36,230,29*76
$GPRMC,091935.000,A,3353.7535,N,09832.0243,W,0.09,162.16,310312,,,A*75
$GPGGA,091936.000,3353.7534,N,09832.0243,W,1,07,1.4,326.1,M,-23.7,M,18.8,0000*7C
$GPGSA,A,3,05,10,17,09,04,02,12,,,,,,2.2,1.4,1.7*3F
$GPRMC,091936.000,A,3353.7534,N,09832.0243,W,0.15,176.70,310312,,,A*7F
$GPGGA,091937.000,3353.7534,N,09832.0243,W,1,07,1.4,326.3,M,-23.7,M,18.8,0000*7F
$GPGSA,A,3,05,10,17,09,04,02,12,,,,,,2.2,1.4,1.7*3F
$GPRMC,091937.000,A,3353.7534,N,09832.0243,W,0.07,23.17,310312,,,A*4D
$GPGGA,091938.000,3353.7533,N,09832.0243,W,1,07,1.4,326.4,M,-23.7,M,18.8,0000*70
$GPGSA,A,3,05,10,17,09,04,02,12,,,,,,2.2,1.4,1.7*3F
$GPRMC,091938.000,A,3353.7533,N,09832.0243,W,0.13,54.29,310312,,,A*4D
$GPGGA,091939.000,3353.7533,N,09832.0243,W,1,07,1.4,326.4,M,-23.7,M,18.8,0000*71
$GPGSA,A,3,05,10,17,09,04,02,12,,,,,,2.2,1.4,1.7*3F
$GPRMC,091939.000,A,3353.7533,N,09832.0243,W,0.19,54.15,310312,,,A*49
$GPGGA,091940.000,3353.7534,N,09832.0243,W,1,07,1.4,326.3,M,-23.7,M,18.8,0000*7F
$GPGSA,A,3,05,10,17,09,04,02,12,,,,,,2.2,1.4,1.7*3F
$GPGSV,3,1,12,02,72,351,37,12,66,283,32,10,50,078,40,05,43,172,37*7A
$GPGSV,3,2,12,04,42,044,22,25,28,315,13,17,11,099,37,09,11,226,21*7F
$GPGSV,3,3,12,27,06,213,,29,05,294,,13,00,069,,48,36,230,29*76
$GPRMC,091940.000,A,3353.7534,N,09832.0243,W,0.17,46.98,310312,,,A*48
$GPGGA,091941.000,3353.7535,N,09832.0243,W,1,07,1.4,326.2,M,-23.7,M,18.8,0000*7E
$GPGSA,A,3,05,10,17,09,04,02,12,,,,,,2.2,1.4,1.7*3F
$GPRMC,091941.000,A,3353.7535,N,09832.0243,W,0.31,34.09,310312,,,A*41
$GPGGA,091942.000,3353.7535,N,09832.0243,W,1,07,1.4,325.9,M,-23.7,M,18.8,0000*75
$GPGSA,A,3,05,10,17,09,04,02,12,,,,,,2.2,1.4,1.7*3F
$GPRMC,091942.000,A,3353.7535,N,09832.0243,W,0.23,2.38,310312,,,A*76
$GPGGA,091943.000,3353.7536,N,09832.0244,W,1,07,1.4,325.7,M,-23.7,M,18.8,0000*7E
$GPGSA,A,3,05,10,17,09,04,02,12,,,,,,2.2,1.4,1.7*3F
$GPRMC,091943.000,A,3353.7536,N,09832.0244,W,0.19,23.51,310312,,,A*46
$GPGGA,091944.000,3353.7537,N,09832.0244,W,1,07,1.4,325.5,M,-23.7,M,18.8,0000*7A
$GPGSA,A,3,05,10,17,09,04,02,12,,,,,,2.2,1.4,1.7*3F
$GPRMC,091944.000,A,3353.7537,N,09832.0244,W,0.32,13.66,310312,,,A*4E
$GPGGA,091945.000,3353.7539,N,09832.0244,W,1,07,1.4,325.2,M,-23.7,M,18.8,0000*72
$GPGSA,A,3,05,10,17,09,04,02,12,,,,,,2.2,1.4,1.7*3F
$GPGSV,3,1,12,02,72,351,37,12,66,283,31,10,50,078,40,05,43,172,37*79
$GPGSV,3,2,12,04,42,044,23,25,28,315,15,17,11,099,37,09,11,226,21*78
$GPGSV,3,3,12,27,06,213,,29,05,294,,13,00,069,,48,36,230,30*7E
$GPRMC,091945.000,A,3353.7539,N,09832.0244,W,0.35,19.72,310312,,,A*49
$GPGGA,091946.000,3353.7540,N,09832.0244,W,1,07,1.4,324.9,M,-23.7,M,18.8,0000*75
$GPGSA,A,3,05,10,17,09,04,02,12,,,,,,2.2,1.4,1.7*3F
$GPRMC,091946.000,A,3353.7540,N,09832.0244,W,0.27,35.66,310312,,,A*4C
$GPGGA,091947.000,3353.7541,N,09832.0245,W,1,07,1.4,324.5,M,-23.7,M,18.8,0000*78
$GPGSA,A,3,05,10,17,09,04,02,12,,,,,,2.2,1.4,1.7*3F
$GPRMC,091947.000,A,3353.7541,N,09832.0245,W,0.19,338.29,310312,,,A*75
$GPGGA,091948.000,3353.7542,N,09832.0245,W,1,07,1.4,323.9,M,-23.7,M,18.8,0000*7F
$GPGSA,A,3,05,10,17,09,04,02,12,,,,,,2.2,1.4,1.7*3F
$GPRMC,091948.000,A,3353.7542,N,09832.0245,W,0.24,20.20,310312,,,A*44
$GPGGA,091949.000,3353.7543,N,09832.0246,W,1,07,1.4,323.4,M,-23.7,M,18.8,0000*71
$GPGSA,A,3,05,10,17,09,04,02,12,,,,,,2.2,1.4,1.7*3F
$GPRMC,091949.000,A,3353.7543,N,09832.0246,W,0.24,353.59,310312,,,A*7E
$GPGGA,091950.000,3353.7545,N,09832.0247,W,1,07,1.4,322.9,M,-23.7,M,18.8,0000*72
$GPGSA,A,3,05,10,17,09,04,02,12,,,,,,2.2,1.4,1.7*3F
$GPGSV,3,1,12,02,72,351,37,12,66,283,31,10,50,078,41,05,43,172,37*78
$GPGSV,3,2,12,04,42,044,24,25,28,315,16,17,11,099,36,09,11,226,21*7D
$GPGSV,3,3,12,27,06,213,,29,05,294,,13,00,069,,48,36,230,29*76
$GPRMC,091950.000,A,3353.7545,N,09832.0247,W,0.20,343.05,310312,,,A*7D
$GPGGA,091951.000,3353.7545,N,09832.0248,W,1,07,1.4,322.2,M,-23.7,M,18.8,0000*77
$GPGSA,A,3,05,10,17,09,04,02,12,,,,,,2.2,1.4,1.7*3F
$GPRMC,091951.000,A,3353.7545,N,09832.0248,W,0.20,310.39,310312,,,A*7A
$GPGGA,091952.000,3353.7546,N,09832.0250,W,1,07,1.4,321.6,M,-23.7,M,18.8,0000*79
$GPGSA,A,3,05,10,17,09,04,02,12,,,,,,2.2,1.4,1.7*3F
$GPRMC,091952.000,A,3353.7546,N,09832.0250,W,0.23,307.05,310312,,,A*79
$GPGGA,091953.000,3353.7548,N,09832.0250,W,1,07,1.4,321.0,M,-23.7,M,18.8,0000*70
$GPGSA,A,3,05,10,17,09,04,02,12,,,,,,2.2,1.4,1.7*3F
$GPRMC,091953.000,A,3353.7548,N,09832.0250,W,0.25,3.39,310312,,,A*78
$GPGGA,091954.000,3353.7549,N,09832.0251,W,1,07,1.4,320.5,M,-23.7,M,18.8,0000*73
$GPGSA,A,3,05,10,17,09,04,02,12,,,,,,2.2,1.4,1.7*3F
$GPRMC,091954.000,A,3353.7549,N,09832.0251,W,0.26,11.22,310312,,,A*45
$GPGGA,091955.000,3353.7550,N,09832.0252,W,1,07,1.4,320.0,M,-23.7,M,18.8,0000*7C
$GPGSA,A,3,05,10,17,09,04,02,12,,,,,,2.2,1.4,1.7*3F
$GPGSV,3,1,12,02,72,351,37,12,66,283,30,10,50,078,41,05,43,172,37*79
$GPGSV,3,2,12,04,42,044,26,25,28,315,17,17,11,099,36,09,11,226,20*7F
$GPGSV,3,3,12,27,06,213,,29,05,294,,13,00,069,,48,36,230,29*76
$GPRMC,091955.000,A,3353.7550,N,09832.0252,W,0.24,24.26,310312,,,A*4F
$GPGGA,091956.000,3353.7550,N,09832.0253,W,1,06,2.2,319.5,M,-23.7,M,18.8,0000*75
$GPGSA,A,3,05,10,17,04,02,12,,,,,,,4.2,2.2,3.5*35
$GPRMC,091956.000,A,3353.7550,N,09832.0253,W,0.16,5.33,310312,,,A*7B
$GPGGA,091957.000,3353.7551,N,09832.0254,W,1,06,2.2,319.0,M,-23.7,M,18.8,0000*77
$GPGSA,A,3,05,10,17,04,02,12,,,,,,,4.2,2.2,3.5*35
$GPRMC,091957.000,A,3353.7551,N,09832.0254,W,0.14,352.04,310312,,,A*7B
$GPGGA,091958.000,3353.7552,N,09832.0254,W,1,06,2.2,318.5,M,-23.7,M,18.8,0000*7F
$GPGSA,A,3,05,10,17,04,02,12,,,,,,,4.2,2.2,3.5*35
$GPRMC,091958.000,A,3353.7552,N,09832.0254,W,0.15,1.60,310312,,,A*71
$GPGGA,091959.000,3353.7552,N,09832.0255,W,1,06,2.2,318.0,M,-23.7,M,18.8,0000*7A
$GPGSA,A,3,05,10,17,04,02,12,,,,,,,4.2,2.2,3.5*35
$GPRMC,091959.000,A,3353.7552,N,09832.0255,W,0.15,355.33,310312,,,A*75
$GPGGA,092000.000,3353.7553,N,09832.0256,W,1,06,2.2,317.5,M,-23.7,M,18.8,0000*74
$GPGSA,A,3,05,10,17,04,02,12,,,,,,,4.2,2.2,3.5*35
$GPGSV,3,1,12,02,72,351,37,12,66,283,30,10,50,078,41,05,43,172,37*79
$GPGSV,3,2,12,04,42,044,27,25,28,315,17,17,11,099,36,09,11,226,*7C
$GPGSV,3,3,12,27,06,213,,29,05,294,,13,00,069,,48,36,230,29*76
$GPRMC,092000.000,A,3353.7553,N,09832.0256,W,0.15,356.38,310312,,,A*79
$GPGGA,092001.000,3353.7553,N,09832.0258,W,1,06,2.2,317.0,M,-23.7,M,18.8,0000*7E
$GPGSA,A,3,05,10,17,04,02,12,,,,,,,4.2,2.2,3.5*35
$GPRMC,092001.000,A,3353.7553,N,09832.0258,W,0.14,359.69,310312,,,A*7C
$GPGGA,092002.000,3353.7554,N,09832.0259,W,1,06,2.2,316.5,M,-23.7,M,18.8,0000*7F
$GPGSA,A,3,05,10,17,04,02,12,,,,,,,4.2,2.2,3.5*35
