$GPGGA,054237.000,3353.7422,N,09832.0234,W,2,08,0.9,314.7,M,-23.7,M,0.8,0000*47
$GPGSA,A,3,17,01,28,27,08,26,04,20,,,,,1.7,0.9,1.4*3A
$GPRMC,054237.000,A,3353.7422,N,09832.0234,W,0.47,102.30,030412,,,D*79
$GPGGA,054238.000,3353.7423,N,09832.0233,W,2,08,0.9,314.7,M,-23.7,M,0.8,0000*4E
$GPGSA,A,3,17,01,28,27,08,26,04,20,,,,,1.7,0.9,1.4*3A
$GPRMC,054238.000,A,3353.7423,N,09832.0233,W,0.18,66.91,030412,,,D*42
$GPGGA,054239.000,3353.7423,N,09832.0234,W,2,08,0.9,314.5,M,-23.7,M,1.8,0000*4B
$GPGSA,A,3,17,01,28,27,08,26,04,20,,,,,1.7,0.9,1.4*3A
$GPRMC,054239.000,A,3353.7423,N,09832.0234,W,0.15,324.51,030412,,,D*70
$GPGGA,054240.000,3353.7424,N,09832.0234,W,2,08,0.9,314.5,M,-23.7,M,2.8,0000*41
$GPGSA,A,3,17,01,28,27,08,26,04,20,,,,,1.7,0.9,1.4*3A
$GPGSV,3,1,12,17,68,349,38,28,62,062,37,04,36,191,38,27,34,309,16*77
$GPGSV,3,2,12,08,31,164,35,01,21,043,29,09,16,320,,20,13,087,27*7F
$GPGSV,3,3,12,26,11,236,20,02,09,205,23,15,06,279,,32,03,062,*7E
$GPRMC,054240.000,A,3353.7424,N,09832.0234,W,0.08,354.87,030412,,,D*79
$GPGGA,054241.000,3353.7424,N,09832.0234,W,2,08,0.9,314.4,M,-23.7,M,3.8,0000*40
$GPGSA,A,3,17,01,28,27,08,26,04,20,,,,,1.7,0.9,1.4*3A
$GPRMC,054241.000,A,3353.7424,N,09832.0234,W,0.19,313.96,030412,,,D*7B
$GPGGA,054242.000,3353.7425,N,09832.0234,W,2,08,0.9,314.3,M,-23.7,M,0.8,0000*46
$GPGSA,A,3,17,01,28,27,08,26,04,20,,,,,1.7,0.9,1.4*3A
$GPRMC,054242.000,A,3353.7425,N,09832.0234,W,0.12,79.16,030412,,,D*45
$GPGGA,054243.000,3353.7424,N,09832.0233,W,2,08,0.9,314.5,M,-23.7,M,0.8,0000*47
$GPGSA,A,3,17,01,28,27,08,26,04,20,,,,,1.7,0.9,1.4*3A
$GPRMC,054243.000,A,3353.7424,N,09832.0233,W,0.44,102.07,030412,,,D*7C
$GPGGA,054244.000,3353.7424,N,09832.0232,W,2,08,0.9,314.7,M,-23.7,M,0.8,0000*43
$GPGSA,A,3,17,01,28,27,08,26,04,20,,,,,1.7,0.9,1.4*3A
$GPRMC,054244.000,A,3353.7424,N,09832.0232,W,0.29,110.25,030412,,,D*72
$GPGGA,054245.000,3353.7424,N,09832.0232,W,2,08,0.9,314.9,M,-23.7,M,1.8,0000*4D
$GPGSA,A,3,17,01,28,27,08,26,04,20,,,,,1.7,0.9,1.4*3A
$GPGSV,3,1,12,17,68,349,38,28,62,062,37,04,36,191,38,27,34,309,17*76
$GPGSV,3,2,12,08,31,164,35,01,21,043,29,09,16,320,,20,13,087,26*7E
$GPGSV,3,3,12,26,11,236,18,02,09,205,24,15,06,279,,32,03,062,*72
$GPRMC,054245.000,A,3353.7424,N,09832.0232,W,0.08,77.96,030412,,,D*48
$GPGGA,054246.000,3353.7423,N,09832.0231,W,2,08,0.9,315.2,M,-23.7,M,2.8,0000*43
$GPGSA,A,3,17,01,28,27,08,26,04,20,,,,,1.7,0.9,1.4*3A
$GPRMC,054246.000,A,3353.7423,N,09832.0231,W,0.45,115.38,030412,,,D*77
$GPGGA,054247.000,3353.7422,N,09832.0230,W,2,08,0.9,315.5,M,-23.7,M,3.8,0000*44
$GPGSA,A,3,17,01,28,27,08,26,04,20,,,,,1.7,0.9,1.4*3A
$GPRMC,054247.000,A,3353.7422,N,09832.0230,W,0.57,117.73,030412,,,D*78
$GPGGA,054248.000,3353.7422,N,09832.0229,W,2,08,0.9,315.7,M,-23.7,M,0.8,0000*42
$GPGSA,A,3,17,01,28,27,08,26,04,20,,,,,1.7,0.9,1.4*3A
$GPRMC,054248.000,A,3353.7422,N,09832.0229,W,0.05,87.14,030412,,,D*41
$GPGGA,054249.000,3353.7422,N,09832.0229,W,2,08,0.9,315.9,M,-23.7,M,0.8,0000*4D
$GPGSA,A,3,17,01,28,27,08,26,04,20,,,,,1.7,0.9,1.4*3A
$GPRMC,054249.000,A,3353.7422,N,09832.0229,W,0.05,311.72,030412,,,D*7C
$GPGGA,054250.000,3353.7422,N,09832.0229,W,2,08,0.9,316.1,M,-23.7,M,0.8,0000*4E
$GPGSA,A,3,17,01,28,27,08,26,04,20,,,,,1.7,0.9,1.4*3A
$GPGSV,3,1,12,17,68,353,38,28,62,065,36,04,37,191,38,27,35,308,18*75
$GPGSV,3,2,12,08,29,164,35,01,20,042,29,09,18,319,,20,13,086,26*72
$GPGSV,3,3,12,26,10,235,17,02,10,205,23,15,06,278,,32,03,061,*72
$GPRMC,054250.000,A,3353.7422,N,09832.0229,W,0.17,31.36,030412,,,D*46
$GPGGA,054251.000,3353.7423,N,09832.0230,W,2,08,0.9,316.0,M,-23.7,M,0.8,0000*47
$GPGSA,A,3,17,01,28,27,08,26,04,20,,,,,1.7,0.9,1.4*3A
$GPRMC,054251.000,A,3353.7423,N,09832.0230,W,0.34,297.54,030412,,,D*75
$GPGGA,054252.000,3353.7423,N,09832.0231,W,2,08,0.9,316.1,M,-23.7,M,0.8,0000*44
$GPGSA,A,3,17,01,28,27,08,26,04,20,,,,,1.7,0.9,1.4*3A
$GPRMC,054252.000,A,3353.7423,N,09832.0231,W,0.05,18.25,030412,,,D*46
$GPGGA,054253.000,3353.7423,N,09832.0231,W,2,08,0.9,316.1,M,-23.7,M,0.8,0000*45
$GPGSA,A,3,17,01,28,27,08,26,04,20,,,,,1.7,0.9,1.4*3A
$GPRMC,054253.000,A,3353.7423,N,09832.0231,W,0.15,318.85,030412,,,D*7F
$GPGGA,054254.000,3353.7424,N,09832.0232,W,2,08,0.9,315.9,M,-23.7,M,0.8,0000*4D
$GPGSA,A,3,17,01,28,27,08,26,04,20,,,,,1.7,0.9,1.4*3A
$GPRMC,054254.000,A,3353.7424,N,09832.0232,W,0.43,291.03,030412,,,D*71
$GPGGA,054255.000,3353.7424,N,09832.0233,W,2,08,0.9,315.7,M,-23.7,M,0.8,0000*43
$GPGSA,A,3,17,01,28,27,08,26,04,20,,,,,1.7,0.9,1.4*3A
$GPGSV,3,1,12,17,68,353,38,28,62,065,37,04,37,191,38,27,35,308,17*7B
$GPGSV,3,2,12,08,29,164,35,01,20,042,29,09,18,319,,20,13,086,25*71
$GPGSV,3,3,12,26,10,235,18,02,10,205,23,15,06,278,,32,03,061,*7D
$GPRMC,054255.000,A,3353.7424,N,09832.0233,W,0.52,290.36,030412,,,D*76
$GPGGA,054256.000,3353.7424,N,09832.0234,W,2,08,0.9,315.5,M,-23.7,M,0.8,0000*45
$GPGSA,A,3,17,01,28,27,08,26,04,20,,,,,1.7,0.9,1.4*3A
$GPRMC,054256.000,A,3353.7424,N,09832.0234,W,0.19,256.62,030412,,,D*76
$GPGGA,054257.000,3353.7424,N,09832.0233,W,2,08,0.9,315.5,M,-23.7,M,1.8,0000*42
$GPGSA,A,3,17,01,28,27,08,26,04,20,,,,,1.7,0.9,1.4*3A
$GPRMC,054257.000,A,3353.7424,N,09832.0233,W,0.33,103.26,030412,,,D*7B
$GPGGA,054258.000,3353.7423,N,09832.0232,W,2,08,0.9,315.6,M,-23.7,M,2.8,0000*4B
$GPGSA,A,3,17,01,28,27,08,26,04,20,,,,,1.7,0.9,1.4*3A
$GPRMC,054258.000,A,3353.7423,N,09832.0232,W,0.34,118.01,030412,,,D*7A
$GPGGA,054259.000,3353.7423,N,09832.0231,W,2,08,0.9,315.5,M,-23.7,M,3.8,0000*4B
$GPGSA,A,3,17,01,28,27,08,26,04,20,,,,,1.7,0.9,1.4*3A
$GPRMC,054259.000,A,3353.7423,N,09832.0231,W,0.18,137.96,030412,,,D*75
$GPGGA,054300.000,3353.7422,N,09832.0231,W,2,08,0.9,315.5,M,-23.7,M,0.8,0000*44
$GPGSA,A,3,17,01,28,27,08,26,04,20,,,,,1.7,0.9,1.4*3A
$GPGSV,3,1,12,17,68,353,38,28,62,065,37,04,37,191,38,27,35,308,17*7B
$GPGSV,3,2,12,08,29,164,35,01,20,042,29,09,18,319,,20,13,086,26*72
$GPGSV,3,3,12,26,10,235,19,02,10,205,22,15,06,278,15,32,03,061,*79
$GPRMC,054300.000,A,3353.7422,N,09832.0231,W,0.07,201.41,030412,,,D*7B
$GPGGA,054301.000,3353.7422,N,09832.0231,W,2,08,0.9,315.5,M,-23.7,M,0.8,0000*45
$GPGSA,A,3,17,01,28,27,08,26,04,20,,,,,1.7,0.9,1.4*3A
$GPRMC,054301.000,A,3353.7422,N,09832.0231,W,0.11,256.14,030412,,,D*7F
$GPGGA,054302.000,3353.7423,N,09832.0231,W,2,08,0.9,315.4,M,-23.7,M,0.8,0000*46
$GPGSA,A,3,17,01,28,27,08,26,04,20,,,,,1.7,0.9,1.4*3A
$GPRMC,054302.000,A,3353.7423,N,09832.0231,W,0.22,283.52,030412,,,D*77
$GPGGA,054303.000,3353.7423,N,09832.0233,W,2,08,0.9,315.4,M,-23.7,M,1.8,0000*44
$GPGSA,A,3,17,01,28,27,08,26,04,20,,,,,1.7,0.9,1.4*3A
$GPRMC,054303.000,A,3353.7423,N,09832.0233,W,0.35,298.17,030412,,,D*79
$GPGGA,054304.000,3353.7423,N,09832.0233,W,2,08,0.9,315.5,M,-23.7,M,2.8,0000*41
$GPGSA,A,3,17,01,28,27,08,26,04,20,,,,,1.7,0.9,1.4*3A
$GPRMC,054304.000,A,3353.7423,N,09832.0233,W,0.16,72.20,030412,,,D*4D
$GPGGA,054305.000,3353.7423,N,09832.0232,W,2,08,0.9,315.7,M,-23.7,M,0.8,0000*41
$GPGSA,A,3,17,01,28,27,08,26,04,20,,,,,1.7,0.9,1.4*3A
$GPGSV,3,1,12,17,68,353,38,28,62,065,37,04,37,191,38,27,35,308,17*7B
$GPGSV,3,2,12,08,29,164,35,01,20,042,29,09,18,319,,20,13,086,26*72
$GPGSV,3,3,12,26,10,235,17,02,10,205,22,15,06,278,15,32,03,061,*77
$GPRMC,054305.000,A,3353.7423,N,09832.0232,W,0.14,48.93,030412,,,D*4E
$GPGGA,054306.000,3353.7423,N,09832.0231,W,2,08,0.9,315.9,M,-23.7,M,0.8,0000*4F
$GPGSA,A,3,17,01,28,27,08,26,04,20,,,,,1.7,0.9,1.4*3A
$GPRMC,054306.000,A,3353.7423,N,09832.0231,W,0.17,73.25,030412,,,D*48
$GPGGA,054307.000,3353.7424,N,09832.0231,W,2,08,0.9,316.0,M,-23.7,M,0.8,0000*43
$GPGSA,A,3,17,01,28,27,08,26,04,20,,,,,1.7,0.9,1.4*3A
$GPRMC,054307.000,A,3353.7424,N,09832.0231,W,0.13,71.02,030412,,,D*4D
$GPGGA,054308.000,3353.7424,N,09832.0230,W,2,08,0.9,316.0,M,-23.7,M,0.8,0000*4D
$GPGSA,A,3,17,01,28,27,08,26,04,20,,,,,1.7,0.9,1.4*3A
$GPRMC,054308.000,A,3353.7424,N,09832.0230,W,0.15,133.29,030412,,,D*7B
$GPGGA,054309.000,3353.7423,N,09832.0230,W,2,08,0.9,316.0,M,-23.7,M,1.8,0000*4A
$GPGSA,A,3,17,01,28,27,08,26,04,20,,,,,1.7,0.9,1.4*3A
$GPRMC,054309.000,A,3353.7423,N,09832.0230,W,0.22,120.11,030412,,,D*70
$GPGGA,054310.000,3353.7423,N,09832.0230,W,2,08,0.9,315.9,M,-23.7,M,0.8,0000*49
$GPGSA,A,3,17,01,28,27,08,26,04,20,,,,,1.7,0.9,1.4*3A
$GPGSV,3,1,12,17,68,353,38,28,62,065,37,04,37,191,38,27,35,308,18*74
$GPGSV,3,2,12,08,29,164,35,01,20,042,28,09,18,319,,20,13,086,27*72
$GPGSV,3,3,12,26,10,235,15,02,10,205,22,15,06,278,14,32,03,061,*74
$GPRMC,054310.000,A,3353.7423,N,09832.0230,W,0.05,136.06,030412,,,D*7C
$GPGGA,054311.000,3353.7423,N,09832.0231,W,2,08,0.9,315.7,M,-23.7,M,1.8,0000*46
$GPGSA,A,3,17,01,28,27,08,26,04,20,,,,,1.7,0.9,1.4*3A
$GPRMC,054311.000,A,3353.7423,N,09832.0231,W,0.23,290.80,030412,,,D*79
$GPGGA,054312.000,3353.7424,N,09832.0231,W,2,08,0.9,315.7,M,-23.7,M,0.8,0000*43
$GPGSA,A,3,17,01,28,27,08,26,04,20,,,,,1.7,0.9,1.4*3A
$GPRMC,054312.000,A,3353.7424,N,09832.0231,W,0.14,292.60,030412,,,D*75
$GPGGA,054313.000,3353.7424,N,09832.0232,W,2,08,0.9,315.7,M,-23.7,M,0.8,0000*41
$GPGSA,A,3,17,01,28,27,08,26,04,20,,,,,1.7,0.9,1.4*3A
$GPRMC,054313.000,A,3353.7424,N,09832.0232,W,0.16,292.88,030412,,,D*73
$GPGGA,054314.000,3353.7424,N,09832.0232,W,2,08,0.9,315.7,M,-23.7,M,0.8,0000*46
$GPGSA,A,3,17,01,28,27,08,26,04,20,,,,,1.7,0.9,1.4*3A
$GPRMC,054314.000,A,3353.7424,N,09832.0232,W,0.18,313.78,030412,,,D*7D
$GPGGA,054315.000,3353.7425,N,09832.0233,W,2,08,0.9,315.6,M,-23.7,M,0.8,0000*46
$GPGSA,A,3,17,01,28,27,08,26,04,20,,,,,1.7,0.9,1.4*3A
$GPGSV,3,1,12,17,68,353,38,28,62,065,37,04,37,191,38,27,35,308,19*75
$GPGSV,3,2,12,08,29,164,35,01,20,042,28,09,18,319,,20,13,086,27*72
$GPGSV,3,3,12,26,10,235,14,02,10,205,18,15,06,278,13,32,03,061,*7B
$GPRMC,054315.000,A,3353.7425,N,09832.0233,W,0.41,306.06,030412,,,D*7D
$GPGGA,054316.000,3353.7425,N,09832.0234,W,2,08,0.9,315.6,M,-23.7,M,1.8,0000*43
$GPGSA,A,3,17,01,28,27,08,26,04,20,,,,,1.7,0.9,1.4*3A
$GPRMC,054316.000,A,3353.7425,N,09832.0234,W,0.23,313.52,030412,,,D*78
$GPGGA,054317.000,3353.7426,N,09832.0235,W,2,08,0.9,315.5,M,-23.7,M,2.8,0000*40
$GPGSA,A,3,17,01,28,27,08,26,04,20,,,,,1.7,0.9,1.4*3A
$GPRMC,054317.000,A,3353.7426,N,09832.0235,W,0.51,300.64,030412,,,D*79
$GPGGA,054318.000,3353.7426,N,09832.0235,W,2,08,0.9,315.6,M,-23.7,M,0.8,0000*4E
$GPGSA,A,3,17,01,28,27,08,26,04,20,,,,,1.7,0.9,1.4*3A
$GPRMC,054318.000,A,3353.7426,N,09832.0235,W,0.09,323.04,030412,,,D*7C
$GPGGA,054319.000,3353.7426,N,09832.0235,W,2,08,0.9,315.6,M,-23.7,M,0.8,0000*4F
$GPGSA,A,3,17,01,28,27,08,26,04,20,,,,,1.7,0.9,1.4*3A
$GPRMC,054319.000,A,3353.7426,N,09832.0235,W,0.14,105.74,030412,,,D*70
$GPGGA,054320.000,3353.7426,N,09832.0235,W,2,08,0.9,315.6,M,-23.7,M,0.8,0000*45
$GPGSA,A,3,17,01,28,27,08,26,04,20,,,,,1.7,0.9,1.4*3A
$GPGSV,3,1,12,17,68,353,38,28,62,065,37,04,37,191,38,27,35,308,20*7F
$GPGSV,3,2,12,08,29,164,35,01,20,042,27,09,18,319,,20,13,086,27*7D
$GPGSV,3,3,12,26,10,235,16,02,10,205,16,15,06,278,,32,03,061,*75
$GPRMC,054320.000,A,3353.7426,N,09832.0235,W,0.08,32.51,030412,,,D*45
$GPGGA,054321.000,3353.7426,N,09832.0234,W,2,08,0.9,315.8,M,-23.7,M,0.8,0000*4B
$GPGSA,A,3,17,01,28,27,08,26,04,20,,,,,1.7,0.9,1.4*3A
$GPRMC,054321.000,A,3353.7426,N,09832.0234,W,0.34,94.21,030412,,,D*41
$GPGGA,054322.000,3353.7426,N,09832.0233,W,2,08,0.9,315.8,M,-23.7,M,1.8,0000*4E
$GPGSA,A,3,17,01,28,27,08,26,04,20,,,,,1.7,0.9,1.4*3A
$GPRMC,054322.000,A,3353.7426,N,09832.0233,W,0.14,90.80,030412,,,D*48
$GPGGA,054323.000,3353.7425,N,09832.0232,W,2,08,0.9,316.0,M,-23.7,M,2.8,0000*45
$GPGSA,A,3,17,01,28,27,08,26,04,20,,,,,1.7,0.9,1.4*3A
$GPRMC,054323.000,A,3353.7425,N,09832.0232,W,0.30,99.34,030412,,,D*4B
$GPGGA,054324.000,3353.7425,N,09832.0231,W,2,08,0.9,316.3,M,-23.7,M,0.8,0000*40
$GPGSA,A,3,17,01,28,27,08,26,04,20,,,,,1.7,0.9,1.4*3A
$GPRMC,054324.000,A,3353.7425,N,09832.0231,W,0.44,99.64,030412,,,D*49
$GPGGA,054325.000,3353.7425,N,09832.0231,W,2,08,0.9,316.7,M,-23.7,M,0.8,0000*45
$GPGSA,A,3,17,01,28,27,08,26,04,20,,,,,1.7,0.9,1.4*3A
$GPGSV,3,1,12,17,68,353,39,28,62,065,37,04,37,191,38,27,35,308,20*7E
$GPGSV,3,2,12,08,29,164,34,01,20,042,27,09,18,319,,20,13,086,27*7C
$GPGSV,3,3,12,26,10,235,17,02,10,205,16,15,06,278,,32,03,061,*74
$GPRMC,054325.000,A,3353.7425,N,09832.0231,W,0.35,97.39,030412,,,D*48
$GPGGA,054326.000,3353.7425,N,09832.0229,W,2,08,0.9,317.1,M,-23.7,M,0.8,0000*48
$GPGSA,A,3,17,01,28,27,08,26,04,20,,,,,1.7,0.9,1.4*3A
$GPRMC,054326.000,A,3353.7425,N,09832.0229,W,0.59,100.63,030412,,,D*78
$GPGGA,054327.000,3353.7424,N,09832.0227,W,2,08,0.9,317.6,M,-23.7,M,1.8,0000*40
$GPGSA,A,3,17,01,28,27,08,26,04,20,,,,,1.7,0.9,1.4*3A
$GPRMC,054327.000,A,3353.7424,N,09832.0227,W,0.62,99.11,030412,,,D*4A
$GPGGA,054328.000,3353.7424,N,09832.0227,W,2,08,0.9,317.7,M,-23.7,M,2.8,0000*4D
$GPGSA,A,3,17,01,28,27,08,26,04,20,,,,,1.7,0.9,1.4*3A
$GPRMC,054328.000,A,3353.7424,N,09832.0227,W,0.02,143.03,030412,,,D*76
$GPGGA,054329.000,3353.7425,N,09832.0228,W,2,08,0.9,317.8,M,-23.7,M,3.8,0000*4C
$GPGSA,A,3,17,01,28,27,08,26,04,20,,,,,1.7,0.9,1.4*3A
$GPRMC,054329.000,A,3353.7425,N,09832.0228,W,0.17,281.34,030412,,,D*74
$GPGGA,054330.000,3353.7425,N,09832.0229,W,2,08,0.9,317.9,M,-23.7,M,0.8,0000*47
$GPGSA,A,3,17,01,28,27,08,26,04,20,,,,,1.7,0.9,1.4*3A
$GPGSV,3,1,12,17,68,353,39,28,62,065,37,04,37,191,38,27,35,308,20*7E
$GPGSV,3,2,12,08,29,164,34,01,20,042,26,09,18,319,,20,13,086,27*7D
$GPGSV,3,3,12,26,10,235,17,02,10,205,17,15,06,278,,32,03,061,*75
$GPRMC,054330.000,A,3353.7425,N,09832.0229,W,0.06,161.62,030412,,,D*73
$GPGGA,054331.000,3353.7425,N,09832.0229,W,2,08,0.9,317.8,M,-23.7,M,0.8,0000*47
$GPGSA,A,3,17,01,28,27,08,26,04,20,,,,,1.7,0.9,1.4*3A
$GPRMC,054331.000,A,3353.7425,N,09832.0229,W,0.26,147.35,030412,,,D*76
$GPGGA,054332.000,3353.7426,N,09832.0229,W,2,08,0.9,317.2,M,-23.7,M,0.8,0000*4D
$GPGSA,A,3,17,01,28,27,08,26,04,20,,,,,1.7,0.9,1.4*3A
$GPRMC,054332.000,A,3353.7426,N,09832.0229,W,0.27,109.88,030412,,,D*7B
$GPGGA,054333.000,3353.7427,N,09832.0229,W,2,08,0.9,316.9,M,-23.7,M,1.8,0000*46
$GPGSA,A,3,17,01,28,27,08,26,04,20,,,,,1.7,0.9,1.4*3A
$GPRMC,054333.000,A,3353.7427,N,09832.0229,W,0.24,115.46,030412,,,D*77
$GPGGA,054334.000,3353.7427,N,09832.0229,W,2,08,0.9,316.9,M,-23.7,M,2.8,0000*42
$GPGSA,A,3,17,01,28,27,08,26,04,20,,,,,1.7,0.9,1.4*3A
$GPRMC,054334.000,A,3353.7427,N,09832.0229,W,0.19,67.46,030412,,,D*4A
$GPGGA,054335.000,3353.7427,N,09832.0229,W,2,08,0.9,317.0,M,-23.7,M,3.8,0000*4A
$GPGSA,A,3,17,01,28,27,08,26,04,20,,,,,1.7,0.9,1.4*3A
$GPGSV,3,1,12,17,68,353,39,28,62,065,37,04,37,191,38,27,35,308,19*74
$GPGSV,3,2,12,08,29,164,33,01,20,042,26,09,18,319,,20,13,086,27*7A
$GPGSV,3,3,12,26,10,235,17,02,10,205,17,15,06,278,,32,03,061,*75
$GPRMC,054335.000,A,3353.7427,N,09832.0229,W,0.15,47.29,030412,,,D*4C
$GPGGA,054336.000,3353.7428,N,09832.0229,W,2,08,0.9,317.0,M,-23.7,M,0.8,0000*45
$GPGSA,A,3,17,01,28,27,08,26,04,20,,,,,1.7,0.9,1.4*3A
$GPRMC,054336.000,A,3353.7428,N,09832.0229,W,0.07,72.67,030412,,,D*4F
$GPGGA,054337.000,3353.7429,N,09832.0230,W,2,08,0.9,316.8,M,-23.7,M,0.8,0000*44
$GPGSA,A,3,17,01,28,27,08,26,04,20,,,,,1.7,0.9,1.4*3A
$GPRMC,054337.000,A,3353.7429,N,09832.0230,W,0.01,226.59,030412,,,D*7F
$GPGGA,054338.000,3353.7429,N,09832.0230,W,2,08,0.9,316.8,M,-23.7,M,0.8,0000*4B
$GPGSA,A,3,17,01,28,27,08,26,04,20,,,,,1.7,0.9,1.4*3A
$GPRMC,054338.000,A,3353.7429,N,09832.0230,W,0.10,210.43,030412,,,D*7E
$GPGGA,054339.000,3353.7429,N,09832.0231,W,2,08,0.9,316.7,M,-23.7,M,0.8,0000*44
$GPGSA,A,3,17,01,28,27,08,26,04,20,,,,,1.7,0.9,1.4*3A
$GPRMC,054339.000,A,3353.7429,N,09832.0231,W,0.11,218.98,030412,,,D*71
$GPGGA,054340.000,3353.7429,N,09832.0232,W,2,08,0.9,316.7,M,-23.7,M,0.8,0000*49
$GPGSA,A,3,17,01,28,27,08,26,04,20,,,,,1.7,0.9,1.4*3A
$GPGSV,3,1,12,17,68,353,38,28,62,065,37,04,37,191,38,27,35,308,16*7A
$GPGSV,3,2,12,08,29,164,34,01,20,042,25,09,18,319,,20,13,086,27*7E
$GPGSV,3,3,12,26,10,235,17,02,10,205,16,15,06,278,,32,03,061,*74
$GPRMC,054340.000,A,3353.7429,N,09832.0232,W,0.07,172.35,030412,,,D*73
$GPGGA,054341.000,3353.7431,N,09832.0234,W,2,08,0.9,315.8,M,-23.7,M,1.8,0000*4A
$GPGSA,A,3,17,01,28,27,08,26,04,20,,,,,1.7,0.9,1.4*3A
$GPRMC,054341.000,A,3353.7431,N,09832.0234,W,0.29,289.91,030412,,,D*78
$GPGGA,054342.000,3353.7433,N,09832.0235,W,2,08,0.9,314.9,M,-23.7,M,0.8,0000*4B
$GPGSA,A,3,17,01,28,27,08,26,04,20,,,,,1.7,0.9,1.4*3A
$GPRMC,054342.000,A,3353.7433,N,09832.0235,W,0.11,38.11,030412,,,D*43
$GPGGA,054343.000,3353.7434,N,09832.0236,W,2,08,0.9,314.6,M,-23.7,M,0.8,0000*41
$GPGSA,A,3,17,01,28,27,08,26,04,20,,,,,1.7,0.9,1.4*3A
$GPRMC,054343.000,A,3353.7434,N,09832.0236,W,0.29,77.11,030412,,,D*46
$GPGGA,054344.000,3353.7434,N,09832.0236,W,2,08,0.9,314.6,M,-23.7,M,0.8,0000*46
$GPGSA,A,3,17,01,28,27,08,26,04,20,,,,,1.7,0.9,1.4*3A
$GPRMC,054344.000,A,3353.7434,N,09832.0236,W,0.16,16.30,030412,,,D*49
$GPGGA,054345.000,3353.7435,N,09832.0236,W,2,08,0.9,314.4,M,-23.7,M,1.8,0000*45
$GPGSA,A,3,17,01,28,27,08,26,04,20,,,,,1.7,0.9,1.4*3A
$GPGSV,3,1,12,17,68,353,38,28,62,065,37,04,37,191,38,27,35,308,18*74
$GPGSV,3,2,12,08,29,164,34,01,20,042,25,09,18,319,,20,13,086,27*7E
$GPGSV,3,3,12,26,10,235,18,02,10,205,16,15,06,278,,32,03,061,*7B
$GPRMC,054345.000,A,3353.7435,N,09832.0236,W,0.15,49.65,030412,,,D*40
$GPGGA,054346.000,3353.7435,N,09832.0236,W,2,08,0.9,314.4,M,-23.7,M,0.8,0000*47
$GPGSA,A,3,17,01,28,27,08,26,04,20,,,,,1.7,0.9,1.4*3A
$GPRMC,054346.000,A,3353.7435,N,09832.0236,W,0.14,46.66,030412,,,D*4E
$GPGGA,054347.000,3353.7435,N,09832.0236,W,2,08,0.9,314.4,M,-23.7,M,0.8,0000*46
$GPGSA,A,3,17,01,28,27,08,26,04,20,,,,,1.7,0.9,1.4*3A
$GPRMC,054347.000,A,3353.7435,N,09832.0236,W,0.26,81.29,030412,,,D*4E
$GPGGA,054348.000,3353.7435,N,09832.0236,W,2,08,0.9,314.6,M,-23.7,M,0.8,0000*4B
$GPGSA,A,3,17,01,28,27,08,26,04,20,,,,,1.7,0.9,1.4*3A
$GPRMC,054348.000,A,3353.7435,N,09832.0236,W,0.36,93.62,030412,,,D*4C
$GPGGA,054349.000,3353.7435,N,09832.0235,W,2,08,0.9,314.9,M,-23.7,M,1.8,0000*47
$GPGSA,A,3,17,01,28,27,08,26,04,20,,,,,1.7,0.9,1.4*3A
$GPRMC,054349.000,A,3353.7435,N,09832.0235,W,0.54,99.75,030412,,,D*46
$GPGGA,054350.000,3353.7434,N,09832.0234,W,2,08,0.9,315.7,M,-23.7,M,0.8,0000*41
$GPGSA,A,3,17,01,28,27,08,26,04,20,,,,,1.7,0.9,1.4*3A
$GPGSV,3,1,12,17,68,353,38,28,62,065,37,04,37,191,38,27,35,308,19*75
$GPGSV,3,2,12,08,29,164,34,01,20,042,25,09,18,319,,20,13,086,27*7E
$GPGSV,3,3,12,26,10,235,16,02,10,205,17,15,06,278,16,32,03,061,*73
$GPRMC,054350.000,A,3353.7434,N,09832.0234,W,0.19,98.15,030412,,,D*40
$GPGGA,054351.000,3353.7433,N,09832.0234,W,2,08,0.9,316.2,M,-23.7,M,1.8,0000*40
$GPGSA,A,3,17,01,28,27,08,26,04,20,,,,,1.7,0.9,1.4*3A
$GPRMC,054351.000,A,3353.7433,N,09832.0234,W,0.37,109.17,030412,,,D*71
$GPGGA,054352.000,3353.7430,N,09832.0233,W,2,08,0.9,317.3,M,-23.7,M,2.8,0000*44
$GPGSA,A,3,17,01,28,27,08,26,04,20,,,,,1.7,0.9,1.4*3A
$GPRMC,054352.000,A,3353.7430,N,09832.0233,W,0.44,112.73,030412,,,D*7A
$GPGGA,054353.000,3353.7429,N,09832.0232,W,2,08,0.9,317.8,M,-23.7,M,0.8,0000*45
$GPGSA,A,3,17,01,28,27,08,26,04,20,,,,,1.7,0.9,1.4*3A
$GPRMC,054353.000,A,3353.7429,N,09832.0232,W,0.28,101.50,030412,,,D*7B
$GPGGA,054354.000,3353.7429,N,09832.0232,W,2,08,0.9,318.0,M,-23.7,M,0.8,0000*45
$GPGSA,A,3,17,01,28,27,08,26,04,20,,,,,1.7,0.9,1.4*3A
$GPRMC,054354.000,A,3353.7429,N,09832.0232,W,0.29,127.86,030412,,,D*72
$GPGGA,054355.000,3353.7429,N,09832.0232,W,2,08,0.9,318.2,M,-23.7,M,0.8,0000*46
$GPGSA,A,3,17,01,28,27,08,26,04,20,,,,,1.7,0.9,1.4*3A
$GPGSV,3,1,12,17,68,353,38,28,62,065,37,04,37,191,38,27,35,308,20*7F
$GPGSV,3,2,12,08,29,164,34,01,20,042,25,09,18,319,,20,13,086,28*71
$GPGSV,3,3,12,26,10,235,17,02,10,205,18,15,06,278,15,32,03,061,*7E
$GPRMC,054355.000,A,3353.7429,N,09832.0232,W,0.14,112.02,030412,,,D*77
$GPGGA,054356.000,3353.7429,N,09832.0233,W,2,08,0.9,318.3,M,-23.7,M,0.8,0000*45
$GPGSA,A,3,17,01,28,27,08,26,04,20,,,,,1.7,0.9,1.4*3A
$GPRMC,054356.000,A,3353.7429,N,09832.0233,W,0.13,277.29,030412,,,D*7B
$GPGGA,054357.000,3353.7428,N,09832.0233,W,2,08,0.9,318.6,M,-23.7,M,1.8,0000*41
$GPGSA,A,3,17,01,28,27,08,26,04,20,,,,,1.7,0.9,1.4*3A
$GPRMC,054357.000,A,3353.7428,N,09832.0233,W,0.18,167.09,030412,,,D*70
$GPGGA,054358.000,3353.7427,N,09832.0233,W,2,08,0.9,319.2,M,-23.7,M,2.8,0000*47
$GPGSA,A,3,17,01,28,27,08,26,04,20,,,,,1.7,0.9,1.4*3A
$GPRMC,054358.000,A,3353.7427,N,09832.0233,W,0.15,171.50,030412,,,D*76
$GPGGA,054359.000,3353.7427,N,09832.0234,W,2,08,0.9,319.3,M,-23.7,M,3.8,0000*41
$GPGSA,A,3,17,01,28,27,08,26,04,20,,,,,1.7,0.9,1.4*3A
$GPRMC,054359.000,A,3353.7427,N,09832.0234,W,0.05,212.97,030412,,,D*7C
$GPGGA,054400.000,3353.7427,N,09832.0234,W,2,08,0.9,319.3,M,-23.7,M,0.8,0000*49
$GPGSA,A,3,17,01,28,27,08,26,04,20,,,,,1.7,0.9,1.4*3A
$GPGSV,3,1,12,17,68,353,38,28,62,065,36,04,37,191,37,27,35,308,20*71
$GPGSV,3,2,12,08,29,164,34,01,20,042,25,09,18,319,,20,13,086,28*71
$GPGSV,3,3,12,26,10,235,17,02,10,205,18,15,06,278,14,32,03,061,*7F
$GPRMC,054400.000,A,3353.7427,N,09832.0234,W,0.23,99.30,030412,,,D*4F
$GPGGA,054401.000,3353.7426,N,09832.0234,W,2,08,0.9,319.6,M,-23.7,M,0.8,0000*4C
$GPGSA,A,3,17,01,28,27,08,26,04,20,,,,,1.7,0.9,1.4*3A
$GPRMC,054401.000,A,3353.7426,N,09832.0234,W,0.19,166.08,030412,,,D*7C
$GPGGA,054402.000,3353.7426,N,09832.0234,W,2,08,0.9,319.8,M,-23.7,M,0.8,0000*41
$GPGSA,A,3,17,01,28,27,08,26,04,20,,,,,1.7,0.9,1.4*3A
$GPRMC,054402.000,A,3353.7426,N,09832.0234,W,0.17,121.32,030412,,,D*7B
$GPGGA,054403.000,3353.7426,N,09832.0233,W,2,08,0.9,319.9,M,-23.7,M,1.8,0000*47
$GPGSA,A,3,17,01,28,27,08,26,04,20,,,,,1.7,0.9,1.4*3A
$GPRMC,054403.000,A,3353.7426,N,09832.0233,W,0.18,121.81,030412,,,D*7A
$GPGGA,054404.000,3353.7425,N,09832.0233,W,2,08,0.9,320.2,M,-23.7,M,2.8,0000*41
$GPGSA,A,3,17,01,28,27,08,26,04,20,,,,,1.7,0.9,1.4*3A
$GPRMC,054404.000,A,3353.7425,N,09832.0233,W,0.11,91.80,030412,,,D*4C
$GPGGA,054405.000,3353.7424,N,09832.0234,W,2,08,0.9,320.6,M,-23.7,M,3.8,0000*43
$GPGSA,A,3,17,01,28,27,08,26,04,20,,,,,1.7,0.9,1.4*3A
$GPGSV,3,1,12,17,68,353,39,28,62,065,36,04,37,191,37,27,35,308,21*71
$GPGSV,3,2,12,08,29,164,33,01,20,042,24,09,18,319,,20,13,086,28*77
$GPGSV,3,3,12,26,10,235,16,02,10,205,17,15,06,278,,32,03,061,*74
$GPRMC,054405.000,A,3353.7424,N,09832.0234,W,0.16,236.81,030412,,,D*72
$GPGGA,054406.000,3353.7424,N,09832.0234,W,2,08,0.9,320.5,M,-23.7,M,0.8,0000*40
$GPGSA,A,3,17,01,28,27,08,26,04,20,,,,,1.7,0.9,1.4*3A
$GPRMC,054406.000,A,3353.7424,N,09832.0234,W,0.11,162.01,030412,,,D*7C
$GPGGA,054407.000,3353.7425,N,09832.0235,W,2,08,0.9,320.1,M,-23.7,M,0.8,0000*45
$GPGSA,A,3,17,01,28,27,08,26,04,20,,,,,1.7,0.9,1.4*3A
$GPRMC,054407.000,A,3353.7425,N,09832.0235,W,0.17,257.48,030412,,,D*73
$GPGGA,054408.000,3353.7425,N,09832.0236,W,2,07,1.1,320.0,M,-23.7,M,0.8,0000*4E
$GPGSA,A,3,17,01,28,27,08,04,20,,,,,,2.1,1.1,1.8*3E
$GPRMC,054408.000,A,3353.7425,N,09832.0236,W,0.16,254.12,030412,,,D*72
$GPGGA,054409.000,3353.7426,N,09832.0236,W,2,07,1.1,319.7,M,-23.7,M,0.8,0000*41
$GPGSA,A,3,17,01,28,27,08,04,20,,,,,,2.1,1.1,1.8*3E
$GPRMC,054409.000,A,3353.7426,N,09832.0236,W,0.11,116.60,030412,,,D*77
$GPGGA,054410.000,3353.7425,N,09832.0236,W,2,07,1.1,320.0,M,-23.7,M,1.8,0000*46
$GPGSA,A,3,17,01,28,27,08,04,20,,,,,,2.1,1.1,1.8*3E
$GPGSV,3,1,12,17,68,353,39,28,62,065,36,04,37,191,37,27,35,308,21*71
$GPGSV,3,2,12,08,29,164,33,01,20,042,24,09,18,319,,20,13,086,29*76
$GPGSV,3,3,12,26,10,235,,02,10,205,18,15,06,278,,32,03,061,*7C
$GPRMC,054410.000,A,3353.7425,N,09832.0236,W,0.16,138.47,030412,,,D*72
$GPGGA,054411.000,3353.7426,N,09832.0236,W,2,07,1.1,319.7,M,-23.7,M,0.8,0000*48
$GPGSA,A,3,17,01,28,27,08,04,20,,,,,,2.1,1.1,1.8*3E
$GPRMC,054411.000,A,3353.7426,N,09832.0236,W,0.02,151.78,030412,,,D*76
$GPGGA,054412.000,3353.7427,N,09832.0236,W,2,07,1.1,319.1,M,-23.7,M,0.8,0000*4C
$GPGSA,A,3,17,01,28,27,08,04,20,,,,,,2.1,1.1,1.8*3E
$GPRMC,054412.000,A,3353.7427,N,09832.0236,W,0.19,312.21,030412,,,D*77
$GPGGA,054413.000,3353.7428,N,09832.0237,W,2,07,1.1,318.8,M,-23.7,M,0.8,0000*4B
$GPGSA,A,3,17,01,28,27,08,04,20,,,,,,2.1,1.1,1.8*3E
$GPRMC,054413.000,A,3353.7428,N,09832.0237,W,0.08,53.14,030412,,,D*48
$GPGGA,054414.000,3353.7429,N,09832.0237,W,2,07,1.1,318.4,M,-23.7,M,0.8,0000*41
$GPGSA,A,3,17,01,28,27,08,04,20,,,,,,2.1,1.1,1.8*3E
$GPRMC,054414.000,A,3353.7429,N,09832.0237,W,0.07,335.71,030412,,,D*71
$GPGGA,054415.000,3353.7430,N,09832.0238,W,2,07,1.1,317.9,M,-23.7,M,1.8,0000*44
$GPGSA,A,3,17,01,28,27,08,04,20,,,,,,2.1,1.1,1.8*3E
$GPGSV,3,1,12,17,68,353,39,28,62,065,37,04,37,191,37,27,35,308,20*71
$GPGSV,3,2,12,08,29,164,33,01,20,042,24,09,18,319,,20,13,086,29*76
$GPGSV,3,3,12,26,10,235,,02,10,205,17,15,06,278,,32,03,061,*73
$GPRMC,054415.000,A,3353.7430,N,09832.0238,W,0.33,298.10,030412,,,D*71
$GPGGA,054416.000,3353.7431,N,09832.0240,W,2,07,1.1,317.5,M,-23.7,M,2.8,0000*46
$GPGSA,A,3,17,01,28,27,08,04,20,,,,,,2.1,1.1,1.8*3E
$GPRMC,054416.000,A,3353.7431,N,09832.0240,W,0.33,295.54,030412,,,D*71
$GPGGA,054417.000,3353.7432,N,09832.0240,W,2,07,1.1,317.4,M,-23.7,M,0.8,0000*47
$GPGSA,A,3,17,01,28,27,08,04,20,,,,,,2.1,1.1,1.8*3E
$GPRMC,054417.000,A,3353.7432,N,09832.0240,W,0.07,230.19,030412,,,D*72
$GPGGA,054418.000,3353.7433,N,09832.0240,W,2,08,0.9,317.0,M,-23.7,M,0.8,0000*4B
$GPGSA,A,3,17,01,28,27,08,26,04,20,,,,,1.7,0.9,1.4*3A
$GPRMC,054418.000,A,3353.7433,N,09832.0240,W,0.21,100.75,030412,,,D*72
$GPGGA,054419.000,3353.7432,N,09832.0239,W,2,08,0.9,317.0,M,-23.7,M,0.8,0000*45
$GPGSA,A,3,17,01,28,27,08,26,04,20,,,,,1.7,0.9,1.4*3A
$GPRMC,054419.000,A,3353.7432,N,09832.0239,W,0.28,113.83,030412,,,D*7E
$GPGGA,054420.000,3353.7433,N,09832.0239,W,2,08,0.9,316.8,M,-23.7,M,0.8,0000*47
$GPGSA,A,3,17,01,28,27,08,26,04,20,,,,,1.7,0.9,1.4*3A
$GPGSV,3,1,12,17,68,353,39,28,62,065,36,04,37,191,36,27,35,308,20*71
$GPGSV,3,2,12,08,29,164,34,01,20,042,24,09,18,319,,20,13,086,29*71
$GPGSV,3,3,12,26,10,235,18,02,10,205,17,15,06,278,,32,03,061,*7A
$GPRMC,054420.000,A,3353.7433,N,09832.0239,W,0.21,43.83,030412,,,D*48
$GPGGA,054421.000,3353.7434,N,09832.0239,W,2,08,0.9,316.4,M,-23.7,M,1.8,0000*4C
$GPGSA,A,3,17,01,28,27,08,26,04,20,,,,,1.7,0.9,1.4*3A
$GPRMC,054421.000,A,3353.7434,N,09832.0239,W,0.16,13.49,030412,,,D*49
$GPGGA,054422.000,3353.7435,N,09832.0239,W,2,08,0.9,316.3,M,-23.7,M,2.8,0000*4A
$GPGSA,A,3,17,01,28,27,08,26,04,20,,,,,1.7,0.9,1.4*3A
$GPRMC,054422.000,A,3353.7435,N,09832.0239,W,0.39,77.40,030412,,,D*4D
$GPGGA,054423.000,3353.7435,N,09832.0238,W,2,08,0.9,316.2,M,-23.7,M,3.8,0000*4A
$GPGSA,A,3,17,01,28,27,08,26,04,20,,,,,1.7,0.9,1.4*3A
$GPRMC,054423.000,A,3353.7435,N,09832.0238,W,0.39,99.00,030412,,,D*49
$GPGGA,054424.000,3353.7436,N,09832.0237,W,2,08,0.9,315.8,M,-23.7,M,0.8,0000*4B
$GPGSA,A,3,17,01,28,27,08,26,04,20,,,,,1.7,0.9,1.4*3A
$GPRMC,054424.000,A,3353.7436,N,09832.0237,W,0.54,93.48,030412,,,D*4F
$GPGGA,054425.000,3353.7437,N,09832.0237,W,2,08,0.9,315.5,M,-23.7,M,0.8,0000*46
$GPGSA,A,3,17,01,28,27,08,26,04,20,,,,,1.7,0.9,1.4*3A
$GPGSV,3,1,12,17,68,353,38,28,62,065,36,04,37,191,37,27,35,308,14*76
$GPGSV,3,2,12,08,29,164,34,01,20,042,24,09,18,319,,20,13,086,29*71
$GPGSV,3,3,12,26,10,235,17,02,10,205,16,15,06,278,,32,03,061,*74
$GPRMC,054425.000,A,3353.7437,N,09832.0237,W,0.31,121.22,030412,,,D*78
$GPGGA,054426.000,3353.7437,N,09832.0237,W,2,08,0.9,315.3,M,-23.7,M,0.8,0000*43
$GPGSA,A,3,17,01,28,27,08,26,04,20,,,,,1.7,0.9,1.4*3A
$GPRMC,054426.000,A,3353.7437,N,09832.0237,W,0.25,169.41,030412,,,D*77
$GPGGA,054427.000,3353.7437,N,09832.0238,W,2,08,0.9,314.8,M,-23.7,M,1.8,0000*46
$GPGSA,A,3,17,01,28,27,08,26,04,20,,,,,1.7,0.9,1.4*3A
$GPRMC,054427.000,A,3353.7437,N,09832.0238,W,0.17,218.27,030412,,,D*7D
$GPGGA,054428.000,3353.7438,N,09832.0240,W,2,08,0.9,314.0,M,-23.7,M,2.8,0000*42
$GPGSA,A,3,17,01,28,27,08,26,04,20,,,,,1.7,0.9,1.4*3A
$GPRMC,054428.000,A,3353.7438,N,09832.0240,W,0.19,206.78,030412,,,D*79
$GPGGA,054429.000,3353.7439,N,09832.0241,W,2,08,0.9,313.4,M,-23.7,M,3.8,0000*41
$GPGSA,A,3,17,01,28,27,08,26,04,20,,,,,1.7,0.9,1.4*3A
$GPRMC,054429.000,A,3353.7439,N,09832.0241,W,0.10,220.24,030412,,,D*7C
$GPGGA,054430.000,3353.7441,N,09832.0243,W,2,08,0.9,312.7,M,-23.7,M,0.8,0000*45
$GPGSA,A,3,17,01,28,27,08,26,04,20,,,,,1.7,0.9,1.4*3A
$GPGSV,3,1,12,17,68,353,38,28,62,065,36,04,37,191,37,27,35,308,15*77
$GPGSV,3,2,12,08,29,164,34,01,20,042,24,09,18,319,,20,13,086,30*79
$GPGSV,3,3,12,26,10,235,16,02,10,205,14,15,06,278,,32,03,061,*77
$GPRMC,054430.000,A,3353.7441,N,09832.0243,W,0.14,288.30,030412,,,D*7A
$GPGGA,054431.000,3353.7441,N,09832.0244,W,2,08,0.9,312.3,M,-23.7,M,0.8,0000*47
$GPGSA,A,3,17,01,28,27,08,26,04,20,,,,,1.7,0.9,1.4*3A
$GPRMC,054431.000,A,3353.7441,N,09832.0244,W,0.11,245.71,030412,,,D*7D
$GPGGA,054432.000,3353.7441,N,09832.0244,W,2,08,0.9,312.6,M,-23.7,M,0.8,0000*41
$GPGSA,A,3,17,01,28,27,08,26,04,20,,,,,1.7,0.9,1.4*3A
$GPRMC,054432.000,A,3353.7441,N,09832.0244,W,0.05,81.11,030412,,,D*47
$GPGGA,054433.000,3353.7441,N,09832.0245,W,2,08,0.9,312.6,M,-23.7,M,1.8,0000*40
$GPGSA,A,3,17,01,28,27,08,26,04,20,,,,,1.7,0.9,1.4*3A
$GPRMC,054433.000,A,3353.7441,N,09832.0245,W,0.01,34.94,030412,,,D*40
$GPGGA,054434.000,3353.7441,N,09832.0245,W,2,08,0.9,312.8,M,-23.7,M,2.8,0000*4A
$GPGSA,A,3,17,01,28,27,08,26,04,20,,,,,1.7,0.9,1.4*3A
$GPRMC,054434.000,A,3353.7441,N,09832.0245,W,0.22,54.29,030412,,,D*46
$GPGGA,054435.000,3353.7442,N,09832.0245,W,2,08,0.9,312.7,M,-23.7,M,3.8,0000*46
$GPGSA,A,3,17,01,28,27,08,26,04,20,,,,,1.7,0.9,1.4*3A
$GPGSV,3,1,12,17,68,353,38,28,62,065,36,04,37,191,36,27,35,308,15*76
$GPGSV,3,2,12,08,29,164,35,01,20,042,25,09,18,319,,20,13,086,29*71
$GPGSV,3,3,12,26,10,235,17,02,10,205,,15,06,278,,32,03,061,*73
$GPRMC,054435.000,A,3353.7442,N,09832.0245,W,0.29,31.04,030412,,,D*43
$GPGGA,054436.000,3353.7442,N,09832.0245,W,2,08,0.9,312.7,M,-23.7,M,0.8,0000*46
$GPGSA,A,3,17,01,28,27,08,26,04,20,,,,,1.7,0.9,1.4*3A
$GPRMC,054436.000,A,3353.7442,N,09832.0245,W,0.27,98.67,030412,,,D*48
$GPGGA,054437.000,3353.7442,N,09832.0245,W,2,08,0.9,312.7,M,-23.7,M,0.8,0000*47
$GPGSA,A,3,17,01,28,27,08,26,04,20,,,,,1.7,0.9,1.4*3A
$GPRMC,054437.000,A,3353.7442,N,09832.0245,W,0.10,46.11,030412,,,D*4F
$GPGGA,054438.000,3353.7442,N,09832.0245,W,2,08,0.9,312.6,M,-23.7,M,0.8,0000*49
$GPGSA,A,3,17,01,28,27,08,26,04,20,,,,,1.7,0.9,1.4*3A
$GPRMC,054438.000,A,3353.7442,N,09832.0245,W,0.24,128.48,030412,,,D*72
$GPGGA,054439.000,3353.7442,N,09832.0245,W,2,08,0.9,312.7,M,-23.7,M,1.8,0000*48
$GPGSA,A,3,17,01,28,27,08,26,04,20,,,,,1.7,0.9,1.4*3A
$GPRMC,054439.000,A,3353.7442,N,09832.0245,W,0.11,85.91,030412,,,D*47
$GPGGA,054440.000,3353.7442,N,09832.0246,W,2,08,0.9,312.5,M,-23.7,M,2.8,0000*44
$GPGSA,A,3,17,01,28,27,08,26,04,20,,,,,1.7,0.9,1.4*3A
$GPGSV,3,1,12,17,68,353,38,28,62,065,35,04,37,191,36,27,35,308,16*76
$GPGSV,3,2,12,08,29,164,35,01,20,042,25,09,18,319,,20,13,086,29*71
$GPGSV,3,3,12,26,10,235,19,02,10,205,,15,06,278,,32,03,061,*7D
$GPRMC,054440.000,A,3353.7442,N,09832.0246,W,0.27,275.13,030412,,,D*78
$GPGGA,054441.000,3353.7442,N,09832.0248,W,2,08,0.9,312.4,M,-23.7,M,0.8,0000*48
$GPGSA,A,3,17,01,28,27,08,26,04,20,,,,,1.7,0.9,1.4*3A
$GPRMC,054441.000,A,3353.7442,N,09832.0248,W,0.25,292.96,030412,,,D*71
$GPGGA,054442.000,3353.7442,N,09832.0249,W,2,08,0.9,312.4,M,-23.7,M,0.8,0000*4A
$GPGSA,A,3,17,01,28,27,08,26,04,20,,,,,1.7,0.9,1.4*3A
$GPRMC,054442.000,A,3353.7442,N,09832.0249,W,0.16,311.32,030412,,,D*77
$GPGGA,054443.000,3353.7443,N,09832.0250,W,2,08,0.9,312.2,M,-23.7,M,0.8,0000*44
$GPGSA,A,3,17,01,28,27,08,26,04,20,,,,,1.7,0.9,1.4*3A
$GPRMC,054443.000,A,3353.7443,N,09832.0250,W,0.41,288.41,030412,,,D*78
$GPGGA,054444.000,3353.7443,N,09832.0252,W,2,08,0.9,312.1,M,-23.7,M,0.8,0000*42
$GPGSA,A,3,17,01,28,27,08,26,04,20,,,,,1.7,0.9,1.4*3A
$GPRMC,054444.000,A,3353.7443,N,09832.0252,W,0.36,306.08,030412,,,D*77
$GPGGA,054445.000,3353.7443,N,09832.0252,W,2,08,0.9,312.2,M,-23.7,M,0.8,0000*40
$GPGSA,A,3,17,01,28,27,08,26,04,20,,,,,1.7,0.9,1.4*3A
$GPGSV,3,1,12,17,68,353,38,28,62,065,35,04,37,191,35,27,35,308,18*7B
$GPGSV,3,2,12,08,29,164,35,01,20,042,26,09,18,319,,20,13,086,30*7A
$GPGSV,3,3,12,26,10,235,21,02,10,205,,15,06,278,,32,03,061,*76
$GPRMC,054445.000,A,3353.7443,N,09832.0252,W,0.15,60.15,030412,,,D*48
$GPGGA,054446.000,3353.7443,N,09832.0252,W,2,08,0.9,312.3,M,-23.7,M,0.8,0000*42
$GPGSA,A,3,17,01,28,27,08,26,04,20,,,,,1.7,0.9,1.4*3A
$GPRMC,054446.000,A,3353.7443,N,09832.0252,W,0.16,103.74,030412,,,D*7B
$GPGGA,054447.000,3353.7443,N,09832.0253,W,2,08,0.9,312.2,M,-23.7,M,1.8,0000*42
$GPGSA,A,3,17,01,28,27,08,26,04,20,,,,,1.7,0.9,1.4*3A
$GPRMC,054447.000,A,3353.7443,N,09832.0253,W,0.29,299.74,030412,,,D*77
$GPGGA,054448.000,3353.7444,N,09832.0253,W,2,08,0.9,312.1,M,-23.7,M,0.8,0000*48
$GPGSA,A,3,17,01,28,27,08,26,04,20,,,,,1.7,0.9,1.4*3A
$GPRMC,054448.000,A,3353.7444,N,09832.0253,W,0.11,291.48,030412,,,D*73
$GPGGA,054449.000,3353.7444,N,09832.0253,W,2,08,0.9,312.2,M,-23.7,M,0.8,0000*4A
$GPGSA,A,3,17,01,28,27,08,26,04,20,,,,,1.7,0.9,1.4*3A
$GPRMC,054449.000,A,3353.7444,N,09832.0253,W,0.23,101.97,030412,,,D*7B
$GPGGA,054450.000,3353.7443,N,09832.0253,W,2,08,0.9,312.1,M,-23.7,M,0.8,0000*46
$GPGSA,A,3,17,01,28,27,08,26,04,20,,,,,1.7,0.9,1.4*3A
$GPGSV,3,1,12,17,68,353,38,28,62,065,35,04,37,191,35,27,35,308,19*7A
$GPGSV,3,2,12,08,29,164,36,01,20,042,26,09,18,319,,20,13,086,30*79
$GPGSV,3,3,12,26,10,235,20,02,10,205,,15,06,278,,32,03,061,*77
$GPRMC,054450.000,A,3353.7443,N,09832.0253,W,0.09,78.96,030412,,,D*42
$GPGGA,054451.000,3353.7443,N,09832.0253,W,2,08,0.9,312.5,M,-23.7,M,0.8,0000*43
$GPGSA,A,3,17,01,28,27,08,26,04,20,,,,,1.7,0.9,1.4*3A
$GPRMC,054451.000,A,3353.7443,N,09832.0253,W,0.07,65.30,030412,,,D*4D
$GPGGA,054452.000,3353.7442,N,09832.0253,W,2,08,0.9,312.7,M,-23.7,M,1.8,0000*42
$GPGSA,A,3,17,01,28,27,08,26,04,20,,,,,1.7,0.9,1.4*3A
$GPRMC,054452.000,A,3353.7442,N,09832.0253,W,0.06,156.00,030412,,,D*7C
$GPGGA,054453.000,3353.7442,N,09832.0254,W,2,08,0.9,312.7,M,-23.7,M,2.8,0000*47
$GPGSA,A,3,17,01,28,27,08,26,04,20,,,,,1.7,0.9,1.4*3A
$GPRMC,054453.000,A,3353.7442,N,09832.0254,W,0.15,229.99,030412,,,D*73
$GPGGA,054454.000,3353.7441,N,09832.0255,W,2,08,0.9,312.8,M,-23.7,M,0.8,0000*4F
$GPGSA,A,3,17,01,28,27,08,26,04,20,,,,,1.7,0.9,1.4*3A
$GPRMC,054454.000,A,3353.7441,N,09832.0255,W,0.19,249.47,030412,,,D*7F
$GPGGA,054455.000,3353.7440,N,09832.0255,W,2,08,0.9,313.1,M,-23.7,M,0.8,0000*47
$GPGSA,A,3,17,01,28,27,08,26,04,20,,,,,1.7,0.9,1.4*3A
$GPGSV,3,1,12,17,68,353,38,28,62,065,35,04,37,191,35,27,35,308,20*70
$GPGSV,3,2,12,08,29,164,36,01,20,042,27,09,18,319,,20,13,086,30*78
$GPGSV,3,3,12,26,10,235,19,02,10,205,,15,06,278,,32,03,061,*7D
$GPRMC,054455.000,A,3353.7440,N,09832.0255,W,0.09,321.80,030412,,,D*7A
$GPGGA,054456.000,3353.7440,N,09832.0255,W,2,08,0.9,313.5,M,-23.7,M,0.8,0000*40
$GPGSA,A,3,17,01,28,27,08,26,04,20,,,,,1.7,0.9,1.4*3A
$GPRMC,054456.000,A,3353.7440,N,09832.0255,W,0.34,94.97,030412,,,D*4C
$GPGGA,054457.000,3353.7439,N,09832.0253,W,2,08,0.9,314.0,M,-23.7,M,0.8,0000*4B
$GPGSA,A,3,17,01,28,27,08,26,04,20,,,,,1.7,0.9,1.4*3A
$GPRMC,054457.000,A,3353.7439,N,09832.0253,W,0.57,95.29,030412,,,D*44
$GPGGA,054458.000,3353.7439,N,09832.0253,W,2,08,0.9,314.1,M,-23.7,M,1.8,0000*44
$GPGSA,A,3,17,01,28,27,08,26,04,20,,,,,1.7,0.9,1.4*3A
$GPRMC,054458.000,A,3353.7439,N,09832.0253,W,0.03,121.95,030412,,,D*73
$GPGGA,054459.000,3353.7439,N,09832.0254,W,2,08,0.9,314.1,M,-23.7,M,0.8,0000*43
$GPGSA,A,3,17,01,28,27,08,26,04,20,,,,,1.7,0.9,1.4*3A
$GPRMC,054459.000,A,3353.7439,N,09832.0254,W,0.22,279.23,030412,,,D*75
$GPGGA,054500.000,3353.7438,N,09832.0254,W,2,08,0.9,314.2,M,-23.7,M,0.8,0000*4C
$GPGSA,A,3,17,01,28,27,08,26,04,20,,,,,1.7,0.9,1.4*3A
$GPGSV,3,1,12,17,68,353,38,28,62,065,35,04,37,191,35,27,35,308,20*70
$GPGSV,3,2,12,08,29,164,36,01,20,042,29,09,18,319,,20,13,086,30*76
$GPGSV,3,3,12,26,10,235,19,02,10,205,20,15,06,278,,32,03,061,*7F
$GPRMC,054500.000,A,3353.7438,N,09832.0254,W,0.10,136.89,030412,,,D*70
$GPGGA,054501.000,3353.7438,N,09832.0255,W,2,08,0.9,314.2,M,-23.7,M,0.8,0000*4C
$GPGSA,A,3,17,01,28,27,08,26,04,20,,,,,1.7,0.9,1.4*3A
$GPRMC,054501.000,A,3353.7438,N,09832.0255,W,0.10,179.46,030412,,,D*78
$GPGGA,054502.000,3353.7437,N,09832.0255,W,2,08,0.9,314.4,M,-23.7,M,0.8,0000*46
$GPGSA,A,3,17,01,28,27,08,26,04,20,,,,,1.7,0.9,1.4*3A
$GPRMC,054502.000,A,3353.7437,N,09832.0255,W,0.19,128.70,030412,,,D*7C
$GPGGA,054503.000,3353.7437,N,09832.0255,W,2,08,0.9,314.4,M,-23.7,M,1.8,0000*46
$GPGSA,A,3,17,01,28,27,08,26,04,20,,,,,1.7,0.9,1.4*3A
$GPRMC,054503.000,A,3353.7437,N,09832.0255,W,0.13,201.64,030412,,,D*7A
$GPGGA,054504.000,3353.7436,N,09832.0256,W,2,08,0.9,314.4,M,-23.7,M,2.8,0000*40
$GPGSA,A,3,17,01,28,27,08,26,04,20,,,,,1.7,0.9,1.4*3A
$GPRMC,054504.000,A,3353.7436,N,09832.0256,W,0.16,266.82,030412,,,D*73
$GPGGA,054505.000,3353.7436,N,09832.0256,W,2,08,0.9,314.5,M,-23.7,M,3.8,0000*41
$GPGSA,A,3,17,01,28,27,08,26,04,20,,,,,1.7,0.9,1.4*3A
$GPGSV,3,1,12,17,68,353,38,28,62,065,35,04,37,191,35,27,35,308,20*70
$GPGSV,3,2,12,08,29,164,36,01,20,042,30,09,18,319,,20,13,086,31*7F
$GPGSV,3,3,12,26,10,235,19,02,10,205,21,15,06,278,,32,03,061,*7E
$GPRMC,054505.000,A,3353.7436,N,09832.0256,W,0.02,161.25,030412,,,D*7E
$GPGGA,054506.000,3353.7436,N,09832.0257,W,2,08,0.9,314.6,M,-23.7,M,0.8,0000*43
$GPGSA,A,3,17,01,28,27,08,26,04,20,,,,,1.7,0.9,1.4*3A
$GPRMC,054506.000,A,3353.7436,N,09832.0257,W,0.19,277.40,030412,,,D*71
$GPGGA,054507.000,3353.7436,N,09832.0259,W,2,08,0.9,314.4,M,-23.7,M,0.8,0000*4E
$GPGSA,A,3,17,01,28,27,08,26,04,20,,,,,1.7,0.9,1.4*3A
$GPRMC,054507.000,A,3353.7436,N,09832.0259,W,0.45,273.85,030412,,,D*7A
$GPGGA,054508.000,3353.7436,N,09832.0261,W,2,08,0.9,314.1,M,-23.7,M,0.8,0000*4F
$GPGSA,A,3,17,01,28,27,08,26,04,20,,,,,1.7,0.9,1.4*3A
$GPRMC,054508.000,A,3353.7436,N,09832.0261,W,0.58,283.72,030412,,,D*75
$GPGGA,054509.000,3353.7436,N,09832.0262,W,2,08,0.9,314.2,M,-23.7,M,1.8,0000*4F
$GPGSA,A,3,17,01,28,27,08,26,04,20,,,,,1.7,0.9,1.4*3A
$GPRMC,054509.000,A,3353.7436,N,09832.0262,W,0.18,318.01,030412,,,D*74
$GPGGA,054510.000,3353.7436,N,09832.0262,W,2,08,0.9,314.2,M,-23.7,M,2.8,0000*44
$GPGSA,A,3,17,01,28,27,08,26,04,20,,,,,1.7,0.9,1.4*3A
$GPGSV,3,1,12,17,68,353,39,28,62,065,35,04,37,191,35,27,35,308,19*7B
$GPGSV,3,2,12,08,29,164,36,01,20,042,30,09,18,319,,20,13,086,31*7F
$GPGSV,3,3,12,26,10,235,18,02,10,205,21,15,06,278,,32,03,061,*7F
$GPRMC,054510.000,A,3353.7436,N,09832.0262,W,0.19,344.72,030412,,,D*70
$GPGGA,054511.000,3353.7436,N,09832.0262,W,2,08,0.9,314.4,M,-23.7,M,3.8,0000*42
$GPGSA,A,3,17,01,28,27,08,26,04,20,,,,,1.7,0.9,1.4*3A
$GPRMC,054511.000,A,3353.7436,N,09832.0262,W,0.14,35.97,030412,,,D*42
$GPGGA,054512.000,3353.7436,N,09832.0261,W,2,08,0.9,314.4,M,-23.7,M,0.8,0000*41
$GPGSA,A,3,17,01,28,27,08,26,04,20,,,,,1.7,0.9,1.4*3A
$GPRMC,054512.000,A,3353.7436,N,09832.0261,W,0.17,48.82,030412,,,D*4F
$GPGGA,054513.000,3353.7436,N,09832.0261,W,2,08,0.9,314.6,M,-23.7,M,0.8,0000*42
$GPGSA,A,3,17,01,28,27,08,26,04,20,,,,,1.7,0.9,1.4*3A
$GPRMC,054513.000,A,3353.7436,N,09832.0261,W,0.31,93.57,030412,,,D*44
$GPGGA,054514.000,3353.7436,N,09832.0260,W,2,08,0.9,314.8,M,-23.7,M,0.8,0000*4A
$GPGSA,A,3,17,01,28,27,08,26,04,20,,,,,1.7,0.9,1.4*3A
$GPRMC,054514.000,A,3353.7436,N,09832.0260,W,0.17,87.62,030412,,,D*45
$GPGGA,054515.000,3353.7435,N,09832.0259,W,2,08,0.9,314.9,M,-23.7,M,1.8,0000*42
$GPGSA,A,3,17,01,28,27,08,26,04,20,,,,,1.7,0.9,1.4*3A
$GPGSV,3,1,12,17,68,353,39,28,62,065,35,04,37,191,35,27,35,308,21*70
$GPGSV,3,2,12,08,29,164,36,01,20,042,30,09,18,319,,20,13,086,31*7F
$GPGSV,3,3,12,26,10,235,17,02,10,205,21,15,06,278,,32,03,061,*70
$GPRMC,054515.000,A,3353.7435,N,09832.0259,W,0.17,88.04,030412,,,D*42
$GPGGA,054516.000,3353.7435,N,09832.0259,W,2,08,0.9,315.1,M,-23.7,M,0.8,0000*49
$GPGSA,A,3,17,01,28,27,08,26,04,20,,,,,1.7,0.9,1.4*3A
$GPRMC,054516.000,A,3353.7435,N,09832.0259,W,0.32,99.38,030412,,,D*49
$GPGGA,054517.000,3353.7434,N,09832.0257,W,2,08,0.9,315.4,M,-23.7,M,0.8,0000*42
$GPGSA,A,3,17,01,28,27,08,26,04,20,,,,,1.7,0.9,1.4*3A
$GPRMC,054517.000,A,3353.7434,N,09832.0257,W,0.55,105.07,030412,,,D*7E
$GPGGA,054518.000,3353.7434,N,09832.0256,W,2,08,0.9,315.7,M,-23.7,M,0.8,0000*4F
$GPGSA,A,3,17,01,28,27,08,26,04,20,,,,,1.7,0.9,1.4*3A
$GPRMC,054518.000,A,3353.7434,N,09832.0256,W,0.42,95.74,030412,,,D*4A
$GPGGA,054519.000,3353.7433,N,09832.0255,W,2,08,0.9,315.9,M,-23.7,M,0.8,0000*44
$GPGSA,A,3,17,01,28,27,08,26,04,20,,,,,1.7,0.9,1.4*3A
$GPRMC,054519.000,A,3353.7433,N,09832.0255,W,0.28,91.32,030412,,,D*45
$GPGGA,054520.000,3353.7433,N,09832.0255,W,2,08,0.9,316.0,M,-23.7,M,0.8,0000*44
$GPGSA,A,3,17,01,28,27,08,26,04,20,,,,,1.7,0.9,1.4*3A
$GPGSV,3,1,12,17,68,353,39,28,62,065,35,04,37,191,35,27,35,308,21*70
$GPGSV,3,2,12,08,29,164,36,01,20,042,30,09,18,319,,20,13,086,31*7F
$GPGSV,3,3,12,26,10,235,15,02,10,205,12,15,06,278,,32,03,061,*72
$GPRMC,054520.000,A,3353.7433,N,09832.0255,W,0.05,56.03,030412,,,D*49
$GPGGA,054521.000,3353.7434,N,09832.0256,W,2,08,0.9,315.9,M,-23.7,M,1.8,0000*4A
$GPGSA,A,3,17,01,28,27,08,26,04,20,,,,,1.7,0.9,1.4*3A
$GPRMC,054521.000,A,3353.7434,N,09832.0256,W,0.03,218.78,030412,,,D*7E
$GPGGA,054522.000,3353.7434,N,09832.0257,W,2,08,0.9,315.9,M,-23.7,M,2.8,0000*4B
$GPGSA,A,3,17,01,28,27,08,26,04,20,,,,,1.7,0.9,1.4*3A
$GPRMC,054522.000,A,3353.7434,N,09832.0257,W,0.13,264.75,030412,,,D*7B
$GPGGA,054523.000,3353.7434,N,09832.0257,W,2,08,0.9,315.8,M,-23.7,M,3.8,0000*4A
$GPGSA,A,3,17,01,28,27,08,26,04,20,,,,,1.7,0.9,1.4*3A
$GPRMC,054523.000,A,3353.7434,N,09832.0257,W,0.06,222.61,030412,,,D*79
$GPGGA,054524.000,3353.7433,N,09832.0257,W,2,07,1.1,315.8,M,-23.7,M,0.8,0000*4F
$GPGSA,A,3,17,01,28,27,08,04,20,,,,,,2.1,1.1,1.8*3E
$GPRMC,054524.000,A,3353.7433,N,09832.0257,W,0.16,104.72,030412,,,D*7D
$GPGGA,054525.000,3353.7433,N,09832.0258,W,2,07,1.1,315.7,M,-23.7,M,0.8,0000*4E
$GPGSA,A,3,17,01,28,27,08,04,20,,,,,,2.1,1.1,1.8*3E
$GPGSV,3,1,12,17,68,353,39,28,62,065,34,04,37,191,35,27,35,308,23*73
$GPGSV,3,2,12,08,29,164,36,01,20,042,30,09,18,319,,20,13,086,31*7F
$GPGSV,3,3,12,26,10,235,,02,10,205,15,15,06,278,,32,03,061,*71
$GPRMC,054525.000,A,3353.7433,N,09832.0258,W,0.02,83.21,030412,,,D*4E
$GPGGA,054526.000,3353.7433,N,09832.0258,W,2,07,1.1,315.6,M,-23.7,M,0.8,0000*4C
$GPGSA,A,3,17,01,28,27,08,04,20,,,,,,2.1,1.1,1.8*3E
$GPRMC,054526.000,A,3353.7433,N,09832.0258,W,0.04,242.44,030412,,,D*77
$GPGGA,054527.000,3353.7433,N,09832.0258,W,2,07,1.1,315.6,M,-23.7,M,1.8,0000*4C
$GPGSA,A,3,17,01,28,27,08,04,20,,,,,,2.1,1.1,1.8*3E
$GPRMC,054527.000,A,3353.7433,N,09832.0258,W,0.11,146.46,030412,,,D*77
$GPGGA,054528.000,3353.7433,N,09832.0258,W,2,07,1.1,315.7,M,-23.7,M,2.8,0000*41
$GPGSA,A,3,17,01,28,27,08,04,20,,,,,,2.1,1.1,1.8*3E
$GPRMC,054528.000,A,3353.7433,N,09832.0258,W,0.20,120.07,030412,,,D*7F
$GPGGA,054529.000,3353.7432,N,09832.0257,W,2,07,1.1,315.7,M,-23.7,M,3.8,0000*4F
$GPGSA,A,3,17,01,28,27,08,04,20,,,,,,2.1,1.1,1.8*3E
$GPRMC,054529.000,A,3353.7432,N,09832.0257,W,0.23,121.57,030412,,,D*77
$GPGGA,054530.000,3353.7432,N,09832.0258,W,2,07,1.1,315.6,M,-23.7,M,4.8,0000*4E
$GPGSA,A,3,17,01,28,27,08,04,20,,,,,,2.1,1.1,1.8*3E
$GPGSV,3,1,12,17,68,353,39,28,62,065,34,04,37,191,35,27,35,308,24*74
$GPGSV,3,2,12,08,29,164,37,01,20,042,30,09,18,319,,20,13,086,31*7E
$GPGSV,3,3,12,26,10,235,,02,10,205,17,15,06,278,,32,03,061,*73
$GPRMC,054530.000,A,3353.7432,N,09832.0258,W,0.06,151.96,030412,,,D*7D
$GPGGA,054531.000,3353.7432,N,09832.0257,W,2,07,1.1,315.7,M,-23.7,M,5.8,0000*40
$GPGSA,A,3,17,01,28,27,08,04,20,,,,,,2.1,1.1,1.8*3E
$GPRMC,054531.000,A,3353.7432,N,09832.0257,W,0.20,119.60,030412,,,D*72
$GPGGA,054532.000,3353.7431,N,09832.0257,W,2,07,1.1,315.8,M,-23.7,M,6.8,0000*4C
$GPGSA,A,3,17,01,28,27,08,04,20,,,,,,2.1,1.1,1.8*3E
$GPRMC,054532.000,A,3353.7431,N,09832.0257,W,0.26,120.93,030412,,,D*72
$GPGGA,054533.000,3353.7431,N,09832.0257,W,2,07,1.1,315.7,M,-23.7,M,0.8,0000*44
$GPGSA,A,3,17,01,28,27,08,04,20,,,,,,2.1,1.1,1.8*3E
$GPRMC,054533.000,A,3353.7431,N,09832.0257,W,0.09,138.83,030412,,,D*76
$GPGGA,054534.000,3353.7431,N,09832.0257,W,2,07,1.1,315.7,M,-23.7,M,0.8,0000*43
$GPGSA,A,3,17,01,28,27,08,04,20,,,,,,2.1,1.1,1.8*3E
$GPRMC,054534.000,A,3353.7431,N,09832.0257,W,0.09,132.28,030412,,,D*7A
$GPGGA,054535.000,3353.7431,N,09832.0257,W,2,07,1.1,315.6,M,-23.7,M,1.8,0000*42
$GPGSA,A,3,17,01,28,27,08,04,20,,,,,,2.1,1.1,1.8*3E
$GPGSV,3,1,12,17,68,353,39,28,62,065,34,04,37,191,35,27,35,308,24*74
$GPGSV,3,2,12,08,29,164,37,01,20,042,31,09,18,319,,20,13,086,31*7F
$GPGSV,3,3,12,26,10,235,,02,10,205,17,15,06,278,,32,03,061,*73
$GPRMC,054535.000,A,3353.7431,N,09832.0257,W,0.11,136.43,030412,,,D*7B
$GPGGA,054536.000,3353.7431,N,09832.0258,W,2,08,0.9,315.6,M,-23.7,M,0.8,0000*49
$GPGSA,A,3,17,01,28,27,08,26,04,20,,,,,1.7,0.9,1.4*3A
$GPRMC,054536.000,A,3353.7431,N,09832.0258,W,0.01,298.87,030412,,,D*79
$GPGGA,054537.000,3353.7431,N,09832.0258,W,2,08,0.9,315.6,M,-23.7,M,0.8,0000*48
$GPGSA,A,3,17,01,28,27,08,26,04,20,,,,,1.7,0.9,1.4*3A
$GPRMC,054537.000,A,3353.7431,N,09832.0258,W,0.10,116.26,030412,,,D*76
$GPGGA,054538.000,3353.7431,N,09832.0257,W,2,08,0.9,315.7,M,-23.7,M,0.8,0000*49
$GPGSA,A,3,17,01,28,27,08,26,04,20,,,,,1.7,0.9,1.4*3A
$GPRMC,054538.000,A,3353.7431,N,09832.0257,W,0.16,86.83,030412,,,D*47
$GPGGA,054539.000,3353.7431,N,09832.0257,W,2,08,0.9,315.8,M,-23.7,M,0.8,0000*47
$GPGSA,A,3,17,01,28,27,08,26,04,20,,,,,1.7,0.9,1.4*3A
$GPRMC,054539.000,A,3353.7431,N,09832.0257,W,0.20,92.63,030412,,,D*48
$GPGGA,054540.000,3353.7431,N,09832.0256,W,2,08,0.9,315.9,M,-23.7,M,1.8,0000*48
$GPGSA,A,3,17,01,28,27,08,26,04,20,,,,,1.7,0.9,1.4*3A
$GPGSV,3,1,12,17,68,353,39,28,62,065,33,04,37,191,35,27,35,308,25*72
$GPGSV,3,2,12,08,29,164,37,01,20,042,31,09,18,319,,20,13,086,31*7F
$GPGSV,3,3,12,26,10,235,17,02,10,205,18,15,06,278,13,32,03,061,*78
$GPRMC,054540.000,A,3353.7431,N,09832.0256,W,0.18,87.10,030412,,,D*4C
$GPGGA,054541.000,3353.7431,N,09832.0256,W,2,08,0.9,316.0,M,-23.7,M,2.8,0000*40
$GPGSA,A,3,17,01,28,27,08,26,04,20,,,,,1.7,0.9,1.4*3A
$GPRMC,054541.000,A,3353.7431,N,09832.0256,W,0.24,88.08,030412,,,D*44
$GPGGA,054542.000,3353.7431,N,09832.0255,W,2,08,0.9,316.2,M,-23.7,M,0.8,0000*40
$GPGSA,A,3,17,01,28,27,08,26,04,20,,,,,1.7,0.9,1.4*3A
$GPRMC,054542.000,A,3353.7431,N,09832.0255,W,0.25,86.96,030412,,,D*4C
$GPGGA,054543.000,3353.7431,N,09832.0255,W,2,08,0.9,316.4,M,-23.7,M,0.8,0000*47
$GPGSA,A,3,17,01,28,27,08,26,04,20,,,,,1.7,0.9,1.4*3A
$GPRMC,054543.000,A,3353.7431,N,09832.0255,W,0.27,84.36,030412,,,D*47
$GPGGA,054544.000,3353.7431,N,09832.0254,W,2,08,0.9,316.6,M,-23.7,M,0.8,0000*43
$GPGSA,A,3,17,01,28,27,08,26,04,20,,,,,1.7,0.9,1.4*3A
$GPRMC,054544.000,A,3353.7431,N,09832.0254,W,0.22,81.79,030412,,,D*4A
$GPGGA,054545.000,3353.7431,N,09832.0254,W,2,08,0.9,316.5,M,-23.7,M,1.8,0000*40
$GPGSA,A,3,17,01,28,27,08,26,04,20,,,,,1.7,0.9,1.4*3A
$GPGSV,3,1,12,17,68,353,40,28,62,065,33,04,37,191,35,27,35,308,25*7C
$GPGSV,3,2,12,08,29,164,37,01,20,042,31,09,18,319,,20,13,086,31*7F
$GPGSV,3,3,12,26,10,235,16,02,10,205,17,15,06,278,13,32,03,061,*76
$GPRMC,054545.000,A,3353.7431,N,09832.0254,W,0.04,165.99,030412,,,D*7A
$GPGGA,054546.000,3353.7431,N,09832.0255,W,2,08,0.9,316.5,M,-23.7,M,2.8,0000*41
$GPGSA,A,3,17,01,28,27,08,26,04,20,,,,,1.7,0.9,1.4*3A
$GPRMC,054546.000,A,3353.7431,N,09832.0255,W,0.07,147.22,030412,,,D*7B
$GPGGA,054547.000,3353.7432,N,09832.0256,W,2,08,0.9,316.4,M,-23.7,M,3.8,0000*40
$GPGSA,A,3,17,01,28,27,08,26,04,20,,,,,1.7,0.9,1.4*3A
$GPRMC,054547.000,A,3353.7432,N,09832.0256,W,0.17,289.34,030412,,,D*7D
$GPGGA,054548.000,3353.7432,N,09832.0256,W,2,08,0.9,316.3,M,-23.7,M,0.8,0000*4B
$GPGSA,A,3,17,01,28,27,08,26,04,20,,,,,1.7,0.9,1.4*3A
$GPRMC,054548.000,A,3353.7432,N,09832.0256,W,0.05,129.20,030412,,,D*7D
$GPGGA,054549.000,3353.7432,N,09832.0256,W,2,08,0.9,316.3,M,-23.7,M,0.8,0000*4A
$GPGSA,A,3,17,01,28,27,08,26,04,20,,,,,1.7,0.9,1.4*3A
$GPRMC,054549.000,A,3353.7432,N,09832.0256,W,0.22,114.57,030412,,,D*77
$GPGGA,054550.000,3353.7432,N,09832.0256,W,2,08,0.9,316.2,M,-23.7,M,0.8,0000*43
$GPGSA,A,3,17,01,28,27,08,26,04,20,,,,,1.7,0.9,1.4*3A
$GPGSV,3,1,12,17,67,356,40,28,61,068,33,04,39,191,35,27,35,307,24*78
$GPGSV,3,2,12,08,28,165,37,09,19,318,,01,19,042,31,20,14,085,30*70
$GPGSV,3,3,12,02,11,205,18,26,10,234,15,15,05,277,,32,03,060,*75
$GPRMC,054550.000,A,3353.7432,N,09832.0256,W,0.21,137.05,030412,,,D*7A
$GPGGA,054551.000,3353.7431,N,09832.0256,W,2,08,0.9,316.1,M,-23.7,M,1.8,0000*43
$GPGSA,A,3,17,01,28,27,08,26,04,20,,,,,1.7,0.9,1.4*3A
$GPRMC,054551.000,A,3353.7431,N,09832.0256,W,0.08,153.03,030412,,,D*77
$GPGGA,054552.000,3353.7431,N,09832.0256,W,2,08,0.9,316.1,M,-23.7,M,2.8,0000*43
$GPGSA,A,3,17,01,28,27,08,26,04,20,,,,,1.7,0.9,1.4*3A
$GPRMC,054552.000,A,3353.7431,N,09832.0256,W,0.08,80.84,030412,,,D*44
$GPGGA,054553.000,3353.7431,N,09832.0256,W,2,08,0.9,316.1,M,-23.7,M,0.8,0000*40
$GPGSA,A,3,17,01,28,27,08,26,04,20,,,,,1.7,0.9,1.4*3A
$GPRMC,054553.000,A,3353.7431,N,09832.0256,W,0.24,98.96,030412,,,D*41
$GPGGA,054554.000,3353.7431,N,09832.0256,W,2,08,0.9,316.2,M,-23.7,M,0.8,0000*44
$GPGSA,A,3,17,01,28,27,08,26,04,20,,,,,1.7,0.9,1.4*3A
$GPRMC,054554.000,A,3353.7431,N,09832.0256,W,0.10,75.31,030412,,,D*4F
$GPGGA,054555.000,3353.7431,N,09832.0256,W,2,08,0.9,316.3,M,-23.7,M,0.8,0000*44
$GPGSA,A,3,17,01,28,27,08,26,04,20,,,,,1.7,0.9,1.4*3A
$GPGSV,3,1,12,17,67,356,40,28,61,068,33,04,39,191,35,27,35,307,23*7F
$GPGSV,3,2,12,08,28,165,37,09,19,318,,01,19,042,32,20,14,085,30*73
$GPGSV,3,3,12,02,11,205,20,26,10,234,16,15,05,277,,32,03,060,*7D
$GPRMC,054555.000,A,3353.7431,N,09832.0256,W,0.24,102.51,030412,,,D*7E
$GPGGA,054556.000,3353.7431,N,09832.0255,W,2,08,0.9,316.4,M,-23.7,M,0.8,0000*43
$GPGSA,A,3,17,01,28,27,08,26,04,20,,,,,1.7,0.9,1.4*3A
$GPRMC,054556.000,A,3353.7431,N,09832.0255,W,0.14,63.45,030412,,,D*4E
$GPGGA,054557.000,3353.7432,N,09832.0255,W,2,08,0.9,316.4,M,-23.7,M,1.8,0000*40
$GPGSA,A,3,17,01,28,27,08,26,04,20,,,,,1.7,0.9,1.4*3A
$GPRMC,054557.000,A,3353.7432,N,09832.0255,W,0.13,42.70,030412,,,D*4E
$GPGGA,054558.000,3353.7432,N,09832.0256,W,2,08,0.9,316.4,M,-23.7,M,2.8,0000*4F
$GPGSA,A,3,17,01,28,27,08,26,04,20,,,,,1.7,0.9,1.4*3A
$GPRMC,054558.000,A,3353.7432,N,09832.0256,W,0.05,62.11,030412,,,D*40
$GPGGA,054559.000,3353.7432,N,09832.0256,W,2,08,0.9,316.4,M,-23.7,M,3.8,0000*4F
$GPGSA,A,3,17,01,28,27,08,26,04,20,,,,,1.7,0.9,1.4*3A
$GPRMC,054559.000,A,3353.7432,N,09832.0256,W,0.03,142.75,030412,,,D*76
$GPGGA,054600.000,3353.7433,N,09832.0257,W,2,08,0.9,316.2,M,-23.7,M,0.8,0000*45
$GPGSA,A,3,17,01,28,27,08,26,04,20,,,,,1.7,0.9,1.4*3A
$GPGSV,3,1,12,17,67,356,40,28,61,068,33,04,39,191,36,27,35,307,18*74
$GPGSV,3,2,12,08,28,165,37,09,19,318,,01,19,042,32,20,14,085,30*73
$GPGSV,3,3,12,02,11,205,20,26,10,234,17,15,05,277,,32,03,060,*7C
$GPRMC,054600.000,A,3353.7433,N,09832.0257,W,0.16,283.94,030412,,,D*7C
$GPGGA,054601.000,3353.7433,N,09832.0258,W,2,08,0.9,315.9,M,-23.7,M,0.8,0000*43
$GPGSA,A,3,17,01,28,27,08,26,04,20,,,,,1.7,0.9,1.4*3A
$GPRMC,054601.000,A,3353.7433,N,09832.0258,W,0.22,287.96,030412,,,D*73
$GPGGA,054602.000,3353.7433,N,09832.0258,W,2,08,0.9,315.9,M,-23.7,M,0.8,0000*40
$GPGSA,A,3,17,01,28,27,08,26,04,20,,,,,1.7,0.9,1.4*3A
$GPRMC,054602.000,A,3353.7433,N,09832.0258,W,0.11,71.44,030412,,,D*44
$GPGGA,054603.000,3353.7433,N,09832.0258,W,2,08,0.9,316.0,M,-23.7,M,0.8,0000*4B
$GPGSA,A,3,17,01,28,27,08,26,04,20,,,,,1.7,0.9,1.4*3A
$GPRMC,054603.000,A,3353.7433,N,09832.0258,W,0.32,102.55,030412,,,D*71
$GPGGA,054604.000,3353.7433,N,09832.0257,W,2,08,0.9,316.0,M,-23.7,M,1.8,0000*42
$GPGSA,A,3,17,01,28,27,08,26,04,20,,,,,1.7,0.9,1.4*3A
$GPRMC,054604.000,A,3353.7433,N,09832.0257,W,0.17,124.80,030412,,,D*72
$GPGGA,054605.000,3353.7433,N,09832.0258,W,2,08,0.9,315.9,M,-23.7,M,2.8,0000*45
$GPGSA,A,3,17,01,28,27,08,26,04,20,,,,,1.7,0.9,1.4*3A
$GPGSV,3,1,12,17,67,356,40,28,61,068,33,04,39,191,36,27,35,307,19*75
$GPGSV,3,2,12,08,28,165,37,09,19,318,,01,19,042,32,20,14,085,29*7B
$GPGSV,3,3,12,02,11,205,21,26,10,234,16,15,05,277,,32,03,060,*7C
$GPRMC,054605.000,A,3353.7433,N,09832.0258,W,0.17,279.61,030412,,,D*78
$GPGGA,054606.000,3353.7433,N,09832.0258,W,2,07,1.1,315.8,M,-23.7,M,0.8,0000*43
$GPGSA,A,3,17,01,28,27,08,04,20,,,,,,2.1,1.1,1.8*3E
$GPRMC,054606.000,A,3353.7433,N,09832.0258,W,0.01,285.87,030412,,,D*77
$GPGGA,054607.000,3353.7433,N,09832.0259,W,2,07,1.1,315.7,M,-23.7,M,0.8,0000*4C
$GPGSA,A,3,17,01,28,27,08,04,20,,,,,,2.1,1.1,1.8*3E
$GPRMC,054607.000,A,3353.7433,N,09832.0259,W,0.20,293.98,030412,,,D*7D
$GPGGA,054608.000,3353.7433,N,09832.0259,W,2,07,1.1,315.8,M,-23.7,M,0.8,0000*4C
$GPGSA,A,3,17,01,28,27,08,04,20,,,,,,2.1,1.1,1.8*3E
$GPRMC,054608.000,A,3353.7433,N,09832.0259,W,0.16,115.39,030412,,,D*71
$GPGGA,054609.000,3353.7433,N,09832.0258,W,2,07,1.1,315.9,M,-23.7,M,1.8,0000*4C
$GPGSA,A,3,17,01,28,27,08,04,20,,,,,,2.1,1.1,1.8*3E
$GPRMC,054609.000,A,3353.7433,N,09832.0258,W,0.26,110.66,030412,,,D*7D
$GPGGA,054610.000,3353.7432,N,09832.0257,W,2,07,1.1,316.0,M,-23.7,M,0.8,0000*41
$GPGSA,A,3,17,01,28,27,08,04,20,,,,,,2.1,1.1,1.8*3E
$GPGSV,3,1,12,17,67,356,40,28,61,069,33,04,39,191,36,27,36,307,19*77
$GPGSV,3,2,12,08,27,165,37,09,19,318,,01,18,041,33,20,14,085,29*77
$GPGSV,3,3,12,02,11,205,20,26,09,234,,15,05,277,,32,04,060,*75
$GPRMC,054610.000,A,3353.7432,N,09832.0257,W,0.35,110.66,030412,,,D*79
$GPGGA,054611.000,3353.7432,N,09832.0257,W,2,07,1.1,315.9,M,-23.7,M,0.8,0000*4A
$GPGSA,A,3,17,01,28,27,08,04,20,,,,,,2.1,1.1,1.8*3E
$GPRMC,054611.000,A,3353.7432,N,09832.0257,W,0.03,101.26,030412,,,D*79
$GPGGA,054612.000,3353.7432,N,09832.0258,W,2,07,1.1,315.9,M,-23.7,M,0.8,0000*46
$GPGSA,A,3,17,01,28,27,08,04,20,,,,,,2.1,1.1,1.8*3E
$GPRMC,054612.000,A,3353.7432,N,09832.0258,W,0.11,304.95,030412,,,D*79
$GPGGA,054613.000,3353.7433,N,09832.0259,W,2,07,1.1,315.6,M,-23.7,M,0.8,0000*48
$GPGSA,A,3,17,01,28,27,08,04,20,,,,,,2.1,1.1,1.8*3E
$GPRMC,054613.000,A,3353.7433,N,09832.0259,W,0.23,296.38,030412,,,D*74
$GPGGA,054614.000,3353.7433,N,09832.0259,W,2,07,1.1,315.7,M,-23.7,M,0.8,0000*4E
$GPGSA,A,3,17,01,28,27,08,04,20,,,,,,2.1,1.1,1.8*3E
$GPRMC,054614.000,A,3353.7433,N,09832.0259,W,0.06,106.07,030412,,,D*72
$GPGGA,054615.000,3353.7433,N,09832.0259,W,2,07,1.1,315.8,M,-23.7,M,1.8,0000*41
$GPGSA,A,3,17,01,28,27,08,04,20,,,,,,2.1,1.1,1.8*3E
$GPGSV,3,1,12,17,67,356,40,28,61,069,33,04,39,191,36,27,36,307,19*77
$GPGSV,3,2,12,08,27,165,36,09,19,318,,01,18,041,33,20,14,085,28*77
$GPGSV,3,3,12,02,11,205,20,26,09,234,,15,05,277,,32,04,060,*75
$GPRMC,054615.000,A,3353.7433,N,09832.0259,W,0.05,101.69,030412,,,D*7F
$GPGGA,054616.000,3353.7433,N,09832.0260,W,2,07,1.1,315.6,M,-23.7,M,2.8,0000*45
$GPGSA,A,3,17,01,28,27,08,04,20,,,,,,2.1,1.1,1.8*3E
$GPRMC,054616.000,A,3353.7433,N,09832.0260,W,0.15,285.38,030412,,,D*7C
$GPGGA,054617.000,3353.7433,N,09832.0261,W,2,07,1.1,315.7,M,-23.7,M,3.8,0000*45
$GPGSA,A,3,17,01,28,27,08,04,20,,,,,,2.1,1.1,1.8*3E
$GPRMC,054617.000,A,3353.7433,N,09832.0261,W,0.01,20.58,030412,,,D*42
$GPGGA,054618.000,3353.7433,N,09832.0261,W,2,07,1.1,315.7,M,-23.7,M,0.8,0000*49
$GPGSA,A,3,17,01,28,27,08,04,20,,,,,,2.1,1.1,1.8*3E
$GPRMC,054618.000,A,3353.7433,N,09832.0261,W,0.09,124.13,030412,,,D*7F
$GPGGA,054619.000,3353.7433,N,09832.0261,W,2,07,1.1,315.6,M,-23.7,M,0.8,0000*49
$GPGSA,A,3,17,01,28,27,08,04,20,,,,,,2.1,1.1,1.8*3E
$GPRMC,054619.000,A,3353.7433,N,09832.0261,W,0.04,217.77,030412,,,D*72
$GPGGA,054620.000,3353.7433,N,09832.0261,W,2,07,1.1,315.5,M,-23.7,M,0.8,0000*40
$GPGSA,A,3,17,01,28,27,08,04,20,,,,,,2.1,1.1,1.8*3E
$GPGSV,3,1,12,17,67,356,40,28,61,069,33,04,39,191,36,27,36,307,19*77
$GPGSV,3,2,12,08,27,165,36,09,19,318,,01,18,041,33,20,14,085,28*77
$GPGSV,3,3,12,02,11,205,20,26,09,234,,15,05,277,,32,04,060,*75
$GPRMC,054620.000,A,3353.7433,N,09832.0261,W,0.07,315.41,030412,,,D*7D
$GPGGA,054621.000,3353.7433,N,09832.0261,W,2,07,1.1,315.7,M,-23.7,M,0.8,0000*43
$GPGSA,A,3,17,01,28,27,08,04,20,,,,,,2.1,1.1,1.8*3E
$GPRMC,054621.000,A,3353.7433,N,09832.0261,W,0.19,88.10,030412,,,D*40
$GPGGA,054622.000,3353.7433,N,09832.0260,W,2,07,1.1,315.8,M,-23.7,M,1.8,0000*4F
$GPGSA,A,3,17,01,28,27,08,04,20,,,,,,2.1,1.1,1.8*3E
$GPRMC,054622.000,A,3353.7433,N,09832.0260,W,0.26,90.20,030412,,,D*44
$GPGGA,054623.000,3353.7433,N,09832.0260,W,2,07,1.1,315.7,M,-23.7,M,2.8,0000*42
$GPGSA,A,3,17,01,28,27,08,04,20,,,,,,2.1,1.1,1.8*3E
$GPRMC,054623.000,A,3353.7433,N,09832.0260,W,0.02,29.23,030412,,,D*42
$GPGGA,054624.000,3353.7433,N,09832.0260,W,2,07,1.1,315.6,M,-23.7,M,0.8,0000*46
$GPGSA,A,3,17,01,28,27,08,04,20,,,,,,2.1,1.1,1.8*3E
$GPRMC,054624.000,A,3353.7433,N,09832.0260,W,0.12,329.94,030412,,,D*7B
$GPGGA,054625.000,3353.7434,N,09832.0261,W,2,07,1.1,315.4,M,-23.7,M,0.8,0000*43
$GPGSA,A,3,17,01,28,27,08,04,20,,,,,,2.1,1.1,1.8*3E
$GPGSV,3,1,12,17,67,356,40,28,61,069,33,04,39,191,36,27,36,307,18*76
$GPGSV,3,2,12,08,27,165,36,09,19,318,,01,18,041,33,20,14,085,27*78
$GPGSV,3,3,12,02,11,205,20,26,09,234,,15,05,277,17,32,04,060,*73
$GPRMC,054625.000,A,3353.7434,N,09832.0261,W,0.19,307.82,030412,,,D*7C
$GPGGA,054626.000,3353.7434,N,09832.0261,W,2,07,1.1,315.5,M,-23.7,M,0.8,0000*41
$GPGSA,A,3,17,01,28,27,08,04,20,,,,,,2.1,1.1,1.8*3E
$GPRMC,054626.000,A,3353.7434,N,09832.0261,W,0.07,88.73,030412,,,D*4A
$GPGGA,054627.000,3353.7434,N,09832.0262,W,2,07,1.1,315.3,M,-23.7,M,0.8,0000*45
$GPGSA,A,3,17,01,28,27,08,04,20,,,,,,2.1,1.1,1.8*3E
$GPRMC,054627.000,A,3353.7434,N,09832.0262,W,0.20,289.76,030412,,,D*7B
$GPGGA,054628.000,3353.7434,N,09832.0263,W,2,07,1.1,315.0,M,-23.7,M,1.8,0000*49
$GPGSA,A,3,17,01,28,27,08,04,20,,,,,,2.1,1.1,1.8*3E
$GPRMC,054628.000,A,3353.7434,N,09832.0263,W,0.28,286.57,030412,,,D*71
$GPGGA,054629.000,3353.7434,N,09832.0262,W,2,07,1.1,315.1,M,-23.7,M,2.8,0000*4B
$GPGSA,A,3,17,01,28,27,08,04,20,,,,,,2.1,1.1,1.8*3E
$GPRMC,054629.000,A,3353.7434,N,09832.0262,W,0.05,60.48,030412,,,D*4A
$GPGGA,054630.000,3353.7434,N,09832.0261,W,2,07,1.1,315.1,M,-23.7,M,0.8,0000*42
$GPGSA,A,3,17,01,28,27,08,04,20,,,,,,2.1,1.1,1.8*3E
$GPGSV,3,1,12,17,67,356,40,28,61,069,33,04,39,191,36,27,36,307,18*76
$GPGSV,3,2,12,08,27,165,36,09,19,318,,01,18,041,32,20,14,085,26*78
$GPGSV,3,3,12,02,11,205,21,26,09,234,,15,05,277,15,32,04,060,*70
$GPRMC,054630.000,A,3353.7434,N,09832.0261,W,0.14,106.05,030412,,,D*79
$GPGGA,054631.000,3353.7433,N,09832.0260,W,2,07,1.1,315.3,M,-23.7,M,0.8,0000*47
$GPGSA,A,3,17,01,28,27,08,04,20,,,,,,2.1,1.1,1.8*3E
$GPRMC,054631.000,A,3353.7433,N,09832.0260,W,0.20,107.38,030412,,,D*76
$GPGGA,054632.000,3353.7433,N,09832.0260,W,2,07,1.1,315.2,M,-23.7,M,0.8,0000*45
$GPGSA,A,3,17,01,28,27,08,04,20,,,,,,2.1,1.1,1.8*3E
$GPRMC,054632.000,A,3353.7433,N,09832.0260,W,0.05,82.05,030412,,,D*40
$GPGGA,054633.000,3353.7434,N,09832.0261,W,2,07,1.1,315.1,M,-23.7,M,0.8,0000*41
$GPGSA,A,3,17,01,28,27,08,04,20,,,,,,2.1,1.1,1.8*3E
$GPRMC,054633.000,A,3353.7434,N,09832.0261,W,0.08,298.94,030412,,,D*7B
$GPGGA,054634.000,3353.7434,N,09832.0261,W,2,07,1.1,315.0,M,-23.7,M,0.8,0000*47
$GPGSA,A,3,17,01,28,27,08,04,20,,,,,,2.1,1.1,1.8*3E
$GPRMC,054634.000,A,3353.7434,N,09832.0261,W,0.15,288.16,030412,,,D*7B
$GPGGA,054635.000,3353.7434,N,09832.0261,W,2,07,1.1,315.1,M,-23.7,M,1.8,0000*46
$GPGSA,A,3,17,01,28,27,08,04,20,,,,,,2.1,1.1,1.8*3E
$GPGSV,3,1,12,17,67,356,41,28,61,069,33,04,39,191,36,27,36,307,19*76
$GPGSV,3,2,12,08,27,165,36,09,19,318,,01,18,041,32,20,14,085,26*78
$GPGSV,3,3,12,02,11,205,21,26,09,234,11,15,05,277,,32,04,060,*74
$GPRMC,054635.000,A,3353.7434,N,09832.0261,W,0.16,87.27,030412,,,D*46
$GPGGA,054636.000,3353.7434,N,09832.0260,W,2,07,1.1,315.3,M,-23.7,M,0.8,0000*47
$GPGSA,A,3,17,01,28,27,08,04,20,,,,,,2.1,1.1,1.8*3E
$GPRMC,054636.000,A,3353.7434,N,09832.0260,W,0.24,86.39,030412,,,D*4B
$GPGGA,054637.000,3353.7433,N,09832.0259,W,2,07,1.1,315.5,M,-23.7,M,0.8,0000*4D
$GPGSA,A,3,17,01,28,27,08,04,20,,,,,,2.1,1.1,1.8*3E
$GPRMC,054637.000,A,3353.7433,N,09832.0259,W,0.23,88.24,030412,,,D*42
$GPGGA,054638.000,3353.7433,N,09832.0258,W,2,07,1.1,315.7,M,-23.7,M,0.8,0000*41
$GPGSA,A,3,17,01,28,27,08,04,20,,,,,,2.1,1.1,1.8*3E
$GPRMC,054638.000,A,3353.7433,N,09832.0258,W,0.30,100.50,030412,,,D*7C
