$GPGGA,231119.000,3353.7559,N,09832.0288,W,2,08,1.4,303.2,M,-23.7,M,2.8,0000*4E
$GPGSA,A,3,20,03,30,32,31,06,16,23,,,,,2.5,1.4,2.1*32
$GPRMC,231119.000,A,3353.7559,N,09832.0288,W,0.28,281.52,290312,,,D*77
$GPGGA,231120.000,3353.7558,N,09832.0288,W,2,08,1.4,303.3,M,-23.7,M,3.8,0000*45
$GPGSA,A,3,20,03,30,32,31,06,16,23,,,,,2.5,1.4,2.1*32
$GPRMC,231120.000,A,3353.7558,N,09832.0288,W,0.07,118.56,290312,,,D*76
$GPGGA,231121.000,3353.7558,N,09832.0289,W,2,08,1.4,302.8,M,-23.7,M,0.8,0000*4C
$GPGSA,A,3,20,03,30,32,31,06,16,23,,,,,2.5,1.4,2.1*32
$GPRMC,231121.000,A,3353.7558,N,09832.0289,W,0.04,124.34,290312,,,D*7E
$GPGGA,231122.000,3353.7559,N,09832.0289,W,2,08,1.4,302.2,M,-23.7,M,0.8,0000*44
$GPGSA,A,3,20,03,30,32,31,06,16,23,,,,,2.5,1.4,2.1*32
$GPRMC,231122.000,A,3353.7559,N,09832.0289,W,0.04,201.41,290312,,,D*7A
$GPGGA,231123.000,3353.7559,N,09832.0290,W,2,08,1.4,301.6,M,-23.7,M,0.8,0000*4A
$GPGSA,A,3,20,03,30,32,31,06,16,23,,,,,2.5,1.4,2.1*32
$GPGSV,3,1,12,16,69,058,32,23,66,331,35,30,42,044,31,20,40,219,25*76
$GPGSV,3,2,12,13,34,317,,32,31,188,34,03,31,137,37,06,30,118,15*77
$GPGSV,3,3,12,07,18,274,,31,10,070,31,10,09,319,,19,07,164,*7C
$GPRMC,231123.000,A,3353.7559,N,09832.0290,W,0.05,286.57,290312,,,D*7A
$GPGGA,231124.000,3353.7560,N,09832.0291,W,2,08,1.4,301.0,M,-23.7,M,0.8,0000*40
$GPGSA,A,3,20,03,30,32,31,06,16,23,,,,,2.5,1.4,2.1*32
$GPRMC,231124.000,A,3353.7560,N,09832.0291,W,0.06,288.16,290312,,,D*7E
$GPGGA,231125.000,3353.7561,N,09832.0292,W,2,08,1.4,300.5,M,-23.7,M,0.8,0000*47
$GPGSA,A,3,20,03,30,32,31,06,16,23,,,,,2.5,1.4,2.1*32
$GPRMC,231125.000,A,3353.7561,N,09832.0292,W,0.29,296.26,290312,,,D*7C
$GPGGA,231126.000,3353.7562,N,09832.0294,W,2,08,1.4,300.0,M,-23.7,M,0.8,0000*44
$GPGSA,A,3,20,03,30,32,31,06,16,23,,,,,2.5,1.4,2.1*32
$GPRMC,231126.000,A,3353.7562,N,09832.0294,W,0.35,297.08,290312,,,D*7A
$GPGGA,231127.000,3353.7562,N,09832.0295,W,2,08,1.4,299.7,M,-23.7,M,0.8,0000*42
$GPGSA,A,3,20,03,30,32,31,06,16,23,,,,,2.5,1.4,2.1*32
$GPRMC,231127.000,A,3353.7562,N,09832.0295,W,0.36,296.33,290312,,,D*70
$GPGGA,231128.000,3353.7563,N,09832.0295,W,2,08,1.4,299.3,M,-23.7,M,0.8,0000*48
$GPGSA,A,3,20,03,30,32,31,06,16,23,,,,,2.5,1.4,2.1*32
$GPGSV,3,1,12,16,69,058,32,23,66,331,34,30,42,044,32,20,40,219,25*74
$GPGSV,3,2,12,13,34,317,,32,31,188,34,03,31,137,37,06,30,118,17*75
$GPGSV,3,3,12,07,18,274,19,31,10,070,31,10,09,319,,19,07,164,*74
$GPRMC,231128.000,A,3353.7563,N,09832.0295,W,0.24,283.41,290312,,,D*7C
$GPGGA,231129.000,3353.7563,N,09832.0295,W,2,08,1.4,299.1,M,-23.7,M,0.8,0000*4B
$GPGSA,A,3,20,03,30,32,31,06,16,23,,,,,2.5,1.4,2.1*32
$GPRMC,231129.000,A,3353.7563,N,09832.0295,W,0.18,268.17,290312,,,D*74
$GPGGA,231130.000,3353.7563,N,09832.0295,W,2,08,1.4,298.9,M,-23.7,M,0.8,0000*4A
$GPGSA,A,3,20,03,30,32,31,06,16,23,,,,,2.5,1.4,2.1*32
$GPRMC,231130.000,A,3353.7563,N,09832.0295,W,0.06,296.70,290312,,,D*73
$GPGGA,231131.000,3353.7564,N,09832.0294,W,2,08,1.4,298.8,M,-23.7,M,0.8,0000*4C
$GPGSA,A,3,20,03,30,32,31,06,16,23,,,,,2.5,1.4,2.1*32
$GPRMC,231131.000,A,3353.7564,N,09832.0294,W,0.02,0.57,290312,,,D*78
$GPGGA,231132.000,3353.7564,N,09832.0294,W,2,07,1.8,298.5,M,-23.7,M,1.8,0000*40
$GPGSA,A,3,20,03,30,32,06,16,23,,,,,,4.5,1.8,4.2*3F
$GPRMC,231132.000,A,3353.7564,N,09832.0294,W,0.12,55.53,290312,,,D*4E
$GPGGA,231133.000,3353.7565,N,09832.0294,W,2,07,1.8,298.1,M,-23.7,M,0.8,0000*45
$GPGSA,A,3,20,03,30,32,06,16,23,,,,,,4.5,1.8,4.2*3F
$GPGSV,3,1,12,16,69,058,32,23,66,331,34,30,42,044,31,20,40,219,24*76
$GPGSV,3,2,12,13,34,317,,32,31,188,35,03,31,137,38,06,30,118,16*7A
$GPGSV,3,3,12,07,18,274,19,31,10,070,30,10,09,319,,19,07,164,*75
$GPRMC,231133.000,A,3353.7565,N,09832.0294,W,0.12,36.49,290312,,,D*40
$GPGGA,231134.000,3353.7566,N,09832.0294,W,2,07,1.8,297.8,M,-23.7,M,0.8,0000*47
$GPGSA,A,3,20,03,30,32,06,16,23,,,,,,4.5,1.8,4.2*3F
$GPRMC,231134.000,A,3353.7566,N,09832.0294,W,0.25,293.11,290312,,,D*70
$GPGGA,231135.000,3353.7566,N,09832.0295,W,2,07,1.8,297.4,M,-23.7,M,0.8,0000*4B
$GPGSA,A,3,20,03,30,32,06,16,23,,,,,,4.5,1.8,4.2*3F
$GPRMC,231135.000,A,3353.7566,N,09832.0295,W,0.58,279.10,290312,,,D*7F
$GPGGA,231136.000,3353.7567,N,09832.0297,W,2,07,1.8,297.0,M,-23.7,M,1.8,0000*4E
$GPGSA,A,3,20,03,30,32,06,16,23,,,,,,4.5,1.8,4.2*3F
$GPRMC,231136.000,A,3353.7567,N,09832.0297,W,0.48,287.48,290312,,,D*72
$GPGGA,231137.000,3353.7568,N,09832.0298,W,2,07,1.8,296.6,M,-23.7,M,2.8,0000*4B
$GPGSA,A,3,20,03,30,32,06,16,23,,,,,,4.5,1.8,4.2*3F
$GPRMC,231137.000,A,3353.7568,N,09832.0298,W,0.34,305.79,290312,,,D*71
$GPGGA,231138.000,3353.7569,N,09832.0299,W,2,07,1.8,296.0,M,-23.7,M,3.8,0000*43
$GPGSA,A,3,20,03,30,32,06,16,23,,,,,,4.5,1.8,4.2*3F
$GPGSV,3,1,12,16,69,058,32,23,66,331,34,30,42,044,31,20,40,219,23*71
$GPGSV,3,2,12,13,34,317,,32,31,188,35,03,31,137,38,06,30,118,17*7B
$GPGSV,3,3,12,07,18,274,19,31,10,070,30,10,09,319,,19,07,164,*75
$GPRMC,231138.000,A,3353.7569,N,09832.0299,W,0.31,279.78,290312,,,D*70
$GPGGA,231139.000,3353.7569,N,09832.0299,W,2,07,1.8,295.7,M,-23.7,M,0.8,0000*45
$GPGSA,A,3,20,03,30,32,06,16,23,,,,,,4.5,1.8,4.2*3F
$GPRMC,231139.000,A,3353.7569,N,09832.0299,W,0.16,28.33,290312,,,D*4D
$GPGGA,231140.000,3353.7570,N,09832.0298,W,2,07,1.8,295.3,M,-23.7,M,0.8,0000*46
$GPGSA,A,3,20,03,30,32,06,16,23,,,,,,4.5,1.8,4.2*3F
$GPRMC,231140.000,A,3353.7570,N,09832.0298,W,0.41,51.09,290312,,,D*4F
$GPGGA,231141.000,3353.7571,N,09832.0297,W,2,07,1.8,294.9,M,-23.7,M,0.8,0000*42
$GPGSA,A,3,20,03,30,32,06,16,23,,,,,,4.5,1.8,4.2*3F
$GPRMC,231141.000,A,3353.7571,N,09832.0297,W,0.18,355.26,290312,,,D*76
$GPGGA,231142.000,3353.7572,N,09832.0297,W,2,07,1.8,294.5,M,-23.7,M,1.8,0000*4F
$GPGSA,A,3,20,03,30,32,06,16,23,,,,,,4.5,1.8,4.2*3F
$GPRMC,231142.000,A,3353.7572,N,09832.0297,W,0.30,305.33,290312,,,D*7D
$GPGGA,231143.000,3353.7573,N,09832.0297,W,2,07,1.8,294.2,M,-23.7,M,2.8,0000*4B
$GPGSA,A,3,20,03,30,32,06,16,23,,,,,,4.5,1.8,4.2*3F
$GPGSV,3,1,12,16,69,058,31,23,66,331,34,30,42,044,30,20,40,219,23*73
$GPGSV,3,2,12,13,34,317,18,32,31,188,35,03,31,137,38,06,30,118,18*7D
$GPGSV,3,3,12,07,18,274,18,31,10,070,30,10,09,319,,19,07,164,*74
$GPRMC,231143.000,A,3353.7573,N,09832.0297,W,0.26,338.87,290312,,,D*7B
$GPGGA,231144.000,3353.7574,N,09832.0296,W,2,07,1.8,293.8,M,-23.7,M,3.8,0000*46
$GPGSA,A,3,20,03,30,32,06,16,23,,,,,,4.5,1.8,4.2*3F
$GPRMC,231144.000,A,3353.7574,N,09832.0296,W,0.27,14.25,290312,,,D*4E
$GPGGA,231145.000,3353.7575,N,09832.0296,W,2,07,1.8,293.4,M,-23.7,M,0.8,0000*49
$GPGSA,A,3,20,03,30,32,06,16,23,,,,,,4.5,1.8,4.1*3C
$GPRMC,231145.000,A,3353.7575,N,09832.0296,W,0.28,330.55,290312,,,D*73
$GPGGA,231146.000,3353.7576,N,09832.0297,W,2,07,1.8,293.0,M,-23.7,M,0.8,0000*4C
$GPGSA,A,3,20,03,30,32,06,16,23,,,,,,4.5,1.8,4.1*3C
$GPRMC,231146.000,A,3353.7576,N,09832.0297,W,0.50,284.38,290312,,,D*78
$GPGGA,231147.000,3353.7576,N,09832.0299,W,2,07,1.8,292.7,M,-23.7,M,0.8,0000*45
$GPGSA,A,3,20,03,30,32,06,16,23,,,,,,4.5,1.8,4.1*3C
$GPRMC,231147.000,A,3353.7576,N,09832.0299,W,0.44,278.84,290312,,,D*76
$GPGGA,231148.000,3353.7576,N,09832.0299,W,2,07,1.8,292.4,M,-23.7,M,1.8,0000*48
$GPGSA,A,3,20,03,30,32,06,16,23,,,,,,4.5,1.8,4.1*3C
$GPGSV,3,1,12,16,69,058,31,23,66,331,34,30,42,044,30,20,40,219,22*72
$GPGSV,3,2,12,13,34,317,,32,31,188,35,03,31,137,38,06,30,118,18*74
$GPGSV,3,3,12,07,18,274,18,31,10,070,30,10,09,319,,19,07,164,*74
$GPRMC,231148.000,A,3353.7576,N,09832.0299,W,0.16,28.61,290312,,,D*42
$GPGGA,231149.000,3353.7577,N,09832.0298,W,2,07,1.8,292.2,M,-23.7,M,2.8,0000*4C
$GPGSA,A,3,20,03,30,32,06,16,23,,,,,,4.5,1.8,4.1*3C
$GPRMC,231149.000,A,3353.7577,N,09832.0298,W,0.30,54.64,290312,,,D*49
$GPGGA,231150.000,3353.7577,N,09832.0297,W,2,07,1.8,292.0,M,-23.7,M,3.8,0000*48
$GPGSA,A,3,20,03,30,32,06,16,23,,,,,,4.5,1.8,4.1*3C
$GPRMC,231150.000,A,3353.7577,N,09832.0297,W,0.19,344.03,290312,,,D*76
$GPGGA,231151.000,3353.7577,N,09832.0297,W,2,07,1.8,291.8,M,-23.7,M,0.8,0000*41
$GPGSA,A,3,20,03,30,32,06,16,23,,,,,,4.5,1.8,4.1*3C
$GPRMC,231151.000,A,3353.7577,N,09832.0297,W,0.11,324.14,290312,,,D*7F
$GPGGA,231152.000,3353.7578,N,09832.0297,W,2,07,1.8,291.5,M,-23.7,M,0.8,0000*40
$GPGSA,A,3,20,03,30,32,06,16,23,,,,,,4.5,1.8,4.1*3C
$GPRMC,231152.000,A,3353.7578,N,09832.0297,W,0.11,27.31,290312,,,D*44
$GPGGA,231153.000,3353.7578,N,09832.0297,W,2,07,1.8,291.3,M,-23.7,M,0.8,0000*47
$GPGSA,A,3,20,03,30,32,06,16,23,,,,,,4.5,1.8,4.1*3C
$GPGSV,3,1,12,16,69,058,31,23,66,331,34,30,42,044,31,20,40,219,22*73
$GPGSV,3,2,12,13,34,317,,32,31,188,35,03,31,137,38,06,30,118,18*74
$GPGSV,3,3,12,07,18,274,18,31,10,070,29,10,09,319,,19,07,164,*7C
$GPRMC,231153.000,A,3353.7578,N,09832.0297,W,0.14,301.34,290312,,,D*72
$GPGGA,231154.000,3353.7578,N,09832.0297,W,2,07,1.8,291.1,M,-23.7,M,1.8,0000*43
$GPGSA,A,3,20,03,30,32,06,16,23,,,,,,4.5,1.8,4.1*3C
$GPRMC,231154.000,A,3353.7578,N,09832.0297,W,0.18,297.84,290312,,,D*7C
$GPGGA,231155.000,3353.7578,N,09832.0297,W,2,07,1.8,291.0,M,-23.7,M,2.8,0000*40
$GPGSA,A,3,20,03,30,32,06,16,23,,,,,,4.5,1.8,4.1*3C
$GPRMC,231155.000,A,3353.7578,N,09832.0297,W,0.19,303.56,290312,,,D*7F
$GPGGA,231156.000,3353.7579,N,09832.0297,W,2,07,1.8,290.8,M,-23.7,M,3.8,0000*4A
$GPGSA,A,3,20,03,30,32,06,16,23,,,,,,4.5,1.8,4.1*3C
$GPRMC,231156.000,A,3353.7579,N,09832.0297,W,0.25,26.22,290312,,,D*45
$GPGGA,231157.000,3353.7580,N,09832.0296,W,2,07,1.8,290.6,M,-23.7,M,0.8,0000*41
$GPGSA,A,3,20,03,30,32,06,16,23,,,,,,4.5,1.8,4.1*3C
$GPRMC,231157.000,A,3353.7580,N,09832.0296,W,0.26,27.50,290312,,,D*44
$GPGGA,231158.000,3353.7580,N,09832.0297,W,2,07,1.8,290.3,M,-23.7,M,0.8,0000*4A
$GPGSA,A,3,20,03,30,32,06,16,23,,,,,,4.5,1.8,4.1*3C
$GPGSV,3,1,12,16,69,058,31,23,66,331,34,30,42,044,31,20,40,219,22*73
$GPGSV,3,2,12,13,34,317,19,32,31,188,35,03,31,137,37,06,30,118,20*78
$GPGSV,3,3,12,07,18,274,19,31,10,070,29,10,09,319,,19,07,164,*7D
$GPRMC,231158.000,A,3353.7580,N,09832.0297,W,0.26,287.63,290312,,,D*72
$GPGGA,231159.000,3353.7580,N,09832.0298,W,2,07,1.8,290.0,M,-23.7,M,0.8,0000*47
$GPGSA,A,3,20,03,30,32,06,16,23,,,,,,4.5,1.8,4.1*3C
$GPRMC,231159.000,A,3353.7580,N,09832.0298,W,0.31,269.86,290312,,,D*71
$GPGGA,231200.000,3353.7580,N,09832.0298,W,2,07,1.8,289.8,M,-23.7,M,1.8,0000*49
$GPGSA,A,3,20,03,30,32,06,16,23,,,,,,4.5,1.8,4.1*3C
$GPRMC,231200.000,A,3353.7580,N,09832.0298,W,0.22,319.35,290312,,,D*72
$GPGGA,231201.000,3353.7581,N,09832.0298,W,2,07,1.8,289.7,M,-23.7,M,2.8,0000*45
$GPGSA,A,3,20,03,30,32,06,16,23,,,,,,4.5,1.8,4.1*3C
$GPRMC,231201.000,A,3353.7581,N,09832.0298,W,0.19,335.95,290312,,,D*7E
$GPGGA,231202.000,3353.7581,N,09832.0299,W,2,07,1.8,289.5,M,-23.7,M,0.8,0000*47
$GPGSA,A,3,20,03,30,32,06,16,23,,,,,,4.5,1.8,4.1*3C
$GPRMC,231202.000,A,3353.7581,N,09832.0299,W,0.42,279.61,290312,,,D*70
$GPGGA,231203.000,3353.7581,N,09832.0300,W,2,07,1.8,289.4,M,-23.7,M,0.8,0000*46
$GPGSA,A,3,20,03,30,32,06,16,23,,,,,,4.5,1.8,4.1*3C
$GPGSV,3,1,12,16,69,058,30,23,66,331,34,30,42,044,31,20,40,219,21*71
$GPGSV,3,2,12,13,34,317,18,32,31,188,35,03,31,137,37,06,30,118,21*78
$GPGSV,3,3,12,07,18,274,19,31,10,070,29,10,09,319,,19,07,164,*7D
$GPRMC,231203.000,A,3353.7581,N,09832.0300,W,0.54,275.41,290312,,,D*79
$GPGGA,231204.000,3353.7581,N,09832.0300,W,2,07,1.8,289.3,M,-23.7,M,0.8,0000*46
$GPGSA,A,3,20,03,30,32,06,16,23,,,,,,4.5,1.8,4.1*3C
$GPRMC,231204.000,A,3353.7581,N,09832.0300,W,0.22,33.75,290312,,,D*48
$GPGGA,231205.000,3353.7581,N,09832.0299,W,2,07,1.8,289.3,M,-23.7,M,0.8,0000*46
$GPGSA,A,3,20,03,30,32,06,16,23,,,,,,4.5,1.8,4.1*3C
$GPRMC,231205.000,A,3353.7581,N,09832.0299,W,0.41,56.64,290312,,,D*4E
$GPGGA,231206.000,3353.7582,N,09832.0297,W,2,07,1.8,289.2,M,-23.7,M,1.8,0000*48
$GPGSA,A,3,20,03,30,32,06,16,23,,,,,,4.5,1.8,4.1*3C
$GPRMC,231206.000,A,3353.7582,N,09832.0297,W,0.49,64.62,290312,,,D*4F
$GPGGA,231207.000,3353.7582,N,09832.0296,W,2,06,2.0,289.2,M,-23.7,M,2.8,0000*41
$GPGSA,A,3,03,30,32,06,16,23,,,,,,,4.7,2.0,4.3*35
$GPRMC,231207.000,A,3353.7582,N,09832.0296,W,0.27,57.27,290312,,,D*46
$GPGGA,231208.000,3353.7582,N,09832.0296,W,2,06,2.0,289.2,M,-23.7,M,3.8,0000*4F
$GPGSA,A,3,03,30,32,06,16,23,,,,,,,4.7,2.0,4.3*35
$GPGSV,3,1,12,16,69,058,31,23,66,331,34,30,42,044,31,20,40,219,*73
$GPGSV,3,2,12,13,34,317,18,32,31,188,35,03,31,137,37,06,30,118,22*7B
$GPGSV,3,3,12,07,18,274,20,31,10,070,29,10,09,319,,19,07,164,*77
$GPRMC,231208.000,A,3353.7582,N,09832.0296,W,0.16,359.04,290312,,,D*77
$GPGGA,231209.000,3353.7582,N,09832.0296,W,2,06,2.0,289.1,M,-23.7,M,0.8,0000*4E
$GPGSA,A,3,03,30,32,06,16,23,,,,,,,4.7,2.0,4.3*35
$GPRMC,231209.000,A,3353.7582,N,09832.0296,W,0.25,309.89,290312,,,D*76
$GPGGA,231210.000,3353.7583,N,09832.0297,W,2,06,2.0,289.1,M,-23.7,M,0.8,0000*46
$GPGSA,A,3,03,30,32,06,16,23,,,,,,,4.7,2.0,4.3*35
$GPRMC,231210.000,A,3353.7583,N,09832.0297,W,0.25,294.10,290312,,,D*7B
$GPGGA,231211.000,3353.7582,N,09832.0297,W,2,06,2.0,289.0,M,-23.7,M,0.8,0000*47
$GPGSA,A,3,03,30,32,06,16,23,,,,,,,4.7,2.0,4.3*35
$GPRMC,231211.000,A,3353.7582,N,09832.0297,W,0.11,298.37,290312,,,D*75
$GPGGA,231212.000,3353.7582,N,09832.0298,W,2,06,2.0,289.0,M,-23.7,M,0.8,0000*4B
$GPGSA,A,3,03,30,32,06,16,23,,,,,,,4.7,2.0,4.3*35
$GPRMC,231212.000,A,3353.7582,N,09832.0298,W,0.25,285.21,290312,,,D*75
$GPGGA,231213.000,3353.7582,N,09832.0299,W,2,07,1.8,288.9,M,-23.7,M,0.8,0000*49
$GPGSA,A,3,20,03,30,32,06,16,23,,,,,,4.5,1.8,4.1*3C
$GPGSV,3,1,12,16,69,058,31,23,66,331,34,30,42,044,30,20,40,219,20*70
$GPGSV,3,2,12,13,34,317,19,32,31,188,35,03,31,137,37,06,30,118,23*7B
$GPGSV,3,3,12,07,18,274,19,31,10,070,30,10,09,319,,19,07,164,*75
$GPRMC,231213.000,A,3353.7582,N,09832.0299,W,0.45,272.97,290312,,,D*76
$GPGGA,231214.000,3353.7582,N,09832.0300,W,2,07,1.8,288.8,M,-23.7,M,1.8,0000*4F
$GPGSA,A,3,20,03,30,32,06,16,23,,,,,,4.5,1.8,4.1*3C
$GPRMC,231214.000,A,3353.7582,N,09832.0300,W,0.22,268.97,290312,,,D*7A
$GPGGA,231215.000,3353.7582,N,09832.0300,W,2,07,1.8,288.8,M,-23.7,M,0.8,0000*4F
$GPGSA,A,3,20,03,30,32,06,16,23,,,,,,4.5,1.8,4.1*3C
$GPRMC,231215.000,A,3353.7582,N,09832.0300,W,0.09,326.95,290312,,,D*7B
$GPGGA,231216.000,3353.7582,N,09832.0300,W,2,07,1.8,288.9,M,-23.7,M,0.8,0000*4D
$GPGSA,A,3,20,03,30,32,06,16,23,,,,,,4.5,1.8,4.1*3C
$GPRMC,231216.000,A,3353.7582,N,09832.0300,W,0.15,303.17,290312,,,D*78
$GPGGA,231217.000,3353.7582,N,09832.0299,W,2,07,1.7,288.9,M,-23.7,M,0.8,0000*42
$GPGSA,A,3,20,03,30,32,06,16,23,,,,,,4.5,1.7,4.1*33
$GPRMC,231217.000,A,3353.7582,N,09832.0299,W,0.13,359.58,290312,,,D*7A
$GPGGA,231218.000,3353.7582,N,09832.0299,W,2,07,1.7,288.9,M,-23.7,M,0.8,0000*4D
$GPGSA,A,3,20,03,30,32,06,16,23,,,,,,4.5,1.7,4.1*33
$GPGSV,3,1,12,16,69,058,31,23,66,331,34,30,42,044,30,20,40,219,22*72
$GPGSV,3,2,12,13,34,317,20,32,31,188,36,03,31,137,37,06,30,118,28*79
$GPGSV,3,3,12,07,18,274,19,31,10,070,30,10,09,319,,19,07,164,*75
$GPRMC,231218.000,A,3353.7582,N,09832.0299,W,0.14,322.62,290312,,,D*77
$GPGGA,231219.000,3353.7582,N,09832.0299,W,2,07,1.7,288.9,M,-23.7,M,1.8,0000*4D
$GPGSA,A,3,20,03,30,32,06,16,23,,,,,,4.5,1.7,4.1*33
$GPRMC,231219.000,A,3353.7582,N,09832.0299,W,0.17,31.89,290312,,,D*41
$GPGGA,231220.000,3353.7589,N,09832.0300,W,2,07,1.7,286.2,M,-23.7,M,0.8,0000*49
$GPGSA,A,3,20,03,30,32,06,16,23,,,,,,4.5,1.7,4.1*33
$GPRMC,231220.000,A,3353.7589,N,09832.0300,W,0.28,332.26,290312,,,D*78
$GPGGA,231221.000,3353.7594,N,09832.0302,W,2,07,1.7,284.0,M,-23.7,M,0.8,0000*46
$GPGSA,A,3,20,03,30,32,06,16,23,,,,,,4.5,1.7,4.1*33
$GPRMC,231221.000,A,3353.7594,N,09832.0302,W,0.45,320.01,290312,,,D*7A
$GPGGA,231222.000,3353.7595,N,09832.0302,W,2,07,1.7,283.7,M,-23.7,M,0.8,0000*44
$GPGSA,A,3,20,03,30,32,06,16,23,,,,,,4.5,1.7,4.1*33
$GPRMC,231222.000,A,3353.7595,N,09832.0302,W,0.47,291.90,290312,,,D*79
$GPGGA,231223.000,3353.7595,N,09832.0303,W,2,07,1.7,283.5,M,-23.7,M,0.8,0000*46
$GPGSA,A,3,20,03,30,32,06,16,23,,,,,,4.5,1.7,4.1*33
$GPGSV,3,1,12,16,69,058,30,23,66,331,34,30,42,044,24,20,40,219,23*77
$GPGSV,3,2,12,13,34,317,21,32,31,188,36,03,31,137,36,06,30,118,29*78
$GPGSV,3,3,12,07,18,274,21,31,10,070,30,10,09,319,,19,07,164,*7E
$GPRMC,231223.000,A,3353.7595,N,09832.0303,W,0.34,307.50,290312,,,D*7F
$GPGGA,231224.000,3353.7595,N,09832.0304,W,2,07,1.7,283.2,M,-23.7,M,1.8,0000*40
$GPGSA,A,3,20,03,30,32,06,16,23,,,,,,4.5,1.7,4.1*33
$GPRMC,231224.000,A,3353.7595,N,09832.0304,W,0.40,309.49,290312,,,D*7A
$GPGGA,231225.000,3353.7604,N,09832.0307,W,2,07,1.7,279.3,M,-23.7,M,0.8,0000*4C
$GPGSA,A,3,20,03,30,32,06,16,23,,,,,,4.5,1.7,4.1*33
$GPRMC,231225.000,A,3353.7604,N,09832.0307,W,0.46,329.06,290312,,,D*7C
$GPGGA,231226.000,3353.7612,N,09832.0310,W,2,07,1.7,276.0,M,-23.7,M,0.8,0000*42
$GPGSA,A,3,20,03,30,32,06,16,23,,,,,,4.5,1.7,4.1*33
$GPRMC,231226.000,A,3353.7612,N,09832.0310,W,0.63,307.15,290312,,,D*77
$GPGGA,231227.000,3353.7620,N,09832.0313,W,2,07,1.7,272.4,M,-23.7,M,0.8,0000*41
$GPGSA,A,3,20,03,30,32,06,16,23,,,,,,4.5,1.7,4.1*33
$GPRMC,231227.000,A,3353.7620,N,09832.0313,W,0.80,327.12,290312,,,D*7C
$GPGGA,231228.000,3353.7620,N,09832.0312,W,2,07,1.7,272.6,M,-23.7,M,0.8,0000*4D
$GPGSA,A,3,20,03,30,32,06,16,23,,,,,,4.5,1.7,4.1*33
$GPGSV,3,1,12,16,69,058,30,23,66,331,34,30,42,044,23,20,40,219,23*70
$GPGSV,3,2,12,13,34,317,24,32,31,188,36,03,31,137,36,06,30,118,29*7D
$GPGSV,3,3,12,07,18,274,15,31,10,070,30,10,09,319,,19,07,164,*79
$GPRMC,231228.000,A,3353.7620,N,09832.0312,W,0.59,321.30,290312,,,D*70
$GPGGA,231229.000,3353.7625,N,09832.0314,W,2,07,1.7,270.3,M,-23.7,M,0.8,0000*48
$GPGSA,A,3,20,03,30,32,06,16,23,,,,,,4.5,1.7,4.1*33
$GPRMC,231229.000,A,3353.7625,N,09832.0314,W,0.66,325.64,290312,,,D*7B
$GPGGA,231230.000,3353.7629,N,09832.0315,W,2,07,1.7,268.7,M,-23.7,M,1.8,0000*41
$GPGSA,A,3,20,03,30,32,06,16,23,,,,,,4.5,1.7,4.1*33
$GPRMC,231230.000,A,3353.7629,N,09832.0315,W,0.78,328.00,290312,,,D*7E
$GPGGA,231231.000,3353.7626,N,09832.0315,W,2,07,1.7,269.8,M,-23.7,M,2.8,0000*42
$GPGSA,A,3,20,03,30,32,06,16,23,,,,,,4.5,1.7,4.1*33
$GPRMC,231231.000,A,3353.7626,N,09832.0315,W,0.63,314.96,290312,,,D*7A
$GPGGA,231232.000,3353.7621,N,09832.0314,W,2,07,1.7,271.6,M,-23.7,M,3.8,0000*41
$GPGSA,A,3,20,03,30,32,06,16,23,,,,,,4.5,1.7,4.1*33
$GPRMC,231232.000,A,3353.7621,N,09832.0314,W,0.42,302.18,290312,,,D*7D
$GPGGA,231233.000,3353.7617,N,09832.0313,W,2,07,1.7,273.4,M,-23.7,M,0.8,0000*41
$GPGSA,A,3,20,03,30,32,06,16,23,,,,,,4.5,1.7,4.1*33
$GPGSV,3,1,12,16,69,058,30,23,66,331,34,30,42,044,30,20,40,219,21*70
$GPGSV,3,2,12,13,34,317,23,32,31,188,36,03,31,137,36,06,30,118,29*7A
$GPGSV,3,3,12,07,18,274,,31,10,070,30,10,09,319,,19,07,164,*7D
$GPRMC,231233.000,A,3353.7617,N,09832.0313,W,0.40,302.85,290312,,,D*78
$GPGGA,231234.000,3353.7611,N,09832.0311,W,2,07,1.7,275.7,M,-23.7,M,0.8,0000*47
$GPGSA,A,3,20,03,30,32,06,16,23,,,,,,4.5,1.7,4.1*33
$GPRMC,231234.000,A,3353.7611,N,09832.0311,W,0.14,333.14,290312,,,D*70
$GPGGA,231235.000,3353.7606,N,09832.0310,W,2,07,1.7,277.9,M,-23.7,M,0.8,0000*4D
$GPGSA,A,3,20,03,30,32,06,16,23,,,,,,4.5,1.7,4.1*33
$GPRMC,231235.000,A,3353.7606,N,09832.0310,W,0.05,287.28,290312,,,D*77
$GPGGA,231236.000,3353.7601,N,09832.0308,W,2,07,1.7,280.0,M,-23.7,M,1.8,0000*40
$GPGSA,A,3,20,03,30,32,06,16,23,,,,,,4.5,1.7,4.1*33
$GPRMC,231236.000,A,3353.7601,N,09832.0308,W,0.07,224.02,290312,,,D*79
$GPGGA,231237.000,3353.7596,N,09832.0307,W,2,07,1.7,282.0,M,-23.7,M,0.8,0000*40
$GPGSA,A,3,20,03,30,32,06,16,23,,,,,,4.5,1.7,4.1*33
$GPRMC,231237.000,A,3353.7596,N,09832.0307,W,0.27,235.37,290312,,,D*7E
$GPGGA,231238.000,3353.7592,N,09832.0306,W,2,07,1.7,283.7,M,-23.7,M,0.8,0000*4C
$GPGSA,A,3,20,03,30,32,06,16,23,,,,,,4.5,1.7,4.1*33
$GPGSV,3,1,12,16,69,058,29,23,66,331,33,30,42,044,30,20,40,219,20*7E
$GPGSV,3,2,12,13,34,317,23,32,31,188,36,03,31,137,36,06,30,118,29*7A
$GPGSV,3,3,12,07,18,274,,31,10,070,30,10,09,319,,19,07,164,*7D
$GPRMC,231238.000,A,3353.7592,N,09832.0306,W,0.34,232.04,290312,,,D*71
$GPGGA,231239.000,3353.7589,N,09832.0305,W,2,07,1.7,285.3,M,-23.7,M,0.8,0000*46
$GPGSA,A,3,20,03,30,32,06,16,23,,,,,,4.5,1.7,4.1*33
$GPRMC,231239.000,A,3353.7589,N,09832.0305,W,0.27,207.19,290312,,,D*71
$GPGGA,231240.000,3353.7586,N,09832.0304,W,2,07,1.7,286.6,M,-23.7,M,0.8,0000*40
$GPGSA,A,3,20,03,30,32,06,16,23,,,,,,4.5,1.7,4.1*33
$GPRMC,231240.000,A,3353.7586,N,09832.0304,W,0.22,199.68,290312,,,D*76
$GPGGA,231241.000,3353.7584,N,09832.0303,W,2,07,1.7,287.7,M,-23.7,M,0.8,0000*44
$GPGSA,A,3,20,03,30,32,06,16,23,,,,,,4.5,1.7,4.1*33
$GPRMC,231241.000,A,3353.7584,N,09832.0303,W,0.21,194.64,290312,,,D*70
$GPGGA,231242.000,3353.7582,N,09832.0302,W,2,07,1.7,288.8,M,-23.7,M,1.8,0000*41
$GPGSA,A,3,20,03,30,32,06,16,23,,,,,,4.5,1.7,4.1*33
$GPRMC,231242.000,A,3353.7582,N,09832.0302,W,0.30,117.41,290312,,,D*78
$GPGGA,231243.000,3353.7580,N,09832.0300,W,2,07,1.7,289.8,M,-23.7,M,2.8,0000*42
$GPGSA,A,3,20,03,30,32,06,16,23,,,,,,4.5,1.7,4.1*33
$GPGSV,3,1,12,16,69,058,29,23,66,331,33,30,42,044,30,20,40,219,20*7E
$GPGSV,3,2,12,13,34,317,22,32,31,188,36,03,31,137,36,06,30,118,29*7B
$GPGSV,3,3,12,07,18,274,16,31,10,070,30,10,09,319,,19,07,164,*7A
$GPRMC,231243.000,A,3353.7580,N,09832.0300,W,0.37,114.86,290312,,,D*76
$GPGGA,231244.000,3353.7579,N,09832.0298,W,2,07,1.7,290.6,M,-23.7,M,3.8,0000*44
$GPGSA,A,3,20,03,30,32,06,16,23,,,,,,4.4,1.7,4.1*32
$GPRMC,231244.000,A,3353.7579,N,09832.0298,W,0.39,111.50,290312,,,D*77
$GPGGA,231245.000,3353.7578,N,09832.0297,W,2,07,1.7,291.3,M,-23.7,M,0.8,0000*4C
$GPGSA,A,3,20,03,30,32,06,16,23,,,,,,4.4,1.7,4.1*32
$GPRMC,231245.000,A,3353.7578,N,09832.0297,W,0.29,120.46,290312,,,D*7C
$GPGGA,231246.000,3353.7577,N,09832.0296,W,2,06,2.0,291.9,M,-23.7,M,0.8,0000*4E
$GPGSA,A,3,03,30,32,06,16,23,,,,,,,4.7,2.0,4.2*34
$GPRMC,231246.000,A,3353.7577,N,09832.0296,W,0.23,161.36,290312,,,D*79
$GPGGA,231247.000,3353.7576,N,09832.0295,W,2,06,2.0,292.4,M,-23.7,M,0.8,0000*43
$GPGSA,A,3,03,30,32,06,16,23,,,,,,,4.7,2.0,4.2*34
$GPRMC,231247.000,A,3353.7576,N,09832.0295,W,0.24,166.47,290312,,,D*7C
$GPGGA,231248.000,3353.7575,N,09832.0295,W,2,06,2.0,292.9,M,-23.7,M,1.8,0000*43
$GPGSA,A,3,03,30,32,06,16,23,,,,,,,4.7,2.0,4.2*34
$GPGSV,3,1,12,16,69,058,29,23,66,331,33,30,42,044,29,20,40,219,*74
$GPGSV,3,2,12,13,34,317,17,32,31,188,36,03,31,137,36,06,30,118,29*7D
$GPGSV,3,3,12,07,18,274,15,31,10,070,30,10,09,319,,19,07,164,*79
$GPRMC,231248.000,A,3353.7575,N,09832.0295,W,0.25,169.05,290312,,,D*78
$GPGGA,231249.000,3353.7574,N,09832.0294,W,2,06,2.0,293.3,M,-23.7,M,2.8,0000*4A
$GPGSA,A,3,03,30,32,06,16,23,,,,,,,4.7,2.0,4.2*34
$GPRMC,231249.000,A,3353.7574,N,09832.0294,W,0.22,166.32,290312,,,D*75
$GPGGA,231250.000,3353.7573,N,09832.0294,W,2,06,2.0,293.7,M,-23.7,M,3.8,0000*40
$GPGSA,A,3,03,30,32,06,16,23,,,,,,,4.7,2.0,4.2*34
$GPRMC,231250.000,A,3353.7573,N,09832.0294,W,0.23,170.83,290312,,,D*76
$GPGGA,231251.000,3353.7573,N,09832.0295,W,2,06,2.0,294.0,M,-23.7,M,0.8,0000*43
$GPGSA,A,3,03,30,32,06,16,23,,,,,,,4.7,2.0,4.2*34
$GPRMC,231251.000,A,3353.7573,N,09832.0295,W,0.23,168.39,290312,,,D*7E
$GPGGA,231252.000,3353.7573,N,09832.0295,W,2,06,2.0,294.2,M,-23.7,M,0.8,0000*42
$GPGSA,A,3,03,30,32,06,16,23,,,,,,,4.7,2.0,4.2*34
$GPRMC,231252.000,A,3353.7573,N,09832.0295,W,0.20,141.22,290312,,,D*7F
$GPGGA,231253.000,3353.7572,N,09832.0295,W,2,07,1.7,294.4,M,-23.7,M,0.8,0000*41
$GPGSA,A,3,20,03,30,32,06,16,23,,,,,,4.4,1.7,4.1*32
$GPGSV,3,1,12,16,68,056,29,23,67,331,33,30,40,044,29,20,39,218,18*7E
$GPGSV,3,2,12,13,35,318,17,03,32,136,36,06,31,117,29,32,30,188,36*7E
$GPGSV,3,3,12,07,18,275,15,10,10,319,,31,09,071,30,19,08,163,*71
$GPRMC,231253.000,A,3353.7572,N,09832.0295,W,0.22,120.50,290312,,,D*7F
$GPGGA,231254.000,3353.7572,N,09832.0295,W,2,07,1.7,294.6,M,-23.7,M,1.8,0000*45
$GPGSA,A,3,20,03,30,32,06,16,23,,,,,,4.4,1.7,4.1*32
$GPRMC,231254.000,A,3353.7572,N,09832.0295,W,0.16,129.11,290312,,,D*73
$GPGGA,231255.000,3353.7572,N,09832.0296,W,2,07,1.7,294.8,M,-23.7,M,2.8,0000*4A
$GPGSA,A,3,20,03,30,32,06,16,23,,,,,,4.4,1.7,4.1*32
$GPRMC,231255.000,A,3353.7572,N,09832.0296,W,0.13,136.44,290312,,,D*7A
$GPGGA,231256.000,3353.7572,N,09832.0296,W,2,07,1.7,294.9,M,-23.7,M,3.8,0000*49
$GPGSA,A,3,20,03,30,32,06,16,23,,,,,,4.4,1.7,4.1*32
$GPRMC,231256.000,A,3353.7572,N,09832.0296,W,0.13,212.05,290312,,,D*79
$GPGGA,231257.000,3353.7572,N,09832.0297,W,2,07,1.7,295.0,M,-23.7,M,0.8,0000*42
$GPGSA,A,3,20,03,30,32,06,16,23,,,,,,4.4,1.7,4.1*32
$GPRMC,231257.000,A,3353.7572,N,09832.0297,W,0.14,233.00,290312,,,D*78
$GPGGA,231258.000,3353.7572,N,09832.0298,W,2,07,1.7,295.1,M,-23.7,M,0.8,0000*43
$GPGSA,A,3,20,03,30,32,06,16,23,,,,,,4.4,1.7,4.1*32
$GPGSV,3,1,12,16,68,056,29,23,67,331,33,30,40,044,30,20,39,218,17*79
$GPGSV,3,2,12,13,35,318,18,03,32,136,36,06,31,117,30,32,30,188,36*79
$GPGSV,3,3,12,07,18,275,14,10,10,319,,31,09,071,30,19,08,163,*70
$GPRMC,231258.000,A,3353.7572,N,09832.0298,W,0.29,241.25,290312,,,D*74
$GPGGA,231259.000,3353.7572,N,09832.0299,W,2,07,1.7,295.3,M,-23.7,M,0.8,0000*41
$GPGSA,A,3,20,03,30,32,06,16,23,,,,,,4.4,1.7,4.1*32
$GPRMC,231259.000,A,3353.7572,N,09832.0299,W,0.12,205.16,290312,,,D*7C
$GPGGA,231300.000,3353.7571,N,09832.0299,W,2,07,1.7,295.4,M,-23.7,M,0.8,0000*48
$GPGSA,A,3,20,03,30,32,06,16,23,,,,,,4.4,1.7,4.1*32
$GPRMC,231300.000,A,3353.7571,N,09832.0299,W,0.12,205.61,290312,,,D*72
$GPGGA,231301.000,3353.7571,N,09832.0299,W,2,07,1.7,295.6,M,-23.7,M,0.8,0000*4B
$GPGSA,A,3,20,03,30,32,06,16,23,,,,,,4.4,1.7,4.1*32
$GPRMC,231301.000,A,3353.7571,N,09832.0299,W,0.14,128.71,290312,,,D*78
$GPGGA,231302.000,3353.7571,N,09832.0299,W,2,07,1.7,295.8,M,-23.7,M,1.8,0000*47
$GPGSA,A,3,20,03,30,32,06,16,23,,,,,,4.4,1.7,4.1*32
$GPRMC,231302.000,A,3353.7571,N,09832.0299,W,0.16,110.00,290312,,,D*74
$GPGGA,231303.000,3353.7571,N,09832.0299,W,2,07,1.7,295.9,M,-23.7,M,0.8,0000*46
$GPGSA,A,3,20,03,30,32,06,16,23,,,,,,4.4,1.7,4.1*32
$GPGSV,3,1,12,16,68,056,29,23,67,331,32,30,40,044,30,20,39,218,18*77
$GPGSV,3,2,12,13,35,318,17,03,32,136,36,06,31,117,30,32,30,188,36*76
$GPGSV,3,3,12,07,18,275,14,10,10,319,,31,09,071,30,19,08,163,*70
$GPRMC,231303.000,A,3353.7571,N,09832.0299,W,0.24,114.04,290312,,,D*74
$GPGGA,231304.000,3353.7571,N,09832.0298,W,2,07,1.7,296.0,M,-23.7,M,0.8,0000*4A
$GPGSA,A,3,20,03,30,32,06,16,23,,,,,,4.4,1.7,4.1*32
$GPRMC,231304.000,A,3353.7571,N,09832.0298,W,0.30,91.21,290312,,,D*4C
$GPGGA,231305.000,3353.7571,N,09832.0298,W,2,07,1.7,296.0,M,-23.7,M,0.8,0000*4B
$GPGSA,A,3,20,03,30,32,06,16,23,,,,,,4.4,1.7,4.1*32
$GPRMC,231305.000,A,3353.7571,N,09832.0298,W,0.06,231.75,290312,,,D*71
$GPGGA,231306.000,3353.7572,N,09832.0299,W,2,07,1.7,296.0,M,-23.7,M,1.8,0000*4B
$GPGSA,A,3,20,03,30,32,06,16,23,,,,,,4.4,1.7,4.1*32
$GPRMC,231306.000,A,3353.7572,N,09832.0299,W,0.16,254.67,290312,,,D*71
$GPGGA,231307.000,3353.7572,N,09832.0299,W,2,07,1.7,295.9,M,-23.7,M,0.8,0000*41
$GPGSA,A,3,20,03,30,32,06,16,23,,,,,,4.4,1.7,4.1*32
$GPRMC,231307.000,A,3353.7572,N,09832.0299,W,0.19,259.43,290312,,,D*74
$GPGGA,231308.000,3353.7572,N,09832.0299,W,2,07,1.7,295.9,M,-23.7,M,1.8,0000*4F
$GPGSA,A,3,20,03,30,32,06,16,23,,,,,,4.4,1.7,4.1*32
$GPGSV,3,1,12,16,68,056,29,23,67,331,31,30,40,044,29,20,39,218,19*7D
$GPGSV,3,2,12,13,35,318,17,03,32,136,35,06,31,117,30,32,30,188,36*75
$GPGSV,3,3,12,07,18,275,16,10,10,319,,31,09,071,31,19,08,163,*73
$GPRMC,231308.000,A,3353.7572,N,09832.0299,W,0.13,73.96,290312,,,D*43
$GPGGA,231309.000,3353.7573,N,09832.0299,W,2,07,1.7,295.8,M,-23.7,M,0.8,0000*4F
$GPGSA,A,3,20,03,30,32,06,16,23,,,,,,4.4,1.7,4.1*32
$GPRMC,231309.000,A,3353.7573,N,09832.0299,W,0.14,72.97,290312,,,D*44
$GPGGA,231310.000,3353.7573,N,09832.0299,W,2,07,1.7,295.7,M,-23.7,M,0.8,0000*48
$GPGSA,A,3,20,03,30,32,06,16,23,,,,,,4.4,1.7,4.1*32
$GPRMC,231310.000,A,3353.7573,N,09832.0299,W,0.07,104.65,290312,,,D*73
$GPGGA,231311.000,3353.7574,N,09832.0299,W,2,07,1.7,295.6,M,-23.7,M,0.8,0000*4F
$GPGSA,A,3,20,03,30,32,06,16,23,,,,,,4.4,1.7,4.1*32
$GPRMC,231311.000,A,3353.7574,N,09832.0299,W,0.18,252.12,290312,,,D*7B
$GPGGA,231312.000,3353.7574,N,09832.0300,W,2,07,1.7,295.5,M,-23.7,M,1.8,0000*4F
$GPGSA,A,3,20,03,30,32,06,16,23,,,,,,4.4,1.7,4.1*32
$GPRMC,231312.000,A,3353.7574,N,09832.0300,W,0.12,250.80,290312,,,D*7A
$GPGGA,231313.000,3353.7574,N,09832.0301,W,2,07,1.7,295.3,M,-23.7,M,2.8,0000*4A
$GPGSA,A,3,20,03,30,32,06,16,23,,,,,,4.4,1.7,4.1*32
$GPGSV,3,1,12,16,68,056,29,23,67,331,31,30,40,044,29,20,39,218,21*76
$GPGSV,3,2,12,13,35,318,17,03,32,136,35,06,31,117,31,32,30,188,36*74
$GPGSV,3,3,12,07,18,275,15,10,10,319,,31,09,071,31,19,08,163,*70
$GPRMC,231313.000,A,3353.7574,N,09832.0301,W,0.25,260.74,290312,,,D*76
$GPGGA,231314.000,3353.7574,N,09832.0301,W,2,07,1.7,295.3,M,-23.7,M,3.8,0000*4C
$GPGSA,A,3,20,03,30,32,06,16,23,,,,,,4.4,1.7,4.1*32
$GPRMC,231314.000,A,3353.7574,N,09832.0301,W,0.03,95.33,290312,,,D*4E
$GPGGA,231315.000,3353.7574,N,09832.0302,W,2,07,1.7,295.3,M,-23.7,M,0.8,0000*4D
$GPGSA,A,3,20,03,30,32,06,16,23,,,,,,4.4,1.7,4.1*32
$GPRMC,231315.000,A,3353.7574,N,09832.0302,W,0.23,252.35,290312,,,D*71
$GPGGA,231316.000,3353.7575,N,09832.0302,W,2,07,1.7,295.3,M,-23.7,M,0.8,0000*4F
$GPGSA,A,3,20,03,30,32,06,16,23,,,,,,4.4,1.7,4.1*32
$GPRMC,231316.000,A,3353.7575,N,09832.0302,W,0.11,63.28,290312,,,D*4E
$GPGGA,231317.000,3353.7575,N,09832.0301,W,2,07,1.7,295.4,M,-23.7,M,0.8,0000*4A
$GPGSA,A,3,20,03,30,32,06,16,23,,,,,,4.4,1.7,4.1*32
$GPRMC,231317.000,A,3353.7575,N,09832.0301,W,0.21,69.49,290312,,,D*42
$GPGGA,231318.000,3353.7575,N,09832.0300,W,2,07,1.7,295.5,M,-23.7,M,1.8,0000*44
$GPGSA,A,3,20,03,30,32,06,16,23,,,,,,4.4,1.7,4.1*32
$GPGSV,3,1,12,16,68,056,29,23,67,331,31,30,40,044,30,20,39,218,21*7E
$GPGSV,3,2,12,13,35,318,16,03,32,136,35,06,31,117,31,32,30,188,36*75
$GPGSV,3,3,12,07,18,275,19,10,10,319,,31,09,071,31,19,08,163,*7C
$GPRMC,231318.000,A,3353.7575,N,09832.0300,W,0.08,261.43,290312,,,D*77
$GPGGA,231319.000,3353.7575,N,09832.0300,W,2,07,1.7,295.7,M,-23.7,M,2.8,0000*44
$GPGSA,A,3,20,03,30,32,06,16,23,,,,,,4.4,1.7,4.1*32
$GPRMC,231319.000,A,3353.7575,N,09832.0300,W,0.06,55.97,290312,,,D*44
$GPGGA,231320.000,3353.7575,N,09832.0300,W,2,07,1.7,295.8,M,-23.7,M,3.8,0000*40
$GPGSA,A,3,20,03,30,32,06,16,23,,,,,,4.4,1.7,4.1*32
$GPRMC,231320.000,A,3353.7575,N,09832.0300,W,0.12,262.18,290312,,,D*7A
$GPGGA,231321.000,3353.7575,N,09832.0301,W,2,07,1.7,295.9,M,-23.7,M,0.8,0000*42
$GPGSA,A,3,20,03,30,32,06,16,23,,,,,,4.4,1.7,4.1*32
$GPRMC,231321.000,A,3353.7575,N,09832.0301,W,0.20,274.12,290312,,,D*76
$GPGGA,231322.000,3353.7575,N,09832.0301,W,2,07,1.7,296.0,M,-23.7,M,0.8,0000*4B
$GPGSA,A,3,20,03,30,32,06,16,23,,,,,,4.4,1.7,4.1*32
$GPRMC,231322.000,A,3353.7575,N,09832.0301,W,0.29,260.33,290312,,,D*7A
$GPGGA,231323.000,3353.7575,N,09832.0302,W,2,07,1.7,296.1,M,-23.7,M,0.8,0000*48
$GPGSA,A,3,20,03,30,32,06,16,23,,,,,,4.4,1.7,4.1*32
$GPGSV,3,1,12,16,68,056,28,23,67,331,30,30,40,044,31,20,39,218,20*7E
$GPGSV,3,2,12,13,35,318,15,03,32,136,34,06,31,117,31,32,30,188,36*77
$GPGSV,3,3,12,07,18,275,18,10,10,319,,31,09,071,31,19,08,163,*7D
$GPRMC,231323.000,A,3353.7575,N,09832.0302,W,0.10,271.21,290312,,,D*71
$GPGGA,231324.000,3353.7574,N,09832.0302,W,2,07,1.7,296.3,M,-23.7,M,0.8,0000*4C
$GPGSA,A,3,20,03,30,32,06,16,23,,,,,,4.4,1.7,4.1*32
$GPRMC,231324.000,A,3353.7574,N,09832.0302,W,0.07,255.59,290312,,,D*78
$GPGGA,231325.000,3353.7574,N,09832.0302,W,2,07,1.7,296.5,M,-23.7,M,1.8,0000*4A
$GPGSA,A,3,20,03,30,32,06,16,23,,,,,,4.4,1.7,4.1*32
$GPRMC,231325.000,A,3353.7574,N,09832.0302,W,0.12,96.80,290312,,,D*44
$GPGGA,231326.000,3353.7574,N,09832.0302,W,2,07,1.7,296.7,M,-23.7,M,2.8,0000*48
$GPGSA,A,3,20,03,30,32,06,16,23,,,,,,4.4,1.7,4.0*33
$GPRMC,231326.000,A,3353.7574,N,09832.0302,W,0.21,259.83,290312,,,D*75
$GPGGA,231327.000,3353.7573,N,09832.0302,W,2,07,1.7,297.0,M,-23.7,M,0.8,0000*4A
$GPGSA,A,3,20,03,30,32,06,16,23,,,,,,4.4,1.7,4.0*33
$GPRMC,231327.000,A,3353.7573,N,09832.0302,W,0.23,248.56,290312,,,D*79
$GPGGA,231328.000,3353.7573,N,09832.0303,W,2,07,1.7,297.3,M,-23.7,M,0.8,0000*47
$GPGSA,A,3,20,03,30,32,06,16,23,,,,,,4.4,1.7,4.0*33
$GPGSV,3,1,12,16,68,056,28,23,67,331,31,30,40,044,32,20,39,218,19*76
$GPGSV,3,2,12,13,35,318,15,03,32,136,34,06,31,117,31,32,30,188,36*77
$GPGSV,3,3,12,07,18,275,18,10,10,319,,31,09,071,31,19,08,163,*7D
$GPRMC,231328.000,A,3353.7573,N,09832.0303,W,0.15,265.15,290312,,,D*7A
$GPGGA,231329.000,3353.7573,N,09832.0303,W,2,07,1.7,297.6,M,-23.7,M,0.8,0000*43
$GPGSA,A,3,20,03,30,32,06,16,23,,,,,,4.4,1.7,4.0*33
$GPRMC,231329.000,A,3353.7573,N,09832.0303,W,0.10,256.13,290312,,,D*78
$GPGGA,231330.000,3353.7572,N,09832.0304,W,2,07,1.7,297.9,M,-23.7,M,0.8,0000*42
$GPGSA,A,3,20,03,30,32,06,16,23,,,,,,4.4,1.7,4.0*33
$GPRMC,231330.000,A,3353.7572,N,09832.0304,W,0.16,263.66,290312,,,D*74
$GPGGA,231331.000,3353.7572,N,09832.0304,W,2,07,1.7,298.2,M,-23.7,M,1.8,0000*46
$GPGSA,A,3,20,03,30,32,06,16,23,,,,,,4.4,1.7,4.0*33
$GPRMC,231331.000,A,3353.7572,N,09832.0304,W,0.21,257.86,290312,,,D*78
$GPGGA,231332.000,3353.7572,N,09832.0304,W,2,07,1.7,298.5,M,-23.7,M,0.8,0000*43
$GPGSA,A,3,20,03,30,32,06,16,23,,,,,,4.4,1.7,4.0*33
$GPRMC,231332.000,A,3353.7572,N,09832.0304,W,0.07,98.89,290312,,,D*41
$GPGGA,231333.000,3353.7571,N,09832.0303,W,2,07,1.7,298.7,M,-23.7,M,0.8,0000*44
$GPGSA,A,3,20,03,30,32,06,16,23,,,,,,4.4,1.7,4.0*33
$GPGSV,3,1,12,16,68,056,29,23,67,331,31,30,40,044,33,20,39,218,18*77
$GPGSV,3,2,12,13,35,318,16,03,32,136,34,06,31,117,31,32,30,188,35*77
$GPGSV,3,3,12,07,18,275,17,10,10,319,,31,09,071,31,19,08,163,*72
$GPRMC,231333.000,A,3353.7571,N,09832.0303,W,0.20,81.68,290312,,,D*46
$GPGGA,231334.000,3353.7571,N,09832.0303,W,2,07,1.7,298.8,M,-23.7,M,0.8,0000*4C
$GPGSA,A,3,20,03,30,32,06,16,23,,,,,,4.4,1.7,4.0*33
$GPRMC,231334.000,A,3353.7571,N,09832.0303,W,0.10,231.96,290312,,,D*7A
$GPGGA,231335.000,3353.7571,N,09832.0303,W,2,07,1.7,299.0,M,-23.7,M,0.8,0000*44
$GPGSA,A,3,20,03,30,32,06,16,23,,,,,,4.4,1.7,4.0*33
$GPRMC,231335.000,A,3353.7571,N,09832.0303,W,0.11,103.06,290312,,,D*71
$GPGGA,231336.000,3353.7570,N,09832.0302,W,2,07,1.7,299.2,M,-23.7,M,1.8,0000*44
$GPGSA,A,3,20,03,30,32,06,16,23,,,,,,4.4,1.7,4.0*33
$GPRMC,231336.000,A,3353.7570,N,09832.0302,W,0.16,106.64,290312,,,D*74
$GPGGA,231337.000,3353.7570,N,09832.0301,W,2,07,1.7,299.3,M,-23.7,M,2.8,0000*44
$GPGSA,A,3,20,03,30,32,06,16,23,,,,,,4.4,1.7,4.0*33
$GPRMC,231337.000,A,3353.7570,N,09832.0301,W,0.20,86.42,290312,,,D*4E
$GPGGA,231338.000,3353.7570,N,09832.0301,W,2,07,1.7,299.4,M,-23.7,M,3.8,0000*4D
$GPGSA,A,3,20,03,30,32,06,16,23,,,,,,4.4,1.7,4.0*33
$GPGSV,3,1,12,16,68,056,30,23,67,331,31,30,40,044,33,20,39,218,18*7F
$GPGSV,3,2,12,13,35,318,17,03,32,136,33,06,31,117,31,32,30,188,35*71
$GPGSV,3,3,12,07,18,275,16,10,10,319,,31,09,071,31,19,08,163,*73
$GPRMC,231338.000,A,3353.7570,N,09832.0301,W,0.26,84.15,290312,,,D*47
$GPGGA,231339.000,3353.7570,N,09832.0300,W,2,07,1.7,299.6,M,-23.7,M,0.8,0000*4C
$GPGSA,A,3,20,03,30,32,06,16,23,,,,,,4.4,1.7,4.0*33
$GPRMC,231339.000,A,3353.7570,N,09832.0300,W,0.26,87.69,290312,,,D*4F
$GPGGA,231340.000,3353.7569,N,09832.0299,W,2,07,1.7,299.9,M,-23.7,M,0.8,0000*44
$GPGSA,A,3,20,03,30,32,06,16,23,,,,,,4.4,1.7,4.0*33
$GPRMC,231340.000,A,3353.7569,N,09832.0299,W,0.34,83.71,290312,,,D*46
$GPGGA,231341.000,3353.7569,N,09832.0297,W,2,07,1.7,300.1,M,-23.7,M,0.8,0000*42
$GPGSA,A,3,20,03,30,32,06,16,23,,,,,,4.4,1.7,4.0*33
$GPRMC,231341.000,A,3353.7569,N,09832.0297,W,0.39,78.06,290312,,,D*40
$GPGGA,231342.000,3353.7569,N,09832.0296,W,2,07,1.7,300.4,M,-23.7,M,1.8,0000*44
$GPGSA,A,3,20,03,30,32,06,16,23,,,,,,4.4,1.7,4.0*33
$GPRMC,231342.000,A,3353.7569,N,09832.0296,W,0.35,79.12,290312,,,D*4A
$GPGGA,231343.000,3353.7568,N,09832.0294,W,2,07,1.7,300.6,M,-23.7,M,2.8,0000*47
$GPGSA,A,3,20,03,30,32,06,16,23,,,,,,4.4,1.7,4.0*33
$GPGSV,3,1,12,16,68,056,31,23,67,331,32,30,40,044,33,20,39,218,16*73
$GPGSV,3,2,12,13,35,318,18,03,32,136,33,06,31,117,31,32,30,188,35*7E
$GPGSV,3,3,12,07,18,275,16,10,10,319,,31,09,071,30,19,08,163,*72
$GPRMC,231343.000,A,3353.7568,N,09832.0294,W,0.34,83.14,290312,,,D*4A
$GPGGA,231344.000,3353.7568,N,09832.0293,W,2,07,1.7,300.9,M,-23.7,M,3.8,0000*49
$GPGSA,A,3,20,03,30,32,06,16,23,,,,,,4.4,1.7,4.0*33
$GPRMC,231344.000,A,3353.7568,N,09832.0293,W,0.36,82.38,290312,,,D*47
$GPGGA,231345.000,3353.7568,N,09832.0292,W,2,07,1.7,301.0,M,-23.7,M,0.8,0000*42
$GPGSA,A,3,20,03,30,32,06,16,23,,,,,,4.4,1.7,4.0*33
$GPRMC,231345.000,A,3353.7568,N,09832.0292,W,0.33,81.41,290312,,,D*4F
$GPGGA,231346.000,3353.7567,N,09832.0292,W,2,07,1.7,301.1,M,-23.7,M,0.8,0000*4F
$GPGSA,A,3,20,03,30,32,06,16,23,,,,,,4.4,1.7,4.0*33
$GPRMC,231346.000,A,3353.7567,N,09832.0292,W,0.16,236.23,290312,,,D*7E
$GPGGA,231347.000,3353.7567,N,09832.0293,W,2,07,1.7,301.1,M,-23.7,M,0.8,0000*4F
$GPGSA,A,3,20,03,30,32,06,16,23,,,,,,4.4,1.7,4.0*33
$GPRMC,231347.000,A,3353.7567,N,09832.0293,W,0.30,237.38,290312,,,D*71
$GPGGA,231348.000,3353.7566,N,09832.0294,W,2,07,1.7,301.0,M,-23.7,M,0.8,0000*47
$GPGSA,A,3,20,03,30,32,06,16,23,,,,,,4.4,1.7,4.0*33
$GPGSV,3,1,12,16,68,056,32,23,67,331,33,30,40,044,32,20,39,218,15*73
$GPGSV,3,2,12,13,35,318,19,03,32,136,34,06,31,117,31,32,30,188,35*78
$GPGSV,3,3,12,07,18,275,15,10,10,319,,31,09,071,30,19,08,163,*71
$GPRMC,231348.000,A,3353.7566,N,09832.0294,W,0.36,243.79,290312,,,D*78
$GPGGA,231349.000,3353.7565,N,09832.0295,W,2,07,1.7,301.0,M,-23.7,M,0.8,0000*44
$GPGSA,A,3,20,03,30,32,06,16,23,,,,,,4.4,1.7,4.0*33
$GPRMC,231349.000,A,3353.7565,N,09832.0295,W,0.34,244.81,290312,,,D*79
$GPGGA,231350.000,3353.7565,N,09832.0296,W,2,07,1.7,300.9,M,-23.7,M,1.8,0000*46
$GPGSA,A,3,20,03,30,32,06,16,23,,,,,,4.4,1.7,4.0*33
$GPRMC,231350.000,A,3353.7565,N,09832.0296,W,0.33,247.17,290312,,,D*79
$GPGGA,231351.000,3353.7565,N,09832.0297,W,2,07,1.7,300.8,M,-23.7,M,0.8,0000*46
$GPGSA,A,3,20,03,30,32,06,16,23,,,,,,4.4,1.7,4.0*33
$GPRMC,231351.000,A,3353.7565,N,09832.0297,W,0.34,247.86,290312,,,D*76
$GPGGA,231352.000,3353.7564,N,09832.0298,W,2,07,1.7,300.8,M,-23.7,M,0.8,0000*4B
$GPGSA,A,3,20,03,30,32,06,16,23,,,,,,4.4,1.7,4.0*33
$GPRMC,231352.000,A,3353.7564,N,09832.0298,W,0.34,245.89,290312,,,D*76
$GPGGA,231353.000,3353.7564,N,09832.0299,W,2,07,1.7,300.8,M,-23.7,M,0.8,0000*4B
$GPGSA,A,3,20,03,30,32,06,16,23,,,,,,4.4,1.7,4.0*33
$GPGSV,3,1,12,16,68,056,32,23,67,331,33,30,40,044,28,20,39,218,14*79
$GPGSV,3,2,12,13,35,318,19,03,32,136,34,06,31,117,30,32,30,188,35*79
$GPGSV,3,3,12,07,18,275,17,10,10,319,,31,09,071,30,19,08,163,*73
$GPRMC,231353.000,A,3353.7564,N,09832.0299,W,0.30,247.20,290312,,,D*73
$GPGGA,231354.000,3353.7568,N,09832.0300,W,2,07,1.7,299.2,M,-23.7,M,1.8,0000*4B
$GPGSA,A,3,20,03,30,32,06,16,23,,,,,,4.4,1.7,4.0*33
$GPRMC,231354.000,A,3353.7568,N,09832.0300,W,0.33,276.21,290312,,,D*79
$GPGGA,231355.000,3353.7567,N,09832.0301,W,2,07,1.7,299.5,M,-23.7,M,2.8,0000*40
$GPGSA,A,3,20,03,30,32,06,16,23,,,,,,4.4,1.7,4.0*33
$GPRMC,231355.000,A,3353.7567,N,09832.0301,W,0.34,251.52,290312,,,D*70
$GPGGA,231356.000,3353.7566,N,09832.0302,W,2,07,1.7,299.8,M,-23.7,M,3.8,0000*4D
$GPGSA,A,3,20,03,30,32,06,16,23,,,,,,4.4,1.7,4.0*33
$GPRMC,231356.000,A,3353.7566,N,09832.0302,W,0.26,261.61,290312,,,D*71
$GPGGA,231357.000,3353.7565,N,09832.0302,W,2,07,1.7,300.0,M,-23.7,M,0.8,0000*45
$GPGSA,A,3,20,03,30,32,06,16,23,,,,,,4.4,1.7,4.0*33
$GPRMC,231357.000,A,3353.7565,N,09832.0302,W,0.33,260.82,290312,,,D*7B
$GPGGA,231358.000,3353.7564,N,09832.0303,W,2,07,1.7,300.2,M,-23.7,M,0.8,0000*48
$GPGSA,A,3,20,03,30,32,06,16,23,,,,,,4.4,1.7,4.0*33
$GPGSV,3,1,12,16,68,056,32,23,67,331,33,30,40,044,27,20,39,218,14*76
$GPGSV,3,2,12,13,35,318,18,03,32,136,34,06,31,117,30,32,30,188,35*78
$GPGSV,3,3,12,07,18,275,18,10,10,319,,31,09,071,30,19,08,163,*7C
$GPRMC,231358.000,A,3353.7564,N,09832.0303,W,0.30,257.61,290312,,,D*7E
$GPGGA,231359.000,3353.7563,N,09832.0304,W,2,07,1.7,300.7,M,-23.7,M,0.8,0000*4C
$GPGSA,A,3,20,03,30,32,06,16,23,,,,,,4.4,1.7,4.0*33
$GPRMC,231359.000,A,3353.7563,N,09832.0304,W,0.31,255.92,290312,,,D*70
$GPGGA,231400.000,3353.7561,N,09832.0305,W,2,07,1.7,301.3,M,-23.7,M,1.8,0000*40
$GPGSA,A,3,20,03,30,32,06,16,23,,,,,,4.4,1.7,4.0*33
$GPRMC,231400.000,A,3353.7561,N,09832.0305,W,0.29,250.30,290312,,,D*7C
$GPGGA,231401.000,3353.7559,N,09832.0304,W,2,07,1.7,301.9,M,-23.7,M,0.8,0000*40
$GPGSA,A,3,20,03,30,32,06,16,23,,,,,,4.4,1.7,4.0*33
$GPRMC,231401.000,A,3353.7559,N,09832.0304,W,0.11,92.19,290312,,,D*4B
$GPGGA,231402.000,3353.7558,N,09832.0304,W,2,07,1.7,302.6,M,-23.7,M,0.8,0000*4E
$GPGSA,A,3,20,03,30,32,06,16,23,,,,,,4.4,1.7,4.0*33
$GPRMC,231402.000,A,3353.7558,N,09832.0304,W,0.07,124.70,290312,,,D*7D
$GPGGA,231403.000,3353.7556,N,09832.0304,W,2,07,1.7,303.2,M,-23.7,M,0.8,0000*44
$GPGSA,A,3,20,03,30,32,06,16,23,,,,,,4.4,1.7,4.0*33
$GPGSV,3,1,12,16,68,056,33,23,67,331,33,30,40,044,28,20,39,218,17*7B
$GPGSV,3,2,12,13,35,318,19,03,32,136,34,06,31,117,30,32,30,188,35*79
$GPGSV,3,3,12,07,18,275,17,10,10,319,,31,09,071,30,19,08,163,*73
$GPRMC,231403.000,A,3353.7556,N,09832.0304,W,0.28,227.86,290312,,,D*76
$GPGGA,231404.000,3353.7554,N,09832.0304,W,2,07,1.7,304.0,M,-23.7,M,0.8,0000*44
$GPGSA,A,3,20,03,30,32,06,16,23,,,,,,4.4,1.7,4.0*33
$GPRMC,231404.000,A,3353.7554,N,09832.0304,W,0.18,223.03,290312,,,D*79
$GPGGA,231405.000,3353.7553,N,09832.0303,W,2,07,1.7,304.8,M,-23.7,M,0.8,0000*4D
$GPGSA,A,3,20,03,30,32,06,16,23,,,,,,4.4,1.7,4.0*33
$GPRMC,231405.000,A,3353.7553,N,09832.0303,W,0.19,110.32,290312,,,D*78
$GPGGA,231406.000,3353.7551,N,09832.0302,W,2,07,1.7,305.5,M,-23.7,M,1.8,0000*40
$GPGSA,A,3,20,03,30,32,06,16,23,,,,,,4.4,1.7,4.0*33
$GPRMC,231406.000,A,3353.7551,N,09832.0302,W,0.17,202.38,290312,,,D*7C
$GPGGA,231407.000,3353.7550,N,09832.0302,W,2,07,1.7,306.1,M,-23.7,M,2.8,0000*44
$GPGSA,A,3,20,03,30,32,06,16,23,,,,,,4.4,1.7,4.0*33
$GPRMC,231407.000,A,3353.7550,N,09832.0302,W,0.17,201.98,290312,,,D*75
$GPGGA,231408.000,3353.7548,N,09832.0301,W,2,07,1.7,306.7,M,-23.7,M,3.8,0000*46
$GPGSA,A,3,20,03,30,32,06,16,23,,,,,,4.4,1.7,4.0*33
$GPGSV,3,1,12,16,68,056,33,23,67,331,33,30,40,044,29,20,39,218,15*78
$GPGSV,3,2,12,13,35,318,19,03,32,136,33,06,31,117,29,32,30,188,34*77
$GPGSV,3,3,12,07,18,275,15,10,10,319,,31,09,071,30,19,08,163,*71
$GPRMC,231408.000,A,3353.7548,N,09832.0301,W,0.16,196.44,290312,,,D*7D
$GPGGA,231409.000,3353.7547,N,09832.0301,W,2,06,2.0,307.2,M,-23.7,M,0.8,0000*4A
$GPGSA,A,3,03,30,32,06,16,23,,,,,,,4.6,2.0,4.1*36
$GPRMC,231409.000,A,3353.7547,N,09832.0301,W,0.12,160.97,290312,,,D*70
$GPGGA,231410.000,3353.7547,N,09832.0301,W,2,06,2.0,307.5,M,-23.7,M,0.8,0000*45
$GPGSA,A,3,03,30,32,06,16,23,,,,,,,4.6,2.0,4.1*36
$GPRMC,231410.000,A,3353.7547,N,09832.0301,W,0.11,156.08,290312,,,D*78
$GPGGA,231411.000,3353.7546,N,09832.0301,W,2,06,2.0,307.8,M,-23.7,M,0.8,0000*48
$GPGSA,A,3,03,30,32,06,16,23,,,,,,,4.6,2.0,4.1*36
$GPRMC,231411.000,A,3353.7546,N,09832.0301,W,0.14,154.82,290312,,,D*7D
$GPGGA,231412.000,3353.7545,N,09832.0301,W,2,06,2.0,308.0,M,-23.7,M,1.8,0000*4E
$GPGSA,A,3,03,30,32,06,16,23,,,,,,,4.6,2.0,4.1*36
$GPRMC,231412.000,A,3353.7545,N,09832.0301,W,0.10,167.63,290312,,,D*76
$GPGGA,231413.000,3353.7544,N,09832.0301,W,2,06,2.0,308.3,M,-23.7,M,0.8,0000*4C
$GPGSA,A,3,03,30,32,06,16,23,,,,,,,4.6,2.0,4.1*36
$GPGSV,3,1,12,16,68,056,33,23,67,331,34,30,40,044,29,20,39,218,*7B
$GPGSV,3,2,12,13,35,318,19,03,32,136,33,06,31,117,28,32,30,188,34*76
$GPGSV,3,3,12,07,18,275,14,10,10,319,,31,09,071,31,19,08,163,*71
$GPRMC,231413.000,A,3353.7544,N,09832.0301,W,0.09,170.75,290312,,,D*7F
$GPGGA,231414.000,3353.7544,N,09832.0301,W,2,06,2.0,308.5,M,-23.7,M,0.8,0000*4D
$GPGSA,A,3,03,30,32,06,16,23,,,,,,,4.6,2.0,4.1*36
$GPRMC,231414.000,A,3353.7544,N,09832.0301,W,0.11,169.14,290312,,,D*7E
$GPGGA,231415.000,3353.7543,N,09832.0300,W,2,06,2.0,308.7,M,-23.7,M,0.8,0000*48
$GPGSA,A,3,03,30,32,06,16,23,,,,,,,4.6,2.0,4.1*36
$GPRMC,231415.000,A,3353.7543,N,09832.0300,W,0.12,142.03,290312,,,D*75
$GPGGA,231416.000,3353.7542,N,09832.0299,W,2,05,2.1,309.0,M,-23.7,M,0.8,0000*4F
$GPGSA,A,3,03,30,32,16,23,,,,,,,,4.7,2.1,4.1*30
$GPRMC,231416.000,A,3353.7542,N,09832.0299,W,0.22,114.28,290312,,,D*7F
$GPGGA,231417.000,3353.7542,N,09832.0299,W,2,06,2.0,309.2,M,-23.7,M,0.8,0000*4E
$GPGSA,A,3,03,30,32,06,16,23,,,,,,,4.6,2.0,4.1*36
$GPRMC,231417.000,A,3353.7542,N,09832.0299,W,0.06,126.08,290312,,,D*7B
$GPGGA,231418.000,3353.7542,N,09832.0299,W,2,07,1.7,309.3,M,-23.7,M,1.8,0000*44
$GPGSA,A,3,20,03,30,32,06,16,23,,,,,,4.3,1.7,4.0*34
$GPGSV,3,1,12,16,68,056,34,23,67,331,35,30,40,044,29,20,39,218,18*74
$GPGSV,3,2,12,13,35,318,19,03,32,136,33,06,31,117,19,32,30,188,34*74
$GPGSV,3,3,12,07,18,275,14,10,10,319,,31,09,071,31,19,08,163,*71
$GPRMC,231418.000,A,3353.7542,N,09832.0299,W,0.20,243.29,290312,,,D*73
$GPGGA,231419.000,3353.7542,N,09832.0299,W,2,07,1.7,309.5,M,-23.7,M,0.8,0000*42
$GPGSA,A,3,20,03,30,32,06,16,23,,,,,,4.3,1.7,4.0*34
$GPRMC,231419.000,A,3353.7542,N,09832.0299,W,0.21,252.92,290312,,,D*73
$GPGGA,231420.000,3353.7542,N,09832.0299,W,2,07,1.7,309.6,M,-23.7,M,1.8,0000*4A
$GPGSA,A,3,20,03,30,32,06,16,23,,,,,,4.3,1.7,4.0*34
$GPRMC,231420.000,A,3353.7542,N,09832.0299,W,0.09,21.83,290312,,,D*45
$GPGGA,231421.000,3353.7542,N,09832.0298,W,2,07,1.7,309.7,M,-23.7,M,0.8,0000*4A
$GPGSA,A,3,20,03,30,32,06,16,23,,,,,,4.3,1.7,4.0*34
$GPRMC,231421.000,A,3353.7542,N,09832.0298,W,0.23,69.63,290312,,,D*4F
$GPGGA,231422.000,3353.7542,N,09832.0297,W,2,07,1.7,309.7,M,-23.7,M,0.8,0000*46
$GPGSA,A,3,20,03,30,32,06,16,23,,,,,,4.3,1.7,4.0*34
$GPRMC,231422.000,A,3353.7542,N,09832.0297,W,0.38,94.69,290312,,,D*41
$GPGGA,231423.000,3353.7542,N,09832.0297,W,2,07,1.7,309.7,M,-23.7,M,0.8,0000*47
$GPGSA,A,3,20,03,30,32,06,16,23,,,,,,4.3,1.7,4.0*34
$GPGSV,3,1,12,16,68,056,34,23,67,331,35,30,40,044,29,20,39,218,18*74
$GPGSV,3,2,12,13,35,318,19,03,32,136,32,06,31,117,20,32,30,188,34*7F
$GPGSV,3,3,12,07,18,275,14,10,10,319,,31,09,071,31,19,08,163,*71
$GPRMC,231423.000,A,3353.7542,N,09832.0297,W,0.24,245.33,290312,,,D*7C
$GPGGA,231424.000,3353.7541,N,09832.0298,W,2,07,1.7,309.6,M,-23.7,M,1.8,0000*4C
$GPGSA,A,3,20,03,30,32,06,16,23,,,,,,4.3,1.7,4.0*34
$GPRMC,231424.000,A,3353.7541,N,09832.0298,W,0.41,264.03,290312,,,D*74
$GPGGA,231425.000,3353.7541,N,09832.0300,W,2,07,1.7,309.5,M,-23.7,M,2.8,0000*4D
$GPGSA,A,3,20,03,30,32,06,16,23,,,,,,4.3,1.7,4.0*34
$GPRMC,231425.000,A,3353.7541,N,09832.0300,W,0.41,253.52,290312,,,D*75
$GPGGA,231426.000,3353.7541,N,09832.0300,W,2,07,1.7,309.3,M,-23.7,M,3.8,0000*49
$GPGSA,A,3,20,03,30,32,06,16,23,,,,,,4.3,1.7,4.0*34
$GPRMC,231426.000,A,3353.7541,N,09832.0300,W,0.28,214.33,290312,,,D*7D
$GPGGA,231427.000,3353.7540,N,09832.0300,W,2,07,1.7,309.2,M,-23.7,M,0.8,0000*4B
$GPGSA,A,3,20,03,30,32,06,16,23,,,,,,4.3,1.7,4.0*34
$GPRMC,231427.000,A,3353.7540,N,09832.0300,W,0.26,214.63,290312,,,D*76
$GPGGA,231428.000,3353.7540,N,09832.0301,W,2,07,1.7,309.1,M,-23.7,M,0.8,0000*46
$GPGSA,A,3,20,03,30,32,06,16,23,,,,,,4.3,1.7,4.0*34
$GPGSV,3,1,12,16,68,056,33,23,67,331,35,30,40,044,29,20,39,218,18*73
$GPGSV,3,2,12,13,35,318,20,03,32,136,32,06,31,117,20,32,30,188,34*75
$GPGSV,3,3,12,07,18,275,15,10,10,319,,31,09,071,31,19,08,163,*70
$GPRMC,231428.000,A,3353.7540,N,09832.0301,W,0.24,248.60,290312,,,D*70
$GPGGA,231429.000,3353.7540,N,09832.0301,W,2,07,1.7,308.9,M,-23.7,M,0.8,0000*4E
$GPGSA,A,3,20,03,30,32,06,16,23,,,,,,4.3,1.7,4.0*34
$GPRMC,231429.000,A,3353.7540,N,09832.0301,W,0.33,273.89,290312,,,D*78
$GPGGA,231430.000,3353.7540,N,09832.0301,W,2,07,1.7,308.8,M,-23.7,M,1.8,0000*46
$GPGSA,A,3,20,03,30,32,06,16,23,,,,,,4.3,1.7,4.0*34
$GPRMC,231430.000,A,3353.7540,N,09832.0301,W,0.18,234.92,290312,,,D*70
$GPGGA,231431.000,3353.7540,N,09832.0301,W,2,07,1.7,308.6,M,-23.7,M,2.8,0000*4A
$GPGSA,A,3,20,03,30,32,06,16,23,,,,,,4.3,1.7,4.0*34
$GPRMC,231431.000,A,3353.7540,N,09832.0301,W,0.07,213.30,290312,,,D*72
$GPGGA,231432.000,3353.7540,N,09832.0300,W,2,07,1.7,308.4,M,-23.7,M,3.8,0000*4B
$GPGSA,A,3,20,03,30,32,06,16,23,,,,,,4.3,1.7,4.0*34
$GPRMC,231432.000,A,3353.7540,N,09832.0300,W,0.09,206.33,290312,,,D*79
$GPGGA,231433.000,3353.7541,N,09832.0301,W,2,07,1.7,308.1,M,-23.7,M,0.8,0000*4C
$GPGSA,A,3,20,03,30,32,06,16,23,,,,,,4.3,1.7,4.0*34
$GPGSV,3,1,12,16,68,056,33,23,67,331,36,30,40,044,28,20,39,218,17*7E
$GPGSV,3,2,12,13,35,318,20,03,32,136,32,06,31,117,22,32,30,188,35*76
$GPGSV,3,3,12,07,18,275,15,10,10,319,,31,09,071,32,19,08,163,*73
$GPRMC,231433.000,A,3353.7541,N,09832.0301,W,0.20,265.79,290312,,,D*78
$GPGGA,231434.000,3353.7541,N,09832.0299,W,2,07,1.7,307.8,M,-23.7,M,0.8,0000*4D
$GPGSA,A,3,20,03,30,32,06,16,23,,,,,,4.3,1.7,4.0*34
$GPRMC,231434.000,A,3353.7541,N,09832.0299,W,0.38,270.49,290312,,,D*71
$GPGGA,231435.000,3353.7544,N,09832.0298,W,2,07,1.7,306.3,M,-23.7,M,0.8,0000*42
$GPGSA,A,3,20,03,30,32,06,16,23,,,,,,4.3,1.7,4.0*34
$GPRMC,231435.000,A,3353.7544,N,09832.0298,W,0.29,252.28,290312,,,D*73
$GPGGA,231436.000,3353.7548,N,09832.0298,W,2,07,1.7,304.5,M,-23.7,M,0.8,0000*49
$GPGSA,A,3,20,03,30,32,06,16,23,,,,,,4.3,1.7,4.0*34
$GPRMC,231436.000,A,3353.7548,N,09832.0298,W,0.41,281.93,290312,,,D*7C
$GPGGA,231437.000,3353.7549,N,09832.0296,W,2,07,1.7,303.6,M,-23.7,M,0.8,0000*43
$GPGSA,A,3,20,03,30,32,06,16,23,,,,,,4.3,1.7,4.0*34
$GPRMC,231437.000,A,3353.7549,N,09832.0296,W,0.28,27.73,290312,,,D*4D
$GPGGA,231438.000,3353.7550,N,09832.0290,W,2,07,1.7,304.1,M,-23.7,M,1.8,0000*43
$GPGSA,A,3,20,03,30,32,06,16,23,,,,,,4.3,1.7,4.0*34
$GPGSV,3,1,12,16,68,056,32,23,67,331,36,30,40,044,19,20,39,218,18*72
$GPGSV,3,2,12,13,35,318,20,03,32,136,32,06,31,117,23,32,30,188,35*77
$GPGSV,3,3,12,07,18,275,16,10,10,319,,31,09,071,32,19,08,163,*70
$GPRMC,231438.000,A,3353.7550,N,09832.0290,W,0.72,49.28,290312,,,D*45
$GPGGA,231439.000,3353.7552,N,09832.0288,W,2,06,1.9,303.4,M,-23.7,M,0.8,0000*45
$GPGSA,A,3,03,30,32,06,16,23,,,,,,,4.5,1.9,4.1*3F
$GPRMC,231439.000,A,3353.7552,N,09832.0288,W,0.76,42.41,290312,,,D*4F
$GPGGA,231440.000,3353.7553,N,09832.0288,W,2,05,1.6,303.3,M,-23.7,M,0.8,0000*41
$GPGSA,A,3,03,32,06,16,23,,,,,,,,1.9,1.6,1.0*3E
$GPRMC,231440.000,A,3353.7553,N,09832.0288,W,0.32,13.80,290312,,,D*49
$GPGGA,231441.000,3353.7553,N,09832.0288,W,2,05,1.6,303.1,M,-23.7,M,0.8,0000*42
$GPGSA,A,3,03,32,06,16,23,,,,,,,,1.9,1.6,1.0*3E
$GPRMC,231441.000,A,3353.7553,N,09832.0288,W,0.30,346.18,290312,,,D*78
$GPGGA,231442.000,3353.7554,N,09832.0289,W,2,05,1.6,303.0,M,-23.7,M,1.8,0000*47
$GPGSA,A,3,03,32,06,16,23,,,,,,,,1.9,1.6,1.0*3E
$GPRMC,231442.000,A,3353.7554,N,09832.0289,W,0.42,19.80,290312,,,D*40
$GPGGA,231443.000,3353.7553,N,09832.0289,W,2,07,1.7,303.4,M,-23.7,M,2.8,0000*45
$GPGSA,A,3,20,03,30,32,06,16,23,,,,,,4.3,1.7,4.0*34
$GPGSV,3,1,12,16,68,056,32,23,67,331,36,30,40,044,19,20,39,218,19*73
$GPGSV,3,2,12,13,35,318,20,03,32,136,31,06,31,117,27,32,30,188,35*70
$GPGSV,3,3,12,07,18,275,23,10,10,319,,31,09,071,32,19,08,163,*76
$GPRMC,231443.000,A,3353.7553,N,09832.0289,W,0.13,4.23,290312,,,D*77
$GPGGA,231444.000,3353.7553,N,09832.0287,W,2,07,1.7,304.0,M,-23.7,M,3.8,0000*4E
$GPGSA,A,3,20,03,30,32,06,16,23,,,,,,4.3,1.7,4.0*34
$GPRMC,231444.000,A,3353.7553,N,09832.0287,W,0.22,256.27,290312,,,D*7D
$GPGGA,231445.000,3353.7551,N,09832.0288,W,2,07,1.7,304.4,M,-23.7,M,0.8,0000*45
$GPGSA,A,3,20,03,30,32,06,16,23,,,,,,4.3,1.7,4.0*34
$GPRMC,231445.000,A,3353.7551,N,09832.0288,W,0.17,291.05,290312,,,D*7C
$GPGGA,231446.000,3353.7551,N,09832.0288,W,2,07,1.7,304.6,M,-23.7,M,0.8,0000*44
$GPGSA,A,3,20,03,30,32,06,16,23,,,,,,4.3,1.7,4.0*34
$GPRMC,231446.000,A,3353.7551,N,09832.0288,W,0.25,266.69,290312,,,D*7C
$GPGGA,231447.000,3353.7548,N,09832.0289,W,2,07,1.7,305.5,M,-23.7,M,0.8,0000*4E
$GPGSA,A,3,20,03,30,32,06,16,23,,,,,,4.3,1.7,4.0*34
$GPRMC,231447.000,A,3353.7548,N,09832.0289,W,0.40,248.02,290312,,,D*76
$GPGGA,231448.000,3353.7548,N,09832.0288,W,2,07,1.7,306.1,M,-23.7,M,1.8,0000*46
$GPGSA,A,3,20,03,30,32,06,16,23,,,,,,4.3,1.7,4.0*34
$GPGSV,3,1,12,16,68,056,32,23,67,331,37,30,40,044,25,20,39,218,20*77
$GPGSV,3,2,12,13,35,318,20,03,32,136,31,06,31,117,28,32,30,188,35*7F
$GPGSV,3,3,12,07,18,275,20,10,10,319,,31,09,071,32,19,08,163,*75
$GPRMC,231448.000,A,3353.7548,N,09832.0288,W,0.05,305.00,290312,,,D*73
$GPGGA,231449.000,3353.7545,N,09832.0288,W,2,07,1.7,307.2,M,-23.7,M,0.8,0000*49
$GPGSA,A,3,20,03,30,32,06,16,23,,,,,,4.3,1.7,4.0*34
$GPRMC,231449.000,A,3353.7545,N,09832.0288,W,0.12,261.32,290312,,,D*7B
$GPGGA,231450.000,3353.7545,N,09832.0285,W,2,07,1.7,307.8,M,-23.7,M,1.8,0000*47
$GPGSA,A,3,20,03,30,32,06,16,23,,,,,,4.3,1.7,4.0*34
$GPRMC,231450.000,A,3353.7545,N,09832.0285,W,0.24,53.59,290312,,,D*45
$GPGGA,231451.000,3353.7541,N,09832.0285,W,2,07,1.7,309.4,M,-23.7,M,0.8,0000*41
$GPGSA,A,3,20,03,30,32,06,16,23,,,,,,4.3,1.7,4.0*34
$GPRMC,231451.000,A,3353.7541,N,09832.0285,W,0.19,219.49,290312,,,D*73
$GPGGA,231452.000,3353.7541,N,09832.0284,W,2,07,1.7,310.0,M,-23.7,M,0.8,0000*4F
$GPGSA,A,3,20,03,30,32,06,16,23,,,,,,4.3,1.7,4.0*34
$GPRMC,231452.000,A,3353.7541,N,09832.0284,W,0.24,227.51,290312,,,D*7B
$GPGGA,231453.000,3353.7528,N,09832.0282,W,2,07,1.7,315.0,M,-23.7,M,0.8,0000*42
$GPGSA,A,3,20,03,30,32,06,16,23,,,,,,4.3,1.7,4.0*34
$GPGSV,3,1,12,16,68,056,31,23,67,331,37,30,40,044,24,20,39,218,20*75
$GPGSV,3,2,12,13,35,318,20,03,32,136,30,06,31,117,28,32,30,188,35*7E
$GPGSV,3,3,12,07,18,275,20,10,10,319,,31,09,071,32,19,08,163,*75
$GPRMC,231453.000,A,3353.7528,N,09832.0282,W,0.32,167.42,290312,,,D*71
$GPGGA,231454.000,3353.7528,N,09832.0280,W,2,07,1.7,315.9,M,-23.7,M,1.8,0000*4F
$GPGSA,A,3,20,03,30,32,06,16,23,,,,,,4.3,1.7,3.9*3A
$GPRMC,231454.000,A,3353.7528,N,09832.0280,W,0.40,106.51,290312,,,D*74
$GPGGA,231455.000,3353.7511,N,09832.0276,W,2,07,1.7,322.9,M,-23.7,M,0.8,0000*48
$GPGSA,A,3,20,03,30,32,06,16,23,,,,,,4.3,1.7,3.9*3A
$GPRMC,231455.000,A,3353.7511,N,09832.0276,W,0.46,154.49,290312,,,D*7E
$GPGGA,231456.000,3353.7510,N,09832.0275,W,2,07,1.7,323.8,M,-23.7,M,1.8,0000*48
$GPGSA,A,3,20,03,30,32,06,16,23,,,,,,4.3,1.7,3.9*3A
$GPRMC,231456.000,A,3353.7510,N,09832.0275,W,0.54,172.21,290312,,,D*76
$GPGGA,231457.000,3353.7508,N,09832.0274,W,2,07,1.7,324.6,M,-23.7,M,0.8,0000*49
$GPGSA,A,3,20,03,30,32,06,16,23,,,,,,4.3,1.7,3.9*3A
$GPRMC,231457.000,A,3353.7508,N,09832.0274,W,0.78,191.44,290312,,,D*7F
$GPGGA,231458.000,3353.7510,N,09832.0276,W,2,07,1.7,323.5,M,-23.7,M,0.8,0000*49
$GPGSA,A,3,20,03,30,32,06,16,23,,,,,,4.3,1.7,3.9*3A
$GPGSV,3,1,12,16,68,056,31,23,67,331,37,30,40,044,16,20,39,218,20*74
$GPGSV,3,2,12,13,35,318,20,03,32,136,30,06,31,117,28,32,30,188,35*7E
$GPGSV,3,3,12,07,18,275,19,10,10,319,,31,09,071,32,19,08,163,*7F
$GPRMC,231458.000,A,3353.7510,N,09832.0276,W,0.89,200.32,290312,,,D*7F
$GPGGA,231459.000,3353.7508,N,09832.0276,W,2,07,1.7,324.1,M,-23.7,M,0.8,0000*42
$GPGSA,A,3,20,03,30,32,06,16,23,,,,,,4.3,1.7,3.9*3A
$GPRMC,231459.000,A,3353.7508,N,09832.0276,W,0.96,200.98,290312,,,D*79
$GPGGA,231500.000,3353.7512,N,09832.0278,W,2,07,1.7,322.2,M,-23.7,M,0.8,0000*4F
$GPGSA,A,3,20,03,30,32,06,16,23,,,,,,4.3,1.7,3.9*3A
$GPRMC,231500.000,A,3353.7512,N,09832.0278,W,0.63,182.55,290312,,,D*73
$GPGGA,231501.000,3353.7511,N,09832.0278,W,2,07,1.7,322.2,M,-23.7,M,1.8,0000*4C
$GPGSA,A,3,20,03,30,32,06,16,23,,,,,,4.3,1.7,3.9*3A
$GPRMC,231501.000,A,3353.7511,N,09832.0278,W,0.44,188.13,290312,,,D*7C
$GPGGA,231502.000,3353.7511,N,09832.0279,W,2,07,1.7,322.1,M,-23.7,M,2.8,0000*4E
$GPGSA,A,3,20,03,30,32,06,16,23,,,,,,4.3,1.7,3.9*3A
$GPRMC,231502.000,A,3353.7511,N,09832.0279,W,0.47,187.61,290312,,,D*77
$GPGGA,231503.000,3353.7510,N,09832.0278,W,2,07,1.7,322.9,M,-23.7,M,0.8,0000*45
$GPGSA,A,3,20,03,30,32,06,16,23,,,,,,4.3,1.7,3.9*3A
$GPGSV,3,1,12,16,68,056,31,23,67,331,37,30,40,044,18,20,39,218,20*7A
$GPGSV,3,2,12,13,35,318,20,03,32,136,29,06,31,117,28,32,30,188,35*76
$GPGSV,3,3,12,07,18,275,18,10,10,319,,31,09,071,32,19,08,163,*7E
$GPRMC,231503.000,A,3353.7510,N,09832.0278,W,0.64,208.16,290312,,,D*73
$GPGGA,231504.000,3353.7509,N,09832.0277,W,0,06,,323.3,M,-23.7,M,,0000*43
$GPGSA,A,1,20,03,32,06,16,23,,,,,,,,,*1E
$GPRMC,231504.000,V,3353.7509,N,09832.0277,W,,,290312,,,N*61
$GPGGA,231505.000,3353.7509,N,09832.0277,W,0,06,,323.5,M,-23.7,M,,0000*44
$GPGSA,A,1,20,03,32,06,16,23,,,,,,,,,*1E
$GPRMC,231505.000,V,3353.7509,N,09832.0277,W,,,290312,,,N*60
$GPGGA,231506.000,3353.7515,N,09832.0278,W,2,07,1.7,320.8,M,-23.7,M,0.8,0000*46
$GPGSA,A,3,20,03,30,32,06,16,23,,,,,,4.3,1.7,3.9*3A
$GPRMC,231506.000,A,3353.7515,N,09832.0278,W,0.03,225.20,290312,,,D*78
$GPGGA,231507.000,3353.7516,N,09832.0276,W,2,07,1.7,320.9,M,-23.7,M,1.8,0000*4A
$GPGSA,A,3,20,03,30,32,06,16,23,,,,,,4.3,1.7,3.9*3A
$GPRMC,231507.000,A,3353.7516,N,09832.0276,W,0.41,65.78,290312,,,D*49
$GPGGA,231508.000,3353.7516,N,09832.0272,W,2,07,1.7,321.3,M,-23.7,M,2.8,0000*49
$GPGSA,A,3,20,03,30,32,06,16,23,,,,,,4.3,1.7,3.9*3A
$GPGSV,3,1,12,16,68,056,31,23,67,331,36,30,40,044,18,20,39,218,20*7B
$GPGSV,3,2,12,13,35,318,21,03,32,136,28,06,31,117,29,32,30,188,34*76
$GPGSV,3,3,12,07,18,275,18,10,10,319,,31,09,071,33,19,08,163,*7F
$GPRMC,231508.000,A,3353.7516,N,09832.0272,W,0.27,75.86,290312,,,D*42
$GPGGA,231509.000,3353.7517,N,09832.0269,W,2,07,1.7,321.7,M,-23.7,M,0.8,0000*45
$GPGSA,A,3,20,03,30,32,06,16,23,,,,,,4.3,1.7,3.9*3A
$GPRMC,231509.000,A,3353.7517,N,09832.0269,W,0.18,115.99,290312,,,D*7D
$GPGGA,231510.000,3353.7517,N,09832.0265,W,0,06,,321.9,M,-23.7,M,,0000*42
$GPGSA,A,1,20,03,32,06,16,23,,,,,,,,,*1E
$GPRMC,231510.000,V,3353.7517,N,09832.0265,W,,,290312,,,N*68
$GPGGA,231511.000,3353.7515,N,09832.0263,W,2,07,1.7,322.5,M,-23.7,M,0.8,0000*45
$GPGSA,A,3,20,03,30,32,06,16,23,,,,,,4.3,1.7,3.9*3A
$GPRMC,231511.000,A,3353.7515,N,09832.0263,W,0.31,129.19,290312,,,D*70
$GPGGA,231512.000,3353.7514,N,09832.0261,W,0,06,,323.1,M,-23.7,M,,0000*4D
$GPGSA,A,1,20,03,32,06,16,23,,,,,,,,,*1E
$GPRMC,231512.000,V,3353.7514,N,09832.0261,W,,,290312,,,N*6D
$GPGGA,231513.000,3353.7513,N,09832.0261,W,0,06,,323.4,M,-23.7,M,,0000*4E
$GPGSA,A,1,20,03,32,06,16,23,,,,,,,,,*1E
$GPGSV,3,1,12,16,68,056,31,23,67,331,36,30,40,044,16,20,39,218,19*7F
$GPGSV,3,2,12,13,35,318,21,03,32,136,28,06,31,117,29,32,30,188,34*76
$GPGSV,3,3,12,07,18,275,19,10,10,319,,31,09,071,33,19,08,163,*7E
$GPRMC,231513.000,V,3353.7513,N,09832.0261,W,,,290312,,,N*6B
$GPGGA,231514.000,3353.7511,N,09832.0260,W,2,07,1.7,323.9,M,-23.7,M,0.8,0000*4A
$GPGSA,A,3,20,03,30,32,06,16,23,,,,,,4.3,1.7,3.9*3A
$GPRMC,231514.000,A,3353.7511,N,09832.0260,W,0.41,161.87,290312,,,D*7E
$GPGGA,231515.000,3353.7509,N,09832.0260,W,2,07,1.7,324.5,M,-23.7,M,0.8,0000*49
$GPGSA,A,3,20,03,30,32,06,16,23,,,,,,4.3,1.7,3.9*3A
$GPRMC,231515.000,A,3353.7509,N,09832.0260,W,0.45,185.80,290312,,,D*7F
$GPGGA,231516.000,3353.7499,N,09832.0259,W,2,07,1.7,328.6,M,-23.7,M,0.8,0000*47
$GPGSA,A,3,20,03,30,32,06,16,23,,,,,,4.3,1.7,3.9*3A
$GPRMC,231516.000,A,3353.7499,N,09832.0259,W,0.76,201.22,290312,,,D*79
$GPGGA,231517.000,3353.7496,N,09832.0259,W,2,07,1.7,329.4,M,-23.7,M,0.8,0000*4A
$GPGSA,A,3,20,03,30,32,06,16,23,,,,,,4.3,1.7,3.9*3A
$GPRMC,231517.000,A,3353.7496,N,09832.0259,W,0.75,200.07,290312,,,D*72
$GPGGA,231518.000,3353.7483,N,09832.0257,W,2,07,1.7,334.7,M,-23.7,M,1.8,0000*41
$GPGSA,A,3,20,03,30,32,06,16,23,,,,,,4.3,1.7,3.9*3A
$GPGSV,3,1,12,16,68,056,32,23,67,331,36,30,40,044,16,20,39,218,20*76
$GPGSV,3,2,12,13,35,318,22,03,32,136,28,06,31,117,29,32,30,188,34*75
$GPGSV,3,3,12,07,18,275,23,10,10,319,,31,09,071,34,19,08,163,*70
$GPRMC,231518.000,A,3353.7483,N,09832.0257,W,0.70,175.23,290312,,,D*75
$GPGGA,231519.000,3353.7475,N,09832.0255,W,2,07,1.7,338.2,M,-23.7,M,2.8,0000*41
$GPGSA,A,3,20,03,30,32,06,16,23,,,,,,4.3,1.7,3.9*3A
$GPRMC,231519.000,A,3353.7475,N,09832.0255,W,0.65,141.97,290312,,,D*73
$GPGGA,231520.000,3353.7468,N,09832.0253,W,2,07,1.7,341.4,M,-23.7,M,3.8,0000*48
$GPGSA,A,3,20,03,30,32,06,16,23,,,,,,4.3,1.7,3.9*3A
$GPRMC,231520.000,A,3353.7468,N,09832.0253,W,0.68,155.99,290312,,,D*75
$GPGGA,231521.000,3353.7467,N,09832.0252,W,2,07,1.7,342.1,M,-23.7,M,0.8,0000*42
$GPGSA,A,3,20,03,30,32,06,16,23,,,,,,4.3,1.7,3.9*3A
$GPRMC,231521.000,A,3353.7467,N,09832.0252,W,0.75,145.47,290312,,,D*74
$GPGGA,231522.000,3353.7468,N,09832.0251,W,2,07,1.7,341.7,M,-23.7,M,0.8,0000*48
$GPGSA,A,3,20,03,30,32,06,16,23,,,,,,4.3,1.7,3.9*3A
$GPRMC,231522.000,A,3353.7468,N,09832.0251,W,0.71,133.20,290312,,,D*7F
$GPGGA,231523.000,3353.7471,N,09832.0251,W,2,07,1.7,340.3,M,-23.7,M,0.8,0000*44
