$GPGGA,000346.000,3353.7580,N,09832.0261,W,2,09,1.0,313.8,M,-23.7,M,0.8,0000*49
$GPGSA,A,3,07,06,23,30,19,16,13,20,03,,,,1.7,1.0,1.4*3F
$GPRMC,000346.000,A,3353.7580,N,09832.0261,W,0.34,59.73,030412,,,D*4A
$GPGGA,000347.000,3353.7579,N,09832.0261,W,2,09,1.0,313.8,M,-23.7,M,0.8,0000*4E
$GPGSA,A,3,07,06,23,30,19,16,13,20,03,,,,1.7,1.0,1.4*3F
$GPRMC,000347.000,A,3353.7579,N,09832.0261,W,0.37,169.62,030412,,,D*7C
$GPGGA,000348.000,3353.7578,N,09832.0261,W,2,09,1.0,313.7,M,-23.7,M,1.8,0000*4E
$GPGSA,A,3,07,06,23,30,19,16,13,20,03,,,,1.7,1.0,1.4*3F
$GPRMC,000348.000,A,3353.7578,N,09832.0261,W,0.36,164.14,030412,,,D*7F
$GPGGA,000349.000,3353.7578,N,09832.0260,W,2,09,1.0,313.6,M,-23.7,M,0.8,0000*4E
$GPGSA,A,3,07,06,23,30,19,16,13,20,03,,,,1.7,1.0,1.4*3F
$GPRMC,000349.000,A,3353.7578,N,09832.0260,W,0.20,69.98,030412,,,D*40
$GPGGA,000350.000,3353.7577,N,09832.0260,W,2,09,1.0,313.5,M,-23.7,M,1.8,0000*4B
$GPGSA,A,3,07,06,23,30,19,16,13,20,03,,,,1.7,1.0,1.4*3F
$GPGSV,3,1,12,23,79,159,35,13,65,320,36,03,49,099,32,06,40,079,37*7E
$GPGSV,3,2,12,16,39,040,37,07,36,301,28,19,32,145,18,10,22,294,*72
$GPGSV,3,3,12,20,14,199,21,30,13,048,23,08,07,281,,32,04,178,29*77
$GPRMC,000350.000,A,3353.7577,N,09832.0260,W,0.45,175.41,030412,,,D*7C
$GPGGA,000351.000,3353.7577,N,09832.0260,W,2,09,1.0,313.5,M,-23.7,M,0.8,0000*4B
$GPGSA,A,3,07,06,23,30,19,16,13,20,03,,,,1.7,1.0,1.4*3F
$GPRMC,000351.000,A,3353.7577,N,09832.0260,W,0.23,138.62,030412,,,D*75
$GPGGA,000352.000,3353.7576,N,09832.0260,W,2,09,1.0,313.6,M,-23.7,M,0.8,0000*4A
$GPGSA,A,3,07,06,23,30,19,16,13,20,03,,,,1.7,1.0,1.4*3F
$GPRMC,000352.000,A,3353.7576,N,09832.0260,W,0.23,173.31,030412,,,D*7E
$GPGGA,000353.000,3353.7576,N,09832.0261,W,2,09,1.0,313.6,M,-23.7,M,0.8,0000*4A
$GPGSA,A,3,07,06,23,30,19,16,13,20,03,,,,1.7,1.0,1.4*3F
$GPRMC,000353.000,A,3353.7576,N,09832.0261,W,0.10,28.11,030412,,,D*43
$GPGGA,000354.000,3353.7576,N,09832.0260,W,2,09,1.0,313.8,M,-23.7,M,0.8,0000*42
$GPGSA,A,3,07,06,23,30,19,16,13,20,03,,,,1.7,1.0,1.4*3F
$GPRMC,000354.000,A,3353.7576,N,09832.0260,W,0.30,35.56,030412,,,D*48
$GPGGA,000355.000,3353.7576,N,09832.0260,W,2,09,1.0,313.9,M,-23.7,M,1.8,0000*43
$GPGSA,A,3,07,06,23,30,19,16,13,20,03,,,,1.7,1.0,1.4*3F
$GPGSV,3,1,12,23,78,159,35,13,65,319,37,03,49,098,33,06,40,078,37*75
$GPGSV,3,2,12,16,39,041,36,07,36,302,29,19,33,145,19,10,22,293,*77
$GPGSV,3,3,12,20,14,199,21,30,13,048,24,08,07,281,,32,03,178,29*77
$GPRMC,000355.000,A,3353.7576,N,09832.0260,W,0.17,83.71,030412,,,D*44
$GPGGA,000356.000,3353.7576,N,09832.0260,W,2,09,1.0,314.1,M,-23.7,M,0.8,0000*4E
$GPGSA,A,3,07,06,23,30,19,16,13,20,03,,,,1.7,1.0,1.4*3F
$GPRMC,000356.000,A,3353.7576,N,09832.0260,W,0.22,60.72,030412,,,D*4F
$GPGGA,000357.000,3353.7576,N,09832.0260,W,2,09,1.0,314.2,M,-23.7,M,0.8,0000*4C
$GPGSA,A,3,07,06,23,30,19,16,13,20,03,,,,1.7,1.0,1.4*3F
$GPRMC,000357.000,A,3353.7576,N,09832.0260,W,0.34,180.25,030412,,,D*74
$GPGGA,000358.000,3353.7575,N,09832.0260,W,2,09,1.0,314.5,M,-23.7,M,0.8,0000*47
$GPGSA,A,3,07,06,23,30,19,16,13,20,03,,,,1.7,1.0,1.4*3F
$GPRMC,000358.000,A,3353.7575,N,09832.0260,W,0.08,108.84,030412,,,D*7C
$GPGGA,000359.000,3353.7575,N,09832.0259,W,2,09,1.0,314.6,M,-23.7,M,0.8,0000*4F
$GPGSA,A,3,07,06,23,30,19,16,13,20,03,,,,1.7,1.0,1.4*3F
$GPRMC,000359.000,A,3353.7575,N,09832.0259,W,0.15,37.95,030412,,,D*46
$GPGGA,000400.000,3353.7576,N,09832.0259,W,2,09,1.0,314.8,M,-23.7,M,1.8,0000*48
$GPGSA,A,3,07,06,23,30,19,16,13,20,03,,,,1.7,1.0,1.4*3F
$GPGSV,3,1,12,23,78,159,35,13,65,319,37,03,49,098,33,06,40,078,37*75
$GPGSV,3,2,12,16,39,041,36,07,36,302,30,19,33,145,21,10,22,293,*74
$GPGSV,3,3,12,20,14,199,21,30,13,048,24,08,07,281,,32,03,178,28*76
$GPRMC,000400.000,A,3353.7576,N,09832.0259,W,0.36,21.57,030412,,,D*46
$GPGGA,000401.000,3353.7577,N,09832.0259,W,2,09,1.0,315.0,M,-23.7,M,0.8,0000*40
$GPGSA,A,3,07,06,23,30,19,16,13,20,03,,,,1.7,1.0,1.4*3F
$GPRMC,000401.000,A,3353.7577,N,09832.0259,W,0.08,111.06,030412,,,D*7D
$GPGGA,000402.000,3353.7576,N,09832.0258,W,2,09,1.0,315.0,M,-23.7,M,1.8,0000*42
$GPGSA,A,3,07,06,23,30,19,16,13,20,03,,,,1.7,1.0,1.4*3F
$GPRMC,000402.000,A,3353.7576,N,09832.0258,W,0.36,173.35,030412,,,D*77
$GPGGA,000403.000,3353.7575,N,09832.0259,W,2,09,1.0,315.0,M,-23.7,M,0.8,0000*40
$GPGSA,A,3,07,06,23,30,19,16,13,20,03,,,,1.7,1.0,1.4*3F
$GPRMC,000403.000,A,3353.7575,N,09832.0259,W,0.51,184.02,030412,,,D*79
$GPGGA,000404.000,3353.7575,N,09832.0258,W,2,09,1.0,315.1,M,-23.7,M,0.8,0000*47
$GPGSA,A,3,07,06,23,30,19,16,13,20,03,,,,1.7,1.0,1.4*3F
$GPRMC,000404.000,A,3353.7575,N,09832.0258,W,0.22,48.87,030412,,,D*47
$GPGGA,000405.000,3353.7574,N,09832.0258,W,2,09,1.0,315.1,M,-23.7,M,0.8,0000*47
$GPGSA,A,3,07,06,23,30,19,16,13,20,03,,,,1.7,1.0,1.4*3F
$GPGSV,3,1,12,23,78,159,35,13,65,319,37,03,49,098,33,06,40,078,38*7A
$GPGSV,3,2,12,16,39,041,35,07,36,302,30,19,33,145,22,10,22,293,*74
$GPGSV,3,3,12,20,14,199,21,30,13,048,24,08,07,281,,32,03,178,28*76
$GPRMC,000405.000,A,3353.7574,N,09832.0258,W,0.55,184.96,030412,,,D*76
$GPGGA,000406.000,3353.7572,N,09832.0258,W,2,09,1.0,315.0,M,-23.7,M,1.8,0000*42
$GPGSA,A,3,07,06,23,30,19,16,13,20,03,,,,1.7,1.0,1.4*3F
$GPRMC,000406.000,A,3353.7572,N,09832.0258,W,0.53,182.27,030412,,,D*79
$GPGGA,000407.000,3353.7571,N,09832.0258,W,2,09,1.0,315.1,M,-23.7,M,2.8,0000*42
$GPGSA,A,3,07,06,23,30,19,16,13,20,03,,,,1.7,1.0,1.4*3F
$GPRMC,000407.000,A,3353.7571,N,09832.0258,W,0.40,164.83,030412,,,D*7F
$GPGGA,000408.000,3353.7570,N,09832.0258,W,2,09,1.0,315.2,M,-23.7,M,3.8,0000*4E
$GPGSA,A,3,07,06,23,30,19,16,13,20,03,,,,1.7,1.0,1.4*3F
$GPRMC,000408.000,A,3353.7570,N,09832.0258,W,0.35,155.79,030412,,,D*74
$GPGGA,000409.000,3353.7570,N,09832.0258,W,2,09,1.0,315.2,M,-23.7,M,0.8,0000*4C
$GPGSA,A,3,07,06,23,30,19,16,13,20,03,,,,1.7,1.0,1.4*3F
$GPRMC,000409.000,A,3353.7570,N,09832.0258,W,0.04,136.08,030412,,,D*74
$GPGGA,000410.000,3353.7571,N,09832.0257,W,2,09,1.0,315.3,M,-23.7,M,0.8,0000*4B
$GPGSA,A,3,07,06,23,30,19,16,13,20,03,,,,1.7,1.0,1.4*3F
$GPGSV,3,1,12,23,78,159,35,13,65,319,37,03,49,098,34,06,40,078,38*7D
$GPGSV,3,2,12,16,39,041,34,07,36,302,30,19,33,145,21,10,22,293,*76
$GPGSV,3,3,12,20,14,199,21,30,13,048,24,08,07,281,,32,03,178,27*79
$GPRMC,000410.000,A,3353.7571,N,09832.0257,W,0.30,22.02,030412,,,D*4B
$GPGGA,000411.000,3353.7572,N,09832.0257,W,2,09,1.0,315.3,M,-23.7,M,0.8,0000*49
$GPGSA,A,3,07,06,23,30,19,16,13,20,03,,,,1.7,1.0,1.4*3F
$GPRMC,000411.000,A,3353.7572,N,09832.0257,W,0.05,62.04,030412,,,D*4D
$GPGGA,000412.000,3353.7573,N,09832.0257,W,2,09,1.0,315.4,M,-23.7,M,0.8,0000*4C
$GPGSA,A,3,07,06,23,30,19,16,13,20,03,,,,1.7,1.0,1.4*3F
$GPRMC,000412.000,A,3353.7573,N,09832.0257,W,0.16,12.18,030412,,,D*47
$GPGGA,000413.000,3353.7574,N,09832.0256,W,2,09,1.0,315.7,M,-23.7,M,0.8,0000*48
$GPGSA,A,3,07,06,23,30,19,16,13,20,03,,,,1.7,1.0,1.4*3F
$GPRMC,000413.000,A,3353.7574,N,09832.0256,W,0.43,25.50,030412,,,D*48
$GPGGA,000414.000,3353.7575,N,09832.0256,W,2,09,1.0,315.7,M,-23.7,M,1.8,0000*4F
$GPGSA,A,3,07,06,23,30,19,16,13,20,03,,,,1.7,1.0,1.4*3F
$GPRMC,000414.000,A,3353.7575,N,09832.0256,W,0.17,149.68,030412,,,D*7F
$GPGGA,000415.000,3353.7575,N,09832.0256,W,2,09,1.0,315.9,M,-23.7,M,0.8,0000*41
$GPGSA,A,3,07,06,23,30,19,16,13,20,03,,,,1.7,1.0,1.4*3F
$GPGSV,3,1,12,23,78,159,36,13,65,319,37,03,49,098,34,06,40,078,38*7E
$GPGSV,3,2,12,16,39,041,33,07,36,302,30,19,33,145,21,10,22,293,*71
$GPGSV,3,3,12,20,14,199,21,30,13,048,24,08,07,281,,32,03,178,27*79
$GPRMC,000415.000,A,3353.7575,N,09832.0256,W,0.27,166.64,030412,,,D*7C
$GPGGA,000416.000,3353.7574,N,09832.0256,W,2,09,1.0,315.9,M,-23.7,M,0.8,0000*43
$GPGSA,A,3,07,06,23,30,19,16,13,20,03,,,,1.7,1.0,1.4*3F
$GPRMC,000416.000,A,3353.7574,N,09832.0256,W,0.38,178.11,030412,,,D*7D
$GPGGA,000417.000,3353.7573,N,09832.0256,W,2,09,1.0,315.9,M,-23.7,M,0.8,0000*45
$GPGSA,A,3,07,06,23,30,19,16,13,20,03,,,,1.7,1.0,1.4*3F
$GPRMC,000417.000,A,3353.7573,N,09832.0256,W,0.19,180.25,030412,,,D*78
$GPGGA,000418.000,3353.7573,N,09832.0256,W,2,09,1.0,316.1,M,-23.7,M,1.8,0000*40
$GPGSA,A,3,07,06,23,30,19,16,13,20,03,,,,1.7,1.0,1.4*3F
$GPRMC,000418.000,A,3353.7573,N,09832.0256,W,0.10,125.64,030412,,,D*74
$GPGGA,000419.000,3353.7573,N,09832.0256,W,2,09,1.0,316.2,M,-23.7,M,2.8,0000*41
$GPGSA,A,3,07,06,23,30,19,16,13,20,03,,,,1.7,1.0,1.4*3F
$GPRMC,000419.000,A,3353.7573,N,09832.0256,W,0.46,187.42,030412,,,D*7A
$GPGGA,000420.000,3353.7571,N,09832.0256,W,2,09,1.0,316.0,M,-23.7,M,3.8,0000*4A
$GPGSA,A,3,07,06,23,30,19,16,13,20,03,,,,1.7,1.0,1.4*3F
$GPGSV,3,1,12,23,78,159,36,13,66,319,37,03,49,097,34,06,40,078,38*72
$GPGSV,3,2,12,16,39,041,33,07,37,302,30,19,33,145,21,10,22,293,*70
$GPGSV,3,3,12,20,14,199,21,30,13,048,24,08,07,281,,32,03,178,26*78
$GPRMC,000420.000,A,3353.7571,N,09832.0256,W,0.67,176.65,030412,,,D*7A
$GPGGA,000421.000,3353.7570,N,09832.0256,W,2,09,1.0,315.8,M,-23.7,M,0.8,0000*42
$GPGSA,A,3,07,06,23,30,19,16,13,20,03,,,,1.7,1.0,1.4*3F
$GPRMC,000421.000,A,3353.7570,N,09832.0256,W,0.84,180.79,030412,,,D*73
$GPGGA,000422.000,3353.7568,N,09832.0256,W,2,09,1.0,315.8,M,-23.7,M,0.8,0000*48
$GPGSA,A,3,07,06,23,30,19,16,13,20,03,,,,1.7,1.0,1.4*3F
$GPRMC,000422.000,A,3353.7568,N,09832.0256,W,0.55,173.00,030412,,,D*77
$GPGGA,000423.000,3353.7568,N,09832.0255,W,2,09,1.0,315.6,M,-23.7,M,0.8,0000*44
$GPGSA,A,3,07,06,23,30,19,16,13,20,03,,,,1.7,1.0,1.4*3F
$GPRMC,000423.000,A,3353.7568,N,09832.0255,W,0.37,172.26,030412,,,D*74
$GPGGA,000424.000,3353.7568,N,09832.0255,W,2,09,1.0,315.5,M,-23.7,M,1.8,0000*41
$GPGSA,A,3,07,06,23,30,19,16,13,20,03,,,,1.7,1.0,1.4*3F
$GPRMC,000424.000,A,3353.7568,N,09832.0255,W,0.15,75.78,030412,,,D*4E
$GPGGA,000425.000,3353.7568,N,09832.0255,W,2,09,1.0,315.5,M,-23.7,M,0.8,0000*41
$GPGSA,A,3,07,06,23,30,19,16,13,20,03,,,,1.7,1.0,1.4*3F
$GPGSV,3,1,12,23,78,159,36,13,66,319,37,03,49,097,35,06,40,078,38*73
$GPGSV,3,2,12,16,39,041,33,07,37,302,30,19,33,145,20,10,22,293,*71
$GPGSV,3,3,12,20,14,199,21,30,13,048,24,08,07,281,,32,03,178,26*78
$GPRMC,000425.000,A,3353.7568,N,09832.0255,W,0.28,194.65,030412,,,D*73
$GPGGA,000426.000,3353.7568,N,09832.0255,W,2,09,1.0,315.4,M,-23.7,M,1.8,0000*42
$GPGSA,A,3,07,06,23,30,19,16,13,20,03,,,,1.7,1.0,1.4*3F
$GPRMC,000426.000,A,3353.7568,N,09832.0255,W,0.41,203.60,030412,,,D*77
$GPGGA,000427.000,3353.7568,N,09832.0256,W,2,09,1.0,315.4,M,-23.7,M,0.8,0000*41
$GPGSA,A,3,07,06,23,30,19,16,13,20,03,,,,1.7,1.0,1.4*3F
$GPRMC,000427.000,A,3353.7568,N,09832.0256,W,0.37,198.57,030412,,,D*71
$GPGGA,000428.000,3353.7568,N,09832.0256,W,2,09,1.0,315.7,M,-23.7,M,0.8,0000*4D
$GPGSA,A,3,07,06,23,30,19,16,13,20,03,,,,1.7,1.0,1.4*3F
$GPRMC,000428.000,A,3353.7568,N,09832.0256,W,0.03,353.67,030412,,,D*7F
$GPGGA,000429.000,3353.7569,N,09832.0255,W,2,09,1.0,316.0,M,-23.7,M,0.8,0000*4A
$GPGSA,A,3,07,06,23,30,19,16,13,20,03,,,,1.7,1.0,1.4*3F
$GPRMC,000429.000,A,3353.7569,N,09832.0255,W,0.21,38.76,030412,,,D*42
$GPGGA,000430.000,3353.7570,N,09832.0254,W,2,09,1.0,316.3,M,-23.7,M,1.8,0000*49
$GPGSA,A,3,07,06,23,30,19,16,13,20,03,,,,1.7,1.0,1.4*3F
$GPGSV,3,1,12,23,78,159,36,13,66,319,37,03,49,097,35,06,40,078,38*73
$GPGSV,3,2,12,16,39,041,34,07,37,302,30,19,33,145,14,10,22,293,*71
$GPGSV,3,3,12,20,14,199,20,30,13,048,24,08,07,281,,32,03,178,25*7A
$GPRMC,000430.000,A,3353.7570,N,09832.0254,W,0.60,27.45,030412,,,D*48
$GPGGA,000431.000,3353.7571,N,09832.0254,W,2,09,1.0,316.5,M,-23.7,M,2.8,0000*4C
$GPGSA,A,3,07,06,23,30,19,16,13,20,03,,,,1.7,1.0,1.4*3F
$GPRMC,000431.000,A,3353.7571,N,09832.0254,W,0.25,169.22,030412,,,D*73
$GPGGA,000432.000,3353.7571,N,09832.0253,W,2,09,1.0,316.9,M,-23.7,M,3.8,0000*45
$GPGSA,A,3,07,06,23,30,19,16,13,20,03,,,,1.7,1.0,1.4*3F
$GPRMC,000432.000,A,3353.7571,N,09832.0253,W,0.20,42.07,030412,,,D*4D
$GPGGA,000433.000,3353.7573,N,09832.0252,W,2,09,1.0,317.3,M,-23.7,M,0.8,0000*4F
$GPGSA,A,3,07,06,23,30,19,16,13,20,03,,,,1.7,1.0,1.4*3F
$GPRMC,000433.000,A,3353.7573,N,09832.0252,W,0.58,25.58,030412,,,D*4B
$GPGGA,000434.000,3353.7574,N,09832.0252,W,2,09,1.0,317.5,M,-23.7,M,0.8,0000*49
$GPGSA,A,3,07,06,23,30,19,16,13,20,03,,,,1.7,1.0,1.4*3F
$GPRMC,000434.000,A,3353.7574,N,09832.0252,W,0.14,66.38,030412,,,D*42
$GPGGA,000435.000,3353.7575,N,09832.0252,W,2,09,1.0,317.7,M,-23.7,M,0.8,0000*4B
$GPGSA,A,3,07,06,23,30,19,16,13,20,03,,,,1.7,1.0,1.4*3F
$GPGSV,3,1,12,23,78,159,36,13,66,319,37,03,49,097,36,06,40,078,37*7F
$GPGSV,3,2,12,16,39,041,34,07,37,302,30,19,33,145,14,10,22,293,*71
$GPGSV,3,3,12,20,14,199,18,30,13,048,25,08,07,281,,32,03,178,25*70
$GPRMC,000435.000,A,3353.7575,N,09832.0252,W,0.25,22.45,030412,,,D*4A
$GPGGA,000436.000,3353.7576,N,09832.0251,W,2,09,1.0,317.9,M,-23.7,M,0.8,0000*46
$GPGSA,A,3,07,06,23,30,19,16,13,20,03,,,,1.7,1.0,1.4*3F
$GPRMC,000436.000,A,3353.7576,N,09832.0251,W,0.36,18.50,030412,,,D*46
$GPGGA,000437.000,3353.7578,N,09832.0251,W,2,09,1.0,318.2,M,-23.7,M,1.8,0000*4C
$GPGSA,A,3,07,06,23,30,19,16,13,20,03,,,,1.7,1.0,1.4*3F
$GPRMC,000437.000,A,3353.7578,N,09832.0251,W,0.39,12.99,030412,,,D*49
$GPGGA,000438.000,3353.7579,N,09832.0251,W,2,09,1.0,318.4,M,-23.7,M,2.8,0000*47
$GPGSA,A,3,07,06,23,30,19,16,13,20,03,,,,1.7,1.0,1.4*3F
$GPRMC,000438.000,A,3353.7579,N,09832.0251,W,0.39,16.63,030412,,,D*46
$GPGGA,000439.000,3353.7580,N,09832.0251,W,2,09,1.0,318.6,M,-23.7,M,0.8,0000*40
$GPGSA,A,3,07,06,23,30,19,16,13,20,03,,,,1.7,1.0,1.4*3F
$GPRMC,000439.000,A,3353.7580,N,09832.0251,W,0.21,11.22,030412,,,D*4A
$GPGGA,000440.000,3353.7580,N,09832.0251,W,2,09,1.0,318.8,M,-23.7,M,0.8,0000*40
$GPGSA,A,3,07,06,23,30,19,16,13,20,03,,,,1.7,1.0,1.4*3F
$GPGSV,3,1,12,23,78,159,36,13,66,319,37,03,49,097,36,06,40,078,37*7F
$GPGSV,3,2,12,16,39,041,35,07,37,302,30,19,33,145,13,10,22,293,*77
$GPGSV,3,3,12,20,14,199,17,30,13,048,26,08,07,281,,32,03,178,24*7D
$GPRMC,000440.000,A,3353.7580,N,09832.0251,W,0.08,348.77,030412,,,D*70
$GPGGA,000441.000,3353.7582,N,09832.0250,W,2,09,1.0,319.4,M,-23.7,M,0.8,0000*4F
$GPGSA,A,3,07,06,23,30,19,16,13,20,03,,,,1.7,1.0,1.4*3F
$GPRMC,000441.000,A,3353.7582,N,09832.0250,W,0.48,26.43,030412,,,D*4A
$GPGGA,000442.000,3353.7583,N,09832.0249,W,2,09,1.0,320.0,M,-23.7,M,1.8,0000*4A
$GPGSA,A,3,07,06,23,30,19,16,13,20,03,,,,1.7,1.0,1.4*3F
$GPRMC,000442.000,A,3353.7583,N,09832.0249,W,0.49,24.54,030412,,,D*45
$GPGGA,000443.000,3353.7585,N,09832.0248,W,2,09,1.0,320.5,M,-23.7,M,2.8,0000*4A
$GPGSA,A,3,07,06,23,30,19,16,13,20,03,,,,1.7,1.0,1.4*3F
$GPRMC,000443.000,A,3353.7585,N,09832.0248,W,0.47,37.31,030412,,,D*4C
$GPGGA,000444.000,3353.7585,N,09832.0247,W,2,09,1.0,320.9,M,-23.7,M,0.8,0000*4C
$GPGSA,A,3,07,06,23,30,19,16,13,20,03,,,,1.7,1.0,1.4*3F
$GPRMC,000444.000,A,3353.7585,N,09832.0247,W,0.28,63.86,030412,,,D*40
$GPGGA,000445.000,3353.7585,N,09832.0247,W,2,09,1.0,321.0,M,-23.7,M,0.8,0000*45
$GPGSA,A,3,07,06,23,30,19,16,13,20,03,,,,1.7,1.0,1.4*3F
$GPGSV,3,1,12,23,78,159,36,13,66,319,37,03,49,097,37,06,40,078,37*7E
$GPGSV,3,2,12,16,39,041,35,07,37,302,30,19,33,145,22,10,22,293,*75
$GPGSV,3,3,12,20,14,199,16,30,13,048,26,08,07,281,,32,03,178,23*7B
$GPRMC,000445.000,A,3353.7585,N,09832.0247,W,0.17,97.25,030412,,,D*4F
$GPGGA,000446.000,3353.7586,N,09832.0246,W,2,09,1.0,321.3,M,-23.7,M,0.8,0000*47
$GPGSA,A,3,07,06,23,30,19,16,13,20,03,,,,1.7,1.0,1.4*3F
$GPRMC,000446.000,A,3353.7586,N,09832.0246,W,0.33,59.42,030412,,,D*4B
$GPGGA,000447.000,3353.7587,N,09832.0246,W,2,09,1.0,321.7,M,-23.7,M,0.8,0000*43
$GPGSA,A,3,07,06,23,30,19,16,13,20,03,,,,1.7,1.0,1.4*3F
$GPRMC,000447.000,A,3353.7587,N,09832.0246,W,0.45,29.12,030412,,,D*48
$GPGGA,000448.000,3353.7588,N,09832.0245,W,2,09,1.0,321.9,M,-23.7,M,1.8,0000*4F
$GPGSA,A,3,07,06,23,30,19,16,13,20,03,,,,1.7,1.0,1.4*3F
$GPRMC,000448.000,A,3353.7588,N,09832.0245,W,0.32,18.03,030412,,,D*49
$GPGGA,000449.000,3353.7588,N,09832.0245,W,2,09,1.0,322.0,M,-23.7,M,0.8,0000*45
$GPGSA,A,3,07,06,23,30,19,16,13,20,03,,,,1.7,1.0,1.4*3F
$GPRMC,000449.000,A,3353.7588,N,09832.0245,W,0.16,81.76,030412,,,D*4C
$GPGGA,000450.000,3353.7588,N,09832.0245,W,2,09,1.0,322.1,M,-23.7,M,1.8,0000*4D
$GPGSA,A,3,07,06,23,30,19,16,13,20,03,,,,1.7,1.0,1.4*3F
$GPGSV,3,1,12,23,78,159,36,13,66,319,37,03,49,097,37,06,40,077,38*7E
$GPGSV,3,2,12,16,38,041,35,07,37,302,30,19,33,145,23,10,22,293,*75
$GPGSV,3,3,12,20,13,199,14,30,13,048,27,08,07,281,,32,03,178,23*7F
$GPRMC,000450.000,A,3353.7588,N,09832.0245,W,0.04,52.33,030412,,,D*48
$GPGGA,000451.000,3353.7589,N,09832.0245,W,2,09,1.0,322.3,M,-23.7,M,0.8,0000*4E
$GPGSA,A,3,07,06,23,30,19,16,13,20,03,,,,1.7,1.0,1.4*3F
$GPRMC,000451.000,A,3353.7589,N,09832.0245,W,0.07,20.18,030412,,,D*47
$GPGGA,000452.000,3353.7588,N,09832.0246,W,2,09,1.0,322.4,M,-23.7,M,0.8,0000*48
$GPGSA,A,3,07,06,23,30,19,16,13,20,03,,,,1.7,1.0,1.4*3F
$GPRMC,000452.000,A,3353.7588,N,09832.0246,W,0.20,177.66,030412,,,D*79
$GPGGA,000453.000,3353.7588,N,09832.0245,W,2,09,1.0,322.5,M,-23.7,M,0.8,0000*4B
$GPGSA,A,3,07,06,23,30,19,16,13,20,03,,,,1.7,1.0,1.4*3F
$GPRMC,000453.000,A,3353.7588,N,09832.0245,W,0.11,112.34,030412,,,D*7D
$GPGGA,000454.000,3353.7588,N,09832.0245,W,2,08,1.3,322.7,M,-23.7,M,1.8,0000*4D
$GPGSA,A,3,07,06,23,30,19,16,13,03,,,,,2.3,1.3,2.0*3E
$GPRMC,000454.000,A,3353.7588,N,09832.0245,W,0.28,154.80,030412,,,D*7D
$GPGGA,000455.000,3353.7587,N,09832.0245,W,2,08,1.3,322.8,M,-23.7,M,2.8,0000*4F
$GPGSA,A,3,07,06,23,30,19,16,13,03,,,,,2.3,1.3,2.0*3E
$GPGSV,3,1,12,23,78,159,36,13,66,319,36,03,49,097,37,06,40,077,38*7F
$GPGSV,3,2,12,16,38,041,34,07,37,302,30,19,33,145,24,10,22,293,*73
$GPGSV,3,3,12,20,13,199,,30,13,048,27,08,07,281,,32,03,178,24*7D
$GPRMC,000455.000,A,3353.7587,N,09832.0245,W,0.20,147.15,030412,,,D*75
$GPGGA,000456.000,3353.7586,N,09832.0245,W,2,08,1.3,322.8,M,-23.7,M,3.8,0000*4C
$GPGSA,A,3,07,06,23,30,19,16,13,03,,,,,2.3,1.3,2.0*3E
$GPRMC,000456.000,A,3353.7586,N,09832.0245,W,0.40,162.55,030412,,,D*72
$GPGGA,000457.000,3353.7586,N,09832.0244,W,2,08,1.3,322.9,M,-23.7,M,0.8,0000*4E
$GPGSA,A,3,07,06,23,30,19,16,13,03,,,,,2.3,1.3,2.0*3E
$GPRMC,000457.000,A,3353.7586,N,09832.0244,W,0.18,73.65,030412,,,D*4D
$GPGGA,000458.000,3353.7586,N,09832.0244,W,2,08,1.3,322.9,M,-23.7,M,0.8,0000*41
$GPGSA,A,3,07,06,23,30,19,16,13,03,,,,,2.3,1.3,2.0*3E
$GPRMC,000458.000,A,3353.7586,N,09832.0244,W,0.26,156.60,030412,,,D*7C
$GPGGA,000459.000,3353.7587,N,09832.0244,W,2,08,1.3,323.1,M,-23.7,M,0.8,0000*48
$GPGSA,A,3,07,06,23,30,19,16,13,03,,,,,2.3,1.3,2.0*3E
$GPRMC,000459.000,A,3353.7587,N,09832.0244,W,0.19,14.46,030412,,,D*43
$GPGGA,000500.000,3353.7588,N,09832.0244,W,2,08,1.3,323.3,M,-23.7,M,0.8,0000*48
$GPGSA,A,3,07,06,23,30,19,16,13,03,,,,,2.3,1.3,2.0*3E
$GPGSV,3,1,12,23,78,159,36,13,66,319,35,03,49,097,38,06,40,077,38*73
$GPGSV,3,2,12,16,38,041,33,07,37,302,29,19,33,145,23,10,22,293,*7B
$GPGSV,3,3,12,20,13,199,,30,13,048,26,08,07,281,,32,03,178,24*7C
$GPRMC,000500.000,A,3353.7588,N,09832.0244,W,0.37,15.98,030412,,,D*4F
$GPGGA,000501.000,3353.7590,N,09832.0243,W,2,08,1.3,323.6,M,-23.7,M,0.8,0000*42
$GPGSA,A,3,07,06,23,30,19,16,13,03,,,,,2.3,1.3,2.0*3E
$GPRMC,000501.000,A,3353.7590,N,09832.0243,W,0.41,7.94,030412,,,D*7E
$GPGGA,000502.000,3353.7591,N,09832.0243,W,2,08,1.3,323.6,M,-23.7,M,0.8,0000*40
$GPGSA,A,3,07,06,23,30,19,16,13,03,,,,,2.3,1.3,2.0*3E
$GPRMC,000502.000,A,3353.7591,N,09832.0243,W,0.09,92.74,030412,,,D*42
$GPGGA,000503.000,3353.7591,N,09832.0243,W,2,08,1.3,323.9,M,-23.7,M,0.8,0000*4E
$GPGSA,A,3,07,06,23,30,19,16,13,03,,,,,2.3,1.3,2.0*3E
$GPRMC,000503.000,A,3353.7591,N,09832.0243,W,0.04,82.41,030412,,,D*49
$GPGGA,000504.000,3353.7592,N,09832.0243,W,2,08,1.3,324.1,M,-23.7,M,0.8,0000*45
$GPGSA,A,3,07,06,23,30,19,16,13,03,,,,,2.3,1.3,2.0*3E
$GPRMC,000504.000,A,3353.7592,N,09832.0243,W,0.47,18.68,030412,,,D*42
$GPGGA,000505.000,3353.7593,N,09832.0243,W,2,08,1.3,324.0,M,-23.7,M,0.8,0000*44
$GPGSA,A,3,07,06,23,30,19,16,13,03,,,,,2.3,1.3,2.0*3E
$GPGSV,3,1,12,23,78,159,36,13,66,319,35,03,49,097,38,06,40,077,38*73
$GPGSV,3,2,12,16,38,041,33,07,37,302,28,19,33,145,23,10,22,293,*7A
$GPGSV,3,3,12,20,13,199,,30,13,048,21,08,07,282,,32,03,178,24*78
$GPRMC,000505.000,A,3353.7593,N,09832.0243,W,0.24,63.82,030412,,,D*4F
$GPGGA,000506.000,3353.7592,N,09832.0243,W,2,08,1.3,323.9,M,-23.7,M,1.8,0000*49
$GPGSA,A,3,07,06,23,30,19,16,13,03,,,,,2.3,1.3,2.0*3E
$GPRMC,000506.000,A,3353.7592,N,09832.0243,W,0.22,120.00,030412,,,D*77
$GPGGA,000507.000,3353.7593,N,09832.0242,W,2,08,1.3,324.2,M,-23.7,M,2.8,0000*47
$GPGSA,A,3,07,06,23,30,19,16,13,03,,,,,2.3,1.3,2.0*3E
$GPRMC,000507.000,A,3353.7593,N,09832.0242,W,0.09,54.27,030412,,,D*48
$GPGGA,000508.000,3353.7594,N,09832.0242,W,2,09,1.0,324.6,M,-23.7,M,3.8,0000*48
$GPGSA,A,3,07,06,23,30,19,16,13,20,03,,,,1.7,1.0,1.4*3F
$GPRMC,000508.000,A,3353.7594,N,09832.0242,W,0.20,76.00,030412,,,D*4E
$GPGGA,000509.000,3353.7595,N,09832.0241,W,2,09,1.0,324.9,M,-23.7,M,0.8,0000*47
$GPGSA,A,3,07,06,23,30,19,16,13,20,03,,,,1.7,1.0,1.4*3F
$GPRMC,000509.000,A,3353.7595,N,09832.0241,W,0.35,45.88,030412,,,D*49
$GPGGA,000510.000,3353.7596,N,09832.0241,W,2,09,1.0,325.1,M,-23.7,M,0.8,0000*45
$GPGSA,A,3,07,06,23,30,19,16,13,20,03,,,,1.7,1.0,1.4*3F
$GPGSV,3,1,12,23,78,159,36,13,66,319,35,03,49,097,38,06,40,077,38*73
$GPGSV,3,2,12,16,38,041,33,07,37,302,27,19,33,145,22,10,22,293,*74
$GPGSV,3,3,12,20,13,199,21,30,13,048,22,08,07,282,,32,03,178,25*79
$GPRMC,000510.000,A,3353.7596,N,09832.0241,W,0.30,59.85,030412,,,D*47
$GPGGA,000511.000,3353.7596,N,09832.0241,W,2,09,1.0,325.1,M,-23.7,M,0.8,0000*44
$GPGSA,A,3,07,06,23,30,19,16,13,20,03,,,,1.7,1.0,1.4*3F
$GPRMC,000511.000,A,3353.7596,N,09832.0241,W,0.09,146.67,030412,,,D*7F
$GPGGA,000512.000,3353.7596,N,09832.0241,W,2,09,1.0,325.1,M,-23.7,M,1.8,0000*46
$GPGSA,A,3,07,06,23,30,19,16,13,20,03,,,,1.7,1.0,1.4*3F
$GPRMC,000512.000,A,3353.7596,N,09832.0241,W,0.16,16.89,030412,,,D*46
$GPGGA,000513.000,3353.7597,N,09832.0243,W,2,09,1.0,324.7,M,-23.7,M,0.8,0000*42
$GPGSA,A,3,07,06,23,30,19,16,13,20,03,,,,1.7,1.0,1.4*3F
$GPRMC,000513.000,A,3353.7597,N,09832.0243,W,0.15,16.47,030412,,,D*45
$GPGGA,000514.000,3353.7598,N,09832.0245,W,2,09,1.0,324.1,M,-23.7,M,1.8,0000*4B
$GPGSA,A,3,07,06,23,30,19,16,13,20,03,,,,1.7,1.0,1.4*3F
$GPRMC,000514.000,A,3353.7598,N,09832.0245,W,0.45,11.12,030412,,,D*49
$GPGGA,000515.000,3353.7598,N,09832.0248,W,2,09,1.0,323.3,M,-23.7,M,0.8,0000*43
$GPGSA,A,3,07,06,23,30,19,16,13,20,03,,,,1.7,1.0,1.4*3F
$GPGSV,3,1,12,23,77,159,36,13,66,319,36,03,49,097,38,06,40,077,38*7F
$GPGSV,3,2,12,16,38,041,33,07,37,302,26,19,33,145,22,10,22,293,*75
$GPGSV,3,3,12,20,13,199,22,30,12,048,20,08,07,282,,32,03,178,25*79
$GPRMC,000515.000,A,3353.7598,N,09832.0248,W,0.11,210.76,030412,,,D*75
$GPGGA,000516.000,3353.7597,N,09832.0251,W,2,09,1.0,322.3,M,-23.7,M,0.8,0000*46
$GPGSA,A,3,07,06,23,30,19,16,13,20,03,,,,1.7,1.0,1.4*3F
$GPRMC,000516.000,A,3353.7597,N,09832.0251,W,0.28,195.36,030412,,,D*71
$GPGGA,000517.000,3353.7596,N,09832.0254,W,2,09,1.0,321.4,M,-23.7,M,0.8,0000*47
$GPGSA,A,3,07,06,23,30,19,16,13,20,03,,,,1.7,1.0,1.4*3F
$GPRMC,000517.000,A,3353.7596,N,09832.0254,W,0.11,155.60,030412,,,D*71
$GPGGA,000518.000,3353.7595,N,09832.0256,W,2,09,1.0,320.8,M,-23.7,M,0.8,0000*44
$GPGSA,A,3,07,06,23,30,19,16,13,20,03,,,,1.7,1.0,1.4*3F
$GPRMC,000518.000,A,3353.7595,N,09832.0256,W,0.09,181.86,030412,,,D*77
$GPGGA,000519.000,3353.7595,N,09832.0258,W,2,08,1.1,320.1,M,-23.7,M,1.8,0000*43
$GPGSA,A,3,07,06,23,19,16,13,20,03,,,,,2.2,1.1,1.9*36
$GPRMC,000519.000,A,3353.7595,N,09832.0258,W,0.04,294.39,030412,,,D*76
$GPGGA,000520.000,3353.7594,N,09832.0260,W,2,08,1.1,319.5,M,-23.7,M,2.8,0000*4E
$GPGSA,A,3,07,06,23,19,16,13,20,03,,,,,2.2,1.1,1.9*36
$GPGSV,3,1,12,23,77,159,36,13,66,319,36,03,49,097,38,06,40,077,38*7F
$GPGSV,3,2,12,16,38,041,34,07,37,302,26,19,33,145,22,10,22,293,*72
$GPGSV,3,3,12,20,13,199,22,30,12,048,08,08,07,282,,32,03,178,25*73
$GPRMC,000520.000,A,3353.7594,N,09832.0260,W,0.09,98.47,030412,,,D*4C
$GPGGA,000521.000,3353.7594,N,09832.0264,W,2,08,1.1,318.1,M,-23.7,M,0.8,0000*4C
$GPGSA,A,3,07,06,23,19,16,13,20,03,,,,,2.2,1.1,1.9*36
$GPRMC,000521.000,A,3353.7594,N,09832.0264,W,0.15,70.18,030412,,,D*48
$GPGGA,000522.000,3353.7594,N,09832.0263,W,2,08,1.1,318.2,M,-23.7,M,0.8,0000*4B
$GPGSA,A,3,07,06,23,19,16,13,20,03,,,,,2.2,1.1,1.9*36
$GPRMC,000522.000,A,3353.7594,N,09832.0263,W,0.19,77.06,030412,,,D*48
$GPGGA,000523.000,3353.7594,N,09832.0263,W,2,08,1.1,317.9,M,-23.7,M,0.8,0000*4E
$GPGSA,A,3,07,06,23,19,16,13,20,03,,,,,2.2,1.1,1.9*36
$GPRMC,000523.000,A,3353.7594,N,09832.0263,W,0.07,161.84,030412,,,D*7A
$GPGGA,000524.000,3353.7594,N,09832.0262,W,2,08,1.1,317.8,M,-23.7,M,1.8,0000*48
$GPGSA,A,3,07,06,23,19,16,13,20,03,,,,,2.2,1.1,1.9*36
$GPRMC,000524.000,A,3353.7594,N,09832.0262,W,0.10,156.34,030412,,,D*75
$GPGGA,000525.000,3353.7593,N,09832.0262,W,2,08,1.1,317.8,M,-23.7,M,2.8,0000*4D
$GPGSA,A,3,07,06,23,19,16,13,20,03,,,,,2.2,1.1,1.9*36
$GPGSV,3,1,12,23,77,159,36,13,66,319,36,03,49,097,39,06,40,077,37*71
$GPGSV,3,2,12,16,38,041,35,07,37,302,26,19,33,145,22,10,22,293,*73
$GPGSV,3,3,12,20,13,199,22,30,12,048,10,08,07,282,,32,03,178,24*7B
$GPRMC,000525.000,A,3353.7593,N,09832.0262,W,0.14,157.66,030412,,,D*71
$GPGGA,000526.000,3353.7593,N,09832.0261,W,2,08,1.1,318.0,M,-23.7,M,3.8,0000*4B
$GPGSA,A,3,07,06,23,19,16,13,20,03,,,,,2.2,1.1,1.9*36
$GPRMC,000526.000,A,3353.7593,N,09832.0261,W,0.12,65.49,030412,,,D*4A
$GPGGA,000527.000,3353.7593,N,09832.0260,W,2,08,1.1,318.0,M,-23.7,M,0.8,0000*48
$GPGSA,A,3,07,06,23,19,16,13,20,03,,,,,2.2,1.1,1.9*36
$GPRMC,000527.000,A,3353.7593,N,09832.0260,W,0.12,208.24,030412,,,D*78
$GPGGA,000528.000,3353.7592,N,09832.0260,W,2,08,1.1,317.9,M,-23.7,M,0.8,0000*40
$GPGSA,A,3,07,06,23,19,16,13,20,03,,,,,2.2,1.1,1.9*36
$GPRMC,000528.000,A,3353.7592,N,09832.0260,W,0.16,209.64,030412,,,D*77
$GPGGA,000529.000,3353.7592,N,09832.0258,W,2,08,1.1,318.4,M,-23.7,M,0.8,0000*48
$GPGSA,A,3,07,06,23,19,16,13,20,03,,,,,2.2,1.1,1.9*36
$GPRMC,000529.000,A,3353.7592,N,09832.0258,W,0.19,124.01,030412,,,D*7D
$GPGGA,000530.000,3353.7592,N,09832.0257,W,2,08,1.1,319.0,M,-23.7,M,1.8,0000*4B
$GPGSA,A,3,07,06,23,19,16,13,20,03,,,,,2.2,1.1,1.9*36
$GPGSV,3,1,12,23,77,159,36,13,66,319,36,03,49,097,39,06,40,077,38*7E
$GPGSV,3,2,12,16,38,041,36,07,37,302,26,19,33,145,22,10,22,293,*70
$GPGSV,3,3,12,20,13,199,22,30,12,048,,08,07,282,,32,03,178,25*7B
$GPRMC,000530.000,A,3353.7592,N,09832.0257,W,0.13,127.13,030412,,,D*70
$GPGGA,000531.000,3353.7591,N,09832.0255,W,2,08,1.1,319.3,M,-23.7,M,2.8,0000*4B
$GPGSA,A,3,07,06,23,19,16,13,20,03,,,,,2.2,1.1,1.9*36
$GPRMC,000531.000,A,3353.7591,N,09832.0255,W,0.51,177.95,030412,,,D*7D
$GPGGA,000532.000,3353.7590,N,09832.0254,W,2,08,1.1,319.9,M,-23.7,M,0.8,0000*40
$GPGSA,A,3,07,06,23,19,16,13,20,03,,,,,2.2,1.1,1.9*36
$GPRMC,000532.000,A,3353.7590,N,09832.0254,W,0.24,153.26,030412,,,D*72
$GPGGA,000533.000,3353.7589,N,09832.0253,W,2,08,1.1,320.2,M,-23.7,M,0.8,0000*4F
$GPGSA,A,3,07,06,23,19,16,13,20,03,,,,,2.2,1.1,1.9*36
$GPRMC,000533.000,A,3353.7589,N,09832.0253,W,0.15,171.82,030412,,,D*70
$GPGGA,000534.000,3353.7590,N,09832.0252,W,2,08,1.1,320.7,M,-23.7,M,0.8,0000*44
$GPGSA,A,3,07,06,23,19,16,13,20,03,,,,,2.2,1.1,1.9*36
$GPRMC,000534.000,A,3353.7590,N,09832.0252,W,0.32,32.83,030412,,,D*4C
$GPGGA,000535.000,3353.7590,N,09832.0252,W,2,08,1.1,320.7,M,-23.7,M,0.8,0000*45
$GPGSA,A,3,07,06,23,19,16,13,20,03,,,,,2.2,1.1,1.9*36
$GPGSV,3,1,12,23,77,159,35,13,66,319,36,03,49,097,39,06,40,077,38*7D
$GPGSV,3,2,12,16,38,041,36,07,37,302,26,19,33,145,22,10,22,293,19*78
$GPGSV,3,3,12,20,13,199,22,30,12,048,,08,07,282,,32,03,178,25*7B
$GPRMC,000535.000,A,3353.7590,N,09832.0252,W,0.11,167.57,030412,,,D*74
$GPGGA,000536.000,3353.7590,N,09832.0252,W,2,08,1.1,320.7,M,-23.7,M,1.8,0000*47
$GPGSA,A,3,07,06,23,19,16,13,20,03,,,,,2.2,1.1,1.9*36
$GPRMC,000536.000,A,3353.7590,N,09832.0252,W,0.06,79.70,030412,,,D*4A
$GPGGA,000537.000,3353.7590,N,09832.0253,W,2,08,1.1,320.6,M,-23.7,M,2.8,0000*45
$GPGSA,A,3,07,06,23,19,16,13,20,03,,,,,2.2,1.1,1.9*36
$GPRMC,000537.000,A,3353.7590,N,09832.0253,W,0.07,107.29,030412,,,D*7F
$GPGGA,000538.000,3353.7590,N,09832.0257,W,2,08,1.1,319.2,M,-23.7,M,3.8,0000*41
$GPGSA,A,3,07,06,23,19,16,13,20,03,,,,,2.2,1.1,1.9*36
$GPRMC,000538.000,A,3353.7590,N,09832.0257,W,0.18,219.70,030412,,,D*7A
$GPGGA,000539.000,3353.7590,N,09832.0258,W,2,08,1.1,319.1,M,-23.7,M,0.8,0000*4F
$GPGSA,A,3,07,06,23,19,16,13,20,03,,,,,2.2,1.1,1.9*36
$GPRMC,000539.000,A,3353.7590,N,09832.0258,W,0.15,169.41,030412,,,D*7F
$GPGGA,000540.000,3353.7589,N,09832.0260,W,2,08,1.1,318.2,M,-23.7,M,0.8,0000*40
$GPGSA,A,3,07,06,23,19,16,13,20,03,,,,,2.2,1.1,1.9*36
$GPGSV,3,1,12,23,77,159,35,13,66,319,36,03,49,097,39,06,40,077,38*7D
$GPGSV,3,2,12,16,38,041,36,07,37,302,26,19,33,145,23,10,22,293,19*79
$GPGSV,3,3,12,20,13,199,22,30,12,048,,08,07,282,,32,03,178,25*7B
$GPRMC,000540.000,A,3353.7589,N,09832.0260,W,0.06,260.26,030412,,,D*7B
$GPGGA,000541.000,3353.7589,N,09832.0263,W,2,08,1.1,317.3,M,-23.7,M,0.8,0000*4C
$GPGSA,A,3,07,06,23,19,16,13,20,03,,,,,2.2,1.1,1.9*36
$GPRMC,000541.000,A,3353.7589,N,09832.0263,W,0.10,32.94,030412,,,D*42
$GPGGA,000542.000,3353.7589,N,09832.0268,W,2,08,1.1,315.7,M,-23.7,M,1.8,0000*43
$GPGSA,A,3,07,06,23,19,16,13,20,03,,,,,2.2,1.1,1.9*36
$GPRMC,000542.000,A,3353.7589,N,09832.0268,W,0.19,204.10,030412,,,D*78
$GPGGA,000543.000,3353.7588,N,09832.0269,W,2,08,1.1,315.3,M,-23.7,M,2.8,0000*45
$GPGSA,A,3,07,06,23,19,16,13,20,03,,,,,2.2,1.1,1.9*36
$GPRMC,000543.000,A,3353.7588,N,09832.0269,W,0.25,204.14,030412,,,D*72
$GPGGA,000544.000,3353.7587,N,09832.0270,W,2,08,1.1,314.8,M,-23.7,M,3.8,0000*4E
$GPGSA,A,3,07,06,23,19,16,13,20,03,,,,,2.2,1.1,1.9*36
$GPRMC,000544.000,A,3353.7587,N,09832.0270,W,0.11,191.58,030412,,,D*72
$GPGGA,000545.000,3353.7587,N,09832.0270,W,2,09,1.0,314.6,M,-23.7,M,0.8,0000*42
$GPGSA,A,3,07,06,23,19,16,13,20,03,30,,,,1.7,1.0,1.4*3F
$GPGSV,3,1,12,23,77,159,35,13,66,319,36,03,49,097,38,06,40,077,38*7C
$GPGSV,3,2,12,16,38,041,35,07,37,302,26,19,33,145,24,10,22,293,20*77
$GPGSV,3,3,12,20,13,199,21,30,12,048,12,08,07,282,,32,03,178,25*7B
$GPRMC,000545.000,A,3353.7587,N,09832.0270,W,0.06,170.59,030412,,,D*7B
$GPGGA,000546.000,3353.7586,N,09832.0270,W,2,09,1.0,314.7,M,-23.7,M,0.8,0000*41
$GPGSA,A,3,07,06,23,19,16,13,20,03,30,,,,1.7,1.0,1.4*3F
$GPRMC,000546.000,A,3353.7586,N,09832.0270,W,0.10,62.56,030412,,,D*43
$GPGGA,000547.000,3353.7586,N,09832.0269,W,2,09,1.0,314.7,M,-23.7,M,0.8,0000*48
$GPGSA,A,3,07,06,23,19,16,13,20,03,30,,,,1.7,1.0,1.4*3F
$GPRMC,000547.000,A,3353.7586,N,09832.0269,W,0.26,177.88,030412,,,D*79
$GPGGA,000548.000,3353.7586,N,09832.0269,W,2,09,1.0,314.9,M,-23.7,M,0.8,0000*49
$GPGSA,A,3,07,06,23,19,16,13,20,03,30,,,,1.7,1.0,1.4*3F
$GPRMC,000548.000,A,3353.7586,N,09832.0269,W,0.09,45.30,030412,,,D*48
$GPGGA,000549.000,3353.7585,N,09832.0268,W,2,09,1.0,314.8,M,-23.7,M,0.8,0000*4B
$GPGSA,A,3,07,06,23,19,16,13,20,03,30,,,,1.7,1.0,1.4*3F
$GPRMC,000549.000,A,3353.7585,N,09832.0268,W,0.11,175.43,030412,,,D*74
$GPGGA,000550.000,3353.7585,N,09832.0268,W,2,09,1.0,314.8,M,-23.7,M,1.8,0000*42
$GPGSA,A,3,07,06,23,19,16,13,20,03,30,,,,1.7,1.0,1.4*3F
$GPGSV,3,1,12,23,77,159,35,13,66,319,37,03,49,096,38,06,40,077,38*7C
$GPGSV,3,2,12,16,38,041,34,07,37,303,27,19,34,144,24,10,22,292,20*71
$GPGSV,3,3,12,20,13,199,22,30,12,049,14,08,08,282,,32,03,178,26*73
$GPRMC,000550.000,A,3353.7585,N,09832.0268,W,0.20,121.38,030412,,,D*73
$GPGGA,000551.000,3353.7585,N,09832.0267,W,2,09,1.0,314.7,M,-23.7,M,0.8,0000*42
$GPGSA,A,3,07,06,23,19,16,13,20,03,30,,,,1.7,1.0,1.4*3F
$GPRMC,000551.000,A,3353.7585,N,09832.0267,W,0.05,156.43,030412,,,D*76
$GPGGA,000552.000,3353.7584,N,09832.0266,W,2,09,1.0,314.8,M,-23.7,M,0.8,0000*4E
$GPGSA,A,3,07,06,23,19,16,13,20,03,30,,,,1.7,1.0,1.4*3F
$GPRMC,000552.000,A,3353.7584,N,09832.0266,W,0.03,26.94,030412,,,D*4F
$GPGGA,000553.000,3353.7584,N,09832.0266,W,2,09,1.0,314.9,M,-23.7,M,0.8,0000*4E
$GPGSA,A,3,07,06,23,19,16,13,20,03,30,,,,1.7,1.0,1.4*3F
$GPRMC,000553.000,A,3353.7584,N,09832.0266,W,0.10,32.46,030412,,,D*46
$GPGGA,000554.000,3353.7585,N,09832.0264,W,2,09,1.0,315.2,M,-23.7,M,1.8,0000*41
$GPGSA,A,3,07,06,23,19,16,13,20,03,30,,,,1.7,1.0,1.4*3F
$GPRMC,000554.000,A,3353.7585,N,09832.0264,W,0.36,27.98,030412,,,D*41
$GPGGA,000555.000,3353.7586,N,09832.0263,W,2,09,1.0,315.6,M,-23.7,M,0.8,0000*41
$GPGSA,A,3,07,06,23,19,16,13,20,03,30,,,,1.7,1.0,1.4*3F
$GPGSV,3,1,12,23,77,159,35,13,66,319,37,03,49,096,38,06,40,077,38*7C
$GPGSV,3,2,12,16,38,041,33,07,37,303,28,19,34,144,23,10,22,292,20*7E
$GPGSV,3,3,12,20,13,199,23,30,12,049,15,08,08,282,,32,03,178,27*72
$GPRMC,000555.000,A,3353.7586,N,09832.0263,W,0.59,23.63,030412,,,D*4D
$GPGGA,000556.000,3353.7586,N,09832.0262,W,2,09,1.0,316.1,M,-23.7,M,1.8,0000*46
$GPGSA,A,3,07,06,23,19,16,13,20,03,30,,,,1.7,1.0,1.4*3F
$GPRMC,000556.000,A,3353.7586,N,09832.0262,W,0.16,96.62,030412,,,D*4B
$GPGGA,000557.000,3353.7586,N,09832.0260,W,2,09,1.0,316.4,M,-23.7,M,0.8,0000*41
$GPGSA,A,3,07,06,23,19,16,13,20,03,30,,,,1.7,1.0,1.4*3F
$GPRMC,000557.000,A,3353.7586,N,09832.0260,W,0.20,92.87,030412,,,D*42
$GPGGA,000558.000,3353.7586,N,09832.0259,W,2,09,1.0,316.8,M,-23.7,M,0.8,0000*48
$GPGSA,A,3,07,06,23,19,16,13,20,03,30,,,,1.7,1.0,1.4*3F
$GPRMC,000558.000,A,3353.7586,N,09832.0259,W,0.05,119.86,030412,,,D*73
$GPGGA,000559.000,3353.7586,N,09832.0258,W,2,09,1.0,317.1,M,-23.7,M,0.8,0000*40
$GPGSA,A,3,07,06,23,19,16,13,20,03,30,,,,1.7,1.0,1.4*3F
$GPRMC,000559.000,A,3353.7586,N,09832.0258,W,0.14,94.10,030412,,,D*48
$GPGGA,000600.000,3353.7586,N,09832.0258,W,2,09,1.0,317.4,M,-23.7,M,1.8,0000*4B
$GPGSA,A,3,07,06,23,19,16,13,20,03,30,,,,1.7,1.0,1.4*3F
$GPGSV,3,1,12,23,77,159,36,13,66,319,37,03,49,096,38,06,40,077,38*7F
$GPGSV,3,2,12,16,38,041,33,07,37,303,28,19,34,144,19,10,22,292,*75
$GPGSV,3,3,12,20,13,199,23,30,12,049,19,08,08,282,,32,03,178,28*71
$GPRMC,000600.000,A,3353.7586,N,09832.0258,W,0.36,182.51,030412,,,D*74
$GPGGA,000601.000,3353.7585,N,09832.0257,W,2,09,1.0,317.6,M,-23.7,M,0.8,0000*45
$GPGSA,A,3,07,06,23,19,16,13,20,03,30,,,,1.7,1.0,1.4*3F
$GPRMC,000601.000,A,3353.7585,N,09832.0257,W,0.20,161.01,030412,,,D*76
$GPGGA,000602.000,3353.7585,N,09832.0256,W,2,09,1.0,317.8,M,-23.7,M,1.8,0000*48
$GPGSA,A,3,07,06,23,19,16,13,20,03,30,,,,1.7,1.0,1.4*3F
$GPRMC,000602.000,A,3353.7585,N,09832.0256,W,0.27,23.56,030412,,,D*46
$GPGGA,000603.000,3353.7585,N,09832.0255,W,2,09,1.0,318.0,M,-23.7,M,0.8,0000*4C
$GPGSA,A,3,07,06,23,19,16,13,20,03,30,,,,1.7,1.0,1.4*3F
$GPRMC,000603.000,A,3353.7585,N,09832.0255,W,0.09,56.70,030412,,,D*4E
$GPGGA,000604.000,3353.7586,N,09832.0255,W,2,09,1.0,318.5,M,-23.7,M,0.8,0000*4D
$GPGSA,A,3,07,06,23,19,16,13,20,03,30,,,,1.7,1.0,1.4*3F
$GPRMC,000604.000,A,3353.7586,N,09832.0255,W,0.10,76.44,030412,,,D*47
$GPGGA,000605.000,3353.7586,N,09832.0254,W,2,09,1.0,318.9,M,-23.7,M,0.8,0000*41
$GPGSA,A,3,07,06,23,19,16,13,20,03,30,,,,1.7,1.0,1.4*3F
$GPGSV,3,1,12,23,77,159,36,13,66,319,37,03,49,096,38,06,40,077,38*7F
$GPGSV,3,2,12,16,38,041,34,07,37,303,28,19,34,144,20,10,22,292,*78
$GPGSV,3,3,12,20,13,199,23,30,12,049,19,08,08,282,,32,03,178,29*70
$GPRMC,000605.000,A,3353.7586,N,09832.0254,W,0.10,99.89,030412,,,D*47
$GPGGA,000606.000,3353.7585,N,09832.0253,W,2,09,1.0,319.1,M,-23.7,M,0.8,0000*4F
$GPGSA,A,3,07,06,23,19,16,13,20,03,30,,,,1.7,1.0,1.4*3F
$GPRMC,000606.000,A,3353.7585,N,09832.0253,W,0.29,174.10,030412,,,D*78
$GPGGA,000607.000,3353.7585,N,09832.0253,W,2,09,1.0,319.3,M,-23.7,M,1.8,0000*4D
$GPGSA,A,3,07,06,23,19,16,13,20,03,30,,,,1.7,1.0,1.4*3F
$GPRMC,000607.000,A,3353.7585,N,09832.0253,W,0.17,121.34,030412,,,D*72
$GPGGA,000608.000,3353.7584,N,09832.0252,W,2,09,1.0,319.4,M,-23.7,M,0.8,0000*44
$GPGSA,A,3,07,06,23,19,16,13,20,03,30,,,,1.7,1.0,1.4*3F
$GPRMC,000608.000,A,3353.7584,N,09832.0252,W,0.24,172.83,030412,,,D*77
$GPGGA,000609.000,3353.7584,N,09832.0252,W,2,09,1.0,319.3,M,-23.7,M,0.8,0000*42
$GPGSA,A,3,07,06,23,19,16,13,20,03,30,,,,1.7,1.0,1.4*3F
$GPRMC,000609.000,A,3353.7584,N,09832.0252,W,0.07,145.64,030412,,,D*7A
$GPGGA,000610.000,3353.7584,N,09832.0251,W,2,09,1.0,319.3,M,-23.7,M,0.8,0000*49
$GPGSA,A,3,07,06,23,19,16,13,20,03,30,,,,1.7,1.0,1.4*3F
$GPGSV,3,1,12,23,77,159,37,13,66,319,37,03,49,096,38,06,40,077,38*7E
$GPGSV,3,2,12,16,38,041,34,07,37,303,28,19,34,144,21,10,22,292,*79
$GPGSV,3,3,12,20,13,199,23,30,12,049,18,08,08,282,,32,03,178,29*71
$GPRMC,000610.000,A,3353.7584,N,09832.0251,W,0.27,171.26,030412,,,D*72
$GPGGA,000611.000,3353.7584,N,09832.0251,W,2,09,1.0,319.6,M,-23.7,M,0.8,0000*4D
$GPGSA,A,3,07,06,23,19,16,13,20,03,30,,,,1.7,1.0,1.4*3F
$GPRMC,000611.000,A,3353.7584,N,09832.0251,W,0.21,153.81,030412,,,D*78
$GPGGA,000612.000,3353.7584,N,09832.0251,W,2,09,1.0,319.8,M,-23.7,M,1.8,0000*41
$GPGSA,A,3,07,06,23,19,16,13,20,03,30,,,,1.7,1.0,1.4*3F
$GPRMC,000612.000,A,3353.7584,N,09832.0251,W,0.10,75.13,030412,,,D*47
$GPGGA,000613.000,3353.7584,N,09832.0250,W,2,09,1.0,319.9,M,-23.7,M,2.8,0000*43
$GPGSA,A,3,07,06,23,19,16,13,20,03,30,,,,1.7,1.0,1.4*3F
$GPRMC,000613.000,A,3353.7584,N,09832.0250,W,0.08,185.94,030412,,,D*7F
$GPGGA,000614.000,3353.7585,N,09832.0250,W,2,09,1.0,320.3,M,-23.7,M,3.8,0000*44
$GPGSA,A,3,07,06,23,19,16,13,20,03,30,,,,1.7,1.0,1.4*3F
$GPRMC,000614.000,A,3353.7585,N,09832.0250,W,0.21,19.73,030412,,,D*4F
$GPGGA,000615.000,3353.7585,N,09832.0250,W,2,09,1.0,320.3,M,-23.7,M,0.8,0000*46
$GPGSA,A,3,07,06,23,19,16,13,20,03,30,,,,1.7,1.0,1.4*3F
$GPGSV,3,1,12,23,77,159,37,13,66,319,37,03,49,096,38,06,40,077,38*7E
$GPGSV,3,2,12,16,38,041,35,07,37,303,28,19,34,144,21,10,22,292,*78
$GPGSV,3,3,12,20,13,199,22,30,12,049,18,08,08,282,,32,03,178,28*71
$GPRMC,000615.000,A,3353.7585,N,09832.0250,W,0.13,160.73,030412,,,D*70
$GPGGA,000616.000,3353.7584,N,09832.0250,W,2,09,1.0,320.4,M,-23.7,M,0.8,0000*43
$GPGSA,A,3,07,06,23,19,16,13,20,03,30,,,,1.7,1.0,1.4*3F
$GPRMC,000616.000,A,3353.7584,N,09832.0250,W,0.15,147.13,030412,,,D*77
$GPGGA,000617.000,3353.7584,N,09832.0250,W,2,09,1.0,320.4,M,-23.7,M,0.8,0000*42
$GPGSA,A,3,07,06,23,19,16,13,20,03,30,,,,1.7,1.0,1.4*3F
$GPRMC,000617.000,A,3353.7584,N,09832.0250,W,0.22,148.45,030412,,,D*7E
$GPGGA,000618.000,3353.7584,N,09832.0249,W,2,09,1.0,320.4,M,-23.7,M,0.8,0000*45
$GPGSA,A,3,07,06,23,19,16,13,20,03,30,,,,1.7,1.0,1.4*3F
$GPRMC,000618.000,A,3353.7584,N,09832.0249,W,0.13,125.72,030412,,,D*74
$GPGGA,000619.000,3353.7583,N,09832.0249,W,2,09,1.0,320.3,M,-23.7,M,1.8,0000*45
$GPGSA,A,3,07,06,23,19,16,13,20,03,30,,,,1.7,1.0,1.4*3F
$GPRMC,000619.000,A,3353.7583,N,09832.0249,W,0.42,185.33,030412,,,D*79
$GPGGA,000620.000,3353.7583,N,09832.0249,W,2,09,1.0,320.3,M,-23.7,M,2.8,0000*4C
$GPGSA,A,3,07,06,23,19,16,13,20,03,30,,,,1.7,1.0,1.4*3F
$GPGSV,3,1,12,23,77,159,37,13,66,319,37,03,49,096,39,06,40,077,38*7F
$GPGSV,3,2,12,16,38,041,36,07,37,303,28,19,34,144,16,10,22,292,*7F
$GPGSV,3,3,12,20,13,198,21,30,12,049,19,08,08,282,,32,03,178,28*72
$GPRMC,000620.000,A,3353.7583,N,09832.0249,W,0.21,130.93,030412,,,D*72
$GPGGA,000621.000,3353.7582,N,09832.0249,W,2,09,1.0,320.1,M,-23.7,M,0.8,0000*4C
$GPGSA,A,3,07,06,23,19,16,13,20,03,30,,,,1.7,1.0,1.4*3F
$GPRMC,000621.000,A,3353.7582,N,09832.0249,W,0.40,182.26,030412,,,D*72
$GPGGA,000622.000,3353.7581,N,09832.0249,W,2,09,1.0,319.8,M,-23.7,M,0.8,0000*4F
$GPGSA,A,3,07,06,23,19,16,13,20,03,30,,,,1.7,1.0,1.4*3F
$GPRMC,000622.000,A,3353.7581,N,09832.0249,W,0.42,180.47,030412,,,D*75
$GPGGA,000623.000,3353.7580,N,09832.0250,W,2,09,1.0,319.5,M,-23.7,M,0.8,0000*4A
$GPGSA,A,3,07,06,23,19,16,13,20,03,30,,,,1.7,1.0,1.4*3F
$GPRMC,000623.000,A,3353.7580,N,09832.0250,W,0.62,190.48,030412,,,D*71
$GPGGA,000624.000,3353.7579,N,09832.0250,W,2,09,1.0,319.2,M,-23.7,M,1.8,0000*4D
$GPGSA,A,3,07,06,23,19,16,13,20,03,30,,,,1.7,1.0,1.4*3F
$GPRMC,000624.000,A,3353.7579,N,09832.0250,W,0.47,185.47,030412,,,D*7C
$GPGGA,000625.000,3353.7578,N,09832.0251,W,2,09,1.0,318.9,M,-23.7,M,2.8,0000*45
$GPGSA,A,3,07,06,23,19,16,13,20,03,30,,,,1.7,1.0,1.4*3F
$GPGSV,3,1,12,23,77,159,37,13,66,319,37,03,49,096,39,06,40,077,38*7F
$GPGSV,3,2,12,16,38,041,36,07,37,303,28,19,34,144,15,10,22,292,*7C
$GPGSV,3,3,12,20,13,198,20,30,12,049,22,08,08,282,,32,03,178,28*7B
$GPRMC,000625.000,A,3353.7578,N,09832.0251,W,0.66,190.62,030412,,,D*7D
$GPGGA,000626.000,3353.7577,N,09832.0251,W,2,09,1.0,318.7,M,-23.7,M,0.8,0000*45
$GPGSA,A,3,07,06,23,19,16,13,20,03,30,,,,1.7,1.0,1.4*3F
$GPRMC,000626.000,A,3353.7577,N,09832.0251,W,0.30,186.44,030412,,,D*71
$GPGGA,000627.000,3353.7577,N,09832.0251,W,2,09,1.0,318.6,M,-23.7,M,0.8,0000*45
$GPGSA,A,3,07,06,23,19,16,13,20,03,30,,,,1.7,1.0,1.4*3F
$GPRMC,000627.000,A,3353.7577,N,09832.0251,W,0.08,128.64,030412,,,D*7D
$GPGGA,000628.000,3353.7578,N,09832.0251,W,2,09,1.0,318.7,M,-23.7,M,0.8,0000*44
$GPGSA,A,3,07,06,23,19,16,13,20,03,30,,,,1.7,1.0,1.4*3F
$GPRMC,000628.000,A,3353.7578,N,09832.0251,W,0.12,149.97,030412,,,D*7D
$GPGGA,000629.000,3353.7578,N,09832.0251,W,2,09,1.0,318.6,M,-23.7,M,0.8,0000*44
$GPGSA,A,3,07,06,23,19,16,13,20,03,30,,,,1.7,1.0,1.4*3F
$GPRMC,000629.000,A,3353.7578,N,09832.0251,W,0.16,105.06,030412,,,D*78
$GPGGA,000630.000,3353.7578,N,09832.0251,W,2,09,1.0,318.7,M,-23.7,M,1.8,0000*4C
$GPGSA,A,3,07,06,23,19,16,13,20,03,30,,,,1.7,1.0,1.4*3F
$GPGSV,3,1,12,23,77,159,37,13,66,319,37,03,49,096,39,06,40,077,38*7F
$GPGSV,3,2,12,16,38,041,37,07,37,303,28,19,34,144,14,10,22,292,*7C
$GPGSV,3,3,12,20,13,198,20,30,12,049,23,08,08,282,,32,03,178,28*7A
$GPRMC,000630.000,A,3353.7578,N,09832.0251,W,0.15,148.56,030412,,,D*7F
$GPGGA,000631.000,3353.7577,N,09832.0251,W,2,09,1.0,318.5,M,-23.7,M,2.8,0000*43
$GPGSA,A,3,07,06,23,19,16,13,20,03,30,,,,1.7,1.0,1.4*3F
$GPRMC,000631.000,A,3353.7577,N,09832.0251,W,0.34,173.81,030412,,,D*70
$GPGGA,000632.000,3353.7577,N,09832.0250,W,2,09,1.0,318.5,M,-23.7,M,3.8,0000*40
$GPGSA,A,3,07,06,23,19,16,13,20,03,30,,,,1.7,1.0,1.4*3F
$GPRMC,000632.000,A,3353.7577,N,09832.0250,W,0.15,125.51,030412,,,D*7F
$GPGGA,000633.000,3353.7578,N,09832.0250,W,2,09,1.0,318.6,M,-23.7,M,0.8,0000*4E
$GPGSA,A,3,07,06,23,19,16,13,20,03,30,,,,1.7,1.0,1.4*3F
$GPRMC,000633.000,A,3353.7578,N,09832.0250,W,0.14,81.62,030412,,,D*4F
$GPGGA,000634.000,3353.7578,N,09832.0250,W,2,09,1.0,318.6,M,-23.7,M,0.8,0000*49
$GPGSA,A,3,07,06,23,19,16,13,20,03,30,,,,1.7,1.0,1.4*3F
$GPRMC,000634.000,A,3353.7578,N,09832.0250,W,0.26,164.03,030412,,,D*74
$GPGGA,000635.000,3353.7578,N,09832.0249,W,2,09,1.0,318.7,M,-23.7,M,0.8,0000*41
$GPGSA,A,3,07,06,23,19,16,13,20,03,30,,,,1.7,1.0,1.4*3F
$GPGSV,3,1,12,23,77,159,37,13,66,319,38,03,49,096,39,06,40,077,38*70
$GPGSV,3,2,12,16,38,041,36,07,37,303,29,19,34,144,15,10,22,292,*7D
$GPGSV,3,3,12,20,13,198,20,30,12,049,24,08,08,282,,32,03,178,28*7D
$GPRMC,000635.000,A,3353.7578,N,09832.0249,W,0.16,142.94,030412,,,D*74
$GPGGA,000636.000,3353.7577,N,09832.0249,W,2,09,1.0,318.5,M,-23.7,M,1.8,0000*4E
$GPGSA,A,3,07,06,23,19,16,13,20,03,30,,,,1.7,1.0,1.4*3F
$GPRMC,000636.000,A,3353.7577,N,09832.0249,W,0.21,173.70,030412,,,D*74
$GPGGA,000637.000,3353.7577,N,09832.0249,W,2,09,1.0,318.6,M,-23.7,M,0.8,0000*4D
$GPGSA,A,3,07,06,23,19,16,13,20,03,30,,,,1.7,1.0,1.4*3F
$GPRMC,000637.000,A,3353.7577,N,09832.0249,W,0.15,139.56,030412,,,D*78
$GPGGA,000638.000,3353.7578,N,09832.0249,W,2,09,1.0,318.8,M,-23.7,M,1.8,0000*42
$GPGSA,A,3,07,06,23,19,16,13,20,03,30,,,,1.7,1.0,1.4*3F
$GPRMC,000638.000,A,3353.7578,N,09832.0249,W,0.29,25.19,030412,,,D*40
$GPGGA,000639.000,3353.7580,N,09832.0248,W,2,09,1.0,319.1,M,-23.7,M,0.8,0000*4C
$GPGSA,A,3,07,06,23,19,16,13,20,03,30,,,,1.7,1.0,1.4*3F
$GPRMC,000639.000,A,3353.7580,N,09832.0248,W,0.37,25.62,030412,,,D*44
$GPGGA,000640.000,3353.7581,N,09832.0248,W,2,09,1.0,319.5,M,-23.7,M,0.8,0000*47
$GPGSA,A,3,07,06,23,19,16,13,20,03,30,,,,1.7,1.0,1.4*3F
$GPGSV,3,1,12,23,77,159,38,13,66,319,38,03,49,096,39,06,40,077,38*7F
$GPGSV,3,2,12,16,38,041,35,07,37,303,29,19,34,144,16,10,22,292,*7D
$GPGSV,3,3,12,20,13,198,18,30,12,049,25,08,08,282,,32,03,178,28*77
$GPRMC,000640.000,A,3353.7581,N,09832.0248,W,0.37,19.08,030412,,,D*48
$GPGGA,000641.000,3353.7583,N,09832.0248,W,2,09,1.0,319.9,M,-23.7,M,0.8,0000*48
$GPGSA,A,3,07,06,23,19,16,13,20,03,30,,,,1.7,1.0,1.4*3F
$GPRMC,000641.000,A,3353.7583,N,09832.0248,W,0.58,21.32,030412,,,D*40
$GPGGA,000642.000,3353.7585,N,09832.0247,W,2,09,1.0,320.4,M,-23.7,M,0.8,0000*45
$GPGSA,A,3,07,06,23,19,16,13,20,03,30,,,,1.7,1.0,1.4*3F
$GPRMC,000642.000,A,3353.7585,N,09832.0247,W,0.63,26.50,030412,,,D*41
$GPGGA,000643.000,3353.7586,N,09832.0246,W,2,09,1.0,320.7,M,-23.7,M,1.8,0000*44
$GPGSA,A,3,07,06,23,19,16,13,20,03,30,,,,1.7,1.0,1.4*3F
$GPRMC,000643.000,A,3353.7586,N,09832.0246,W,0.21,45.90,030412,,,D*4D
$GPGGA,000644.000,3353.7586,N,09832.0246,W,2,09,1.0,320.8,M,-23.7,M,2.8,0000*4F
$GPGSA,A,3,07,06,23,19,16,13,20,03,30,,,,1.7,1.0,1.4*3F
$GPRMC,000644.000,A,3353.7586,N,09832.0246,W,0.12,138.29,030412,,,D*73
$GPGGA,000645.000,3353.7586,N,09832.0246,W,2,09,1.0,320.8,M,-23.7,M,0.8,0000*4C
$GPGSA,A,3,07,06,23,19,16,13,20,03,30,,,,1.7,1.0,1.4*3F
$GPGSV,3,1,12,23,77,159,38,13,66,319,38,03,49,096,39,06,40,077,38*7F
$GPGSV,3,2,12,16,38,041,34,07,37,303,29,19,34,144,17,10,22,292,*7D
$GPGSV,3,3,12,20,13,198,17,30,12,049,26,08,08,282,,32,03,178,28*7B
$GPRMC,000645.000,A,3353.7586,N,09832.0246,W,0.13,148.09,030412,,,D*76
$GPGGA,000646.000,3353.7585,N,09832.0246,W,2,09,1.0,320.8,M,-23.7,M,0.8,0000*4C
$GPGSA,A,3,07,06,23,19,16,13,20,03,30,,,,1.7,1.0,1.4*3F
$GPRMC,000646.000,A,3353.7585,N,09832.0246,W,0.24,162.15,030412,,,D*77
$GPGGA,000647.000,3353.7585,N,09832.0246,W,2,09,1.0,320.8,M,-23.7,M,0.8,0000*4D
$GPGSA,A,3,07,06,23,19,16,13,20,03,30,,,,1.7,1.0,1.4*3F
$GPRMC,000647.000,A,3353.7585,N,09832.0246,W,0.15,152.16,030412,,,D*74
$GPGGA,000648.000,3353.7586,N,09832.0246,W,2,09,1.0,320.5,M,-23.7,M,1.8,0000*4D
$GPGSA,A,3,07,06,23,19,16,13,20,03,30,,,,1.7,1.0,1.4*3F
$GPRMC,000648.000,A,3353.7586,N,09832.0246,W,0.16,74.71,030412,,,D*4F
$GPGGA,000649.000,3353.7586,N,09832.0245,W,2,09,1.0,320.3,M,-23.7,M,0.8,0000*48
$GPGSA,A,3,07,06,23,19,16,13,20,03,30,,,,1.7,1.0,1.4*3F
$GPRMC,000649.000,A,3353.7586,N,09832.0245,W,0.18,71.05,030412,,,D*45
$GPGGA,000650.000,3353.7587,N,09832.0245,W,2,09,1.0,320.0,M,-23.7,M,0.8,0000*42
$GPGSA,A,3,07,06,23,19,16,13,20,03,30,,,,1.7,1.0,1.4*3F
$GPGSV,3,1,12,23,77,159,37,13,66,319,37,03,49,096,39,06,40,077,38*7F
$GPGSV,3,2,12,16,38,041,33,07,37,303,29,19,34,144,21,10,22,292,*7F
$GPGSV,3,3,12,20,13,198,17,30,12,049,31,08,08,282,,32,03,178,28*7D
$GPRMC,000650.000,A,3353.7587,N,09832.0245,W,0.13,98.35,030412,,,D*43
$GPGGA,000651.000,3353.7587,N,09832.0245,W,2,09,1.0,319.8,M,-23.7,M,0.8,0000*41
$GPGSA,A,3,07,06,23,19,16,13,20,03,30,,,,1.7,1.0,1.4*3F
$GPRMC,000651.000,A,3353.7587,N,09832.0245,W,0.13,88.78,030412,,,D*4A
$GPGGA,000652.000,3353.7587,N,09832.0244,W,2,09,1.0,319.6,M,-23.7,M,0.8,0000*4D
$GPGSA,A,3,07,06,23,19,16,13,20,03,30,,,,1.7,1.0,1.4*3F
$GPRMC,000652.000,A,3353.7587,N,09832.0244,W,0.15,127.94,030412,,,D*78
$GPGGA,000653.000,3353.7587,N,09832.0244,W,2,09,1.0,319.4,M,-23.7,M,0.8,0000*4E
$GPGSA,A,3,07,06,23,19,16,13,20,03,30,,,,1.7,1.0,1.4*3F
$GPRMC,000653.000,A,3353.7587,N,09832.0244,W,0.16,87.90,030412,,,D*45
$GPGGA,000654.000,3353.7587,N,09832.0244,W,2,09,1.0,319.2,M,-23.7,M,1.8,0000*4E
$GPGSA,A,3,07,06,23,19,16,13,20,03,30,,,,1.7,1.0,1.4*3F
$GPRMC,000654.000,A,3353.7587,N,09832.0244,W,0.17,52.20,030412,,,D*40
$GPGGA,000655.000,3353.7587,N,09832.0244,W,2,09,1.0,319.0,M,-23.7,M,0.8,0000*4C
$GPGSA,A,3,07,06,23,19,16,13,20,03,30,,,,1.7,1.0,1.4*3F
$GPGSV,3,1,12,23,77,159,37,13,66,319,37,03,49,096,39,06,40,077,39*7E
$GPGSV,3,2,12,16,38,041,33,07,37,303,29,19,34,144,20,10,22,292,*7E
$GPGSV,3,3,12,20,13,198,17,30,12,049,30,08,08,282,,32,03,178,27*73
$GPRMC,000655.000,A,3353.7587,N,09832.0244,W,0.04,89.38,030412,,,D*4C
$GPGGA,000656.000,3353.7588,N,09832.0244,W,2,09,1.0,318.9,M,-23.7,M,1.8,0000*49
$GPGSA,A,3,07,06,23,19,16,13,20,03,30,,,,1.7,1.0,1.4*3F
$GPRMC,000656.000,A,3353.7588,N,09832.0244,W,0.36,27.87,030412,,,D*41
$GPGGA,000657.000,3353.7590,N,09832.0243,W,2,09,1.0,319.0,M,-23.7,M,0.8,0000*4F
$GPGSA,A,3,07,06,23,19,16,13,20,03,30,,,,1.7,1.0,1.4*3F
$GPRMC,000657.000,A,3353.7590,N,09832.0243,W,0.60,23.19,030412,,,D*4E
$GPGGA,000658.000,3353.7591,N,09832.0243,W,2,09,1.0,318.9,M,-23.7,M,0.8,0000*49
$GPGSA,A,3,07,06,23,19,16,13,20,03,30,,,,1.7,1.0,1.4*3F
$GPRMC,000658.000,A,3353.7591,N,09832.0243,W,0.20,61.92,030412,,,D*41
$GPGGA,000659.000,3353.7591,N,09832.0242,W,2,09,1.0,318.8,M,-23.7,M,0.8,0000*48
$GPGSA,A,3,07,06,23,19,16,13,20,03,30,,,,1.7,1.0,1.4*3F
$GPRMC,000659.000,A,3353.7591,N,09832.0242,W,0.15,68.08,030412,,,D*4D
$GPGGA,000700.000,3353.7591,N,09832.0242,W,2,09,1.0,318.7,M,-23.7,M,0.8,0000*4A
$GPGSA,A,3,07,06,23,19,16,13,20,03,30,,,,1.7,1.0,1.4*3F
$GPGSV,3,1,12,23,77,159,37,13,66,319,38,03,49,096,39,06,40,077,39*71
$GPGSV,3,2,12,16,38,041,34,07,37,303,29,19,34,144,20,10,22,292,*79
$GPGSV,3,3,12,20,13,198,16,30,12,049,30,08,08,282,,32,03,178,27*72
$GPRMC,000700.000,A,3353.7591,N,09832.0242,W,0.17,64.89,030412,,,D*47
$GPGGA,000701.000,3353.7592,N,09832.0242,W,2,09,1.0,318.7,M,-23.7,M,1.8,0000*49
$GPGSA,A,3,07,06,23,19,16,13,20,03,30,,,,1.7,1.0,1.4*3F
$GPRMC,000701.000,A,3353.7592,N,09832.0242,W,0.19,57.86,030412,,,D*44
$GPGGA,000702.000,3353.7592,N,09832.0242,W,2,09,1.0,318.7,M,-23.7,M,2.8,0000*49
$GPGSA,A,3,07,06,23,19,16,13,20,03,30,,,,1.7,1.0,1.4*3F
$GPRMC,000702.000,A,3353.7592,N,09832.0242,W,0.42,19.48,030412,,,D*41
$GPGGA,000703.000,3353.7593,N,09832.0242,W,2,09,1.0,318.7,M,-23.7,M,0.8,0000*4B
$GPGSA,A,3,07,06,23,19,16,13,20,03,30,,,,1.7,1.0,1.4*3F
$GPRMC,000703.000,A,3353.7593,N,09832.0242,W,0.28,19.91,030412,,,D*49
$GPGGA,000704.000,3353.7594,N,09832.0242,W,2,09,1.0,318.8,M,-23.7,M,0.8,0000*44
$GPGSA,A,3,07,06,23,19,16,13,20,03,30,,,,1.7,1.0,1.4*3F
$GPRMC,000704.000,A,3353.7594,N,09832.0242,W,0.49,20.27,030412,,,D*49
$GPGGA,000705.000,3353.7595,N,09832.0242,W,2,09,1.0,318.8,M,-23.7,M,0.8,0000*44
$GPGSA,A,3,07,06,23,19,16,13,20,03,30,,,,1.7,1.0,1.4*3F
$GPGSV,3,1,12,23,77,159,37,13,66,319,38,03,49,096,39,06,40,077,39*71
$GPGSV,3,2,12,16,38,041,34,07,37,303,29,19,34,144,20,10,22,292,*79
$GPGSV,3,3,12,20,13,198,15,30,12,049,30,08,08,282,,32,03,178,26*70
$GPRMC,000705.000,A,3353.7595,N,09832.0242,W,0.51,27.39,030412,,,D*48
$GPGGA,000706.000,3353.7595,N,09832.0242,W,2,09,1.0,318.7,M,-23.7,M,1.8,0000*49
$GPGSA,A,3,07,06,23,19,16,13,20,03,30,,,,1.7,1.0,1.4*3F
$GPRMC,000706.000,A,3353.7595,N,09832.0242,W,0.26,42.74,030412,,,D*41
$GPGGA,000707.000,3353.7595,N,09832.0242,W,2,09,1.0,318.4,M,-23.7,M,2.8,0000*48
$GPGSA,A,3,07,06,23,19,16,13,20,03,30,,,,1.7,1.0,1.4*3F
$GPRMC,000707.000,A,3353.7595,N,09832.0242,W,0.19,141.14,030412,,,D*78
$GPGGA,000708.000,3353.7594,N,09832.0243,W,2,09,1.0,318.2,M,-23.7,M,3.8,0000*40
$GPGSA,A,3,07,06,23,19,16,13,20,03,30,,,,1.7,1.0,1.4*3F
$GPRMC,000708.000,A,3353.7594,N,09832.0243,W,0.09,74.80,030412,,,D*4C
$GPGGA,000709.000,3353.7594,N,09832.0243,W,2,09,1.0,318.0,M,-23.7,M,0.8,0000*40
$GPGSA,A,3,07,06,23,19,16,13,20,03,30,,,,1.7,1.0,1.4*3F
$GPRMC,000709.000,A,3353.7594,N,09832.0243,W,0.24,54.13,030412,,,D*4A
$GPGGA,000710.000,3353.7594,N,09832.0242,W,2,09,1.0,317.9,M,-23.7,M,0.8,0000*4F
$GPGSA,A,3,07,06,23,19,16,13,20,03,30,,,,1.7,1.0,1.4*3F
$GPGSV,3,1,12,23,77,159,37,13,66,319,38,03,49,096,39,06,40,077,39*71
$GPGSV,3,2,12,16,38,041,35,07,37,303,29,19,34,144,21,10,22,292,*79
$GPGSV,3,3,12,20,13,198,13,30,12,049,30,08,08,282,,32,03,178,25*75
$GPRMC,000710.000,A,3353.7594,N,09832.0242,W,0.21,47.89,030412,,,D*47
$GPGGA,000711.000,3353.7594,N,09832.0242,W,2,09,1.0,317.9,M,-23.7,M,0.8,0000*4E
$GPGSA,A,3,07,06,23,19,16,13,20,03,30,,,,1.7,1.0,1.4*3F
$GPRMC,000711.000,A,3353.7594,N,09832.0242,W,0.14,102.31,030412,,,D*73
$GPGGA,000712.000,3353.7594,N,09832.0242,W,2,09,1.0,317.9,M,-23.7,M,1.8,0000*4C
$GPGSA,A,3,07,06,23,19,16,13,20,03,30,,,,1.7,1.0,1.4*3F
$GPRMC,000712.000,A,3353.7594,N,09832.0242,W,0.29,39.67,030412,,,D*44
$GPGGA,000713.000,3353.7594,N,09832.0242,W,2,09,1.0,318.0,M,-23.7,M,2.8,0000*48
$GPGSA,A,3,07,06,23,19,16,13,20,03,30,,,,1.7,1.0,1.4*3F
$GPRMC,000713.000,A,3353.7594,N,09832.0242,W,0.28,51.86,030412,,,D*45
$GPGGA,000714.000,3353.7595,N,09832.0241,W,2,09,1.0,318.1,M,-23.7,M,3.8,0000*4D
$GPGSA,A,3,07,06,23,19,16,13,20,03,30,,,,1.7,1.0,1.4*3F
$GPRMC,000714.000,A,3353.7595,N,09832.0241,W,0.32,45.84,030412,,,D*4C
$GPGGA,000715.000,3353.7595,N,09832.0241,W,2,09,1.0,318.3,M,-23.7,M,0.8,0000*4D
$GPGSA,A,3,07,06,23,19,16,13,20,03,30,,,,1.7,1.0,1.4*3F
$GPGSV,3,1,12,23,77,159,37,13,66,319,38,03,49,096,39,06,40,077,39*71
$GPGSV,3,2,12,16,38,041,35,07,37,303,29,19,34,144,22,10,22,292,*7A
$GPGSV,3,3,12,20,13,198,14,30,12,049,30,08,08,282,,32,03,178,25*72
$GPRMC,000715.000,A,3353.7595,N,09832.0241,W,0.36,28.19,030412,,,D*46
$GPGGA,000716.000,3353.7596,N,09832.0241,W,2,09,1.0,318.4,M,-23.7,M,0.8,0000*4A
$GPGSA,A,3,07,06,23,19,16,13,20,03,30,,,,1.7,1.0,1.4*3F
$GPRMC,000716.000,A,3353.7596,N,09832.0241,W,0.29,25.83,030412,,,D*46
$GPGGA,000717.000,3353.7596,N,09832.0241,W,2,09,1.0,318.3,M,-23.7,M,0.8,0000*4C
$GPGSA,A,3,07,06,23,19,16,13,20,03,30,,,,1.7,1.0,1.4*3F
$GPRMC,000717.000,A,3353.7596,N,09832.0241,W,0.12,100.87,030412,,,D*7D
$GPGGA,000718.000,3353.7595,N,09832.0241,W,2,09,1.0,318.0,M,-23.7,M,1.8,0000*42
$GPGSA,A,3,07,06,23,19,16,13,20,03,30,,,,1.7,1.0,1.4*3F
$GPRMC,000718.000,A,3353.7595,N,09832.0241,W,0.05,127.49,030412,,,D*70
$GPGGA,000719.000,3353.7594,N,09832.0242,W,2,09,1.0,317.7,M,-23.7,M,2.8,0000*4A
$GPGSA,A,3,07,06,23,19,16,13,20,03,30,,,,1.7,1.0,1.4*3F
$GPRMC,000719.000,A,3353.7594,N,09832.0242,W,0.25,172.70,030412,,,D*7B
$GPGGA,000720.000,3353.7593,N,09832.0242,W,2,09,1.0,317.4,M,-23.7,M,3.8,0000*45
$GPGSA,A,3,07,06,23,19,16,13,20,03,30,,,,1.7,1.0,1.4*3F
$GPGSV,3,1,12,23,77,159,38,13,66,319,38,03,49,096,39,06,40,077,39*7E
$GPGSV,3,2,12,16,38,041,36,07,37,303,29,19,34,144,24,10,22,292,*7F
$GPGSV,3,3,12,20,13,198,17,30,12,049,31,08,08,282,,32,03,178,22*77
$GPRMC,000720.000,A,3353.7593,N,09832.0242,W,0.38,179.58,030412,,,D*7B
$GPGGA,000721.000,3353.7592,N,09832.0242,W,2,09,1.0,317.3,M,-23.7,M,0.8,0000*41
$GPGSA,A,3,07,06,23,19,16,13,20,03,30,,,,1.7,1.0,1.4*3F
$GPRMC,000721.000,A,3353.7592,N,09832.0242,W,0.26,30.65,030412,,,D*46
$GPGGA,000722.000,3353.7593,N,09832.0242,W,2,09,1.0,317.2,M,-23.7,M,0.8,0000*42
$GPGSA,A,3,07,06,23,19,16,13,20,03,30,,,,1.7,1.0,1.4*3F
$GPRMC,000722.000,A,3353.7593,N,09832.0242,W,0.17,83.23,030412,,,D*4C
$GPGGA,000723.000,3353.7593,N,09832.0242,W,2,09,1.0,317.2,M,-23.7,M,0.8,0000*43
$GPGSA,A,3,07,06,23,19,16,13,20,03,30,,,,1.7,1.0,1.4*3F
$GPRMC,000723.000,A,3353.7593,N,09832.0242,W,0.21,42.70,030412,,,D*43
$GPGGA,000724.000,3353.7592,N,09832.0242,W,2,09,1.0,316.9,M,-23.7,M,1.8,0000*4E
$GPGSA,A,3,07,06,23,19,16,13,20,03,30,,,,1.7,1.0,1.4*3F
$GPRMC,000724.000,A,3353.7592,N,09832.0242,W,0.22,177.20,030412,,,D*74
$GPGGA,000725.000,3353.7592,N,09832.0242,W,2,09,1.0,316.9,M,-23.7,M,0.8,0000*4E
$GPGSA,A,3,07,06,23,19,16,13,20,03,30,,,,1.7,1.0,1.4*3F
$GPGSV,3,1,12,23,77,159,38,13,66,319,38,03,49,096,39,06,40,077,39*7E
$GPGSV,3,2,12,16,38,041,36,07,37,303,28,19,34,144,23,10,22,292,*79
$GPGSV,3,3,12,20,13,198,23,30,12,049,31,08,08,282,,32,03,178,20*72
$GPRMC,000725.000,A,3353.7592,N,09832.0242,W,0.15,48.83,030412,,,D*45
$GPGGA,000726.000,3353.7592,N,09832.0243,W,2,09,1.0,316.7,M,-23.7,M,0.8,0000*42
$GPGSA,A,3,07,06,23,19,16,13,20,03,30,,,,1.7,1.0,1.4*3F
$GPRMC,000726.000,A,3353.7592,N,09832.0243,W,0.17,171.32,030412,,,D*74
$GPGGA,000727.000,3353.7592,N,09832.0243,W,2,09,1.0,316.7,M,-23.7,M,0.8,0000*43
$GPGSA,A,3,07,06,23,19,16,13,20,03,30,,,,1.7,1.0,1.4*3F
$GPRMC,000727.000,A,3353.7592,N,09832.0243,W,0.11,58.11,030412,,,D*48
$GPGGA,000728.000,3353.7591,N,09832.0243,W,2,09,1.0,316.6,M,-23.7,M,0.8,0000*4E
$GPGSA,A,3,07,06,23,19,16,13,20,03,30,,,,1.7,1.0,1.4*3F
$GPRMC,000728.000,A,3353.7591,N,09832.0243,W,0.05,67.27,030412,,,D*48
$GPGGA,000729.000,3353.7591,N,09832.0244,W,2,09,1.0,316.5,M,-23.7,M,0.8,0000*4B
$GPGSA,A,3,07,06,23,19,16,13,20,03,30,,,,1.7,1.0,1.4*3F
$GPRMC,000729.000,A,3353.7591,N,09832.0244,W,0.08,35.64,030412,,,D*43
$GPGGA,000730.000,3353.7591,N,09832.0244,W,2,09,1.0,316.4,M,-23.7,M,0.8,0000*42
$GPGSA,A,3,07,06,23,19,16,13,20,03,30,,,,1.7,1.0,1.4*3F
$GPGSV,3,1,12,23,77,159,38,13,66,319,38,03,49,096,39,06,40,077,38*7F
$GPGSV,3,2,12,16,38,041,36,07,37,303,28,19,34,144,23,10,22,292,*79
$GPGSV,3,3,12,20,13,198,23,30,12,049,31,08,08,282,,32,03,178,20*72
$GPRMC,000730.000,A,3353.7591,N,09832.0244,W,0.07,40.18,030412,,,D*4D
$GPGGA,000731.000,3353.7591,N,09832.0244,W,2,09,1.0,316.4,M,-23.7,M,1.8,0000*42
$GPGSA,A,3,07,06,23,19,16,13,20,03,30,,,,1.7,1.0,1.4*3F
$GPRMC,000731.000,A,3353.7591,N,09832.0244,W,0.14,81.03,030412,,,D*49
$GPGGA,000732.000,3353.7591,N,09832.0244,W,2,09,1.0,316.3,M,-23.7,M,2.8,0000*45
$GPGSA,A,3,07,06,23,19,16,13,20,03,30,,,,1.7,1.0,1.4*3F
$GPRMC,000732.000,A,3353.7591,N,09832.0244,W,0.09,29.28,030412,,,D*4D
$GPGGA,000733.000,3353.7590,N,09832.0244,W,2,09,1.0,316.1,M,-23.7,M,0.8,0000*45
$GPGSA,A,3,07,06,23,19,16,13,20,03,30,,,,1.7,1.0,1.4*3F
$GPRMC,000733.000,A,3353.7590,N,09832.0244,W,0.14,99.42,030412,,,D*46
$GPGGA,000734.000,3353.7590,N,09832.0245,W,2,09,1.0,315.8,M,-23.7,M,0.8,0000*49
$GPGSA,A,3,07,06,23,19,16,13,20,03,30,,,,1.7,1.0,1.4*3F
$GPRMC,000734.000,A,3353.7590,N,09832.0245,W,0.07,134.49,030412,,,D*7F
$GPGGA,000735.000,3353.7590,N,09832.0245,W,2,09,1.0,315.7,M,-23.7,M,0.8,0000*47
$GPGSA,A,3,07,06,23,19,16,13,20,03,30,,,,1.7,1.0,1.4*3F
$GPGSV,3,1,12,23,77,159,38,13,66,319,37,03,49,096,39,06,40,077,39*71
$GPGSV,3,2,12,16,38,041,35,07,37,303,27,19,34,144,22,10,22,292,*74
$GPGSV,3,3,12,20,13,198,24,30,12,049,32,08,08,282,,32,03,178,19*7C
$GPRMC,000735.000,A,3353.7590,N,09832.0245,W,0.11,41.88,030412,,,D*47
$GPGGA,000736.000,3353.7590,N,09832.0245,W,2,09,1.0,315.6,M,-23.7,M,1.8,0000*44
$GPGSA,A,3,07,06,23,19,16,13,20,03,30,,,,1.7,1.0,1.4*3F
$GPRMC,000736.000,A,3353.7590,N,09832.0245,W,0.11,85.71,030412,,,D*4A
$GPGGA,000737.000,3353.7590,N,09832.0245,W,2,09,1.0,315.5,M,-23.7,M,0.8,0000*47
$GPGSA,A,3,07,06,23,19,16,13,20,03,30,,,,1.7,1.0,1.4*3F
$GPRMC,000737.000,A,3353.7590,N,09832.0245,W,0.11,40.80,030412,,,D*4C
$GPGGA,000738.000,3353.7590,N,09832.0245,W,2,09,1.0,315.4,M,-23.7,M,0.8,0000*49
$GPGSA,A,3,07,06,23,19,16,13,20,03,30,,,,1.7,1.0,1.4*3F
$GPRMC,000738.000,A,3353.7590,N,09832.0245,W,0.12,19.26,030412,,,D*40
$GPGGA,000739.000,3353.7590,N,09832.0246,W,2,09,1.0,315.2,M,-23.7,M,0.8,0000*4D
$GPGSA,A,3,07,06,23,19,16,13,20,03,30,,,,1.7,1.0,1.4*3F
$GPRMC,000739.000,A,3353.7590,N,09832.0246,W,0.07,148.57,030412,,,D*75
$GPGGA,000740.000,3353.7590,N,09832.0246,W,2,09,1.0,315.1,M,-23.7,M,0.8,0000*40
$GPGSA,A,3,07,06,23,19,16,13,20,03,30,,,,1.7,1.0,1.4*3F
$GPGSV,3,1,12,23,77,159,38,13,66,319,37,03,49,096,39,06,40,077,38*70
$GPGSV,3,2,12,16,38,041,34,07,37,303,27,19,34,144,23,10,22,292,*74
$GPGSV,3,3,12,20,13,198,24,30,12,049,32,08,08,282,,32,03,178,18*7D
$GPRMC,000740.000,A,3353.7590,N,09832.0246,W,0.05,111.67,030412,,,D*76
$GPGGA,000741.000,3353.7589,N,09832.0247,W,2,09,1.0,314.9,M,-23.7,M,0.8,0000*41
$GPGSA,A,3,07,06,23,19,16,13,20,03,30,,,,1.7,1.0,1.4*3F
$GPRMC,000741.000,A,3353.7589,N,09832.0247,W,0.24,170.49,030412,,,D*76
$GPGGA,000742.000,3353.7588,N,09832.0247,W,2,09,1.0,314.7,M,-23.7,M,1.8,0000*4C
$GPGSA,A,3,07,06,23,19,16,13,20,03,30,,,,1.7,1.0,1.4*3F
$GPRMC,000742.000,A,3353.7588,N,09832.0247,W,0.10,115.05,030412,,,D*78
$GPGGA,000743.000,3353.7588,N,09832.0247,W,2,09,1.0,314.6,M,-23.7,M,2.8,0000*4F
$GPGSA,A,3,07,06,23,19,16,13,20,03,30,,,,1.7,1.0,1.4*3F
$GPRMC,000743.000,A,3353.7588,N,09832.0247,W,0.06,64.90,030412,,,D*45
$GPGGA,000744.000,3353.7587,N,09832.0248,W,2,09,1.0,314.4,M,-23.7,M,3.8,0000*4B
$GPGSA,A,3,07,06,23,19,16,13,20,03,30,,,,1.7,1.0,1.4*3F
$GPRMC,000744.000,A,3353.7587,N,09832.0248,W,0.19,165.21,030412,,,D*76
$GPGGA,000745.000,3353.7587,N,09832.0248,W,2,09,1.0,314.1,M,-23.7,M,0.8,0000*4C
$GPGSA,A,3,07,06,23,19,16,13,20,03,30,,,,1.7,1.0,1.4*3F
$GPGSV,3,1,12,23,77,159,39,13,66,319,37,03,49,096,39,06,40,077,39*70
$GPGSV,3,2,12,16,38,041,34,07,37,303,28,19,34,144,24,10,22,292,*7C
