$GPGGA,065837.000,3353.7555,N,09832.0248,W,2,08,1.0,317.3,M,-23.7,M,0.8,0000*4A
$GPGSA,A,3,02,28,10,04,09,17,27,20,,,,,2.0,1.0,1.7*32
$GPRMC,065837.000,A,3353.7555,N,09832.0248,W,0.02,98.23,310312,,,D*4C
$GPGGA,065838.000,3353.7554,N,09832.0248,W,2,08,1.0,317.3,M,-23.7,M,1.8,0000*45
$GPGSA,A,3,02,28,10,04,09,17,27,20,,,,,2.0,1.0,1.7*32
$GPRMC,065838.000,A,3353.7554,N,09832.0248,W,0.02,167.65,310312,,,D*71
$GPGGA,065839.000,3353.7554,N,09832.0246,W,2,08,1.0,317.6,M,-23.7,M,0.8,0000*4E
$GPGSA,A,3,02,28,10,04,09,17,27,20,,,,,2.0,1.0,1.7*32
$GPRMC,065839.000,A,3353.7554,N,09832.0246,W,0.09,322.17,310312,,,D*73
$GPGGA,065840.000,3353.7554,N,09832.0246,W,2,08,1.0,317.7,M,-23.7,M,0.8,0000*41
$GPGSA,A,3,02,28,10,04,09,17,27,20,,,,,2.0,1.0,1.7*32
$GPGSV,3,1,12,04,69,194,37,17,51,039,40,28,45,112,33,27,43,274,29*76
$GPGSV,3,2,12,02,36,213,31,09,35,295,25,20,15,059,32,10,15,153,32*70
$GPGSV,3,3,12,12,12,312,16,08,01,165,23,32,01,037,,51,49,195,30*74
$GPRMC,065840.000,A,3353.7554,N,09832.0246,W,0.06,77.50,310312,,,D*42
$GPGGA,065841.000,3353.7554,N,09832.0246,W,2,08,1.0,317.8,M,-23.7,M,0.8,0000*4F
$GPGSA,A,3,02,28,10,04,09,17,27,20,,,,,2.0,1.0,1.7*32
$GPRMC,065841.000,A,3353.7554,N,09832.0246,W,0.14,330.88,310312,,,D*75
$GPGGA,065842.000,3353.7555,N,09832.0245,W,2,08,1.0,317.8,M,-23.7,M,1.8,0000*4F
$GPGSA,A,3,02,28,10,04,09,17,27,20,,,,,2.0,1.0,1.7*32
$GPRMC,065842.000,A,3353.7555,N,09832.0245,W,0.14,330.19,310312,,,D*7C
$GPGGA,065843.000,3353.7555,N,09832.0245,W,2,08,1.0,317.8,M,-23.7,M,2.8,0000*4D
$GPGSA,A,3,02,28,10,04,09,17,27,20,,,,,2.0,1.0,1.7*32
$GPRMC,065843.000,A,3353.7555,N,09832.0245,W,0.09,341.77,310312,,,D*7F
$GPGGA,065844.000,3353.7555,N,09832.0245,W,2,08,1.0,317.9,M,-23.7,M,3.8,0000*4A
$GPGSA,A,3,02,28,10,04,09,17,27,20,,,,,2.0,1.0,1.7*32
$GPRMC,065844.000,A,3353.7555,N,09832.0245,W,0.09,11.80,310312,,,D*46
$GPGGA,065845.000,3353.7555,N,09832.0244,W,2,08,1.0,318.0,M,-23.7,M,0.8,0000*4F
$GPGSA,A,3,02,28,10,04,09,17,27,20,,,,,2.0,1.0,1.7*32
$GPGSV,3,1,12,04,69,194,37,17,51,039,40,28,45,112,33,27,43,274,30*7E
$GPGSV,3,2,12,02,36,213,31,09,35,295,25,20,15,059,32,10,15,153,32*70
$GPGSV,3,3,12,12,12,312,16,08,01,165,23,32,01,037,,51,49,195,30*74
$GPRMC,065845.000,A,3353.7555,N,09832.0244,W,0.11,354.53,310312,,,D*73
$GPGGA,065846.000,3353.7555,N,09832.0244,W,2,08,1.0,317.9,M,-23.7,M,0.8,0000*4A
$GPGSA,A,3,02,28,10,04,09,17,27,20,,,,,2.0,1.0,1.7*32
$GPRMC,065846.000,A,3353.7555,N,09832.0244,W,0.10,338.30,310312,,,D*7E
$GPGGA,065847.000,3353.7555,N,09832.0245,W,2,08,1.0,317.8,M,-23.7,M,0.8,0000*4B
$GPGSA,A,3,02,28,10,04,09,17,27,20,,,,,2.0,1.0,1.7*32
$GPRMC,065847.000,A,3353.7555,N,09832.0245,W,0.07,346.09,310312,,,D*7B
$GPGGA,065848.000,3353.7555,N,09832.0245,W,2,08,1.0,317.7,M,-23.7,M,1.8,0000*4A
$GPGSA,A,3,02,28,10,04,09,17,27,20,,,,,2.0,1.0,1.7*32
$GPRMC,065848.000,A,3353.7555,N,09832.0245,W,0.05,343.98,310312,,,D*7B
$GPGGA,065849.000,3353.7554,N,09832.0245,W,2,08,1.0,317.7,M,-23.7,M,0.8,0000*4B
$GPGSA,A,3,02,28,10,04,09,17,27,20,,,,,2.0,1.0,1.7*32
$GPRMC,065849.000,A,3353.7554,N,09832.0245,W,0.05,24.40,310312,,,D*4C
$GPGGA,065850.000,3353.7554,N,09832.0245,W,2,08,1.0,317.6,M,-23.7,M,1.8,0000*43
$GPGSA,A,3,02,28,10,04,09,17,27,20,,,,,2.0,1.0,1.7*32
$GPGSV,3,1,12,04,70,194,36,17,50,039,40,28,45,112,32,27,43,274,30*77
$GPGSV,3,2,12,02,36,213,30,09,36,295,25,20,15,058,31,10,15,152,32*71
$GPGSV,3,3,12,12,12,312,15,08,01,165,22,32,01,037,,51,49,195,30*76
$GPRMC,065850.000,A,3353.7554,N,09832.0245,W,0.07,81.32,310312,,,D*4C
$GPGGA,065851.000,3353.7555,N,09832.0248,W,2,08,1.0,317.3,M,-23.7,M,0.8,0000*4A
$GPGSA,A,3,02,28,10,04,09,17,27,20,,,,,2.0,1.0,1.7*32
$GPRMC,065851.000,A,3353.7555,N,09832.0248,W,0.03,359.95,310312,,,D*7E
$GPGGA,065852.000,3353.7556,N,09832.0251,W,2,08,1.0,316.8,M,-23.7,M,0.8,0000*48
$GPGSA,A,3,02,28,10,04,09,17,27,20,,,,,2.0,1.0,1.7*32
$GPRMC,065852.000,A,3353.7556,N,09832.0251,W,0.19,302.44,310312,,,D*7F
$GPGGA,065853.000,3353.7556,N,09832.0254,W,2,08,1.0,316.5,M,-23.7,M,0.8,0000*41
$GPGSA,A,3,02,28,10,04,09,17,27,20,,,,,2.0,1.0,1.7*32
$GPRMC,065853.000,A,3353.7556,N,09832.0254,W,0.02,80.84,310312,,,D*44
$GPGGA,065854.000,3353.7557,N,09832.0256,W,2,08,1.0,316.1,M,-23.7,M,1.8,0000*40
$GPGSA,A,3,02,28,10,04,09,17,27,20,,,,,2.0,1.0,1.7*32
$GPRMC,065854.000,A,3353.7557,N,09832.0256,W,0.13,315.75,310312,,,D*71
$GPGGA,065855.000,3353.7557,N,09832.0258,W,2,08,1.0,315.8,M,-23.7,M,0.8,0000*44
$GPGSA,A,3,02,28,10,04,09,17,27,20,,,,,2.0,1.0,1.7*32
$GPGSV,3,1,12,04,70,194,36,17,50,039,40,28,45,112,32,27,43,274,30*77
$GPGSV,3,2,12,02,36,213,25,09,36,295,25,20,15,058,31,10,15,152,32*75
$GPGSV,3,3,12,12,12,312,16,08,01,165,20,32,01,037,,51,49,195,30*77
$GPRMC,065855.000,A,3353.7557,N,09832.0258,W,0.04,57.74,310312,,,D*4C
$GPGGA,065856.000,3353.7557,N,09832.0260,W,2,08,1.0,315.5,M,-23.7,M,1.8,0000*40
$GPGSA,A,3,02,28,10,04,09,17,27,20,,,,,2.0,1.0,1.7*32
$GPRMC,065856.000,A,3353.7557,N,09832.0260,W,0.03,45.35,310312,,,D*45
$GPGGA,065857.000,3353.7557,N,09832.0261,W,2,08,1.0,315.1,M,-23.7,M,0.8,0000*45
$GPGSA,A,3,02,28,10,04,09,17,27,20,,,,,2.0,1.0,1.7*32
$GPRMC,065857.000,A,3353.7557,N,09832.0261,W,0.12,305.69,310312,,,D*7B
$GPGGA,065858.000,3353.7557,N,09832.0263,W,2,08,1.0,314.7,M,-23.7,M,0.8,0000*4F
$GPGSA,A,3,02,28,10,04,09,17,27,20,,,,,2.0,1.0,1.7*32
$GPRMC,065858.000,A,3353.7557,N,09832.0263,W,0.26,300.83,310312,,,D*70
$GPGGA,065859.000,3353.7558,N,09832.0266,W,2,08,1.0,314.3,M,-23.7,M,0.8,0000*40
$GPGSA,A,3,02,28,10,04,09,17,27,20,,,,,2.0,1.0,1.7*32
$GPRMC,065859.000,A,3353.7558,N,09832.0266,W,0.29,305.92,310312,,,D*71
$GPGGA,065900.000,3353.7558,N,09832.0267,W,2,08,1.0,314.0,M,-23.7,M,1.8,0000*4E
$GPGSA,A,3,02,28,10,04,09,17,27,20,,,,,2.0,1.0,1.7*32
$GPGSV,3,1,12,04,70,194,36,17,50,039,40,28,45,112,31,27,43,274,30*74
$GPGSV,3,2,12,02,36,213,25,09,36,295,24,20,15,058,30,10,15,152,32*75
$GPGSV,3,3,12,12,12,312,16,08,01,165,20,32,01,037,,51,49,195,30*77
$GPRMC,065900.000,A,3353.7558,N,09832.0267,W,0.30,303.86,310312,,,D*76
$GPGGA,065901.000,3353.7558,N,09832.0269,W,2,08,1.0,313.7,M,-23.7,M,2.8,0000*42
$GPGSA,A,3,02,28,10,04,09,17,27,20,,,,,2.0,1.0,1.7*32
$GPRMC,065901.000,A,3353.7558,N,09832.0269,W,0.11,316.64,310312,,,D*72
$GPGGA,065902.000,3353.7557,N,09832.0270,W,2,08,1.0,313.5,M,-23.7,M,3.8,0000*45
$GPGSA,A,3,02,28,10,04,09,17,27,20,,,,,2.0,1.0,1.7*32
$GPRMC,065902.000,A,3353.7557,N,09832.0270,W,0.25,304.83,310312,,,D*7B
$GPGGA,065903.000,3353.7557,N,09832.0270,W,2,08,1.0,313.4,M,-23.7,M,0.8,0000*46
$GPGSA,A,3,02,28,10,04,09,17,27,20,,,,,2.0,1.0,1.7*32
$GPRMC,065903.000,A,3353.7557,N,09832.0270,W,0.04,358.54,310312,,,D*7A
$GPGGA,065904.000,3353.7556,N,09832.0271,W,2,08,1.0,313.2,M,-23.7,M,0.8,0000*47
$GPGSA,A,3,02,28,10,04,09,17,27,20,,,,,2.0,1.0,1.7*32
$GPRMC,065904.000,A,3353.7556,N,09832.0271,W,0.22,309.73,310312,,,D*78
$GPGGA,065905.000,3353.7556,N,09832.0272,W,2,08,1.0,313.1,M,-23.7,M,0.8,0000*46
$GPGSA,A,3,02,28,10,04,09,17,27,20,,,,,2.0,1.0,1.7*32
$GPGSV,3,1,12,04,70,194,36,17,50,039,40,28,45,112,30,27,43,274,31*74
$GPGSV,3,2,12,02,36,213,27,09,36,295,23,20,15,058,30,10,15,152,32*70
$GPGSV,3,3,12,12,12,312,18,08,01,165,19,32,01,037,,51,49,195,30*73
$GPRMC,065905.000,A,3353.7556,N,09832.0272,W,0.09,330.17,310312,,,D*7B
$GPGGA,065906.000,3353.7556,N,09832.0272,W,2,08,1.0,313.1,M,-23.7,M,0.8,0000*45
$GPGSA,A,3,02,28,10,04,09,17,27,20,,,,,2.0,1.0,1.7*32
$GPRMC,065906.000,A,3353.7556,N,09832.0272,W,0.08,33.40,310312,,,D*4B
$GPGGA,065907.000,3353.7555,N,09832.0272,W,2,08,1.0,313.0,M,-23.7,M,1.8,0000*47
$GPGSA,A,3,02,28,10,04,09,17,27,20,,,,,2.0,1.0,1.7*32
$GPRMC,065907.000,A,3353.7555,N,09832.0272,W,0.10,342.40,310312,,,D*75
$GPGGA,065908.000,3353.7555,N,09832.0273,W,2,08,1.0,312.8,M,-23.7,M,2.8,0000*43
$GPGSA,A,3,02,28,10,04,09,17,27,20,,,,,2.0,1.0,1.7*32
$GPRMC,065908.000,A,3353.7555,N,09832.0273,W,0.26,309.84,310312,,,D*79
$GPGGA,065909.000,3353.7555,N,09832.0273,W,2,08,1.0,312.8,M,-23.7,M,0.8,0000*40
$GPGSA,A,3,02,28,10,04,09,17,27,20,,,,,2.0,1.0,1.7*32
$GPRMC,065909.000,A,3353.7555,N,09832.0273,W,0.08,70.47,310312,,,D*46
$GPGGA,065910.000,3353.7554,N,09832.0273,W,2,08,1.0,312.8,M,-23.7,M,0.8,0000*49
$GPGSA,A,3,02,28,10,04,09,17,27,20,,,,,2.0,1.0,1.7*32
$GPGSV,3,1,12,04,70,194,36,17,50,039,40,28,45,112,30,27,43,274,32*77
$GPGSV,3,2,12,02,36,213,28,09,36,295,23,20,15,058,29,10,15,152,33*76
$GPGSV,3,3,12,12,12,312,18,08,01,165,18,32,01,037,,51,49,195,30*72
$GPRMC,065910.000,A,3353.7554,N,09832.0273,W,0.12,103.15,310312,,,D*76
$GPGGA,065911.000,3353.7553,N,09832.0273,W,2,08,1.0,312.8,M,-23.7,M,0.8,0000*4F
$GPGSA,A,3,02,28,10,04,09,17,27,20,,,,,2.0,1.0,1.7*32
$GPRMC,065911.000,A,3353.7553,N,09832.0273,W,0.12,121.68,310312,,,D*7A
$GPGGA,065912.000,3353.7553,N,09832.0273,W,2,08,1.0,312.8,M,-23.7,M,1.8,0000*4D
$GPGSA,A,3,02,28,10,04,09,17,27,20,,,,,2.0,1.0,1.7*32
$GPRMC,065912.000,A,3353.7553,N,09832.0273,W,0.02,317.69,310312,,,D*7E
$GPGGA,065913.000,3353.7552,N,09832.0273,W,2,08,1.0,312.8,M,-23.7,M,2.8,0000*4E
$GPGSA,A,3,02,28,10,04,09,17,27,20,,,,,2.0,1.0,1.7*32
$GPRMC,065913.000,A,3353.7552,N,09832.0273,W,0.16,298.70,310312,,,D*75
$GPGGA,065914.000,3353.7551,N,09832.0273,W,2,08,1.0,312.8,M,-23.7,M,3.8,0000*4B
$GPGSA,A,3,02,28,10,04,09,17,27,20,,,,,2.0,1.0,1.7*32
$GPRMC,065914.000,A,3353.7551,N,09832.0273,W,0.04,288.63,310312,,,D*71
$GPGGA,065915.000,3353.7551,N,09832.0273,W,2,08,1.0,312.9,M,-23.7,M,0.8,0000*48
$GPGSA,A,3,02,28,10,04,09,17,27,20,,,,,2.0,1.0,1.7*32
$GPGSV,3,1,12,04,70,194,36,17,50,039,40,28,45,112,29,27,43,274,32*7F
$GPGSV,3,2,12,02,36,213,30,09,36,295,23,20,15,058,29,10,15,152,33*7F
$GPGSV,3,3,12,12,12,312,18,08,01,165,17,32,01,037,,51,49,195,30*7D
$GPRMC,065915.000,A,3353.7551,N,09832.0273,W,0.01,111.68,310312,,,D*7D
$GPGGA,065916.000,3353.7550,N,09832.0272,W,2,08,1.0,313.0,M,-23.7,M,0.8,0000*43
$GPGSA,A,3,02,28,10,04,09,17,27,20,,,,,2.0,1.0,1.7*32
$GPRMC,065916.000,A,3353.7550,N,09832.0272,W,0.02,299.69,310312,,,D*7F
$GPGGA,065917.000,3353.7550,N,09832.0273,W,2,08,1.0,313.0,M,-23.7,M,0.8,0000*43
$GPGSA,A,3,02,28,10,04,09,17,27,20,,,,,2.0,1.0,1.7*32
$GPRMC,065917.000,A,3353.7550,N,09832.0273,W,0.15,318.48,310312,,,D*72
$GPGGA,065918.000,3353.7549,N,09832.0272,W,2,08,1.0,313.1,M,-23.7,M,1.8,0000*45
$GPGSA,A,3,02,28,10,04,09,17,27,20,,,,,2.0,1.0,1.7*32
$GPRMC,065918.000,A,3353.7549,N,09832.0272,W,0.07,70.14,310312,,,D*43
$GPGGA,065919.000,3353.7549,N,09832.0272,W,2,08,1.0,313.2,M,-23.7,M,2.8,0000*44
$GPGSA,A,3,02,28,10,04,09,17,27,20,,,,,2.0,1.0,1.7*32
$GPRMC,065919.000,A,3353.7549,N,09832.0272,W,0.08,67.96,310312,,,D*41
$GPGGA,065920.000,3353.7548,N,09832.0272,W,2,08,1.0,313.3,M,-23.7,M,3.8,0000*4F
$GPGSA,A,3,02,28,10,04,09,17,27,20,,,,,2.0,1.0,1.7*32
$GPGSV,3,1,12,04,70,194,36,17,50,039,40,28,45,112,28,27,43,274,32*7E
$GPGSV,3,2,12,02,36,213,32,09,36,295,24,20,15,058,29,10,15,152,32*7B
$GPGSV,3,3,12,12,12,312,17,08,01,165,16,32,01,037,,51,49,195,30*73
$GPRMC,065920.000,A,3353.7548,N,09832.0272,W,0.11,95.25,310312,,,D*47
$GPGGA,065921.000,3353.7547,N,09832.0272,W,2,08,1.0,313.3,M,-23.7,M,0.8,0000*42
$GPGSA,A,3,02,28,10,04,09,17,27,20,,,,,2.0,1.0,1.7*32
$GPRMC,065921.000,A,3353.7547,N,09832.0272,W,0.09,77.13,310312,,,D*49
$GPGGA,065922.000,3353.7547,N,09832.0271,W,2,08,1.0,313.4,M,-23.7,M,0.8,0000*45
$GPGSA,A,3,02,28,10,04,09,17,27,20,,,,,2.0,1.0,1.7*32
$GPRMC,065922.000,A,3353.7547,N,09832.0271,W,0.09,61.57,310312,,,D*4E
$GPGGA,065923.000,3353.7546,N,09832.0271,W,2,08,1.0,313.5,M,-23.7,M,0.8,0000*44
$GPGSA,A,3,02,28,10,04,09,17,27,20,,,,,2.0,1.0,1.7*32
$GPRMC,065923.000,A,3353.7546,N,09832.0271,W,0.17,111.31,310312,,,D*77
$GPGGA,065924.000,3353.7545,N,09832.0270,W,2,08,1.0,313.6,M,-23.7,M,0.8,0000*42
$GPGSA,A,3,02,28,10,04,09,17,27,20,,,,,2.0,1.0,1.7*32
$GPRMC,065924.000,A,3353.7545,N,09832.0270,W,0.04,65.55,310312,,,D*40
$GPGGA,065925.000,3353.7545,N,09832.0270,W,2,08,1.0,313.7,M,-23.7,M,0.8,0000*42
$GPGSA,A,3,02,28,10,04,09,17,27,20,,,,,2.0,1.0,1.7*32
$GPGSV,3,1,12,04,70,194,36,17,50,039,39,28,45,112,27,27,43,274,32*7F
$GPGSV,3,2,12,02,36,213,34,09,36,295,24,20,15,058,29,10,15,152,32*7D
$GPGSV,3,3,12,12,12,312,16,08,01,165,15,32,01,037,,51,49,195,30*71
$GPRMC,065925.000,A,3353.7545,N,09832.0270,W,0.08,309.91,310312,,,D*7C
$GPGGA,065926.000,3353.7544,N,09832.0270,W,2,08,1.0,313.7,M,-23.7,M,1.8,0000*41
$GPGSA,A,3,02,28,10,04,09,17,27,20,,,,,2.0,1.0,1.7*32
$GPRMC,065926.000,A,3353.7544,N,09832.0270,W,0.13,306.01,310312,,,D*72
$GPGGA,065927.000,3353.7544,N,09832.0270,W,2,08,1.0,313.8,M,-23.7,M,0.8,0000*4E
$GPGSA,A,3,02,28,10,04,09,17,27,20,,,,,2.0,1.0,1.7*32
$GPRMC,065927.000,A,3353.7544,N,09832.0270,W,0.06,308.92,310312,,,D*73
$GPGGA,065928.000,3353.7543,N,09832.0270,W,2,08,1.0,314.0,M,-23.7,M,0.8,0000*49
$GPGSA,A,3,02,28,10,04,09,17,27,20,,,,,2.0,1.0,1.7*32
$GPRMC,065928.000,A,3353.7543,N,09832.0270,W,0.06,303.09,310312,,,D*72
$GPGGA,065929.000,3353.7543,N,09832.0270,W,2,08,1.0,314.1,M,-23.7,M,0.8,0000*49
$GPGSA,A,3,02,28,10,04,09,17,27,20,,,,,2.0,1.0,1.7*32
$GPRMC,065929.000,A,3353.7543,N,09832.0270,W,0.06,90.62,310312,,,D*47
$GPGGA,065930.000,3353.7543,N,09832.0270,W,2,08,1.0,314.1,M,-23.7,M,1.8,0000*40
$GPGSA,A,3,02,28,10,04,09,17,27,20,,,,,2.0,1.0,1.7*32
$GPGSV,3,1,12,04,70,194,37,17,50,039,39,28,45,112,26,27,43,274,32*7F
$GPGSV,3,2,12,02,36,213,34,09,36,295,24,20,15,058,29,10,15,152,32*7D
$GPGSV,3,3,12,12,12,312,15,08,01,165,15,32,01,037,,51,49,195,30*72
$GPRMC,065930.000,A,3353.7543,N,09832.0270,W,0.19,319.06,310312,,,D*71
$GPGGA,065931.000,3353.7543,N,09832.0270,W,2,08,1.0,314.1,M,-23.7,M,2.8,0000*42
$GPGSA,A,3,02,28,10,04,09,17,27,20,,,,,2.0,1.0,1.7*32
$GPRMC,065931.000,A,3353.7543,N,09832.0270,W,0.18,317.16,310312,,,D*7E
$GPGGA,065932.000,3353.7543,N,09832.0270,W,2,08,1.0,314.1,M,-23.7,M,3.8,0000*40
$GPGSA,A,3,02,28,10,04,09,17,27,20,,,,,2.0,1.0,1.7*32
$GPRMC,065932.000,A,3353.7543,N,09832.0270,W,0.05,359.88,310312,,,D*7C
$GPGGA,065933.000,3353.7543,N,09832.0270,W,2,08,1.0,314.2,M,-23.7,M,0.8,0000*41
$GPGSA,A,3,02,28,10,04,09,17,27,20,,,,,2.0,1.0,1.7*32
$GPRMC,065933.000,A,3353.7543,N,09832.0270,W,0.07,56.19,310312,,,D*4B
$GPGGA,065934.000,3353.7543,N,09832.0270,W,2,08,1.0,314.1,M,-23.7,M,1.8,0000*44
$GPGSA,A,3,02,28,10,04,09,17,27,20,,,,,2.0,1.0,1.7*32
$GPRMC,065934.000,A,3353.7543,N,09832.0270,W,0.17,321.96,310312,,,D*79
$GPGGA,065935.000,3353.7543,N,09832.0270,W,2,08,1.0,314.2,M,-23.7,M,0.8,0000*47
$GPGSA,A,3,02,28,10,04,09,17,27,20,,,,,2.0,1.0,1.7*32
$GPGSV,3,1,12,04,70,194,37,17,50,039,39,28,45,112,26,27,43,274,32*7F
$GPGSV,3,2,12,02,36,213,34,09,36,295,24,20,15,058,29,10,15,152,32*7D
$GPGSV,3,3,12,12,12,312,,08,01,165,14,32,01,037,,51,49,195,30*77
$GPRMC,065935.000,A,3353.7543,N,09832.0270,W,0.06,50.49,310312,,,D*4F
$GPGGA,065936.000,3353.7543,N,09832.0270,W,2,08,1.0,314.3,M,-23.7,M,1.8,0000*44
$GPGSA,A,3,02,28,10,04,09,17,27,20,,,,,2.0,1.0,1.7*32
$GPRMC,065936.000,A,3353.7543,N,09832.0270,W,0.06,321.60,310312,,,D*72
$GPGGA,065937.000,3353.7543,N,09832.0270,W,2,08,1.0,314.3,M,-23.7,M,0.8,0000*44
$GPGSA,A,3,02,28,10,04,09,17,27,20,,,,,2.0,1.0,1.7*32
$GPRMC,065937.000,A,3353.7543,N,09832.0270,W,0.04,14.65,310312,,,D*41
$GPGGA,065938.000,3353.7543,N,09832.0270,W,2,08,1.0,314.4,M,-23.7,M,0.8,0000*4C
$GPGSA,A,3,02,28,10,04,09,17,27,20,,,,,2.0,1.0,1.7*32
$GPRMC,065938.000,A,3353.7543,N,09832.0270,W,0.18,307.16,310312,,,D*76
$GPGGA,065939.000,3353.7542,N,09832.0270,W,2,08,1.0,314.5,M,-23.7,M,0.8,0000*4D
$GPGSA,A,3,02,28,10,04,09,17,27,20,,,,,2.0,1.0,1.7*32
$GPRMC,065939.000,A,3353.7542,N,09832.0270,W,0.07,86.80,310312,,,D*4D
$GPGGA,065940.000,3353.7542,N,09832.0269,W,2,08,1.0,314.6,M,-23.7,M,0.8,0000*48
$GPGSA,A,3,02,28,10,04,09,17,27,20,,,,,2.0,1.0,1.7*32
$GPGSV,3,1,12,04,70,194,37,17,50,039,38,28,45,112,26,27,43,274,31*7D
$GPGSV,3,2,12,02,36,213,33,09,36,295,23,20,15,058,28,10,15,152,31*7F
$GPGSV,3,3,12,12,12,312,,08,01,165,14,32,01,037,,51,49,195,30*77
$GPRMC,065940.000,A,3353.7542,N,09832.0269,W,0.13,93.97,310312,,,D*4C
$GPGGA,065941.000,3353.7542,N,09832.0268,W,2,08,1.0,314.6,M,-23.7,M,0.8,0000*48
$GPGSA,A,3,02,28,10,04,09,17,27,20,,,,,2.0,1.0,1.7*32
$GPRMC,065941.000,A,3353.7542,N,09832.0268,W,0.06,65.35,310312,,,D*49
$GPGGA,065942.000,3353.7542,N,09832.0268,W,2,08,1.0,314.5,M,-23.7,M,1.8,0000*49
$GPGSA,A,3,02,28,10,04,09,17,27,20,,,,,2.0,1.0,1.7*32
$GPRMC,065942.000,A,3353.7542,N,09832.0268,W,0.18,323.53,310312,,,D*74
$GPGGA,065943.000,3353.7541,N,09832.0268,W,2,08,1.0,314.4,M,-23.7,M,2.8,0000*49
$GPGSA,A,3,02,28,10,04,09,17,27,20,,,,,2.0,1.0,1.7*32
$GPRMC,065943.000,A,3353.7541,N,09832.0268,W,0.06,67.53,310312,,,D*4A
$GPGGA,065944.000,3353.7541,N,09832.0267,W,2,08,1.0,314.4,M,-23.7,M,3.8,0000*40
$GPGSA,A,3,02,28,10,04,09,17,27,20,,,,,2.0,1.0,1.7*32
$GPRMC,065944.000,A,3353.7541,N,09832.0267,W,0.10,96.51,310312,,,D*49
$GPGGA,065945.000,3353.7541,N,09832.0267,W,2,08,1.0,314.2,M,-23.7,M,0.8,0000*44
$GPGSA,A,3,02,28,10,04,09,17,27,20,,,,,2.0,1.0,1.7*32
$GPGSV,3,1,12,04,70,194,38,17,50,039,38,28,45,112,27,27,43,274,31*73
$GPGSV,3,2,12,02,36,213,33,09,36,295,24,20,15,058,27,10,15,152,31*77
$GPGSV,3,3,12,12,12,312,,08,01,165,14,32,01,037,,51,49,195,30*77
$GPRMC,065945.000,A,3353.7541,N,09832.0267,W,0.02,99.37,310312,,,D*44
$GPGGA,065946.000,3353.7540,N,09832.0267,W,2,08,1.0,314.1,M,-23.7,M,0.8,0000*45
$GPGSA,A,3,02,28,10,04,09,17,27,20,,,,,2.0,1.0,1.7*32
$GPRMC,065946.000,A,3353.7540,N,09832.0267,W,0.11,322.83,310312,,,D*78
$GPGGA,065947.000,3353.7540,N,09832.0267,W,2,08,1.0,314.1,M,-23.7,M,0.8,0000*44
$GPGSA,A,3,02,28,10,04,09,17,27,20,,,,,2.0,1.0,1.7*32
$GPRMC,065947.000,A,3353.7540,N,09832.0267,W,0.15,323.31,310312,,,D*75
$GPGGA,065948.000,3353.7540,N,09832.0267,W,2,08,1.0,314.1,M,-23.7,M,0.8,0000*4B
$GPGSA,A,3,02,28,10,04,09,17,27,20,,,,,2.0,1.0,1.7*32
$GPRMC,065948.000,A,3353.7540,N,09832.0267,W,0.04,31.01,310312,,,D*49
$GPGGA,065949.000,3353.7540,N,09832.0266,W,2,08,1.0,314.2,M,-23.7,M,1.8,0000*49
$GPGSA,A,3,02,28,10,04,09,17,27,20,,,,,2.0,1.0,1.7*32
$GPRMC,065949.000,A,3353.7540,N,09832.0266,W,0.07,323.68,310312,,,D*75
$GPGGA,065950.000,3353.7540,N,09832.0266,W,2,08,1.0,314.2,M,-23.7,M,2.8,0000*42
$GPGSA,A,3,02,28,10,04,09,17,27,20,,,,,2.0,1.0,1.7*32
$GPGSV,3,1,12,04,70,194,38,17,50,039,38,28,45,112,28,27,43,274,30*7D
$GPGSV,3,2,12,02,36,213,34,09,36,295,25,20,15,058,27,10,15,152,31*71
$GPGSV,3,3,12,12,12,312,,08,01,165,15,32,01,037,,51,49,195,30*76
$GPRMC,065950.000,A,3353.7540,N,09832.0266,W,0.10,335.25,310312,,,D*75
$GPGGA,065951.000,3353.7539,N,09832.0266,W,2,08,1.0,314.3,M,-23.7,M,0.8,0000*4E
$GPGSA,A,3,02,28,10,04,09,17,27,20,,,,,2.0,1.0,1.7*32
$GPRMC,065951.000,A,3353.7539,N,09832.0266,W,0.10,342.80,310312,,,D*75
$GPGGA,065952.000,3353.7540,N,09832.0266,W,2,08,1.0,314.4,M,-23.7,M,0.8,0000*44
$GPGSA,A,3,02,28,10,04,09,17,27,20,,,,,2.0,1.0,1.7*32
$GPRMC,065952.000,A,3353.7540,N,09832.0266,W,0.11,340.00,310312,,,D*73
$GPGGA,065953.000,3353.7540,N,09832.0266,W,2,08,1.0,314.3,M,-23.7,M,0.8,0000*42
$GPGSA,A,3,02,28,10,04,09,17,27,20,,,,,2.0,1.0,1.7*32
$GPRMC,065953.000,A,3353.7540,N,09832.0266,W,0.08,358.63,310312,,,D*76
$GPGGA,065954.000,3353.7540,N,09832.0266,W,2,08,1.0,314.3,M,-23.7,M,1.8,0000*44
$GPGSA,A,3,02,28,10,04,09,17,27,20,,,,,2.0,1.0,1.7*32
$GPRMC,065954.000,A,3353.7540,N,09832.0266,W,0.08,337.48,310312,,,D*71
$GPGGA,065955.000,3353.7540,N,09832.0266,W,2,08,1.0,314.2,M,-23.7,M,2.8,0000*47
$GPGSA,A,3,02,28,10,04,09,17,27,20,,,,,2.0,1.0,1.7*32
$GPGSV,3,1,12,04,70,194,38,17,50,040,37,28,45,113,28,27,43,273,29*72
$GPGSV,3,2,12,02,37,213,34,09,36,294,25,10,15,152,32,20,15,058,26*73
$GPGSV,3,3,12,12,13,312,,32,00,036,,08,00,165,16,51,49,195,30*75
$GPRMC,065955.000,A,3353.7540,N,09832.0266,W,0.07,346.03,310312,,,D*76
$GPGGA,065956.000,3353.7540,N,09832.0266,W,2,08,1.0,314.2,M,-23.7,M,3.8,0000*45
$GPGSA,A,3,02,28,10,04,09,17,27,20,,,,,2.0,1.0,1.7*32
$GPRMC,065956.000,A,3353.7540,N,09832.0266,W,0.10,343.48,310312,,,D*79
$GPGGA,065957.000,3353.7540,N,09832.0266,W,2,08,1.0,314.1,M,-23.7,M,0.8,0000*44
$GPGSA,A,3,02,28,10,04,09,17,27,20,,,,,2.0,1.0,1.7*32
$GPRMC,065957.000,A,3353.7540,N,09832.0266,W,0.06,321.87,310312,,,D*78
$GPGGA,065958.000,3353.7540,N,09832.0266,W,2,08,1.0,314.0,M,-23.7,M,0.8,0000*4A
$GPGSA,A,3,02,28,10,04,09,17,27,20,,,,,2.0,1.0,1.7*32
$GPRMC,065958.000,A,3353.7540,N,09832.0266,W,0.07,2.73,310312,,,D*7F
$GPGGA,065959.000,3353.7540,N,09832.0266,W,2,08,1.0,314.0,M,-23.7,M,0.8,0000*4B
$GPGSA,A,3,02,28,10,04,09,17,27,20,,,,,2.0,1.0,1.7*32
$GPRMC,065959.000,A,3353.7540,N,09832.0266,W,0.05,342.97,310312,,,D*71
$GPGGA,070000.000,3353.7540,N,09832.0266,W,2,08,1.0,314.0,M,-23.7,M,1.8,0000*4B
$GPGSA,A,3,02,28,10,04,09,17,27,20,,,,,2.0,1.0,1.7*32
$GPGSV,3,1,12,04,70,194,39,17,50,040,37,28,45,113,28,27,43,273,28*72
$GPGSV,3,2,12,02,37,213,35,09,36,294,25,10,15,152,31,20,15,058,26*71
$GPGSV,3,3,12,12,13,312,,32,00,036,,08,00,165,18,51,49,195,30*7B
$GPRMC,070000.000,A,3353.7540,N,09832.0266,W,0.05,322.85,310312,,,D*75
$GPGGA,070001.000,3353.7540,N,09832.0266,W,2,08,1.0,314.1,M,-23.7,M,2.8,0000*48
$GPGSA,A,3,02,28,10,04,09,17,27,20,,,,,2.0,1.0,1.7*32
$GPRMC,070001.000,A,3353.7540,N,09832.0266,W,0.05,340.88,310312,,,D*7D
$GPGGA,070002.000,3353.7540,N,09832.0266,W,2,08,1.0,314.1,M,-23.7,M,3.8,0000*4A
$GPGSA,A,3,02,28,10,04,09,17,27,20,,,,,2.0,1.0,1.7*32
$GPRMC,070002.000,A,3353.7540,N,09832.0266,W,0.06,348.79,310312,,,D*7B
$GPGGA,070003.000,3353.7539,N,09832.0263,W,2,08,1.0,314.3,M,-23.7,M,0.8,0000*41
$GPGSA,A,3,02,28,10,04,09,17,27,20,,,,,2.0,1.0,1.7*32
$GPRMC,070003.000,A,3353.7539,N,09832.0263,W,0.07,29.97,310312,,,D*44
$GPGGA,070004.000,3353.7538,N,09832.0260,W,2,08,1.0,314.4,M,-23.7,M,0.8,0000*43
$GPGSA,A,3,02,28,10,04,09,17,27,20,,,,,2.0,1.0,1.7*32
$GPRMC,070004.000,A,3353.7538,N,09832.0260,W,0.10,23.43,310312,,,D*44
$GPGGA,070005.000,3353.7538,N,09832.0258,W,2,08,1.0,314.5,M,-23.7,M,0.8,0000*48
$GPGSA,A,3,02,28,10,04,09,17,27,20,,,,,2.0,1.0,1.7*32
$GPGSV,3,1,12,04,70,194,39,17,50,040,37,28,45,113,27,27,43,273,27*72
$GPGSV,3,2,12,02,37,213,35,09,36,294,25,10,15,152,32,20,15,058,26*72
$GPGSV,3,3,12,12,13,312,,32,00,036,,08,00,165,18,51,49,195,30*7B
$GPRMC,070005.000,A,3353.7538,N,09832.0258,W,0.05,40.62,310312,,,D*4C
$GPGGA,070006.000,3353.7537,N,09832.0256,W,2,08,1.0,314.5,M,-23.7,M,1.8,0000*4B
$GPGSA,A,3,02,28,10,04,09,17,27,20,,,,,2.0,1.0,1.7*32
$GPRMC,070006.000,A,3353.7537,N,09832.0256,W,0.07,26.54,310312,,,D*49
$GPGGA,070007.000,3353.7535,N,09832.0251,W,2,08,1.0,314.7,M,-23.7,M,2.8,0000*4E
$GPGSA,A,3,02,28,10,04,09,17,27,20,,,,,2.0,1.0,1.7*32
$GPRMC,070007.000,A,3353.7535,N,09832.0251,W,0.13,68.44,310312,,,D*43
$GPGGA,070008.000,3353.7535,N,09832.0248,W,2,08,1.0,314.8,M,-23.7,M,3.8,0000*47
$GPGSA,A,3,02,28,10,04,09,17,27,20,,,,,2.0,1.0,1.7*32
$GPRMC,070008.000,A,3353.7535,N,09832.0248,W,0.08,44.02,310312,,,D*42
$GPGGA,070009.000,3353.7536,N,09832.0253,W,2,08,1.0,314.7,M,-23.7,M,0.8,0000*43
$GPGSA,A,3,02,28,10,04,09,17,27,20,,,,,2.0,1.0,1.7*32
$GPRMC,070009.000,A,3353.7536,N,09832.0253,W,0.12,307.23,310312,,,D*76
$GPGGA,070010.000,3353.7535,N,09832.0249,W,2,08,1.0,314.8,M,-23.7,M,0.8,0000*4C
$GPGSA,A,3,02,28,10,04,09,17,27,20,,,,,2.0,1.0,1.7*32
$GPGSV,3,1,12,04,70,194,39,17,50,040,36,28,45,113,26,27,43,273,26*73
$GPGSV,3,2,12,02,37,213,35,09,36,294,25,10,15,152,32,20,15,058,26*72
$GPGSV,3,3,12,12,13,312,,32,00,036,,08,00,165,18,51,49,195,30*7B
$GPRMC,070010.000,A,3353.7535,N,09832.0249,W,0.08,55.65,310312,,,D*4B
$GPGGA,070011.000,3353.7537,N,09832.0256,W,2,08,1.0,314.4,M,-23.7,M,0.8,0000*4D
$GPGSA,A,3,02,28,10,04,09,17,27,20,,,,,2.0,1.0,1.7*32
$GPRMC,070011.000,A,3353.7537,N,09832.0256,W,0.14,307.49,310312,,,D*71
$GPGGA,070012.000,3353.7535,N,09832.0251,W,2,08,1.0,314.8,M,-23.7,M,0.8,0000*47
$GPGSA,A,3,02,28,10,04,09,17,27,20,,,,,2.0,1.0,1.7*32
$GPRMC,070012.000,A,3353.7535,N,09832.0251,W,0.05,52.96,310312,,,D*46
$GPGGA,070013.000,3353.7534,N,09832.0247,W,2,08,1.0,315.1,M,-23.7,M,1.8,0000*49
$GPGSA,A,3,02,28,10,04,09,17,27,20,,,,,2.0,1.0,1.7*32
$GPRMC,070013.000,A,3353.7534,N,09832.0247,W,0.07,56.32,310312,,,D*49
$GPGGA,070014.000,3353.7532,N,09832.0243,W,2,08,1.0,315.4,M,-23.7,M,2.8,0000*4A
$GPGSA,A,3,02,28,10,04,09,17,27,20,,,,,2.0,1.0,1.7*32
$GPRMC,070014.000,A,3353.7532,N,09832.0243,W,0.04,73.86,310312,,,D*47
$GPGGA,070015.000,3353.7531,N,09832.0240,W,2,08,1.0,315.6,M,-23.7,M,0.8,0000*4B
$GPGSA,A,3,02,28,10,04,09,17,27,20,,,,,2.0,1.0,1.7*32
$GPGSV,3,1,12,04,70,194,39,17,50,040,36,28,45,113,27,27,43,273,25*71
$GPGSV,3,2,12,02,37,213,34,09,36,294,25,10,15,152,32,20,15,058,26*73
$GPGSV,3,3,12,12,13,312,,32,00,036,,08,00,165,18,51,49,195,30*7B
$GPRMC,070015.000,A,3353.7531,N,09832.0240,W,0.13,338.96,310312,,,D*7D
$GPGGA,070016.000,3353.7530,N,09832.0237,W,2,08,1.0,315.8,M,-23.7,M,0.8,0000*47
$GPGSA,A,3,02,28,10,04,09,17,27,20,,,,,2.0,1.0,1.7*32
$GPRMC,070016.000,A,3353.7530,N,09832.0237,W,0.04,299.95,310312,,,D*70
$GPGGA,070017.000,3353.7529,N,09832.0235,W,2,08,1.0,315.9,M,-23.7,M,0.8,0000*4D
$GPGSA,A,3,02,28,10,04,09,17,27,20,,,,,2.0,1.0,1.7*32
$GPRMC,070017.000,A,3353.7529,N,09832.0235,W,0.07,36.61,310312,,,D*44
$GPGGA,070018.000,3353.7528,N,09832.0233,W,2,08,1.0,316.0,M,-23.7,M,1.8,0000*4E
$GPGSA,A,3,02,28,10,04,09,17,27,20,,,,,2.0,1.0,1.7*32
$GPRMC,070018.000,A,3353.7528,N,09832.0233,W,0.06,47.74,310312,,,D*4F
$GPGGA,070019.000,3353.7527,N,09832.0231,W,2,08,1.0,316.1,M,-23.7,M,0.8,0000*42
$GPGSA,A,3,02,28,10,04,09,17,27,20,,,,,2.0,1.0,1.7*32
$GPRMC,070019.000,A,3353.7527,N,09832.0231,W,0.09,1.69,310312,,,D*72
$GPGGA,070020.000,3353.7526,N,09832.0229,W,2,08,1.0,316.2,M,-23.7,M,1.8,0000*42
$GPGSA,A,3,02,28,10,04,09,17,27,20,,,,,2.0,1.0,1.7*32
$GPGSV,3,1,12,04,70,194,40,17,50,040,35,28,45,113,29,27,43,273,24*73
$GPGSV,3,2,12,02,37,213,29,09,36,294,25,10,15,152,32,20,15,058,26*7F
$GPGSV,3,3,12,12,13,312,,32,00,036,,08,00,165,18,51,49,195,30*7B
$GPRMC,070020.000,A,3353.7526,N,09832.0229,W,0.17,89.21,310312,,,D*43
$GPGGA,070021.000,3353.7525,N,09832.0227,W,2,08,1.0,316.2,M,-23.7,M,0.8,0000*4F
$GPGSA,A,3,02,28,10,04,09,17,27,20,,,,,2.0,1.0,1.7*32
$GPRMC,070021.000,A,3353.7525,N,09832.0227,W,0.07,348.42,310312,,,D*75
$GPGGA,070022.000,3353.7524,N,09832.0226,W,2,08,1.0,316.2,M,-23.7,M,0.8,0000*4C
$GPGSA,A,3,02,28,10,04,09,17,27,20,,,,,2.0,1.0,1.7*32
$GPRMC,070022.000,A,3353.7524,N,09832.0226,W,0.11,86.01,310312,,,D*47
$GPGGA,070023.000,3353.7523,N,09832.0225,W,2,08,1.0,316.3,M,-23.7,M,0.8,0000*48
$GPGSA,A,3,02,28,10,04,09,17,27,20,,,,,2.0,1.0,1.7*32
$GPRMC,070023.000,A,3353.7523,N,09832.0225,W,0.18,96.52,310312,,,D*4C
$GPGGA,070024.000,3353.7523,N,09832.0224,W,2,08,1.0,316.3,M,-23.7,M,1.8,0000*4F
$GPGSA,A,3,02,28,10,04,09,17,27,20,,,,,2.0,1.0,1.7*32
$GPRMC,070024.000,A,3353.7523,N,09832.0224,W,0.07,318.71,310312,,,D*70
$GPGGA,070025.000,3353.7522,N,09832.0223,W,2,08,1.0,316.4,M,-23.7,M,0.8,0000*4E
$GPGSA,A,3,02,28,10,04,09,17,27,20,,,,,2.0,1.0,1.7*32
$GPGSV,3,1,12,04,70,194,40,17,50,040,35,28,45,113,29,27,43,273,24*73
$GPGSV,3,2,12,02,37,213,28,09,36,294,25,10,15,152,33,20,15,058,26*7F
$GPGSV,3,3,12,12,13,312,,32,00,036,,08,00,165,18,51,49,195,30*7B
$GPRMC,070025.000,A,3353.7522,N,09832.0223,W,0.10,320.72,310312,,,D*79
$GPGGA,070026.000,3353.7521,N,09832.0223,W,2,08,1.0,316.5,M,-23.7,M,1.8,0000*4E
$GPGSA,A,3,02,28,10,04,09,17,27,20,,,,,2.0,1.0,1.7*32
$GPRMC,070026.000,A,3353.7521,N,09832.0223,W,0.08,97.11,310312,,,D*4A
$GPGGA,070027.000,3353.7520,N,09832.0222,W,2,08,1.0,316.6,M,-23.7,M,0.8,0000*4D
$GPGSA,A,3,02,28,10,04,09,17,27,20,,,,,2.0,1.0,1.7*32
$GPRMC,070027.000,A,3353.7520,N,09832.0222,W,0.14,81.65,310312,,,D*42
$GPGGA,070028.000,3353.7520,N,09832.0222,W,2,08,1.0,316.6,M,-23.7,M,0.8,0000*42
$GPGSA,A,3,02,28,10,04,09,17,27,20,,,,,2.0,1.0,1.7*32
$GPRMC,070028.000,A,3353.7520,N,09832.0222,W,0.05,30.35,310312,,,D*42
$GPGGA,070029.000,3353.7519,N,09832.0222,W,2,08,1.0,316.6,M,-23.7,M,0.8,0000*49
$GPGSA,A,3,02,28,10,04,09,17,27,20,,,,,2.0,1.0,1.7*32
$GPRMC,070029.000,A,3353.7519,N,09832.0222,W,0.11,80.21,310312,,,D*42
$GPGGA,070030.000,3353.7519,N,09832.0222,W,2,08,1.0,316.5,M,-23.7,M,1.8,0000*43
$GPGSA,A,3,02,28,10,04,09,17,27,20,,,,,2.0,1.0,1.7*32
$GPGSV,3,1,12,04,70,194,40,17,50,040,35,28,45,113,30,27,43,273,23*7C
$GPGSV,3,2,12,02,37,213,28,09,36,294,25,10,15,152,33,20,15,058,26*7F
$GPGSV,3,3,12,12,13,312,,32,00,036,,08,00,165,18,51,49,195,30*7B
$GPRMC,070030.000,A,3353.7519,N,09832.0222,W,0.07,57.63,310312,,,D*41
$GPGGA,070031.000,3353.7518,N,09832.0221,W,2,08,1.0,316.4,M,-23.7,M,0.8,0000*40
$GPGSA,A,3,02,28,10,04,09,17,27,20,,,,,2.0,1.0,1.7*32
$GPRMC,070031.000,A,3353.7518,N,09832.0221,W,0.13,86.22,310312,,,D*4E
$GPGGA,070032.000,3353.7518,N,09832.0222,W,2,08,1.0,316.3,M,-23.7,M,1.8,0000*46
$GPGSA,A,3,02,28,10,04,09,17,27,20,,,,,2.0,1.0,1.7*32
$GPRMC,070032.000,A,3353.7518,N,09832.0222,W,0.08,346.23,310312,,,D*7A
$GPGGA,070033.000,3353.7518,N,09832.0222,W,2,08,1.0,316.2,M,-23.7,M,0.8,0000*47
$GPGSA,A,3,02,28,10,04,09,17,27,20,,,,,2.0,1.0,1.7*32
$GPRMC,070033.000,A,3353.7518,N,09832.0222,W,0.13,86.64,310312,,,D*4D
$GPGGA,070034.000,3353.7517,N,09832.0222,W,2,08,1.0,316.0,M,-23.7,M,0.8,0000*4D
$GPGSA,A,3,02,28,10,04,09,17,27,20,,,,,2.0,1.0,1.7*32
$GPRMC,070034.000,A,3353.7517,N,09832.0222,W,0.12,308.15,310312,,,D*77
$GPGGA,070035.000,3353.7517,N,09832.0223,W,2,08,1.0,315.9,M,-23.7,M,0.8,0000*47
$GPGSA,A,3,02,28,10,04,09,17,27,20,,,,,2.0,1.0,1.7*32
$GPGSV,3,1,12,04,70,194,41,17,50,040,35,28,45,113,30,27,43,273,22*7C
$GPGSV,3,2,12,02,37,213,29,09,36,294,25,10,15,152,33,20,15,058,26*7E
$GPGSV,3,3,12,12,13,312,,32,00,036,,08,00,165,18,51,49,195,30*7B
$GPRMC,070035.000,A,3353.7517,N,09832.0223,W,0.25,311.97,310312,,,D*71
$GPGGA,070036.000,3353.7517,N,09832.0224,W,2,08,1.0,315.8,M,-23.7,M,1.8,0000*43
$GPGSA,A,3,02,28,10,04,09,17,27,20,,,,,2.0,1.0,1.7*32
$GPRMC,070036.000,A,3353.7517,N,09832.0224,W,0.29,308.52,310312,,,D*78
$GPGGA,070037.000,3353.7517,N,09832.0225,W,2,08,1.0,315.8,M,-23.7,M,2.8,0000*40
$GPGSA,A,3,02,28,10,04,09,17,27,20,,,,,2.0,1.0,1.7*32
$GPRMC,070037.000,A,3353.7517,N,09832.0225,W,0.24,308.98,310312,,,D*73
$GPGGA,070038.000,3353.7518,N,09832.0226,W,2,08,1.0,315.7,M,-23.7,M,3.8,0000*4D
$GPGSA,A,3,02,28,10,04,09,17,27,20,,,,,2.0,1.0,1.7*32
$GPRMC,070038.000,A,3353.7518,N,09832.0226,W,0.28,312.81,310312,,,D*7F
$GPGGA,070039.000,3353.7517,N,09832.0226,W,2,08,1.0,315.8,M,-23.7,M,0.8,0000*4F
$GPGSA,A,3,02,28,10,04,09,17,27,20,,,,,2.0,1.0,1.7*32
$GPRMC,070039.000,A,3353.7517,N,09832.0226,W,0.01,88.31,310312,,,D*41
$GPGGA,070040.000,3353.7517,N,09832.0226,W,2,08,1.0,315.9,M,-23.7,M,0.8,0000*40
$GPGSA,A,3,02,28,10,04,09,17,27,20,,,,,2.0,1.0,1.7*32
$GPGSV,3,1,12,04,70,194,41,17,50,040,35,28,45,113,29,27,43,273,21*77
$GPGSV,3,2,12,02,37,213,30,09,36,294,25,10,15,152,33,20,15,058,26*76
$GPGSV,3,3,12,12,13,312,,32,00,036,,08,00,165,18,51,49,195,30*7B
$GPRMC,070040.000,A,3353.7517,N,09832.0226,W,0.07,89.92,310312,,,D*41
$GPGGA,070041.000,3353.7516,N,09832.0225,W,2,08,1.0,315.9,M,-23.7,M,0.8,0000*43
$GPGSA,A,3,02,28,10,04,09,17,27,20,,,,,2.0,1.0,1.7*32
$GPRMC,070041.000,A,3353.7516,N,09832.0225,W,0.16,109.79,310312,,,D*7E
$GPGGA,070042.000,3353.7516,N,09832.0225,W,2,08,1.0,315.9,M,-23.7,M,0.8,0000*40
$GPGSA,A,3,02,28,10,04,09,17,27,20,,,,,2.0,1.0,1.7*32
$GPRMC,070042.000,A,3353.7516,N,09832.0225,W,0.14,97.45,310312,,,D*46
$GPGGA,070043.000,3353.7515,N,09832.0224,W,2,08,1.0,315.9,M,-23.7,M,1.8,0000*42
$GPGSA,A,3,02,28,10,04,09,17,27,20,,,,,2.0,1.0,1.7*32
$GPRMC,070043.000,A,3353.7515,N,09832.0224,W,0.14,100.07,310312,,,D*7C
$GPGGA,070044.000,3353.7515,N,09832.0224,W,2,08,1.0,315.8,M,-23.7,M,2.8,0000*47
$GPGSA,A,3,02,28,10,04,09,17,27,20,,,,,2.0,1.0,1.7*32
$GPRMC,070044.000,A,3353.7515,N,09832.0224,W,0.01,343.47,310312,,,D*7E
$GPGGA,070045.000,3353.7515,N,09832.0224,W,2,08,1.0,315.7,M,-23.7,M,0.8,0000*4B
$GPGSA,A,3,02,28,10,04,09,17,27,20,,,,,2.0,1.0,1.7*32
$GPGSV,3,1,12,04,70,194,41,17,50,040,34,28,45,113,29,27,43,273,20*77
$GPGSV,3,2,12,02,37,213,31,09,36,294,25,10,15,152,32,20,15,058,26*76
$GPGSV,3,3,12,12,13,312,,32,00,036,,08,00,165,18,51,49,195,30*7B
$GPRMC,070045.000,A,3353.7515,N,09832.0224,W,0.12,342.55,310312,,,D*7F
$GPGGA,070046.000,3353.7515,N,09832.0224,W,2,08,1.0,315.7,M,-23.7,M,0.8,0000*48
$GPGSA,A,3,02,28,10,04,09,17,27,20,,,,,2.0,1.0,1.7*32
$GPRMC,070046.000,A,3353.7515,N,09832.0224,W,0.09,62.77,310312,,,D*47
$GPGGA,070047.000,3353.7515,N,09832.0223,W,2,08,1.0,315.8,M,-23.7,M,0.8,0000*41
$GPGSA,A,3,02,28,10,04,09,17,27,20,,,,,2.0,1.0,1.7*32
$GPRMC,070047.000,A,3353.7515,N,09832.0223,W,0.12,56.50,310312,,,D*49
$GPGGA,070048.000,3353.7515,N,09832.0223,W,2,08,1.0,315.9,M,-23.7,M,1.8,0000*4E
$GPGSA,A,3,02,28,10,04,09,17,27,20,,,,,2.0,1.0,1.7*32
$GPRMC,070048.000,A,3353.7515,N,09832.0223,W,0.13,78.30,310312,,,D*4D
$GPGGA,070049.000,3353.7515,N,09832.0222,W,2,08,1.0,316.0,M,-23.7,M,2.8,0000*47
$GPGSA,A,3,02,28,10,04,09,17,27,20,,,,,2.0,1.0,1.7*32
$GPRMC,070049.000,A,3353.7515,N,09832.0222,W,0.12,47.11,310312,,,D*43
$GPGGA,070050.000,3353.7514,N,09832.0221,W,2,08,1.0,316.3,M,-23.7,M,0.8,0000*4C
$GPGSA,A,3,02,28,10,04,09,17,27,20,,,,,2.0,1.0,1.7*32
$GPGSV,3,1,12,04,70,194,41,17,50,040,33,28,45,113,28,27,43,273,13*71
$GPGSV,3,2,12,02,37,213,33,09,36,294,25,10,15,152,32,20,15,058,27*75
$GPGSV,3,3,12,12,13,312,,32,00,036,,08,00,165,18,51,49,195,30*7B
$GPRMC,070050.000,A,3353.7514,N,09832.0221,W,0.36,113.79,310312,,,D*71
$GPGGA,070051.000,3353.7513,N,09832.0219,W,2,08,1.0,316.5,M,-23.7,M,0.8,0000*47
$GPGSA,A,3,02,28,10,04,09,17,27,20,,,,,2.0,1.0,1.7*32
$GPRMC,070051.000,A,3353.7513,N,09832.0219,W,0.36,119.12,310312,,,D*7B
$GPGGA,070052.000,3353.7513,N,09832.0218,W,2,08,1.0,316.6,M,-23.7,M,0.8,0000*46
$GPGSA,A,3,02,28,10,04,09,17,27,20,,,,,2.0,1.0,1.7*32
$GPRMC,070052.000,A,3353.7513,N,09832.0218,W,0.08,5.05,310312,,,D*7E
$GPGGA,070053.000,3353.7513,N,09832.0218,W,2,08,1.0,316.7,M,-23.7,M,0.8,0000*46
$GPGSA,A,3,02,28,10,04,09,17,27,20,,,,,2.0,1.0,1.7*32
$GPRMC,070053.000,A,3353.7513,N,09832.0218,W,0.19,97.76,310312,,,D*40
$GPGGA,070054.000,3353.7511,N,09832.0217,W,2,08,1.0,317.3,M,-23.7,M,1.8,0000*48
$GPGSA,A,3,02,28,10,04,09,17,27,20,,,,,2.0,1.0,1.7*32
$GPRMC,070054.000,A,3353.7511,N,09832.0217,W,0.12,102.45,310312,,,D*7C
$GPGGA,070055.000,3353.7509,N,09832.0216,W,2,08,1.0,317.9,M,-23.7,M,2.8,0000*48
$GPGSA,A,3,02,28,10,04,09,17,27,20,,,,,2.0,1.0,1.7*32
$GPGSV,3,1,12,04,70,194,41,17,50,040,33,28,45,113,28,27,43,273,13*71
$GPGSV,3,2,12,02,37,213,33,09,36,294,24,10,15,152,31,20,15,058,28*78
$GPGSV,3,3,12,12,13,312,,32,00,036,,08,00,165,19,51,49,195,30*7A
$GPRMC,070055.000,A,3353.7509,N,09832.0216,W,0.13,110.63,310312,,,D*73
$GPGGA,070056.000,3353.7508,N,09832.0216,W,2,08,1.0,318.4,M,-23.7,M,3.8,0000*49
$GPGSA,A,3,02,28,10,04,09,17,27,20,,,,,2.0,1.0,1.7*32
$GPRMC,070056.000,A,3353.7508,N,09832.0216,W,0.12,91.38,310312,,,D*46
$GPGGA,070057.000,3353.7507,N,09832.0215,W,2,08,1.0,318.8,M,-23.7,M,0.8,0000*4B
$GPGSA,A,3,02,28,10,04,09,17,27,20,,,,,2.0,1.0,1.7*32
$GPRMC,070057.000,A,3353.7507,N,09832.0215,W,0.15,88.40,310312,,,D*4B
$GPGGA,070058.000,3353.7507,N,09832.0214,W,2,07,1.1,318.8,M,-23.7,M,0.8,0000*4B
$GPGSA,A,3,02,28,10,04,09,17,20,,,,,,2.0,1.1,1.7*36
$GPRMC,070058.000,A,3353.7507,N,09832.0214,W,0.13,49.40,310312,,,D*4E
$GPGGA,070059.000,3353.7507,N,09832.0213,W,2,07,1.1,318.9,M,-23.7,M,0.8,0000*4C
$GPGSA,A,3,02,28,10,04,09,17,20,,,,,,2.0,1.1,1.7*36
$GPRMC,070059.000,A,3353.7507,N,09832.0213,W,0.13,14.32,310312,,,D*45
$GPGGA,070100.000,3353.7507,N,09832.0213,W,2,07,1.1,319.0,M,-23.7,M,1.8,0000*48
$GPGSA,A,3,02,28,10,04,09,17,20,,,,,,2.0,1.1,1.7*36
$GPGSV,3,1,12,04,70,194,41,17,50,040,33,28,45,113,28,27,43,273,*73
$GPGSV,3,2,12,02,37,213,33,09,36,294,24,10,15,152,30,20,15,058,28*79
$GPGSV,3,3,12,12,13,312,,32,00,036,,08,00,165,20,51,49,195,30*70
$GPRMC,070100.000,A,3353.7507,N,09832.0213,W,0.13,0.49,310312,,,D*71
$GPGGA,070101.000,3353.7508,N,09832.0212,W,2,07,1.1,319.0,M,-23.7,M,2.8,0000*44
$GPGSA,A,3,02,28,10,04,09,17,20,,,,,,2.0,1.1,1.7*36
$GPRMC,070101.000,A,3353.7508,N,09832.0212,W,0.12,3.59,310312,,,D*7D
$GPGGA,070102.000,3353.7508,N,09832.0212,W,2,07,1.1,319.1,M,-23.7,M,3.8,0000*47
$GPGSA,A,3,02,28,10,04,09,17,20,,,,,,2.0,1.1,1.7*36
$GPRMC,070102.000,A,3353.7508,N,09832.0212,W,0.13,7.64,310312,,,D*75
$GPGGA,070103.000,3353.7508,N,09832.0211,W,2,07,1.1,319.1,M,-23.7,M,0.8,0000*46
$GPGSA,A,3,02,28,10,04,09,17,20,,,,,,2.0,1.1,1.7*36
$GPRMC,070103.000,A,3353.7508,N,09832.0211,W,0.08,356.23,310312,,,D*79
$GPGGA,070104.000,3353.7508,N,09832.0211,W,2,07,1.1,319.2,M,-23.7,M,0.8,0000*42
$GPGSA,A,3,02,28,10,04,09,17,20,,,,,,2.0,1.1,1.7*36
$GPRMC,070104.000,A,3353.7508,N,09832.0211,W,0.10,344.15,310312,,,D*71
$GPGGA,070105.000,3353.7508,N,09832.0210,W,2,07,1.1,319.1,M,-23.7,M,0.8,0000*41
$GPGSA,A,3,02,28,10,04,09,17,20,,,,,,2.0,1.1,1.7*36
$GPGSV,3,1,12,04,70,194,41,17,50,040,33,28,45,113,29,27,43,273,*72
$GPGSV,3,2,12,02,37,213,33,09,36,294,25,10,15,152,29,20,15,058,28*70
$GPGSV,3,3,12,12,13,312,,32,00,036,,08,00,165,21,51,49,195,30*71
$GPRMC,070105.000,A,3353.7508,N,09832.0210,W,0.07,71.09,310312,,,D*4F
$GPGGA,070106.000,3353.7508,N,09832.0210,W,2,07,1.1,319.0,M,-23.7,M,0.8,0000*43
$GPGSA,A,3,02,28,10,04,09,17,20,,,,,,2.0,1.1,1.7*36
$GPRMC,070106.000,A,3353.7508,N,09832.0210,W,0.08,75.12,310312,,,D*4D
$GPGGA,070107.000,3353.7507,N,09832.0209,W,2,07,1.1,318.8,M,-23.7,M,1.8,0000*4D
$GPGSA,A,3,02,28,10,04,09,17,20,,,,,,2.0,1.1,1.7*36
$GPRMC,070107.000,A,3353.7507,N,09832.0209,W,0.24,122.69,310312,,,D*7A
$GPGGA,070108.000,3353.7506,N,09832.0208,W,2,07,1.1,318.5,M,-23.7,M,2.8,0000*4C
$GPGSA,A,3,02,28,10,04,09,17,20,,,,,,2.0,1.1,1.7*36
$GPRMC,070108.000,A,3353.7506,N,09832.0208,W,0.07,338.70,310312,,,D*75
$GPGGA,070109.000,3353.7506,N,09832.0208,W,2,07,1.1,318.2,M,-23.7,M,0.8,0000*48
$GPGSA,A,3,02,28,10,04,09,17,20,,,,,,2.0,1.1,1.7*36
$GPRMC,070109.000,A,3353.7506,N,09832.0208,W,0.12,8.14,310312,,,D*72
$GPGGA,070110.000,3353.7506,N,09832.0207,W,2,07,1.1,317.9,M,-23.7,M,1.8,0000*4A
$GPGSA,A,3,02,28,10,04,09,17,20,,,,,,2.0,1.1,1.7*36
$GPGSV,3,1,12,04,70,194,41,17,50,040,33,28,45,113,29,27,43,273,*72
$GPGSV,3,2,12,02,37,213,32,09,36,294,24,10,15,152,29,20,15,058,28*70
$GPGSV,3,3,12,12,13,312,,32,00,036,,08,00,165,21,51,49,195,30*71
$GPRMC,070110.000,A,3353.7506,N,09832.0207,W,0.07,47.15,310312,,,D*4B
$GPGGA,070111.000,3353.7505,N,09832.0206,W,2,07,1.1,317.7,M,-23.7,M,0.8,0000*46
$GPGSA,A,3,02,28,10,04,09,17,20,,,,,,2.0,1.1,1.7*36
$GPRMC,070111.000,A,3353.7505,N,09832.0206,W,0.14,342.95,310312,,,D*74
$GPGGA,070112.000,3353.7505,N,09832.0206,W,2,07,1.1,317.5,M,-23.7,M,1.8,0000*46
$GPGSA,A,3,02,28,10,04,09,17,20,,,,,,2.0,1.1,1.7*36
$GPRMC,070112.000,A,3353.7505,N,09832.0206,W,0.09,354.59,310312,,,D*7C
$GPGGA,070113.000,3353.7505,N,09832.0205,W,2,07,1.1,317.3,M,-23.7,M,0.8,0000*43
$GPGSA,A,3,02,28,10,04,09,17,20,,,,,,2.0,1.1,1.7*36
$GPRMC,070113.000,A,3353.7505,N,09832.0205,W,0.17,343.38,310312,,,D*70
$GPGGA,070114.000,3353.7505,N,09832.0204,W,2,07,1.1,316.9,M,-23.7,M,0.8,0000*4E
$GPGSA,A,3,02,28,10,04,09,17,20,,,,,,2.0,1.1,1.7*36
$GPRMC,070114.000,A,3353.7505,N,09832.0204,W,0.08,98.58,310312,,,D*4B
$GPGGA,070115.000,3353.7504,N,09832.0204,W,2,07,1.1,316.7,M,-23.7,M,0.8,0000*40
$GPGSA,A,3,02,28,10,04,09,17,20,,,,,,2.0,1.1,1.7*36
$GPGSV,3,1,12,04,70,194,41,17,50,040,33,28,45,113,30,27,43,273,*7A
$GPGSV,3,2,12,02,37,213,31,09,36,294,25,10,15,152,28,20,15,058,28*73
$GPGSV,3,3,12,12,13,312,,32,00,036,,08,00,165,21,51,49,195,30*71
$GPRMC,070115.000,A,3353.7504,N,09832.0204,W,0.03,339.85,310312,,,D*78
$GPGGA,070116.000,3353.7504,N,09832.0204,W,2,07,1.1,316.4,M,-23.7,M,0.8,0000*40
$GPGSA,A,3,02,28,10,04,09,17,20,,,,,,2.0,1.1,1.7*36
$GPRMC,070116.000,A,3353.7504,N,09832.0204,W,0.06,310.75,310312,,,D*7A
$GPGGA,070117.000,3353.7503,N,09832.0203,W,2,07,1.1,316.0,M,-23.7,M,0.8,0000*45
$GPGSA,A,3,02,28,10,04,09,17,20,,,,,,2.0,1.1,1.8*39
$GPRMC,070117.000,A,3353.7503,N,09832.0203,W,0.11,147.97,310312,,,D*71
$GPGGA,070118.000,3353.7502,N,09832.0203,W,2,07,1.1,315.6,M,-23.7,M,1.8,0000*4F
$GPGSA,A,3,02,28,10,04,09,17,20,,,,,,2.0,1.1,1.8*39
$GPRMC,070118.000,A,3353.7502,N,09832.0203,W,0.05,121.56,310312,,,D*77
$GPGGA,070119.000,3353.7502,N,09832.0203,W,2,07,1.1,315.4,M,-23.7,M,2.8,0000*4F
$GPGSA,A,3,02,28,10,04,09,17,20,,,,,,2.0,1.1,1.8*39
$GPRMC,070119.000,A,3353.7502,N,09832.0203,W,0.14,323.31,310312,,,D*77
$GPGGA,070120.000,3353.7501,N,09832.0202,W,2,07,1.1,315.0,M,-23.7,M,3.8,0000*42
$GPGSA,A,3,02,28,10,04,09,17,20,,,,,,2.0,1.1,1.8*39
$GPGSV,3,1,12,04,71,194,41,17,50,041,33,28,44,114,30,27,43,272,*7D
$GPGSV,3,2,12,02,38,214,31,09,36,293,26,10,16,152,27,20,15,057,27*73
$GPGSV,3,3,12,12,13,313,,32,00,036,,08,00,165,23,51,49,195,30*72
$GPRMC,070120.000,A,3353.7501,N,09832.0202,W,0.03,139.41,310312,,,D*77
$GPGGA,070121.000,3353.7501,N,09832.0202,W,2,07,1.1,314.6,M,-23.7,M,0.8,0000*47
$GPGSA,A,3,02,28,10,04,09,17,20,,,,,,2.0,1.1,1.8*39
$GPRMC,070121.000,A,3353.7501,N,09832.0202,W,0.04,36.45,310312,,,D*4B
$GPGGA,070122.000,3353.7500,N,09832.0202,W,2,07,1.1,314.2,M,-23.7,M,0.8,0000*41
$GPGSA,A,3,02,28,10,04,09,17,20,,,,,,2.0,1.1,1.8*39
$GPRMC,070122.000,A,3353.7500,N,09832.0202,W,0.09,60.18,310312,,,D*4F
$GPGGA,070123.000,3353.7500,N,09832.0201,W,2,07,1.1,313.9,M,-23.7,M,0.8,0000*4F
$GPGSA,A,3,02,28,10,04,09,17,20,,,,,,2.0,1.1,1.8*39
$GPRMC,070123.000,A,3353.7500,N,09832.0201,W,0.18,280.24,310312,,,D*7E
$GPGGA,070124.000,3353.7500,N,09832.0201,W,2,07,1.1,313.6,M,-23.7,M,1.8,0000*46
$GPGSA,A,3,02,28,10,04,09,17,20,,,,,,2.0,1.1,1.8*39
$GPRMC,070124.000,A,3353.7500,N,09832.0201,W,0.06,298.65,310312,,,D*7A
$GPGGA,070125.000,3353.7500,N,09832.0201,W,2,07,1.1,313.3,M,-23.7,M,0.8,0000*43
$GPGSA,A,3,02,28,10,04,09,17,20,,,,,,2.0,1.1,1.8*39
$GPGSV,3,1,12,04,71,194,41,17,50,041,34,28,44,114,31,27,43,272,*7B
$GPGSV,3,2,12,02,38,214,31,09,36,293,25,10,16,152,27,20,15,057,26*71
$GPGSV,3,3,12,12,13,313,,32,00,036,,08,00,165,24,51,49,195,30*75
$GPRMC,070125.000,A,3353.7500,N,09832.0201,W,0.12,343.48,310312,,,D*76
$GPGGA,070126.000,3353.7500,N,09832.0201,W,2,07,1.1,313.1,M,-23.7,M,1.8,0000*43
$GPGSA,A,3,02,28,10,04,09,17,20,,,,,,2.0,1.1,1.8*39
$GPRMC,070126.000,A,3353.7500,N,09832.0201,W,0.10,333.91,310312,,,D*74
$GPGGA,070127.000,3353.7499,N,09832.0201,W,2,07,1.1,312.9,M,-23.7,M,0.8,0000*4B
$GPGSA,A,3,02,28,10,04,09,17,20,,,,,,2.0,1.1,1.8*39
$GPRMC,070127.000,A,3353.7499,N,09832.0201,W,0.13,255.62,310312,,,D*7A
$GPGGA,070128.000,3353.7499,N,09832.0201,W,2,07,1.1,312.5,M,-23.7,M,0.8,0000*48
$GPGSA,A,3,02,28,10,04,09,17,20,,,,,,2.0,1.1,1.8*39
$GPRMC,070128.000,A,3353.7499,N,09832.0201,W,0.25,352.38,310312,,,D*79
$GPGGA,070129.000,3353.7499,N,09832.0200,W,2,07,1.1,312.2,M,-23.7,M,0.8,0000*4F
$GPGSA,A,3,02,28,10,04,09,17,20,,,,,,2.0,1.1,1.8*39
$GPRMC,070129.000,A,3353.7499,N,09832.0200,W,0.06,89.57,310312,,,D*44
$GPGGA,070130.000,3353.7499,N,09832.0200,W,2,07,1.1,311.9,M,-23.7,M,1.8,0000*4E
$GPGSA,A,3,02,28,10,04,09,17,20,,,,,,2.0,1.1,1.8*39
$GPGSV,3,1,12,04,71,194,41,17,50,041,34,28,44,114,32,27,43,272,*78
$GPGSV,3,2,12,02,38,214,31,09,36,293,25,10,16,152,26,20,15,057,25*73
$GPGSV,3,3,12,12,13,313,,32,00,036,,08,00,165,16,51,49,195,30*74
$GPRMC,070130.000,A,3353.7499,N,09832.0200,W,0.20,83.22,310312,,,D*40
$GPGGA,070131.000,3353.7499,N,09832.0199,W,2,07,1.1,311.4,M,-23.7,M,2.8,0000*42
$GPGSA,A,3,02,28,10,04,09,17,20,,,,,,2.0,1.1,1.8*39
$GPRMC,070131.000,A,3353.7499,N,09832.0199,W,0.24,320.33,310312,,,D*7C
$GPGGA,070132.000,3353.7498,N,09832.0199,W,2,07,1.1,311.1,M,-23.7,M,3.8,0000*44
$GPGSA,A,3,02,28,10,04,09,17,20,,,,,,2.0,1.1,1.8*39
$GPRMC,070132.000,A,3353.7498,N,09832.0199,W,0.05,146.35,310312,,,D*79
$GPGGA,070133.000,3353.7498,N,09832.0199,W,2,07,1.1,310.9,M,-23.7,M,0.8,0000*4F
$GPGSA,A,3,02,28,10,04,09,17,20,,,,,,2.0,1.1,1.8*39
$GPRMC,070133.000,A,3353.7498,N,09832.0199,W,0.24,111.22,310312,,,D*7F
$GPGGA,070134.000,3353.7498,N,09832.0198,W,2,07,1.1,310.6,M,-23.7,M,0.8,0000*46
$GPGSA,A,3,02,28,10,04,09,17,20,,,,,,2.0,1.1,1.8*39
$GPRMC,070134.000,A,3353.7498,N,09832.0198,W,0.13,108.42,310312,,,D*73
$GPGGA,070135.000,3353.7498,N,09832.0198,W,2,07,1.1,310.3,M,-23.7,M,0.8,0000*42
$GPGSA,A,3,02,28,10,04,09,17,20,,,,,,2.0,1.1,1.8*39
$GPGSV,3,1,12,04,71,194,41,17,50,041,33,28,44,114,32,27,43,272,*7F
$GPGSV,3,2,12,02,38,214,31,09,36,293,24,10,16,152,26,20,15,057,25*72
$GPGSV,3,3,12,12,13,313,,32,00,036,,08,00,165,19,51,49,195,30*7B
$GPRMC,070135.000,A,3353.7498,N,09832.0198,W,0.24,323.99,310312,,,D*7B
$GPGGA,070136.000,3353.7498,N,09832.0199,W,2,07,1.1,310.1,M,-23.7,M,1.8,0000*43
$GPGSA,A,3,02,28,10,04,09,17,20,,,,,,2.0,1.1,1.8*39
$GPRMC,070136.000,A,3353.7498,N,09832.0199,W,0.26,322.72,310312,,,D*7F
$GPGGA,070137.000,3353.7499,N,09832.0199,W,2,07,1.1,309.7,M,-23.7,M,2.8,0000*4E
$GPGSA,A,3,02,28,10,04,09,17,20,,,,,,2.0,1.1,1.8*39
$GPRMC,070137.000,A,3353.7499,N,09832.0199,W,0.28,327.85,310312,,,D*7C
$GPGGA,070138.000,3353.7499,N,09832.0199,W,2,07,1.1,309.6,M,-23.7,M,3.8,0000*41
$GPGSA,A,3,02,28,10,04,09,17,20,,,,,,2.0,1.1,1.8*39
$GPRMC,070138.000,A,3353.7499,N,09832.0199,W,0.03,70.09,310312,,,D*4F
$GPGGA,070139.000,3353.7499,N,09832.0199,W,2,07,1.1,309.4,M,-23.7,M,0.8,0000*41
$GPGSA,A,3,02,28,10,04,09,17,20,,,,,,2.0,1.1,1.8*39
$GPRMC,070139.000,A,3353.7499,N,09832.0199,W,0.04,251.15,310312,,,D*75
$GPGGA,070140.000,3353.7499,N,09832.0199,W,2,07,1.1,309.1,M,-23.7,M,0.8,0000*4A
$GPGSA,A,3,02,28,10,04,09,17,20,,,,,,2.0,1.1,1.8*39
$GPGSV,3,1,12,04,71,194,41,17,50,041,34,28,44,114,33,27,43,272,*79
$GPGSV,3,2,12,02,38,214,31,09,36,293,24,10,16,152,26,20,15,057,25*72
$GPGSV,3,3,12,12,13,313,,32,00,036,,08,00,165,20,51,49,195,30*71
$GPRMC,070140.000,A,3353.7499,N,09832.0199,W,0.25,314.08,310312,,,D*74
$GPGGA,070141.000,3353.7500,N,09832.0200,W,2,07,1.1,308.7,M,-23.7,M,0.8,0000*4E
$GPGSA,A,3,02,28,10,04,09,17,20,,,,,,2.0,1.1,1.8*39
$GPRMC,070141.000,A,3353.7500,N,09832.0200,W,0.38,316.50,310312,,,D*74
$GPGGA,070142.000,3353.7500,N,09832.0200,W,2,07,1.1,308.5,M,-23.7,M,1.8,0000*4E
$GPGSA,A,3,02,28,10,04,09,17,20,,,,,,2.0,1.1,1.8*39
$GPRMC,070142.000,A,3353.7500,N,09832.0200,W,0.04,334.22,310312,,,D*7D
$GPGGA,070143.000,3353.7500,N,09832.0200,W,2,07,1.1,308.2,M,-23.7,M,2.8,0000*4B
$GPGSA,A,3,02,28,10,04,09,17,20,,,,,,2.0,1.1,1.8*39
$GPRMC,070143.000,A,3353.7500,N,09832.0200,W,0.19,308.86,310312,,,D*71
$GPGGA,070144.000,3353.7500,N,09832.0200,W,2,07,1.1,307.9,M,-23.7,M,0.8,0000*4A
$GPGSA,A,3,02,28,10,04,09,17,20,,,,,,2.0,1.1,1.8*39
$GPRMC,070144.000,A,3353.7500,N,09832.0200,W,0.03,12.80,310312,,,D*43
$GPGGA,070145.000,3353.7500,N,09832.0200,W,2,07,1.1,307.7,M,-23.7,M,0.8,0000*45
$GPGSA,A,3,02,28,10,04,09,17,20,,,,,,2.0,1.1,1.8*39
$GPGSV,3,1,12,04,71,194,41,17,50,041,34,28,44,114,33,27,43,272,*79
$GPGSV,3,2,12,02,38,214,31,09,36,293,25,10,16,152,25,20,15,057,26*73
$GPGSV,3,3,12,12,13,313,,32,00,036,,08,00,165,21,51,49,195,30*70
$GPRMC,070145.000,A,3353.7500,N,09832.0200,W,0.11,350.63,310312,,,D*79
$GPGGA,070146.000,3353.7500,N,09832.0200,W,2,07,1.1,307.5,M,-23.7,M,0.8,0000*44
$GPGSA,A,3,02,28,10,04,09,17,20,,,,,,2.0,1.1,1.8*39
$GPRMC,070146.000,A,3353.7500,N,09832.0200,W,0.20,338.76,310312,,,D*72
$GPGGA,070147.000,3353.7501,N,09832.0200,W,2,07,1.1,307.3,M,-23.7,M,0.8,0000*42
$GPGSA,A,3,02,28,10,04,09,17,20,,,,,,2.0,1.1,1.8*39
$GPRMC,070147.000,A,3353.7501,N,09832.0200,W,0.11,342.51,310312,,,D*78
$GPGGA,070148.000,3353.7501,N,09832.0200,W,2,07,1.1,307.1,M,-23.7,M,1.8,0000*4E
$GPGSA,A,3,02,28,10,04,09,17,20,,,,,,2.0,1.1,1.8*39
$GPRMC,070148.000,A,3353.7501,N,09832.0200,W,0.10,341.07,310312,,,D*76
$GPGGA,070149.000,3353.7501,N,09832.0201,W,2,07,1.1,306.9,M,-23.7,M,0.8,0000*46
$GPGSA,A,3,02,28,10,04,09,17,20,,,,,,2.0,1.1,1.8*39
$GPRMC,070149.000,A,3353.7501,N,09832.0201,W,0.08,341.75,310312,,,D*7A
$GPGGA,070150.000,3353.7502,N,09832.0201,W,2,07,1.1,306.9,M,-23.7,M,1.8,0000*4C
$GPGSA,A,3,02,28,10,04,09,17,20,,,,,,2.1,1.1,1.8*38
$GPGSV,3,1,12,04,71,194,41,17,50,041,34,28,44,114,34,27,43,272,*7E
$GPGSV,3,2,12,02,38,214,30,09,36,293,26,10,16,152,24,20,15,057,26*70
$GPGSV,3,3,12,12,13,313,,32,00,036,,08,00,165,20,51,49,195,30*71
$GPRMC,070150.000,A,3353.7502,N,09832.0201,W,0.22,334.95,310312,,,D*75
$GPGGA,070151.000,3353.7502,N,09832.0201,W,2,07,1.1,306.6,M,-23.7,M,0.8,0000*43
$GPGSA,A,3,02,28,10,04,09,17,20,,,,,,2.1,1.1,1.8*38
$GPRMC,070151.000,A,3353.7502,N,09832.0201,W,0.09,171.54,310312,,,D*73
$GPGGA,070152.000,3353.7501,N,09832.0201,W,2,07,1.1,306.4,M,-23.7,M,0.8,0000*41
$GPGSA,A,3,02,28,10,04,09,17,20,,,,,,2.1,1.1,1.8*38
$GPRMC,070152.000,A,3353.7501,N,09832.0201,W,0.13,136.62,310312,,,D*7E
$GPGGA,070153.000,3353.7501,N,09832.0201,W,2,07,1.1,306.1,M,-23.7,M,0.8,0000*45
$GPGSA,A,3,02,28,10,04,09,17,20,,,,,,2.1,1.1,1.8*38
$GPRMC,070153.000,A,3353.7501,N,09832.0201,W,0.06,142.57,310312,,,D*7E
$GPGGA,070154.000,3353.7501,N,09832.0201,W,2,07,1.1,305.8,M,-23.7,M,1.8,0000*49
$GPGSA,A,3,02,28,10,04,09,17,20,,,,,,2.1,1.1,1.8*38
$GPRMC,070154.000,A,3353.7501,N,09832.0201,W,0.05,110.93,310312,,,D*75
$GPGGA,070155.000,3353.7501,N,09832.0201,W,2,07,1.1,305.5,M,-23.7,M,2.8,0000*46
$GPGSA,A,3,02,28,10,04,09,17,20,,,,,,2.1,1.1,1.8*38
$GPGSV,3,1,12,04,71,194,41,17,50,041,34,28,44,114,34,27,43,272,*7E
$GPGSV,3,2,12,02,38,214,30,09,36,293,26,10,16,152,24,20,15,057,26*70
$GPGSV,3,3,12,12,13,313,,32,00,036,,08,00,165,20,51,49,195,30*71
$GPRMC,070155.000,A,3353.7501,N,09832.0201,W,0.03,99.64,310312,,,D*4A
$GPGGA,070156.000,3353.7501,N,09832.0202,W,2,07,1.1,305.3,M,-23.7,M,3.8,0000*41
$GPGSA,A,3,02,28,10,04,09,17,20,,,,,,2.1,1.1,1.8*38
$GPRMC,070156.000,A,3353.7501,N,09832.0202,W,0.15,329.89,310312,,,D*76
$GPGGA,070157.000,3353.7502,N,09832.0202,W,2,07,1.1,305.2,M,-23.7,M,0.8,0000*41
$GPGSA,A,3,02,28,10,04,09,17,20,,,,,,2.1,1.1,1.8*38
$GPRMC,070157.000,A,3353.7502,N,09832.0202,W,0.27,342.68,310312,,,D*77
$GPGGA,070158.000,3353.7502,N,09832.0203,W,2,07,1.1,304.8,M,-23.7,M,0.8,0000*44
$GPGSA,A,3,02,28,10,04,09,17,20,,,,,,2.1,1.1,1.8*38
$GPRMC,070158.000,A,3353.7502,N,09832.0203,W,0.06,30.71,310312,,,D*44
$GPGGA,070159.000,3353.7502,N,09832.0203,W,2,07,1.1,304.6,M,-23.7,M,0.8,0000*4B
$GPGSA,A,3,02,28,10,04,09,17,20,,,,,,2.1,1.1,1.8*38
$GPRMC,070159.000,A,3353.7502,N,09832.0203,W,0.13,137.84,310312,,,D*7D
$GPGGA,070200.000,3353.7503,N,09832.0203,W,2,07,1.1,304.3,M,-23.7,M,1.8,0000*41
$GPGSA,A,3,02,28,10,04,09,17,20,,,,,,2.1,1.1,1.8*38
$GPGSV,3,1,12,04,71,194,41,17,50,041,35,28,44,114,35,27,43,272,*7E
$GPGSV,3,2,12,02,38,214,29,09,36,293,26,10,16,152,23,20,15,057,26*7F
$GPGSV,3,3,12,12,13,313,,32,00,036,,08,00,165,20,51,49,195,30*71
$GPRMC,070200.000,A,3353.7503,N,09832.0203,W,0.13,21.80,310312,,,D*41
$GPGGA,070201.000,3353.7504,N,09832.0204,W,2,07,1.1,304.0,M,-23.7,M,0.8,0000*42
$GPGSA,A,3,02,28,10,04,09,17,20,,,,,,2.1,1.1,1.8*38
$GPRMC,070201.000,A,3353.7504,N,09832.0204,W,0.29,318.63,310312,,,D*7D
$GPGGA,070202.000,3353.7505,N,09832.0205,W,2,07,1.1,303.8,M,-23.7,M,1.8,0000*4F
$GPGSA,A,3,02,28,10,04,09,17,20,,,,,,2.1,1.1,1.8*38
$GPRMC,070202.000,A,3353.7505,N,09832.0205,W,0.53,321.46,310312,,,D*7E
$GPGGA,070203.000,3353.7506,N,09832.0206,W,2,07,1.1,303.7,M,-23.7,M,0.8,0000*40
$GPGSA,A,3,02,28,10,04,09,17,20,,,,,,2.1,1.1,1.8*38
$GPRMC,070203.000,A,3353.7506,N,09832.0206,W,0.22,315.97,310312,,,D*72
$GPGGA,070204.000,3353.7506,N,09832.0206,W,2,07,1.1,303.4,M,-23.7,M,0.8,0000*44
$GPGSA,A,3,02,28,10,04,09,17,20,,,,,,2.1,1.1,1.8*38
$GPRMC,070204.000,A,3353.7506,N,09832.0206,W,0.22,307.27,310312,,,D*7D
$GPGGA,070205.000,3353.7506,N,09832.0207,W,2,07,1.1,303.2,M,-23.7,M,0.8,0000*42
$GPGSA,A,3,02,28,10,04,09,17,20,,,,,,2.1,1.1,1.8*38
$GPGSV,3,1,12,04,71,194,41,17,50,041,35,28,44,114,35,27,43,272,*7E
$GPGSV,3,2,12,02,38,214,30,09,36,293,21,10,16,152,24,20,15,057,26*77
$GPGSV,3,3,12,12,13,313,,32,00,036,,08,00,165,20,51,49,195,30*71
$GPRMC,070205.000,A,3353.7506,N,09832.0207,W,0.22,297.48,310312,,,D*7C
$GPGGA,070206.000,3353.7507,N,09832.0208,W,2,07,1.1,303.0,M,-23.7,M,1.8,0000*4C
$GPGSA,A,3,02,28,10,04,09,17,20,,,,,,2.1,1.1,1.8*38
$GPRMC,070206.000,A,3353.7507,N,09832.0208,W,0.09,252.36,310312,,,D*78
$GPGGA,070207.000,3353.7506,N,09832.0207,W,2,07,1.1,303.0,M,-23.7,M,2.8,0000*40
$GPGSA,A,3,02,28,10,04,09,17,20,,,,,,2.1,1.1,1.8*38
$GPRMC,070207.000,A,3353.7506,N,09832.0207,W,0.11,147.01,310312,,,D*7D
$GPGGA,070208.000,3353.7506,N,09832.0207,W,2,07,1.1,302.9,M,-23.7,M,0.8,0000*45
$GPGSA,A,3,02,28,10,04,09,17,20,,,,,,2.1,1.1,1.8*38
$GPRMC,070208.000,A,3353.7506,N,09832.0207,W,0.40,139.51,310312,,,D*7A
$GPGGA,070209.000,3353.7505,N,09832.0206,W,2,07,1.1,302.9,M,-23.7,M,0.8,0000*46
$GPGSA,A,3,02,28,10,04,09,17,20,,,,,,2.1,1.1,1.8*38
$GPRMC,070209.000,A,3353.7505,N,09832.0206,W,0.48,131.65,310312,,,D*7E
$GPGGA,070210.000,3353.7505,N,09832.0206,W,2,07,1.1,302.8,M,-23.7,M,0.8,0000*4F
$GPGSA,A,3,02,28,10,04,09,17,20,,,,,,2.1,1.1,1.8*38
$GPGSV,3,1,12,04,71,194,41,17,50,041,36,28,44,114,35,27,43,272,*7D
$GPGSV,3,2,12,02,38,214,30,09,36,293,21,10,16,152,24,20,15,057,27*76
$GPGSV,3,3,12,12,13,313,,32,00,036,,08,00,165,20,51,49,195,30*71
$GPRMC,070210.000,A,3353.7505,N,09832.0206,W,0.10,328.17,310312,,,D*74
$GPGGA,070211.000,3353.7506,N,09832.0206,W,2,07,1.1,302.5,M,-23.7,M,0.8,0000*40
$GPGSA,A,3,02,28,10,04,09,17,20,,,,,,2.1,1.1,1.8*38
$GPRMC,070211.000,A,3353.7506,N,09832.0206,W,0.08,355.99,310312,,,D*73
$GPGGA,070212.000,3353.7507,N,09832.0207,W,2,07,1.1,302.4,M,-23.7,M,1.8,0000*43
$GPGSA,A,3,02,28,10,04,09,17,20,,,,,,2.1,1.1,1.8*38
$GPRMC,070212.000,A,3353.7507,N,09832.0207,W,0.50,324.97,310312,,,D*75
$GPGGA,070213.000,3353.7508,N,09832.0208,W,2,07,1.1,302.3,M,-23.7,M,2.8,0000*46
$GPGSA,A,3,02,28,10,04,09,17,20,,,,,,2.1,1.1,1.8*38
$GPRMC,070213.000,A,3353.7508,N,09832.0208,W,0.24,351.60,310312,,,D*7D
$GPGGA,070214.000,3353.7509,N,09832.0208,W,2,07,1.1,302.2,M,-23.7,M,3.8,0000*40
$GPGSA,A,3,02,28,10,04,09,17,20,,,,,,2.1,1.1,1.8*38
$GPRMC,070214.000,A,3353.7509,N,09832.0208,W,0.14,355.92,310312,,,D*71
$GPGGA,070215.000,3353.7509,N,09832.0208,W,2,07,1.1,302.2,M,-23.7,M,0.8,0000*42
$GPGSA,A,3,02,28,10,04,09,17,20,,,,,,2.1,1.1,1.8*38
$GPGSV,3,1,12,04,71,194,40,17,50,041,36,28,44,114,36,27,43,272,*7F
$GPGSV,3,2,12,02,38,214,31,09,36,293,22,10,16,152,25,20,15,057,27*75
$GPGSV,3,3,12,12,13,313,,32,00,036,,08,00,165,20,51,49,195,30*71
$GPRMC,070215.000,A,3353.7509,N,09832.0208,W,0.09,108.10,310312,,,D*7C
$GPGGA,070216.000,3353.7509,N,09832.0208,W,2,07,1.1,302.1,M,-23.7,M,0.8,0000*42
$GPGSA,A,3,02,28,10,04,09,17,20,,,,,,2.1,1.1,1.8*38
$GPRMC,070216.000,A,3353.7509,N,09832.0208,W,0.10,357.34,310312,,,D*79
$GPGGA,070217.000,3353.7509,N,09832.0208,W,2,07,1.1,302.0,M,-23.7,M,0.8,0000*42
$GPGSA,A,3,02,28,10,04,09,17,20,,,,,,2.1,1.1,1.8*38
$GPRMC,070217.000,A,3353.7509,N,09832.0208,W,0.06,112.77,310312,,,D*7B
$GPGGA,070218.000,3353.7509,N,09832.0207,W,2,07,1.1,302.0,M,-23.7,M,1.8,0000*43
$GPGSA,A,3,02,28,10,04,09,17,20,,,,,,2.1,1.1,1.8*38
$GPRMC,070218.000,A,3353.7509,N,09832.0207,W,0.16,129.17,310312,,,D*74
$GPGGA,070219.000,3353.7509,N,09832.0207,W,2,07,1.1,302.0,M,-23.7,M,2.8,0000*41
$GPGSA,A,3,02,28,10,04,09,17,20,,,,,,2.1,1.1,1.8*38
$GPRMC,070219.000,A,3353.7509,N,09832.0207,W,0.18,127.32,310312,,,D*72
$GPGGA,070220.000,3353.7509,N,09832.0207,W,2,07,1.1,301.9,M,-23.7,M,0.8,0000*43
$GPGSA,A,3,02,28,10,04,09,17,20,,,,,,2.1,1.1,1.8*38
$GPGSV,3,1,12,04,71,194,40,17,50,041,37,28,44,114,36,27,43,272,*7E
$GPGSV,3,2,12,02,38,214,32,09,36,293,23,10,16,152,25,20,15,057,26*76
$GPGSV,3,3,12,12,13,313,,32,00,036,,08,00,165,20,51,49,195,30*71
$GPRMC,070220.000,A,3353.7509,N,09832.0207,W,0.15,127.89,310312,,,D*75
$GPGGA,070221.000,3353.7509,N,09832.0206,W,2,07,1.1,301.9,M,-23.7,M,0.8,0000*43
$GPGSA,A,3,02,28,10,04,09,17,20,,,,,,2.1,1.1,1.8*38
$GPRMC,070221.000,A,3353.7509,N,09832.0206,W,0.08,91.69,310312,,,D*4B
$GPGGA,070222.000,3353.7510,N,09832.0207,W,2,07,1.1,301.8,M,-23.7,M,0.8,0000*48
$GPGSA,A,3,02,28,10,04,09,17,20,,,,,,2.1,1.1,1.8*38
$GPRMC,070222.000,A,3353.7510,N,09832.0207,W,0.27,320.14,310312,,,D*7F
$GPGGA,070223.000,3353.7510,N,09832.0207,W,2,07,1.1,301.8,M,-23.7,M,0.8,0000*49
$GPGSA,A,3,02,28,10,04,09,17,20,,,,,,2.1,1.1,1.8*38
$GPRMC,070223.000,A,3353.7510,N,09832.0207,W,0.10,62.24,310312,,,D*4C
$GPGGA,070224.000,3353.7511,N,09832.0208,W,2,07,1.1,301.8,M,-23.7,M,1.8,0000*41
$GPGSA,A,3,02,28,10,04,09,17,20,,,,,,2.1,1.1,1.8*38
$GPRMC,070224.000,A,3353.7511,N,09832.0208,W,0.26,318.57,310312,,,D*7A
$GPGGA,070225.000,3353.7511,N,09832.0208,W,2,07,1.1,301.8,M,-23.7,M,2.8,0000*43
$GPGSA,A,3,02,28,10,04,09,17,20,,,,,,2.1,1.1,1.8*38
$GPGSV,3,1,12,04,71,194,40,17,50,041,37,28,44,114,36,27,43,272,*7E
$GPGSV,3,2,12,02,38,214,32,09,36,293,22,10,16,152,25,20,15,057,26*77
$GPGSV,3,3,12,12,13,313,,32,00,036,,08,00,165,20,51,49,195,30*71
$GPRMC,070225.000,A,3353.7511,N,09832.0208,W,0.17,336.40,310312,,,D*73
$GPGGA,070226.000,3353.7512,N,09832.0208,W,2,07,1.1,301.8,M,-23.7,M,3.8,0000*42
$GPGSA,A,3,02,28,10,04,09,17,20,,,,,,2.1,1.1,1.8*38
$GPRMC,070226.000,A,3353.7512,N,09832.0208,W,0.22,329.59,310312,,,D*73
$GPGGA,070227.000,3353.7512,N,09832.0208,W,2,07,1.1,301.9,M,-23.7,M,0.8,0000*41
$GPGSA,A,3,02,28,10,04,09,17,20,,,,,,2.1,1.1,1.8*38
$GPRMC,070227.000,A,3353.7512,N,09832.0208,W,0.09,91.10,310312,,,D*46
$GPGGA,070228.000,3353.7512,N,09832.0208,W,2,07,1.1,302.0,M,-23.7,M,0.8,0000*44
$GPGSA,A,3,02,28,10,04,09,17,20,,,,,,2.1,1.1,1.8*38
$GPRMC,070228.000,A,3353.7512,N,09832.0208,W,0.30,122.89,310312,,,D*7A
$GPGGA,070229.000,3353.7512,N,09832.0207,W,2,07,1.1,302.2,M,-23.7,M,0.8,0000*48
$GPGSA,A,3,02,28,10,04,09,17,20,,,,,,2.1,1.1,1.8*38
$GPRMC,070229.000,A,3353.7512,N,09832.0207,W,0.46,124.13,310312,,,D*70
$GPGGA,070230.000,3353.7511,N,09832.0205,W,2,07,1.1,302.3,M,-23.7,M,1.8,0000*41
$GPGSA,A,3,02,28,10,04,09,17,20,,,,,,2.1,1.1,1.8*38
$GPGSV,3,1,12,04,71,194,40,17,50,041,37,28,44,114,36,27,43,272,*7E
$GPGSV,3,2,12,02,38,214,32,09,36,293,21,10,16,152,25,20,15,057,25*77
$GPGSV,3,3,12,12,13,313,,32,00,036,,08,00,165,19,51,49,195,30*7B
$GPRMC,070230.000,A,3353.7511,N,09832.0205,W,0.56,128.60,310312,,,D*70
$GPGGA,070231.000,3353.7510,N,09832.0205,W,2,07,1.1,302.4,M,-23.7,M,2.8,0000*45
$GPGSA,A,3,02,28,10,04,09,17,20,,,,,,2.1,1.1,1.8*38
$GPRMC,070231.000,A,3353.7510,N,09832.0205,W,0.10,189.25,310312,,,D*78
$GPGGA,070232.000,3353.7511,N,09832.0206,W,2,07,1.1,302.3,M,-23.7,M,0.8,0000*41
$GPGSA,A,3,02,28,10,04,09,17,20,,,,,,2.1,1.1,1.8*38
$GPRMC,070232.000,A,3353.7511,N,09832.0206,W,0.15,308.89,310312,,,D*71
$GPGGA,070233.000,3353.7511,N,09832.0206,W,2,07,1.1,302.3,M,-23.7,M,0.8,0000*40
$GPGSA,A,3,02,28,10,04,09,17,20,,,,,,2.1,1.1,1.8*38
$GPRMC,070233.000,A,3353.7511,N,09832.0206,W,0.16,95.58,310312,,,D*48
$GPGGA,070234.000,3353.7511,N,09832.0205,W,2,07,1.1,302.5,M,-23.7,M,0.8,0000*42
$GPGSA,A,3,02,28,10,04,09,17,20,,,,,,2.1,1.1,1.8*38
$GPRMC,070234.000,A,3353.7511,N,09832.0205,W,0.21,104.28,310312,,,D*76
$GPGGA,070235.000,3353.7512,N,09832.0205,W,2,07,1.1,302.6,M,-23.7,M,0.8,0000*43
$GPGSA,A,3,02,28,10,04,09,17,20,,,,,,2.1,1.1,1.8*38
$GPGSV,3,1,12,04,71,194,40,17,50,041,37,28,44,114,37,27,43,272,*7F
$GPGSV,3,2,12,02,38,214,32,09,36,293,21,10,16,152,25,20,15,057,25*77
$GPGSV,3,3,12,12,13,313,,32,00,036,,08,00,165,20,51,49,195,30*71
$GPRMC,070235.000,A,3353.7512,N,09832.0205,W,0.06,351.33,310312,,,D*79
$GPGGA,070236.000,3353.7512,N,09832.0206,W,2,07,1.1,302.6,M,-23.7,M,1.8,0000*42
$GPGSA,A,3,02,28,10,04,09,17,20,,,,,,2.1,1.1,1.8*38
$GPRMC,070236.000,A,3353.7512,N,09832.0206,W,0.15,66.11,310312,,,D*4C
$GPGGA,070237.000,3353.7513,N,09832.0205,W,2,07,1.1,302.7,M,-23.7,M,0.8,0000*41
$GPGSA,A,3,02,28,10,04,09,17,20,,,,,,2.1,1.1,1.8*38
$GPRMC,070237.000,A,3353.7513,N,09832.0205,W,0.21,98.06,310312,,,D*4F
$GPGGA,070238.000,3353.7513,N,09832.0205,W,2,07,1.1,302.9,M,-23.7,M,1.8,0000*41
$GPGSA,A,3,02,28,10,04,09,17,20,,,,,,2.1,1.1,1.8*38
$GPRMC,070238.000,A,3353.7513,N,09832.0205,W,0.25,91.59,310312,,,D*47
$GPGGA,070239.000,3353.7513,N,09832.0205,W,2,07,1.1,303.0,M,-23.7,M,0.8,0000*49
