$GPGGA,194011.000,3352.0745,N,09831.8355,W,1,08,1.0,298.2,M,-23.7,M,19.8,0000*76
$GPGSA,A,3,22,32,31,11,30,01,25,14,,,,,2.2,1.0,2.0*32
$GPGSV,3,1,12,31,89,315,28,14,44,051,30,32,40,316,36,22,38,131,25*7F
$GPGSV,3,2,12,01,31,287,25,25,26,064,35,11,23,261,31,30,22,167,28*7A
$GPGSV,3,3,12,20,13,314,,12,02,032,,16,00,181,,51,49,195,34*70
$GPRMC,194011.000,A,3352.0745,N,09831.8355,W,6.04,87.56,300312,,,A*44
$GPGGA,194012.000,3352.0751,N,09831.8329,W,1,08,1.0,298.6,M,-23.7,M,19.8,0000*7F
$GPGSA,A,3,22,32,31,11,30,01,25,14,,,,,2.2,1.0,2.0*32
$GPRMC,194012.000,A,3352.0751,N,09831.8329,W,7.96,76.30,300312,,,A*4D
$GPGGA,194013.000,3352.0759,N,09831.8300,W,1,08,1.0,299.1,M,-23.7,M,22.8,0000*73
$GPGSA,A,3,22,32,31,11,30,01,25,14,,,,,2.2,1.0,2.0*32
$GPRMC,194013.000,A,3352.0759,N,09831.8300,W,9.07,70.14,300312,,,A*49
$GPGGA,194014.000,3352.0771,N,09831.8270,W,1,08,1.0,299.3,M,-23.7,M,22.8,0000*7A
$GPGSA,A,3,22,32,31,11,30,01,25,14,,,,,2.2,1.0,2.0*32
$GPRMC,194014.000,A,3352.0771,N,09831.8270,W,9.88,65.73,300312,,,A*40
$GPGGA,194015.000,3352.0781,N,09831.8237,W,1,08,1.0,299.6,M,-23.7,M,22.8,0000*72
$GPGSA,A,3,22,32,31,11,30,01,25,14,,,,,2.2,1.0,2.0*32
$GPRMC,194015.000,A,3352.0781,N,09831.8237,W,10.59,69.80,300312,,,A*79
$GPGGA,194016.000,3352.0788,N,09831.8200,W,1,08,1.0,299.7,M,-23.7,M,22.8,0000*7D
$GPGSA,A,3,22,32,31,11,30,01,25,14,,,,,2.2,1.0,2.0*32
$GPGSV,3,1,12,31,89,315,36,14,44,051,34,32,40,316,35,22,38,131,27*75
$GPGSV,3,2,12,01,31,287,29,25,26,064,36,11,23,261,28,30,22,167,25*70
$GPGSV,3,3,12,20,13,314,,12,02,032,,16,00,181,,51,49,195,30*74
$GPRMC,194016.000,A,3352.0788,N,09831.8200,W,11.34,77.23,300312,,,A*7B
$GPGGA,194017.000,3352.0792,N,09831.8160,W,1,08,1.0,299.9,M,-23.7,M,22.8,0000*7C
$GPGSA,A,3,22,32,31,11,30,01,25,14,,,,,2.2,1.0,2.0*32
$GPRMC,194017.000,A,3352.0792,N,09831.8160,W,11.78,84.16,300312,,,A*76
$GPGGA,194018.000,3352.0793,N,09831.8120,W,1,08,1.0,299.9,M,-23.7,M,22.8,0000*76
$GPGSA,A,3,22,32,31,11,30,01,25,14,,,,,2.2,1.0,2.0*32
$GPRMC,194018.000,A,3352.0793,N,09831.8120,W,11.99,88.74,300312,,,A*7B
$GPGGA,194019.000,3352.0792,N,09831.8079,W,1,08,1.0,300.0,M,-23.7,M,22.8,0000*73
$GPGSA,A,3,22,32,31,11,30,01,25,14,,,,,2.2,1.0,2.0*32
$GPRMC,194019.000,A,3352.0792,N,09831.8079,W,12.26,91.35,300312,,,A*7C
$GPGGA,194020.000,3352.0792,N,09831.8037,W,1,09,0.9,300.1,M,-23.7,M,29.8,0000*70
$GPGSA,A,3,22,32,31,11,30,01,25,20,14,,,,1.9,0.9,1.6*35
$GPRMC,194020.000,A,3352.0792,N,09831.8037,W,12.62,91.76,300312,,,A*7B
$GPGGA,194021.000,3352.0797,N,09831.7992,W,2,09,0.9,300.4,M,-23.7,M,0.8,0000*40
$GPGSA,A,3,22,32,31,11,30,01,25,20,14,,,,1.9,0.9,1.6*35
$GPGSV,3,1,12,31,89,315,35,14,44,051,35,32,40,316,35,22,38,131,25*75
$GPGSV,3,2,12,01,31,287,30,25,26,064,28,11,23,261,23,30,22,167,29*70
$GPGSV,3,3,12,20,13,314,27,12,02,032,,16,00,181,,51,49,195,33*72
$GPRMC,194021.000,A,3352.0797,N,09831.7992,W,12.93,90.21,300312,,,D*7E
$GPGGA,194022.000,3352.0797,N,09831.7947,W,2,09,0.9,300.1,M,-23.7,M,0.8,0000*4E
$GPGSA,A,3,22,32,31,11,30,01,25,20,14,,,,1.9,0.9,1.6*35
$GPRMC,194022.000,A,3352.0797,N,09831.7947,W,13.19,88.35,300312,,,D*7A
$GPGGA,194023.000,3352.0799,N,09831.7902,W,2,08,1.2,299.9,M,-23.7,M,0.8,0000*42
$GPGSA,A,3,22,32,31,11,01,25,20,14,,,,,2.1,1.2,1.8*39
$GPRMC,194023.000,A,3352.0799,N,09831.7902,W,13.52,86.57,300312,,,D*71
$GPGGA,194024.000,3352.0801,N,09831.7858,W,2,08,1.2,299.3,M,-23.7,M,1.8,0000*4E
$GPGSA,A,3,22,32,31,11,01,25,20,14,,,,,2.1,1.2,1.8*39
$GPRMC,194024.000,A,3352.0801,N,09831.7858,W,13.72,84.66,300312,,,D*74
$GPGGA,194025.000,3352.0806,N,09831.7812,W,2,09,0.9,299.0,M,-23.7,M,2.8,0000*4D
$GPGSA,A,3,22,32,31,11,30,01,25,20,14,,,,1.9,0.9,1.6*35
$GPRMC,194025.000,A,3352.0806,N,09831.7812,W,13.94,82.37,300312,,,D*76
$GPGGA,194026.000,3352.0811,N,09831.7766,W,2,09,0.9,298.7,M,-23.7,M,0.8,0000*40
$GPGSA,A,3,22,32,31,11,30,01,25,20,14,,,,1.9,0.9,1.6*35
$GPGSV,3,1,12,31,89,315,22,14,44,051,29,32,40,316,34,22,38,131,26*7C
$GPGSV,3,2,12,01,31,287,28,25,26,064,35,11,23,261,26,30,22,167,31*79
$GPGSV,3,3,12,20,13,314,30,12,02,032,20,16,00,181,,51,49,195,35*70
$GPRMC,194026.000,A,3352.0811,N,09831.7766,W,13.46,80.17,300312,,,D*70
$GPGGA,194027.000,3352.0815,N,09831.7724,W,2,09,0.9,298.3,M,-23.7,M,0.8,0000*47
$GPGSA,A,3,22,32,31,11,30,01,25,20,14,,,,1.9,0.9,1.6*35
$GPRMC,194027.000,A,3352.0815,N,09831.7724,W,12.63,78.27,300312,,,D*71
$GPGGA,194028.000,3352.0822,N,09831.7684,W,2,09,0.9,297.9,M,-23.7,M,0.8,0000*42
$GPGSA,A,3,22,32,31,11,30,01,25,20,14,,,,1.9,0.9,1.6*35
$GPRMC,194028.000,A,3352.0822,N,09831.7684,W,11.55,79.28,300312,,,D*79
$GPGGA,194029.000,3352.0826,N,09831.7649,W,2,09,0.9,297.8,M,-23.7,M,0.8,0000*47
$GPGSA,A,3,22,32,31,11,30,01,25,20,14,,,,1.9,0.9,1.6*35
$GPRMC,194029.000,A,3352.0826,N,09831.7649,W,9.90,85.23,300312,,,D*45
$GPGGA,194030.000,3352.0826,N,09831.7620,W,2,09,0.9,297.7,M,-23.7,M,1.8,0000*4E
$GPGSA,A,3,22,32,31,11,30,01,25,20,14,,,,1.9,0.9,1.6*35
$GPRMC,194030.000,A,3352.0826,N,09831.7620,W,7.77,93.48,300312,,,D*4F
$GPGGA,194031.000,3352.0823,N,09831.7602,W,2,08,1.2,297.6,M,-23.7,M,2.8,0000*43
$GPGSA,A,3,22,32,31,11,01,25,20,14,,,,,2.1,1.2,1.8*39
$GPGSV,3,1,12,31,89,315,31,14,44,051,32,32,40,316,21,22,38,131,24*72
$GPGSV,3,2,12,01,31,287,29,25,26,064,32,11,23,261,26,30,22,167,*7D
$GPGSV,3,3,12,20,13,314,29,12,02,032,,16,00,181,,51,49,195,32*7D
$GPRMC,194031.000,A,3352.0823,N,09831.7602,W,4.95,101.34,300312,,,D*75
$GPGGA,194032.000,3352.0819,N,09831.7593,W,2,09,0.9,297.5,M,-23.7,M,3.8,0000*4B
$GPGSA,A,3,22,32,31,11,30,01,25,20,14,,,,1.9,0.9,1.6*35
$GPRMC,194032.000,A,3352.0819,N,09831.7593,W,2.21,109.08,300312,,,D*7A
$GPGGA,194033.000,3352.0814,N,09831.7590,W,2,08,1.0,297.2,M,-23.7,M,0.8,0000*49
$GPGSA,A,3,22,32,31,30,01,25,20,14,,,,,1.9,1.0,1.7*3C
$GPRMC,194033.000,A,3352.0814,N,09831.7590,W,0.84,103.34,300312,,,D*7D
$GPGGA,194034.000,3352.0814,N,09831.7589,W,2,09,0.9,297.5,M,-23.7,M,0.8,0000*48
$GPGSA,A,3,22,32,31,11,30,01,25,20,14,,,,1.9,0.9,1.6*35
$GPRMC,194034.000,A,3352.0814,N,09831.7589,W,0.73,129.36,300312,,,D*70
$GPGGA,194035.000,3352.0815,N,09831.7587,W,2,09,0.9,297.5,M,-23.7,M,0.8,0000*46
$GPGSA,A,3,22,32,31,11,30,01,25,20,14,,,,1.9,0.9,1.6*35
$GPRMC,194035.000,A,3352.0815,N,09831.7587,W,2.15,110.96,300312,,,D*7C
$GPGGA,194036.000,3352.0811,N,09831.7576,W,2,09,0.9,297.5,M,-23.7,M,1.8,0000*4E
$GPGSA,A,3,22,32,31,11,30,01,25,20,14,,,,1.9,0.9,1.6*35
$GPGSV,3,1,12,31,89,315,31,14,44,051,36,32,40,316,23,22,38,131,30*71
$GPGSV,3,2,12,01,31,287,29,25,26,064,34,11,23,261,23,30,22,167,29*75
$GPGSV,3,3,12,20,13,314,25,12,02,032,,16,00,181,,51,49,195,35*76
$GPRMC,194036.000,A,3352.0811,N,09831.7576,W,5.18,115.51,300312,,,D*71
$GPGGA,194037.000,3352.0803,N,09831.7557,W,2,09,0.9,297.6,M,-23.7,M,2.8,0000*4F
$GPGSA,A,3,22,32,31,11,30,01,25,20,14,,,,1.9,0.9,1.6*35
$GPRMC,194037.000,A,3352.0803,N,09831.7557,W,7.62,120.04,300312,,,D*79
$GPGGA,194038.000,3352.0791,N,09831.7531,W,2,08,1.2,297.7,M,-23.7,M,3.8,0000*4F
$GPGSA,A,3,22,32,31,11,01,25,20,14,,,,,2.1,1.2,1.8*39
$GPRMC,194038.000,A,3352.0791,N,09831.7531,W,9.30,122.37,300312,,,D*79
$GPGGA,194039.000,3352.0776,N,09831.7502,W,2,08,1.2,297.8,M,-23.7,M,4.8,0000*4F
$GPGSA,A,3,22,32,31,11,01,25,20,14,,,,,2.1,1.2,1.8*39
$GPRMC,194039.000,A,3352.0776,N,09831.7502,W,10.53,120.65,300312,,,D*49
$GPGGA,194040.000,3352.0762,N,09831.7471,W,2,08,1.2,297.6,M,-23.7,M,0.8,0000*4B
$GPGSA,A,3,22,32,31,11,01,25,20,14,,,,,2.1,1.2,1.8*39
$GPRMC,194040.000,A,3352.0762,N,09831.7471,W,11.12,119.00,300312,,,D*4A
$GPGGA,194041.000,3352.0748,N,09831.7439,W,2,08,0.9,297.4,M,-23.7,M,0.8,0000*46
$GPGSA,A,3,22,31,11,30,01,25,20,14,,,,,1.9,0.9,1.7*35
$GPGSV,3,1,12,31,89,315,32,14,44,051,39,32,40,316,13,22,38,131,26*79
$GPGSV,3,2,12,01,31,287,27,25,26,064,35,11,23,261,28,30,22,167,23*7B
$GPGSV,3,3,12,20,13,314,29,12,02,032,,16,00,181,,51,49,195,35*7A
$GPRMC,194041.000,A,3352.0748,N,09831.7439,W,10.28,116.01,300312,,,D*49
$GPGGA,194042.000,3352.0738,N,09831.7412,W,2,08,0.9,297.1,M,-23.7,M,0.8,0000*4E
$GPGSA,A,3,22,31,11,30,01,25,20,14,,,,,1.9,0.9,1.7*35
$GPRMC,194042.000,A,3352.0738,N,09831.7412,W,7.81,114.50,300312,,,D*77
$GPGGA,194043.000,3352.0732,N,09831.7397,W,2,09,0.9,297.0,M,-23.7,M,1.8,0000*4E
$GPGSA,A,3,22,32,31,11,30,01,25,20,14,,,,1.9,0.9,1.6*35
$GPRMC,194043.000,A,3352.0732,N,09831.7397,W,3.51,118.48,300312,,,D*7A
$GPGGA,194044.000,3352.0729,N,09831.7392,W,2,09,0.9,296.9,M,-23.7,M,2.8,0000*4D
$GPGSA,A,3,22,32,31,11,30,01,25,20,14,,,,1.9,0.9,1.6*35
$GPRMC,194044.000,A,3352.0729,N,09831.7392,W,0.48,141.28,300312,,,D*73
$GPGGA,194045.000,3352.0728,N,09831.7392,W,2,09,0.9,296.5,M,-23.7,M,0.8,0000*43
$GPGSA,A,3,22,32,31,11,30,01,25,20,14,,,,1.9,0.9,1.6*35
$GPRMC,194045.000,A,3352.0728,N,09831.7392,W,0.10,331.41,300312,,,D*74
$GPGGA,194046.000,3352.0728,N,09831.7393,W,2,09,0.9,296.4,M,-23.7,M,0.8,0000*40
$GPGSA,A,3,22,32,31,11,30,01,25,20,14,,,,1.9,0.9,1.6*35
$GPGSV,3,1,12,31,89,315,33,14,44,051,39,32,40,316,27,22,38,131,19*73
$GPGSV,3,2,12,01,31,287,29,25,26,064,35,11,23,261,28,30,22,167,25*73
$GPGSV,3,3,12,20,13,314,19,12,02,032,,16,00,181,21,51,49,195,35*7A
$GPRMC,194046.000,A,3352.0728,N,09831.7393,W,0.21,318.48,300312,,,D*76
$GPGGA,194047.000,3352.0728,N,09831.7393,W,2,09,0.9,296.2,M,-23.7,M,0.8,0000*47
$GPGSA,A,3,22,32,31,11,30,01,25,20,14,,,,1.9,0.9,1.6*35
$GPRMC,194047.000,A,3352.0728,N,09831.7393,W,0.29,343.51,300312,,,D*79
$GPGGA,194048.000,3352.0727,N,09831.7393,W,2,09,0.9,295.9,M,-23.7,M,1.8,0000*4E
$GPGSA,A,3,22,32,31,11,30,01,25,20,14,,,,1.9,0.9,1.6*35
$GPRMC,194048.000,A,3352.0727,N,09831.7393,W,0.76,352.75,300312,,,D*75
$GPGGA,194049.000,3352.0727,N,09831.7394,W,2,09,0.9,295.7,M,-23.7,M,2.8,0000*45
$GPGSA,A,3,22,32,31,11,30,01,25,20,14,,,,1.9,0.9,1.6*35
$GPRMC,194049.000,A,3352.0727,N,09831.7394,W,0.11,63.10,300312,,,D*40
$GPGGA,194050.000,3352.0728,N,09831.7394,W,2,09,0.9,296.0,M,-23.7,M,3.8,0000*47
$GPGSA,A,3,22,32,31,11,30,01,25,20,14,,,,1.9,0.9,1.6*35
$GPRMC,194050.000,A,3352.0728,N,09831.7394,W,0.14,156.04,300312,,,D*70
$GPGGA,194051.000,3352.0729,N,09831.7395,W,2,09,0.9,296.3,M,-23.7,M,0.8,0000*46
$GPGSA,A,3,22,32,31,11,30,01,25,20,14,,,,1.9,0.9,1.6*35
$GPGSV,3,1,12,31,89,315,33,14,44,051,39,32,40,316,24,22,38,131,21*7B
$GPGSV,3,2,12,01,31,287,33,25,26,064,35,11,23,261,24,30,22,167,25*74
$GPGSV,3,3,12,20,13,314,21,12,02,032,,16,00,181,29,51,49,195,36*7A
$GPRMC,194051.000,A,3352.0729,N,09831.7395,W,0.24,147.93,300312,,,D*7C
$GPGGA,194052.000,3352.0730,N,09831.7395,W,2,09,0.9,296.4,M,-23.7,M,0.8,0000*4A
$GPGSA,A,3,22,32,31,11,30,01,25,20,14,,,,1.9,0.9,1.6*35
$GPRMC,194052.000,A,3352.0730,N,09831.7395,W,0.10,11.07,300312,,,D*4F
$GPGGA,194053.000,3352.0728,N,09831.7396,W,2,09,0.9,295.9,M,-23.7,M,0.8,0000*4F
$GPGSA,A,3,22,32,31,11,30,01,25,20,14,,,,1.9,0.9,1.6*35
$GPRMC,194053.000,A,3352.0728,N,09831.7396,W,0.14,275.83,300312,,,D*7C
$GPGGA,194054.000,3352.0727,N,09831.7397,W,2,09,0.9,295.4,M,-23.7,M,1.8,0000*4A
$GPGSA,A,3,22,32,31,11,30,01,25,20,14,,,,1.9,0.9,1.6*35
$GPRMC,194054.000,A,3352.0727,N,09831.7397,W,0.32,200.39,300312,,,D*72
$GPGGA,194055.000,3352.0726,N,09831.7398,W,2,09,0.9,295.0,M,-23.7,M,2.8,0000*42
$GPGSA,A,3,22,32,31,11,30,01,25,20,14,,,,1.9,0.9,1.6*35
$GPRMC,194055.000,A,3352.0726,N,09831.7398,W,0.24,193.99,300312,,,D*79
$GPGGA,194056.000,3352.0725,N,09831.7399,W,2,09,0.9,294.7,M,-23.7,M,0.8,0000*47
$GPGSA,A,3,22,32,31,11,30,01,25,20,14,,,,1.9,0.9,1.6*35
$GPGSV,3,1,12,31,89,315,34,14,44,051,38,32,40,316,26,22,38,131,15*78
$GPGSV,3,2,12,01,31,287,32,25,26,064,35,11,23,261,24,30,22,167,23*73
$GPGSV,3,3,12,20,13,314,19,12,02,032,,16,00,181,27,51,49,195,37*7E
$GPRMC,194056.000,A,3352.0725,N,09831.7399,W,0.14,310.54,300312,,,D*73
$GPGGA,194057.000,3352.0722,N,09831.7398,W,2,09,0.9,294.4,M,-23.7,M,0.8,0000*43
$GPGSA,A,3,22,32,31,11,30,01,25,20,14,,,,1.9,0.9,1.6*35
$GPRMC,194057.000,A,3352.0722,N,09831.7398,W,0.56,168.69,300312,,,D*71
$GPGGA,194058.000,3352.0722,N,09831.7399,W,2,09,0.9,294.4,M,-23.7,M,0.8,0000*4D
$GPGSA,A,3,22,32,31,11,30,01,25,20,14,,,,1.9,0.9,1.6*35
$GPRMC,194058.000,A,3352.0722,N,09831.7399,W,0.88,166.86,300312,,,D*73
$GPGGA,194059.000,3352.0720,N,09831.7399,W,2,09,0.9,294.5,M,-23.7,M,0.8,0000*4F
$GPGSA,A,3,22,32,31,11,30,01,25,20,14,,,,1.9,0.9,1.6*35
$GPRMC,194059.000,A,3352.0720,N,09831.7399,W,0.89,163.43,300312,,,D*7D
$GPGGA,194100.000,3352.0720,N,09831.7399,W,2,09,0.9,294.6,M,-23.7,M,1.8,0000*40
$GPGSA,A,3,22,32,31,11,30,01,25,20,14,,,,1.9,0.9,1.6*35
$GPRMC,194100.000,A,3352.0720,N,09831.7399,W,0.20,144.08,300312,,,D*79
$GPGGA,194101.000,3352.0721,N,09831.7401,W,2,09,0.9,294.4,M,-23.7,M,2.8,0000*47
$GPGSA,A,3,22,32,31,11,30,01,25,20,14,,,,1.9,0.9,1.6*35
$GPGSV,3,1,12,31,89,315,34,14,44,051,38,32,40,316,26,22,38,131,17*7A
$GPGSV,3,2,12,01,31,287,32,25,26,064,35,11,23,261,25,30,22,167,22*73
$GPGSV,3,3,12,20,13,314,20,12,02,032,,16,00,181,15,51,49,195,37*75
$GPRMC,194101.000,A,3352.0721,N,09831.7401,W,0.09,181.45,300312,,,D*74
$GPGGA,194102.000,3352.0721,N,09831.7402,W,2,09,0.9,294.1,M,-23.7,M,3.8,0000*43
$GPGSA,A,3,22,32,31,11,30,01,25,20,14,,,,1.9,0.9,1.6*35
$GPRMC,194102.000,A,3352.0721,N,09831.7402,W,0.20,173.49,300312,,,D*7E
$GPGGA,194103.000,3352.0723,N,09831.7403,W,2,09,0.9,294.1,M,-23.7,M,0.8,0000*42
$GPGSA,A,3,22,32,31,11,30,01,25,20,14,,,,1.9,0.9,1.6*35
$GPRMC,194103.000,A,3352.0723,N,09831.7403,W,0.44,358.28,300312,,,D*72
$GPGGA,194104.000,3352.0724,N,09831.7405,W,2,09,0.9,294.0,M,-23.7,M,0.8,0000*45
$GPGSA,A,3,22,32,31,11,30,01,25,20,14,,,,1.9,0.9,1.6*35
$GPRMC,194104.000,A,3352.0724,N,09831.7405,W,0.25,346.69,300312,,,D*79
$GPGGA,194105.000,3352.0726,N,09831.7405,W,2,09,0.9,294.1,M,-23.7,M,0.8,0000*47
$GPGSA,A,3,22,32,31,11,30,01,25,20,14,,,,1.9,0.9,1.6*35
$GPRMC,194105.000,A,3352.0726,N,09831.7405,W,0.18,343.16,300312,,,D*79
$GPGGA,194106.000,3352.0727,N,09831.7406,W,2,09,0.9,294.1,M,-23.7,M,1.8,0000*47
$GPGSA,A,3,22,32,31,11,30,01,25,20,14,,,,1.9,0.9,1.6*35
$GPGSV,3,1,12,31,89,315,35,14,44,051,39,32,40,316,27,22,38,131,17*7B
$GPGSV,3,2,12,01,31,287,32,25,26,064,36,11,23,261,24,30,22,167,22*71
$GPGSV,3,3,12,20,13,314,21,12,02,032,,16,00,181,17,51,49,195,36*77
$GPRMC,194106.000,A,3352.0727,N,09831.7406,W,0.12,166.54,300312,,,D*71
$GPGGA,194107.000,3352.0727,N,09831.7405,W,2,09,0.9,294.1,M,-23.7,M,0.8,0000*44
$GPGSA,A,3,22,32,31,11,30,01,25,20,14,,,,1.9,0.9,1.6*35
$GPRMC,194107.000,A,3352.0727,N,09831.7405,W,0.69,72.61,300312,,,D*4D
$GPGGA,194108.000,3352.0728,N,09831.7400,W,2,09,0.9,294.1,M,-23.7,M,1.8,0000*40
$GPGSA,A,3,22,32,31,11,30,01,25,20,14,,,,1.9,0.9,1.6*35
$GPRMC,194108.000,A,3352.0728,N,09831.7400,W,1.85,99.76,300312,,,D*48
$GPGGA,194109.000,3352.0730,N,09831.7390,W,2,09,0.9,294.2,M,-23.7,M,2.8,0000*46
$GPGSA,A,3,22,32,31,11,30,01,25,20,14,,,,1.9,0.9,1.6*35
$GPRMC,194109.000,A,3352.0730,N,09831.7390,W,4.55,85.16,300312,,,D*4D
$GPGGA,194110.000,3352.0737,N,09831.7371,W,2,09,0.9,294.3,M,-23.7,M,0.8,0000*45
$GPGSA,A,3,22,32,31,11,30,01,25,20,14,,,,1.9,0.9,1.6*35
$GPRMC,194110.000,A,3352.0737,N,09831.7371,W,7.22,65.01,300312,,,D*46
$GPGGA,194111.000,3352.0750,N,09831.7351,W,2,09,0.9,294.1,M,-23.7,M,1.8,0000*44
$GPGSA,A,3,22,32,31,11,30,01,25,20,14,,,,1.9,0.9,1.6*35
$GPGSV,3,1,12,31,89,315,35,14,44,051,31,32,40,316,36,22,38,131,29*7E
$GPGSV,3,2,12,01,31,287,32,25,26,064,32,11,23,261,27,30,22,167,26*72
$GPGSV,3,3,12,20,13,314,26,12,02,032,,16,00,181,17,51,49,195,32*74
$GPRMC,194111.000,A,3352.0750,N,09831.7351,W,8.58,43.49,300312,,,D*4E
$GPGGA,194112.000,3352.0775,N,09831.7334,W,2,09,0.9,294.2,M,-23.7,M,2.8,0000*43
$GPGSA,A,3,22,32,31,11,30,01,25,20,14,,,,1.9,0.9,1.6*35
$GPRMC,194112.000,A,3352.0775,N,09831.7334,W,10.82,27.42,300312,,,D*7E
$GPGGA,194113.000,3352.0808,N,09831.7316,W,2,09,0.9,294.3,M,-23.7,M,3.8,0000*47
$GPGSA,A,3,22,32,31,11,30,01,25,20,14,,,,1.9,0.9,1.6*35
$GPRMC,194113.000,A,3352.0808,N,09831.7316,W,13.38,22.91,300312,,,D*73
$GPGGA,194114.000,3352.0847,N,09831.7298,W,2,09,0.9,294.3,M,-23.7,M,4.8,0000*4B
$GPGSA,A,3,22,32,31,11,30,01,25,20,14,,,,1.9,0.9,1.6*35
$GPRMC,194114.000,A,3352.0847,N,09831.7298,W,15.41,21.15,300312,,,D*7F
$GPGGA,194115.000,3352.0894,N,09831.7279,W,2,09,0.9,294.5,M,-23.7,M,5.8,0000*4C
$GPGSA,A,3,22,32,31,11,30,01,25,20,14,,,,1.9,0.9,1.6*35
$GPRMC,194115.000,A,3352.0894,N,09831.7279,W,17.19,21.66,300312,,,D*74
$GPGGA,194116.000,3352.0943,N,09831.7254,W,2,09,0.9,294.1,M,-23.7,M,6.8,0000*4C
$GPGSA,A,3,22,32,31,11,30,01,25,20,14,,,,1.9,0.9,1.6*35
$GPGSV,3,1,12,31,89,315,35,14,44,051,20,32,40,316,38,22,38,131,29*70
$GPGSV,3,2,12,01,31,287,32,25,26,064,26,11,23,261,29,30,22,167,25*7A
$GPGSV,3,3,12,20,13,314,27,12,02,032,,16,00,181,15,51,49,195,25*71
$GPRMC,194116.000,A,3352.0943,N,09831.7254,W,18.71,21.56,300312,,,D*71
$GPGGA,194117.000,3352.0996,N,09831.7230,W,2,09,0.9,293.7,M,-23.7,M,7.8,0000*47
$GPGSA,A,3,22,32,31,11,30,01,25,20,14,,,,1.9,0.9,1.6*35
$GPRMC,194117.000,A,3352.0996,N,09831.7230,W,19.84,20.20,300312,,,D*71
$GPGGA,194118.000,3352.1050,N,09831.7207,W,2,09,0.9,293.6,M,-23.7,M,8.8,0000*40
$GPGSA,A,3,22,32,31,11,30,01,25,20,14,,,,1.9,0.9,1.6*35
$GPRMC,194118.000,A,3352.1050,N,09831.7207,W,20.86,19.20,300312,,,D*7A
$GPGGA,194119.000,3352.1112,N,09831.7183,W,2,09,0.9,293.3,M,-23.7,M,9.8,0000*4D
$GPGSA,A,3,22,32,31,11,30,01,25,20,14,,,,1.9,0.9,1.6*35
$GPRMC,194119.000,A,3352.1112,N,09831.7183,W,22.65,16.29,300312,,,D*7A
$GPGGA,194120.000,3352.1176,N,09831.7165,W,2,09,0.9,293.2,M,-23.7,M,10.8,0000*74
$GPGSA,A,3,22,32,31,11,30,01,25,20,14,,,,1.9,0.9,1.6*35
$GPRMC,194120.000,A,3352.1176,N,09831.7165,W,23.84,10.53,300312,,,D*7F
$GPGGA,194121.000,3352.1244,N,09831.7154,W,2,09,0.9,293.1,M,-23.7,M,11.8,0000*77
$GPGSA,A,3,22,32,31,11,30,01,25,20,14,,,,1.9,0.9,1.6*35
$GPGSV,3,1,12,31,89,315,34,14,44,051,31,32,40,316,32,22,38,131,29*7B
$GPGSV,3,2,12,01,31,287,38,25,26,064,26,11,23,261,29,30,22,167,17*71
$GPGSV,3,3,12,20,13,314,26,12,02,032,,16,00,181,14,51,49,195,28*7C
$GPRMC,194121.000,A,3352.1244,N,09831.7154,W,24.71,5.78,300312,,,D*4E
$GPGGA,194122.000,3352.1314,N,09831.7151,W,2,09,0.9,293.2,M,-23.7,M,12.8,0000*75
$GPGSA,A,3,22,32,31,11,30,01,25,20,14,,,,1.9,0.9,1.6*35
$GPRMC,194122.000,A,3352.1314,N,09831.7151,W,25.47,1.96,300312,,,D*4C
$GPGGA,194123.000,3352.1390,N,09831.7147,W,2,09,0.9,293.5,M,-23.7,M,13.8,0000*79
$GPGSA,A,3,22,32,31,11,30,01,25,20,14,,,,1.9,0.9,1.6*35
$GPRMC,194123.000,A,3352.1390,N,09831.7147,W,26.57,1.50,300312,,,D*4E
$GPGGA,194124.000,3352.1465,N,09831.7148,W,2,09,0.9,293.5,M,-23.7,M,14.8,0000*7B
$GPGSA,A,3,22,32,31,11,30,01,25,20,14,,,,1.9,0.9,1.6*35
$GPRMC,194124.000,A,3352.1465,N,09831.7148,W,26.29,359.29,300312,,,D*42
$GPGGA,194125.000,3352.1542,N,09831.7152,W,2,09,0.9,293.9,M,-23.7,M,15.8,0000*78
$GPGSA,A,3,22,32,31,11,30,01,25,20,14,,,,1.9,0.9,1.6*35
$GPRMC,194125.000,A,3352.1542,N,09831.7152,W,26.95,359.02,300312,,,D*42
$GPGGA,194126.000,3352.1617,N,09831.7155,W,2,09,0.9,293.5,M,-23.7,M,16.8,0000*70
$GPGSA,A,3,22,32,31,11,30,01,25,20,14,,,,1.9,0.9,1.6*35
$GPGSV,3,1,12,31,89,315,35,14,44,051,24,32,40,316,31,22,38,131,37*72
$GPGSV,3,2,12,01,31,287,26,25,26,064,24,11,23,261,17,30,22,167,26*73
$GPGSV,3,3,12,20,13,314,32,12,02,032,,16,00,181,25,48,36,230,37*79
$GPRMC,194126.000,A,3352.1617,N,09831.7155,W,26.87,358.90,300312,,,D*4C
$GPGGA,194127.000,3352.1692,N,09831.7158,W,2,08,1.0,293.4,M,-23.7,M,17.8,0000*78
$GPGSA,A,3,22,32,31,11,30,01,25,20,,,,,1.9,1.0,1.7*39
$GPRMC,194127.000,A,3352.1692,N,09831.7158,W,26.44,359.99,300312,,,D*4A
$GPGGA,194128.000,3352.1767,N,09831.7158,W,2,08,1.0,293.8,M,-23.7,M,18.8,0000*7F
$GPGSA,A,3,22,32,31,11,30,01,25,20,,,,,1.9,1.0,1.7*39
$GPRMC,194128.000,A,3352.1767,N,09831.7158,W,25.77,1.48,300312,,,D*4F
$GPGGA,194129.000,3352.1836,N,09831.7157,W,2,08,1.0,294.1,M,-23.7,M,0.8,0000*4D
$GPGSA,A,3,22,32,31,11,30,01,25,20,,,,,1.9,1.0,1.7*39
$GPRMC,194129.000,A,3352.1836,N,09831.7157,W,23.77,1.02,300312,,,D*42
$GPGGA,194130.000,3352.1900,N,09831.7155,W,2,08,1.0,294.5,M,-23.7,M,1.8,0000*46
$GPGSA,A,3,22,32,31,11,30,01,25,20,,,,,1.9,1.0,1.7*39
$GPRMC,194130.000,A,3352.1900,N,09831.7155,W,21.39,0.96,300312,,,D*48
$GPGGA,194131.000,3352.1955,N,09831.7156,W,2,08,1.0,294.7,M,-23.7,M,2.8,0000*45
$GPGSA,A,3,22,32,31,11,30,01,25,20,,,,,1.9,1.0,1.7*39
$GPGSV,3,1,12,31,89,315,35,14,44,051,11,32,40,316,33,22,38,131,36*77
$GPGSV,3,2,12,01,31,287,24,25,26,064,22,11,23,261,24,30,22,167,27*76
$GPGSV,3,3,12,20,13,314,32,12,02,032,,16,00,181,24,48,36,230,37*78
$GPRMC,194131.000,A,3352.1955,N,09831.7156,W,18.83,0.96,300312,,,D*41
$GPGGA,194132.000,3352.2002,N,09831.7157,W,2,08,1.0,294.8,M,-23.7,M,0.8,0000*42
$GPGSA,A,3,22,32,31,11,30,01,25,20,,,,,1.9,1.0,1.7*39
$GPRMC,194132.000,A,3352.2002,N,09831.7157,W,16.13,0.37,300312,,,D*47
$GPGGA,194133.000,3352.2043,N,09831.7158,W,2,08,1.0,294.9,M,-23.7,M,0.8,0000*48
$GPGSA,A,3,22,32,31,11,30,01,25,20,,,,,1.9,1.0,1.7*39
$GPRMC,194133.000,A,3352.2043,N,09831.7158,W,14.47,1.70,300312,,,D*4D
$GPGGA,194134.000,3352.2079,N,09831.7158,W,2,08,1.0,294.9,M,-23.7,M,0.8,0000*46
$GPGSA,A,3,22,32,31,11,30,01,25,20,,,,,1.9,1.0,1.7*39
$GPRMC,194134.000,A,3352.2079,N,09831.7158,W,12.47,0.68,300312,,,D*4D
$GPGGA,194135.000,3352.2108,N,09831.7158,W,2,09,0.9,294.9,M,-23.7,M,0.8,0000*49
$GPGSA,A,3,22,32,31,11,30,01,25,20,14,,,,1.9,0.9,1.6*35
$GPRMC,194135.000,A,3352.2108,N,09831.7158,W,10.11,359.05,300312,,,D*4E
$GPGGA,194136.000,3352.2132,N,09831.7158,W,2,09,0.9,294.9,M,-23.7,M,1.8,0000*42
$GPGSA,A,3,22,32,31,11,30,01,25,20,14,,,,1.9,0.9,1.6*35
$GPGSV,3,1,12,31,89,315,35,14,44,051,27,32,40,316,34,22,38,131,32*71
$GPGSV,3,2,12,01,31,287,31,25,26,064,22,11,23,261,23,30,22,167,27*75
$GPGSV,3,3,12,20,13,314,32,12,02,032,,16,00,181,18,48,36,230,36*76
$GPRMC,194136.000,A,3352.2132,N,09831.7158,W,8.20,359.82,300312,,,D*70
$GPGGA,194137.000,3352.2150,N,09831.7158,W,2,09,0.9,294.8,M,-23.7,M,2.8,0000*45
$GPGSA,A,3,22,32,31,11,30,01,25,20,14,,,,1.9,0.9,1.6*35
$GPRMC,194137.000,A,3352.2150,N,09831.7158,W,5.96,0.90,300312,,,D*79
$GPGGA,194138.000,3352.2161,N,09831.7157,W,2,09,0.9,294.6,M,-23.7,M,3.8,0000*48
$GPGSA,A,3,22,32,31,11,30,01,25,20,14,,,,1.9,0.9,1.6*35
$GPRMC,194138.000,A,3352.2161,N,09831.7157,W,3.32,5.68,300312,,,D*71
$GPGGA,194139.000,3352.2161,N,09831.7160,W,2,09,0.9,294.7,M,-23.7,M,0.8,0000*4F
$GPGSA,A,3,22,32,31,11,30,01,25,20,14,,,,1.9,0.9,1.6*35
$GPRMC,194139.000,A,3352.2161,N,09831.7160,W,1.13,15.10,300312,,,D*4B
$GPGGA,194140.000,3352.2161,N,09831.7160,W,2,09,0.9,294.9,M,-23.7,M,0.8,0000*4F
$GPGSA,A,3,22,32,31,11,30,01,25,20,14,,,,1.9,0.9,1.6*35
$GPRMC,194140.000,A,3352.2161,N,09831.7160,W,0.24,15.21,300312,,,D*42
$GPGGA,194141.000,3352.2158,N,09831.7162,W,2,09,0.9,294.9,M,-23.7,M,0.8,0000*46
$GPGSA,A,3,22,32,31,11,30,01,25,20,14,,,,1.9,0.9,1.6*35
$GPGSV,3,1,12,31,89,315,33,14,44,051,28,32,40,316,34,22,38,131,34*7E
$GPGSV,3,2,12,01,31,287,31,25,26,064,28,11,23,261,24,30,22,167,17*7B
$GPGSV,3,3,12,20,13,314,32,12,02,032,,16,00,181,16,48,36,230,36*78
$GPRMC,194141.000,A,3352.2158,N,09831.7162,W,0.09,310.15,300312,,,D*75
$GPGGA,194142.000,3352.2155,N,09831.7164,W,2,09,0.9,294.9,M,-23.7,M,1.8,0000*4F
$GPGSA,A,3,22,32,31,11,30,01,25,20,14,,,,1.9,0.9,1.6*35
$GPRMC,194142.000,A,3352.2155,N,09831.7164,W,0.09,290.32,300312,,,D*71
$GPGGA,194143.000,3352.2154,N,09831.7164,W,2,09,0.9,294.9,M,-23.7,M,2.8,0000*4C
$GPGSA,A,3,22,32,31,11,30,01,25,20,14,,,,1.9,0.9,1.6*35
$GPRMC,194143.000,A,3352.2154,N,09831.7164,W,0.28,26.64,300312,,,D*4E
$GPGGA,194144.000,3352.2152,N,09831.7165,W,2,09,0.9,294.8,M,-23.7,M,3.8,0000*4C
$GPGSA,A,3,22,32,31,11,30,01,25,20,14,,,,1.9,0.9,1.6*35
$GPRMC,194144.000,A,3352.2152,N,09831.7165,W,0.07,301.48,300312,,,D*7B
$GPGGA,194145.000,3352.2151,N,09831.7165,W,2,09,0.9,294.7,M,-23.7,M,0.8,0000*42
$GPGSA,A,3,22,32,31,11,30,01,25,20,14,,,,1.9,0.9,1.6*35
$GPRMC,194145.000,A,3352.2151,N,09831.7165,W,0.07,239.21,300312,,,D*7C
$GPGGA,194146.000,3352.2150,N,09831.7165,W,2,09,0.9,294.6,M,-23.7,M,0.8,0000*41
$GPGSA,A,3,22,32,31,11,30,01,25,20,14,,,,1.9,0.9,1.6*35
$GPGSV,3,1,12,31,89,315,33,14,44,051,30,32,40,316,34,22,38,131,35*76
$GPGSV,3,2,12,01,31,287,31,25,26,064,28,11,23,261,24,30,22,167,19*75
$GPGSV,3,3,12,20,13,314,33,12,02,032,,16,00,181,15,48,36,230,37*7B
$GPRMC,194146.000,A,3352.2150,N,09831.7165,W,0.08,63.39,300312,,,D*45
$GPGGA,194147.000,3352.2149,N,09831.7165,W,2,09,0.9,294.6,M,-23.7,M,0.8,0000*48
$GPGSA,A,3,22,32,31,11,30,01,25,20,14,,,,1.9,0.9,1.6*35
$GPRMC,194147.000,A,3352.2149,N,09831.7165,W,0.15,151.18,300312,,,D*73
$GPGGA,194148.000,3352.2147,N,09831.7164,W,2,09,0.9,294.5,M,-23.7,M,1.8,0000*4A
$GPGSA,A,3,22,32,31,11,30,01,25,20,14,,,,1.9,0.9,1.6*35
$GPRMC,194148.000,A,3352.2147,N,09831.7164,W,0.23,149.08,300312,,,D*7E
$GPGGA,194149.000,3352.2146,N,09831.7164,W,2,09,0.9,294.5,M,-23.7,M,2.8,0000*49
$GPGSA,A,3,22,32,31,11,30,01,25,20,14,,,,1.9,0.9,1.7*34
$GPRMC,194149.000,A,3352.2146,N,09831.7164,W,0.08,135.09,300312,,,D*7D
$GPGGA,194150.000,3352.2145,N,09831.7164,W,2,09,0.9,294.6,M,-23.7,M,0.8,0000*43
$GPGSA,A,3,22,32,31,11,30,01,25,20,14,,,,1.9,0.9,1.7*34
$GPRMC,194150.000,A,3352.2145,N,09831.7164,W,0.07,49.28,300312,,,D*40
$GPGGA,194151.000,3352.2144,N,09831.7164,W,2,09,0.9,294.6,M,-23.7,M,0.8,0000*43
$GPGSA,A,3,22,32,31,11,30,01,25,20,14,,,,1.9,0.9,1.7*34
$GPGSV,3,1,12,31,89,315,34,14,44,051,30,32,40,316,35,22,38,131,36*73
$GPGSV,3,2,12,01,31,287,31,25,26,064,28,11,23,261,25,30,22,167,19*74
$GPGSV,3,3,12,20,13,314,33,12,02,032,,16,00,181,14,48,36,230,37*7A
$GPRMC,194151.000,A,3352.2144,N,09831.7164,W,0.06,38.05,300312,,,D*48
$GPGGA,194152.000,3352.2143,N,09831.7164,W,2,09,0.9,294.5,M,-23.7,M,0.8,0000*44
$GPGSA,A,3,22,32,31,11,30,01,25,20,14,,,,1.9,0.9,1.7*34
$GPRMC,194152.000,A,3352.2143,N,09831.7164,W,0.17,170.75,300312,,,D*76
$GPGGA,194153.000,3352.2142,N,09831.7164,W,2,09,0.9,294.5,M,-23.7,M,0.8,0000*44
$GPGSA,A,3,22,32,31,11,30,01,25,20,14,,,,1.9,0.9,1.7*34
$GPRMC,194153.000,A,3352.2142,N,09831.7164,W,0.06,45.61,300312,,,D*44
$GPGGA,194154.000,3352.2142,N,09831.7164,W,2,09,0.9,294.4,M,-23.7,M,1.8,0000*43
$GPGSA,A,3,22,32,31,11,30,01,25,20,14,,,,1.9,0.9,1.7*34
$GPRMC,194154.000,A,3352.2142,N,09831.7164,W,0.11,29.65,300312,,,D*4B
$GPGGA,194155.000,3352.2141,N,09831.7164,W,2,09,0.9,294.3,M,-23.7,M,2.8,0000*45
$GPGSA,A,3,22,32,31,11,30,01,25,20,14,,,,1.9,0.9,1.7*34
$GPRMC,194155.000,A,3352.2141,N,09831.7164,W,0.23,179.37,300312,,,D*7B
$GPGGA,194156.000,3352.2140,N,09831.7164,W,2,09,0.9,294.1,M,-23.7,M,3.8,0000*44
$GPGSA,A,3,22,32,31,11,30,01,25,20,14,,,,1.9,0.9,1.7*34
$GPGSV,3,1,12,31,89,315,34,14,44,051,30,32,40,316,35,22,38,131,36*73
$GPGSV,3,2,12,01,31,287,30,25,26,064,28,11,23,261,25,30,22,167,21*7E
$GPGSV,3,3,12,20,13,314,34,12,02,032,,16,00,181,13,48,36,230,37*7A
$GPRMC,194156.000,A,3352.2140,N,09831.7164,W,0.26,182.09,300312,,,D*75
$GPGGA,194157.000,3352.2139,N,09831.7164,W,2,09,0.9,294.0,M,-23.7,M,0.8,0000*49
$GPGSA,A,3,22,32,31,11,30,01,25,20,14,,,,1.9,0.9,1.7*34
$GPRMC,194157.000,A,3352.2139,N,09831.7164,W,0.14,174.09,300312,,,D*72
$GPGGA,194158.000,3352.2138,N,09831.7164,W,2,09,0.9,293.9,M,-23.7,M,0.8,0000*49
$GPGSA,A,3,22,32,31,11,30,01,25,20,14,,,,1.9,0.9,1.7*34
$GPRMC,194158.000,A,3352.2138,N,09831.7164,W,0.22,176.90,300312,,,D*7B
$GPGGA,194159.000,3352.2138,N,09831.7164,W,2,09,0.9,293.9,M,-23.7,M,0.8,0000*48
$GPGSA,A,3,22,32,31,11,30,01,25,20,14,,,,1.9,0.9,1.7*34
$GPRMC,194159.000,A,3352.2138,N,09831.7164,W,0.06,129.03,300312,,,D*7C
$GPGGA,194200.000,3352.2138,N,09831.7163,W,2,09,0.9,293.9,M,-23.7,M,1.8,0000*41
$GPGSA,A,3,22,32,31,11,30,01,25,20,14,,,,1.9,0.9,1.7*34
$GPRMC,194200.000,A,3352.2138,N,09831.7163,W,0.11,40.36,300312,,,D*4A
$GPGGA,194201.000,3352.2137,N,09831.7163,W,2,09,0.9,293.9,M,-23.7,M,0.8,0000*4E
$GPGSA,A,3,22,32,31,11,30,01,25,20,14,,,,1.9,0.9,1.7*34
$GPGSV,3,1,12,31,89,315,34,14,44,051,30,32,40,316,35,22,38,131,36*73
$GPGSV,3,2,12,01,31,287,31,25,26,064,27,11,23,261,25,30,22,167,21*70
$GPGSV,3,3,12,20,13,314,34,12,02,032,,16,00,181,,48,36,230,37*78
$GPRMC,194201.000,A,3352.2137,N,09831.7163,W,0.10,144.44,300312,,,D*75
$GPGGA,194202.000,3352.2137,N,09831.7163,W,2,09,0.9,293.9,M,-23.7,M,1.8,0000*4C
$GPGSA,A,3,22,32,31,11,30,01,25,20,14,,,,1.9,0.9,1.7*34
$GPRMC,194202.000,A,3352.2137,N,09831.7163,W,0.27,181.05,300312,,,D*7E
$GPGGA,194203.000,3352.2136,N,09831.7162,W,2,09,0.9,293.8,M,-23.7,M,0.8,0000*4D
$GPGSA,A,3,22,32,31,11,30,01,25,20,14,,,,1.9,0.9,1.7*34
$GPRMC,194203.000,A,3352.2136,N,09831.7162,W,0.08,181.32,300312,,,D*76
$GPGGA,194204.000,3352.2136,N,09831.7162,W,2,09,0.9,293.8,M,-23.7,M,0.8,0000*4A
$GPGSA,A,3,22,32,31,11,30,01,25,20,14,,,,1.9,0.9,1.7*34
$GPRMC,194204.000,A,3352.2136,N,09831.7162,W,0.10,89.05,300312,,,D*45
$GPGGA,194205.000,3352.2136,N,09831.7162,W,2,09,0.9,293.5,M,-23.7,M,0.8,0000*46
$GPGSA,A,3,22,32,31,11,30,01,25,20,14,,,,1.9,0.9,1.7*34
$GPRMC,194205.000,A,3352.2136,N,09831.7162,W,0.33,194.35,300312,,,D*7B
$GPGGA,194206.000,3352.2135,N,09831.7161,W,2,09,0.9,293.4,M,-23.7,M,1.8,0000*45
$GPGSA,A,3,22,32,31,11,30,01,25,20,14,,,,1.9,0.9,1.7*34
$GPGSV,3,1,12,31,89,315,34,14,44,051,30,32,40,316,35,22,38,131,36*73
$GPGSV,3,2,12,01,31,287,30,25,26,064,27,11,23,261,25,30,22,167,21*71
$GPGSV,3,3,12,20,13,314,34,12,02,032,,16,00,181,,48,36,230,37*78
$GPRMC,194206.000,A,3352.2135,N,09831.7161,W,0.03,153.57,300312,,,D*74
$GPGGA,194207.000,3352.2135,N,09831.7161,W,2,09,0.9,293.3,M,-23.7,M,0.8,0000*42
$GPGSA,A,3,22,32,31,11,30,01,25,20,14,,,,1.9,0.9,1.7*34
$GPRMC,194207.000,A,3352.2135,N,09831.7161,W,0.03,18.79,300312,,,D*47
$GPGGA,194208.000,3352.2136,N,09831.7161,W,2,09,0.9,293.2,M,-23.7,M,1.8,0000*4E
$GPGSA,A,3,22,32,31,11,30,01,25,20,14,,,,1.9,0.9,1.7*34
$GPRMC,194208.000,A,3352.2136,N,09831.7161,W,0.08,28.47,300312,,,D*4E
$GPGGA,194209.000,3352.2136,N,09831.7160,W,2,09,0.9,293.1,M,-23.7,M,0.8,0000*4C
$GPGSA,A,3,22,32,31,11,30,01,25,20,14,,,,1.9,0.9,1.7*34
$GPRMC,194209.000,A,3352.2136,N,09831.7160,W,0.14,169.96,300312,,,D*7B
$GPGGA,194210.000,3352.2136,N,09831.7160,W,2,09,0.9,293.1,M,-23.7,M,0.8,0000*44
$GPGSA,A,3,22,32,31,11,30,01,25,20,14,,,,1.9,0.9,1.7*34
$GPRMC,194210.000,A,3352.2136,N,09831.7160,W,0.06,92.26,300312,,,D*4E
$GPGGA,194211.000,3352.2136,N,09831.7159,W,2,09,0.9,293.0,M,-23.7,M,0.8,0000*4E
$GPGSA,A,3,22,32,31,11,30,01,25,20,14,,,,1.9,0.9,1.7*34
$GPGSV,3,1,12,31,89,315,34,14,44,051,29,32,40,316,35,22,38,131,35*78
$GPGSV,3,2,12,01,31,287,31,25,26,064,27,11,23,261,25,30,22,167,22*73
$GPGSV,3,3,12,20,13,314,34,12,02,032,,16,00,181,,48,36,230,37*78
$GPRMC,194211.000,A,3352.2136,N,09831.7159,W,0.24,175.16,300312,,,D*7E
$GPGGA,194212.000,3352.2136,N,09831.7159,W,2,09,0.9,292.9,M,-23.7,M,1.8,0000*44
$GPGSA,A,3,22,32,31,11,30,01,25,20,14,,,,1.9,0.9,1.7*34
$GPRMC,194212.000,A,3352.2136,N,09831.7159,W,0.13,189.25,300312,,,D*7A
$GPGGA,194213.000,3352.2136,N,09831.7158,W,2,09,0.9,292.9,M,-23.7,M,2.8,0000*47
$GPGSA,A,3,22,32,31,11,30,01,25,20,14,,,,1.9,0.9,1.7*34
$GPRMC,194213.000,A,3352.2136,N,09831.7158,W,0.21,150.78,300312,,,D*77
$GPGGA,194214.000,3352.2136,N,09831.7158,W,2,09,0.9,292.9,M,-23.7,M,3.8,0000*41
$GPGSA,A,3,22,32,31,11,30,01,25,20,14,,,,1.9,0.9,1.7*34
$GPRMC,194214.000,A,3352.2136,N,09831.7158,W,0.13,158.38,300312,,,D*7D
$GPGGA,194215.000,3352.2135,N,09831.7157,W,2,09,0.9,292.8,M,-23.7,M,0.8,0000*4E
$GPGSA,A,3,22,32,31,11,30,01,25,20,14,,,,1.9,0.9,1.7*34
$GPRMC,194215.000,A,3352.2135,N,09831.7157,W,0.32,184.21,300312,,,D*7A
$GPGGA,194216.000,3352.2134,N,09831.7157,W,2,09,0.9,292.6,M,-23.7,M,0.8,0000*42
$GPGSA,A,3,22,32,31,11,30,01,25,20,14,,,,1.9,0.9,1.7*34
$GPGSV,3,1,12,31,89,315,34,14,44,051,30,32,40,316,36,22,38,131,35*73
$GPGSV,3,2,12,01,31,287,31,25,26,064,27,11,23,261,25,30,22,167,22*73
$GPGSV,3,3,12,20,13,314,34,12,02,032,,16,00,181,,48,36,230,37*78
$GPRMC,194216.000,A,3352.2134,N,09831.7157,W,0.34,184.70,300312,,,D*7A
$GPGGA,194217.000,3352.2134,N,09831.7157,W,2,09,0.9,292.5,M,-23.7,M,0.8,0000*40
$GPGSA,A,3,22,32,31,11,30,01,25,20,14,,,,1.9,0.9,1.7*34
$GPRMC,194217.000,A,3352.2134,N,09831.7157,W,0.04,91.55,300312,,,D*4A
$GPGGA,194218.000,3352.2134,N,09831.7157,W,2,09,0.9,292.5,M,-23.7,M,1.8,0000*4E
$GPGSA,A,3,22,32,31,11,30,01,25,20,14,,,,1.9,0.9,1.7*34
$GPRMC,194218.000,A,3352.2134,N,09831.7157,W,0.03,50.55,300312,,,D*4F
$GPGGA,194219.000,3352.2135,N,09831.7156,W,2,09,0.9,292.4,M,-23.7,M,2.8,0000*4D
$GPGSA,A,3,22,32,31,11,30,01,25,20,14,,,,1.9,0.9,1.7*34
$GPRMC,194219.000,A,3352.2135,N,09831.7156,W,0.23,44.95,300312,,,D*45
$GPGGA,194220.000,3352.2136,N,09831.7155,W,2,09,0.9,292.4,M,-23.7,M,3.8,0000*46
$GPGSA,A,3,22,32,31,11,30,01,25,20,14,,,,1.9,0.9,1.7*34
$GPRMC,194220.000,A,3352.2136,N,09831.7155,W,0.24,42.46,300312,,,D*40
$GPGGA,194221.000,3352.2136,N,09831.7155,W,2,09,0.9,292.3,M,-23.7,M,4.8,0000*47
$GPGSA,A,3,22,32,31,11,30,01,25,20,14,,,,1.9,0.9,1.7*34
$GPGSV,3,1,12,31,89,315,34,14,44,051,30,32,40,316,36,22,38,131,35*73
$GPGSV,3,2,12,01,31,287,30,25,26,064,26,11,23,261,23,30,22,167,21*76
$GPGSV,3,3,12,20,13,314,34,12,02,032,,16,00,181,,48,36,230,36*79
$GPRMC,194221.000,A,3352.2136,N,09831.7155,W,0.11,209.46,300312,,,D*7A
$GPGGA,194222.000,3352.2136,N,09831.7155,W,2,09,0.9,292.2,M,-23.7,M,0.8,0000*41
$GPGSA,A,3,22,32,31,11,30,01,25,20,14,,,,1.9,0.9,1.7*34
$GPRMC,194222.000,A,3352.2136,N,09831.7155,W,0.18,150.54,300312,,,D*7C
$GPGGA,194223.000,3352.2135,N,09831.7155,W,2,09,0.9,292.1,M,-23.7,M,0.8,0000*40
$GPGSA,A,3,22,32,31,11,30,01,25,20,14,,,,1.9,0.9,1.7*34
$GPRMC,194223.000,A,3352.2135,N,09831.7155,W,0.09,192.92,300312,,,D*7A
$GPGGA,194224.000,3352.2135,N,09831.7154,W,2,09,0.9,292.1,M,-23.7,M,1.8,0000*47
$GPGSA,A,3,22,32,31,11,30,01,25,20,14,,,,1.9,0.9,1.7*34
$GPRMC,194224.000,A,3352.2135,N,09831.7154,W,0.13,205.55,300312,,,D*71
$GPGGA,194225.000,3352.2136,N,09831.7154,W,2,09,0.9,292.1,M,-23.7,M,2.8,0000*46
$GPGSA,A,3,22,32,31,11,30,01,25,20,14,,,,1.9,0.9,1.7*34
$GPRMC,194225.000,A,3352.2136,N,09831.7154,W,0.14,58.79,300312,,,D*40
$GPGGA,194226.000,3352.2136,N,09831.7153,W,2,09,0.9,292.1,M,-23.7,M,3.8,0000*43
$GPGSA,A,3,22,32,31,11,30,01,25,20,14,,,,1.9,0.9,1.7*34
$GPGSV,3,1,12,31,89,315,34,14,44,051,30,32,40,316,35,22,38,131,35*70
$GPGSV,3,2,12,01,31,287,30,25,26,064,26,11,23,261,24,30,22,167,21*71
$GPGSV,3,3,12,20,13,314,34,12,02,032,,16,00,181,,48,36,230,37*78
$GPRMC,194226.000,A,3352.2136,N,09831.7153,W,0.19,121.30,300312,,,D*7B
$GPGGA,194227.000,3352.2136,N,09831.7153,W,2,09,0.9,292.1,M,-23.7,M,0.8,0000*41
$GPGSA,A,3,22,32,31,11,30,01,25,20,14,,,,1.9,0.9,1.7*34
$GPRMC,194227.000,A,3352.2136,N,09831.7153,W,0.14,73.66,300312,,,D*42
$GPGGA,194228.000,3352.2136,N,09831.7152,W,2,09,0.9,292.1,M,-23.7,M,0.8,0000*4F
$GPGSA,A,3,22,32,31,11,30,01,25,20,14,,,,1.9,0.9,1.7*34
$GPRMC,194228.000,A,3352.2136,N,09831.7152,W,0.26,184.17,300312,,,D*72
$GPGGA,194229.000,3352.2136,N,09831.7152,W,2,09,0.9,292.0,M,-23.7,M,0.8,0000*4F
$GPGSA,A,3,22,32,31,11,30,01,25,20,14,,,,1.9,0.9,1.7*34
$GPRMC,194229.000,A,3352.2136,N,09831.7152,W,0.28,196.89,300312,,,D*79
$GPGGA,194230.000,3352.2135,N,09831.7152,W,2,09,0.9,292.0,M,-23.7,M,1.8,0000*45
$GPGSA,A,3,22,32,31,11,30,01,25,20,14,,,,1.9,0.9,1.7*34
$GPRMC,194230.000,A,3352.2135,N,09831.7152,W,0.16,161.95,300312,,,D*7A
$GPGGA,194231.000,3352.2135,N,09831.7152,W,2,09,0.9,292.0,M,-23.7,M,2.8,0000*47
$GPGSA,A,3,22,32,31,11,30,01,25,20,14,,,,1.9,0.9,1.7*34
$GPGSV,3,1,12,31,89,315,34,14,44,051,30,32,40,316,35,22,38,131,36*73
$GPGSV,3,2,12,01,31,287,30,25,26,064,27,11,23,261,24,30,22,167,21*70
$GPGSV,3,3,12,20,13,314,34,12,02,032,,16,00,181,,48,36,230,37*78
$GPRMC,194231.000,A,3352.2135,N,09831.7152,W,0.12,230.30,300312,,,D*77
$GPGGA,194232.000,3352.2136,N,09831.7152,W,2,09,0.9,292.1,M,-23.7,M,3.8,0000*47
$GPGSA,A,3,22,32,31,11,30,01,25,20,14,,,,1.9,0.9,1.7*34
$GPRMC,194232.000,A,3352.2136,N,09831.7152,W,0.19,36.78,300312,,,D*44
$GPGGA,194233.000,3352.2137,N,09831.7152,W,2,09,0.9,292.1,M,-23.7,M,0.8,0000*44
$GPGSA,A,3,22,32,31,11,30,01,25,20,14,,,,1.9,0.9,1.7*34
$GPRMC,194233.000,A,3352.2137,N,09831.7152,W,0.11,348.34,300312,,,D*7E
$GPGGA,194234.000,3352.2138,N,09831.7151,W,2,09,0.9,292.2,M,-23.7,M,0.8,0000*4C
$GPGSA,A,3,22,32,31,11,30,01,25,20,14,,,,1.9,0.9,1.7*34
$GPRMC,194234.000,A,3352.2138,N,09831.7151,W,0.18,25.71,300312,,,D*45
$GPGGA,194235.000,3352.2139,N,09831.7151,W,2,08,1.0,292.4,M,-23.7,M,0.8,0000*43
$GPGSA,A,3,22,32,31,30,01,25,20,14,,,,,1.9,1.0,1.7*3C
$GPRMC,194235.000,A,3352.2139,N,09831.7151,W,0.29,34.51,300312,,,D*45
$GPGGA,194236.000,3352.2140,N,09831.7150,W,2,08,1.0,292.6,M,-23.7,M,0.8,0000*4D
$GPGSA,A,3,22,32,31,30,01,25,20,14,,,,,1.9,1.0,1.7*3C
$GPGSV,3,1,12,31,89,315,34,14,44,051,30,32,40,316,35,22,38,131,36*73
$GPGSV,3,2,12,01,31,287,30,25,26,064,27,11,23,261,07,30,22,167,23*73
$GPGSV,3,3,12,20,13,314,34,12,02,032,,16,00,181,,48,36,230,38*77
$GPRMC,194236.000,A,3352.2140,N,09831.7150,W,0.23,32.51,300312,,,D*45
$GPGGA,194237.000,3352.2141,N,09831.7149,W,2,08,1.0,292.7,M,-23.7,M,0.8,0000*44
$GPGSA,A,3,22,32,31,30,01,25,20,14,,,,,1.9,1.0,1.7*3C
$GPRMC,194237.000,A,3352.2141,N,09831.7149,W,0.21,37.95,300312,,,D*42
$GPGGA,194238.000,3352.2142,N,09831.7149,W,2,08,1.0,292.9,M,-23.7,M,1.8,0000*47
$GPGSA,A,3,22,32,31,30,01,25,20,14,,,,,1.9,1.0,1.7*3C
$GPRMC,194238.000,A,3352.2142,N,09831.7149,W,0.23,37.83,300312,,,D*4B
$GPGGA,194239.000,3352.2142,N,09831.7148,W,2,08,1.0,292.9,M,-23.7,M,0.8,0000*46
$GPGSA,A,3,22,32,31,30,01,25,20,14,,,,,1.9,1.0,1.7*3C
$GPRMC,194239.000,A,3352.2142,N,09831.7148,W,0.11,146.14,300312,,,D*73
$GPGGA,194240.000,3352.2142,N,09831.7148,W,2,08,1.0,293.0,M,-23.7,M,0.8,0000*40
$GPGSA,A,3,22,32,31,30,01,25,20,14,,,,,1.9,1.0,1.7*3C
$GPRMC,194240.000,A,3352.2142,N,09831.7148,W,0.12,175.55,300312,,,D*7B
$GPGGA,194241.000,3352.2142,N,09831.7148,W,2,08,1.0,293.0,M,-23.7,M,0.8,0000*41
$GPGSA,A,3,22,32,31,30,01,25,20,14,,,,,1.9,1.0,1.7*3C
$GPGSV,3,1,12,31,89,315,35,14,44,051,29,32,40,316,35,22,38,131,36*7A
$GPGSV,3,2,12,01,31,287,30,25,26,064,28,11,23,261,,30,22,167,26*7E
$GPGSV,3,3,12,20,13,314,34,12,02,032,,16,00,181,,48,36,230,37*78
$GPRMC,194241.000,A,3352.2142,N,09831.7148,W,0.05,26.88,300312,,,D*4B
$GPGGA,194242.000,3352.2142,N,09831.7148,W,2,08,1.0,293.0,M,-23.7,M,1.8,0000*43
$GPGSA,A,3,22,32,31,30,01,25,20,14,,,,,1.9,1.0,1.7*3C
$GPRMC,194242.000,A,3352.2142,N,09831.7148,W,0.06,57.93,300312,,,D*47
$GPGGA,194243.000,3352.2142,N,09831.7149,W,2,08,1.0,293.1,M,-23.7,M,0.8,0000*43
$GPGSA,A,3,22,32,31,30,01,25,20,14,,,,,1.9,1.0,1.7*3C
$GPRMC,194243.000,A,3352.2142,N,09831.7149,W,0.02,154.74,300312,,,D*78
$GPGGA,194244.000,3352.2141,N,09831.7149,W,2,08,1.0,293.3,M,-23.7,M,1.8,0000*44
$GPGSA,A,3,22,32,31,30,01,25,20,14,,,,,1.9,1.0,1.7*3C
$GPRMC,194244.000,A,3352.2141,N,09831.7149,W,0.09,34.26,300312,,,D*47
$GPGGA,194245.000,3352.2142,N,09831.7150,W,2,08,1.0,293.3,M,-23.7,M,0.8,0000*4F
$GPGSA,A,3,22,32,31,30,01,25,20,14,,,,,1.9,1.0,1.7*3C
$GPRMC,194245.000,A,3352.2142,N,09831.7150,W,0.22,359.67,300312,,,D*79
$GPGGA,194246.000,3352.2146,N,09831.7148,W,2,08,1.0,292.9,M,-23.7,M,0.8,0000*4A
$GPGSA,A,3,22,32,31,30,01,25,20,14,,,,,1.9,1.0,1.7*3C
$GPGSV,3,1,12,31,89,315,35,14,44,051,28,32,40,316,35,22,38,131,37*7A
$GPGSV,3,2,12,01,31,287,31,25,26,064,29,11,23,261,,30,22,167,25*7D
$GPGSV,3,3,12,20,13,314,34,12,02,032,,16,00,181,,48,36,230,37*78
$GPRMC,194246.000,A,3352.2146,N,09831.7148,W,1.83,359.89,300312,,,D*7D
$GPGGA,194247.000,3352.2157,N,09831.7147,W,2,09,0.9,292.5,M,-23.7,M,0.8,0000*41
$GPGSA,A,3,22,32,31,11,30,01,25,20,14,,,,1.9,0.9,1.7*34
$GPRMC,194247.000,A,3352.2157,N,09831.7147,W,4.57,359.56,300312,,,D*7D
$GPGGA,194248.000,3352.2176,N,09831.7147,W,2,09,0.9,292.1,M,-23.7,M,1.8,0000*48
$GPGSA,A,3,22,32,31,11,30,01,25,20,14,,,,1.9,0.9,1.7*34
$GPRMC,194248.000,A,3352.2176,N,09831.7147,W,7.30,358.61,300312,,,D*76
$GPGGA,194249.000,3352.2203,N,09831.7147,W,2,09,0.9,291.8,M,-23.7,M,0.8,0000*43
$GPGSA,A,3,22,32,31,11,30,01,25,20,14,,,,1.9,0.9,1.7*34
$GPRMC,194249.000,A,3352.2203,N,09831.7147,W,10.18,359.32,300312,,,D*4D
$GPGGA,194250.000,3352.2238,N,09831.7146,W,2,09,0.9,291.7,M,-23.7,M,0.8,0000*4D
$GPGSA,A,3,22,32,31,11,30,01,25,20,14,,,,1.9,0.9,1.7*34
$GPRMC,194250.000,A,3352.2238,N,09831.7146,W,12.94,0.60,300312,,,D*42
$GPGGA,194251.000,3352.2277,N,09831.7146,W,2,09,0.9,291.6,M,-23.7,M,0.8,0000*46
$GPGSA,A,3,22,32,31,11,30,01,25,20,14,,,,1.9,0.9,1.7*34
$GPGSV,3,1,12,31,89,315,35,14,44,051,29,32,40,316,35,22,38,131,36*7A
$GPGSV,3,2,12,01,31,287,33,25,26,064,30,11,23,261,20,30,22,167,20*70
$GPGSV,3,3,12,20,13,314,34,12,02,032,,16,00,181,,48,36,230,36*79
$GPRMC,194251.000,A,3352.2277,N,09831.7146,W,13.72,0.36,300312,,,D*42
$GPGGA,194252.000,3352.2318,N,09831.7146,W,2,09,0.9,291.4,M,-23.7,M,0.8,0000*4F
$GPGSA,A,3,22,32,31,11,30,01,25,20,14,,,,1.9,0.9,1.7*34
$GPRMC,194252.000,A,3352.2318,N,09831.7146,W,15.11,359.98,300312,,,D*41
$GPGGA,194253.000,3352.2363,N,09831.7147,W,2,09,0.9,291.7,M,-23.7,M,1.8,0000*41
$GPGSA,A,3,22,32,31,11,30,01,25,20,14,,,,1.9,0.9,1.7*34
$GPRMC,194253.000,A,3352.2363,N,09831.7147,W,15.72,357.24,300312,,,D*41
$GPGGA,194254.000,3352.2412,N,09831.7148,W,2,09,0.9,292.1,M,-23.7,M,2.8,0000*4E
$GPGSA,A,3,22,32,31,11,30,01,25,20,14,,,,1.9,0.9,1.7*34
$GPRMC,194254.000,A,3352.2412,N,09831.7148,W,16.97,355.94,300312,,,D*49
$GPGGA,194255.000,3352.2464,N,09831.7156,W,2,09,0.9,292.8,M,-23.7,M,3.8,0000*49
$GPGSA,A,3,22,32,31,11,30,01,25,20,14,,,,1.9,0.9,1.7*34
$GPRMC,194255.000,A,3352.2464,N,09831.7156,W,18.59,352.39,300312,,,D*4A
$GPGGA,194256.000,3352.2516,N,09831.7168,W,2,09,0.9,293.0,M,-23.7,M,4.8,0000*4D
$GPGSA,A,3,22,32,31,11,30,01,25,20,14,,,,1.9,0.9,1.7*34
$GPGSV,3,1,12,31,88,001,36,14,43,052,24,32,42,316,34,22,36,132,26*78
$GPGSV,3,2,12,01,31,285,33,25,25,062,25,30,23,167,22,11,23,260,30*70
$GPGSV,3,3,12,20,14,314,25,16,01,181,21,12,01,031,,48,36,230,36*7C
$GPRMC,194256.000,A,3352.2516,N,09831.7168,W,19.59,349.31,300312,,,D*43
$GPGGA,194257.000,3352.2573,N,09831.7182,W,2,09,0.9,293.0,M,-23.7,M,0.8,0000*4F
$GPGSA,A,3,22,32,31,11,30,01,25,20,14,,,,1.9,0.9,1.7*34
$GPRMC,194257.000,A,3352.2573,N,09831.7182,W,21.22,346.05,300312,,,D*4A
$GPGGA,194258.000,3352.2632,N,09831.7204,W,2,08,1.0,292.9,M,-23.7,M,0.8,0000*4A
$GPGSA,A,3,22,32,31,30,01,25,20,14,,,,,1.9,1.0,1.7*3C
$GPRMC,194258.000,A,3352.2632,N,09831.7204,W,22.70,340.01,300312,,,D*48
$GPGGA,194259.000,3352.2693,N,09831.7236,W,2,09,0.9,292.8,M,-23.7,M,0.8,0000*49
$GPGSA,A,3,22,32,31,11,30,01,25,20,14,,,,1.9,0.9,1.7*34
$GPRMC,194259.000,A,3352.2693,N,09831.7236,W,24.08,333.10,300312,,,D*4E
$GPGGA,194300.000,3352.2752,N,09831.7279,W,2,09,0.9,292.8,M,-23.7,M,1.8,0000*42
$GPGSA,A,3,22,32,31,11,30,01,25,20,14,,,,1.9,0.9,1.7*34
$GPRMC,194300.000,A,3352.2752,N,09831.7279,W,25.02,325.88,300312,,,D*49
$GPGGA,194301.000,3352.2818,N,09831.7335,W,2,09,0.9,294.0,M,-23.7,M,2.8,0000*46
$GPGSA,A,3,22,32,31,11,30,01,25,20,14,,,,1.9,0.9,1.7*34
$GPGSV,3,1,12,31,88,001,36,14,43,052,34,32,42,316,30,22,36,132,31*7B
$GPGSV,3,2,12,01,31,285,29,25,25,062,29,30,23,167,26,11,23,260,31*72
$GPGSV,3,3,12,20,14,314,22,16,01,181,,12,01,031,,48,36,230,38*76
$GPRMC,194301.000,A,3352.2818,N,09831.7335,W,25.94,319.07,300312,,,D*47
$GPGGA,194302.000,3352.2875,N,09831.7400,W,2,08,1.1,294.4,M,-23.7,M,3.8,0000*42
$GPGSA,A,3,22,32,31,11,01,25,20,14,,,,,2.1,1.1,1.8*3A
$GPRMC,194302.000,A,3352.2875,N,09831.7400,W,26.78,312.83,300312,,,D*48
$GPGGA,194303.000,3352.2929,N,09831.7471,W,2,08,1.1,294.8,M,-23.7,M,0.8,0000*42
$GPGSA,A,3,22,32,31,11,01,25,20,14,,,,,2.1,1.1,1.8*3A
$GPRMC,194303.000,A,3352.2929,N,09831.7471,W,27.10,308.71,300312,,,D*4E
$GPGGA,194304.000,3352.2977,N,09831.7543,W,2,09,0.9,294.9,M,-23.7,M,0.8,0000*47
$GPGSA,A,3,22,32,31,11,30,01,25,20,14,,,,1.9,0.9,1.7*34
$GPRMC,194304.000,A,3352.2977,N,09831.7543,W,25.97,308.17,300312,,,D*4F
$GPGGA,194305.000,3352.3021,N,09831.7610,W,2,08,1.0,294.8,M,-23.7,M,0.8,0000*40
$GPGSA,A,3,32,31,11,30,01,25,20,14,,,,,1.9,1.0,1.7*3C
$GPRMC,194305.000,A,3352.3021,N,09831.7610,W,24.72,308.94,300312,,,D*41
$GPGGA,194306.000,3352.3064,N,09831.7672,W,2,09,0.9,294.9,M,-23.7,M,1.8,0000*4F
$GPGSA,A,3,22,32,31,11,30,01,25,20,14,,,,1.9,0.9,1.7*34
$GPGSV,3,1,12,31,87,002,33,14,43,052,27,32,42,316,29,22,36,132,35*7C
$GPGSV,3,2,12,01,31,285,31,25,25,062,22,30,23,167,22,11,23,260,32*77
$GPGSV,3,3,12,20,15,314,27,16,01,181,,12,01,031,,48,36,230,37*7D
$GPRMC,194306.000,A,3352.3064,N,09831.7672,W,23.77,311.04,300312,,,D*44
$GPGGA,194307.000,3352.3109,N,09831.7730,W,2,09,0.9,295.1,M,-23.7,M,2.8,0000*49
$GPGSA,A,3,22,32,31,11,30,01,25,20,14,,,,1.9,0.9,1.7*34
$GPRMC,194307.000,A,3352.3109,N,09831.7730,W,24.16,315.11,300312,,,D*48
$GPGGA,194308.000,3352.3161,N,09831.7784,W,2,09,0.9,295.2,M,-23.7,M,0.8,0000*46
$GPGSA,A,3,22,32,31,11,30,01,25,20,14,,,,1.9,0.9,1.7*34
$GPRMC,194308.000,A,3352.3161,N,09831.7784,W,24.47,320.42,300312,,,D*42
$GPGGA,194309.000,3352.3220,N,09831.7831,W,2,09,0.9,295.2,M,-23.7,M,0.8,0000*40
$GPGSA,A,3,22,32,31,11,30,01,25,20,14,,,,1.9,0.9,1.7*34
$GPRMC,194309.000,A,3352.3220,N,09831.7831,W,25.55,327.50,300312,,,D*42
$GPGGA,194310.000,3352.3285,N,09831.7871,W,2,09,0.9,294.9,M,-23.7,M,1.8,0000*48
$GPGSA,A,3,22,32,31,11,30,01,25,20,14,,,,1.9,0.9,1.7*34
$GPRMC,194310.000,A,3352.3285,N,09831.7871,W,26.30,335.34,300312,,,D*40
$GPGGA,194311.000,3352.3358,N,09831.7902,W,2,09,0.9,294.9,M,-23.7,M,2.8,0000*4E
$GPGSA,A,3,22,32,31,11,30,01,25,20,14,,,,1.9,0.9,1.7*34
$GPGSV,3,1,12,31,87,002,36,14,43,052,33,32,42,316,35,22,36,132,33*77
$GPGSV,3,2,12,01,31,285,35,25,25,062,29,30,23,167,25,11,23,260,32*7F
$GPGSV,3,3,12,20,15,314,29,16,01,181,,12,01,031,,48,36,230,36*72
$GPRMC,194311.000,A,3352.3358,N,09831.7902,W,27.80,342.64,300312,,,D*4A
$GPGGA,194312.000,3352.3438,N,09831.7921,W,2,09,0.9,294.7,M,-23.7,M,3.8,0000*42
$GPGSA,A,3,22,32,31,11,30,01,25,20,14,,,,1.9,0.9,1.7*34
$GPRMC,194312.000,A,3352.3438,N,09831.7921,W,27.83,350.38,300312,,,D*40
$GPGGA,194313.000,3352.3517,N,09831.7932,W,2,09,0.9,295.1,M,-23.7,M,4.8,0000*4D
$GPGSA,A,3,22,32,31,11,30,01,25,20,14,,,,1.9,0.9,1.7*34
$GPRMC,194313.000,A,3352.3517,N,09831.7932,W,27.85,356.18,300312,,,D*4D
$GPGGA,194314.000,3352.3597,N,09831.7934,W,2,09,0.9,295.1,M,-23.7,M,5.8,0000*45
$GPGSA,A,3,22,32,31,11,30,01,25,20,14,,,,1.9,0.9,1.7*34
$GPRMC,194314.000,A,3352.3597,N,09831.7934,W,28.60,359.98,300312,,,D*47
$GPGGA,194315.000,3352.3678,N,09831.7933,W,2,09,0.9,295.1,M,-23.7,M,0.8,0000*44
$GPGSA,A,3,22,32,31,11,30,01,25,20,14,,,,1.9,0.9,1.7*34
$GPRMC,194315.000,A,3352.3678,N,09831.7933,W,28.59,0.69,300312,,,D*48
$GPGGA,194316.000,3352.3758,N,09831.7932,W,2,09,0.9,295.0,M,-23.7,M,0.8,0000*44
$GPGSA,A,3,22,32,31,11,30,01,25,20,14,,,,1.9,0.9,1.7*34
$GPGSV,3,1,12,31,87,002,36,14,43,052,23,32,42,316,28,22,36,132,32*7B
$GPGSV,3,2,12,01,31,285,33,25,25,062,28,30,23,167,15,11,23,260,22*7A
$GPGSV,3,3,12,20,15,314,30,16,01,181,,12,01,031,,48,36,230,33*7F
$GPRMC,194316.000,A,3352.3758,N,09831.7932,W,28.47,359.84,300312,,,D*4A
$GPGGA,194317.000,3352.3840,N,09831.7930,W,2,09,0.9,295.2,M,-23.7,M,0.8,0000*43
$GPGSA,A,3,22,32,31,11,30,01,25,20,14,,,,1.9,0.9,1.7*34
$GPRMC,194317.000,A,3352.3840,N,09831.7930,W,29.36,0.15,300312,,,D*4F
$GPGGA,194318.000,3352.3923,N,09831.7930,W,2,09,0.9,295.2,M,-23.7,M,1.8,0000*49
$GPGSA,A,3,22,32,31,11,30,01,25,20,14,,,,1.9,0.9,1.7*34
$GPRMC,194318.000,A,3352.3923,N,09831.7930,W,29.45,359.33,300312,,,D*4B
$GPGGA,194319.000,3352.4006,N,09831.7931,W,2,09,0.9,295.4,M,-23.7,M,2.8,0000*45
$GPGSA,A,3,22,32,31,11,30,01,25,20,14,,,,1.9,0.9,1.7*34
$GPRMC,194319.000,A,3352.4006,N,09831.7931,W,30.34,359.70,300312,,,D*4B
$GPGGA,194320.000,3352.4090,N,09831.7932,W,2,09,0.9,295.7,M,-23.7,M,3.8,0000*41
$GPGSA,A,3,22,32,31,11,30,01,25,20,14,,,,1.9,0.9,1.7*34
$GPRMC,194320.000,A,3352.4090,N,09831.7932,W,30.13,359.76,300312,,,D*4E
$GPGGA,194321.000,3352.4176,N,09831.7931,W,2,09,0.9,295.8,M,-23.7,M,0.8,0000*46
$GPGSA,A,3,22,32,31,11,30,01,25,20,14,,,,1.9,0.9,1.7*34
$GPGSV,3,1,12,31,87,002,37,14,43,052,29,32,42,316,29,22,36,132,33*70
$GPGSV,3,2,12,01,31,285,32,25,25,062,24,30,23,167,19,11,23,260,24*7D
$GPGSV,3,3,12,20,15,314,30,16,01,181,27,12,01,031,,48,36,230,33*7A
$GPRMC,194321.000,A,3352.4176,N,09831.7931,W,30.14,0.86,300312,,,D*42
$GPGGA,194322.000,3352.4262,N,09831.7927,W,2,09,0.9,296.1,M,-23.7,M,0.8,0000*4E
$GPGSA,A,3,22,32,31,11,30,01,25,20,14,,,,1.9,0.9,1.7*34
$GPRMC,194322.000,A,3352.4262,N,09831.7927,W,30.09,0.74,300312,,,D*41
$GPGGA,194323.000,3352.4348,N,09831.7925,W,2,09,0.9,296.3,M,-23.7,M,0.8,0000*46
$GPGSA,A,3,22,32,31,11,30,01,25,20,14,,,,1.9,0.9,1.7*34
$GPRMC,194323.000,A,3352.4348,N,09831.7925,W,30.03,0.13,300312,,,D*40
$GPGGA,194324.000,3352.4433,N,09831.7925,W,2,09,0.9,296.5,M,-23.7,M,0.8,0000*4C
$GPGSA,A,3,22,32,31,11,30,01,25,20,14,,,,1.9,0.9,1.7*34
$GPRMC,194324.000,A,3352.4433,N,09831.7925,W,30.17,359.67,300312,,,D*45
$GPGGA,194325.000,3352.4519,N,09831.7926,W,2,09,0.9,296.6,M,-23.7,M,1.8,0000*45
$GPGSA,A,3,22,32,31,11,30,01,25,20,14,,,,1.9,0.9,1.7*34
$GPRMC,194325.000,A,3352.4519,N,09831.7926,W,31.33,0.10,300312,,,D*46
$GPGGA,194326.000,3352.4605,N,09831.7930,W,2,09,0.9,297.0,M,-23.7,M,2.8,0000*4B
$GPGSA,A,3,22,32,31,11,30,01,25,20,14,,,,1.9,0.9,1.7*34
$GPGSV,3,1,12,31,87,002,38,14,43,052,22,32,42,316,23,22,36,132,31*7C
$GPGSV,3,2,12,01,31,285,30,25,25,062,33,30,23,167,26,11,23,260,22*73
$GPGSV,3,3,12,20,15,314,30,16,01,181,20,12,01,031,,48,36,230,35*7B
$GPRMC,194326.000,A,3352.4605,N,09831.7930,W,31.00,357.29,300312,,,D*47
$GPGGA,194327.000,3352.4689,N,09831.7941,W,2,09,0.9,297.0,M,-23.7,M,0.8,0000*4A
$GPGSA,A,3,22,32,31,11,30,01,25,20,14,,,,1.9,0.9,1.7*34
$GPRMC,194327.000,A,3352.4689,N,09831.7941,W,30.94,352.95,300312,,,D*4A
$GPGGA,194328.000,3352.4772,N,09831.7961,W,2,08,1.0,297.2,M,-23.7,M,0.8,0000*49
$GPGSA,A,3,32,31,11,30,01,25,20,14,,,,,1.9,1.0,1.7*3C
$GPRMC,194328.000,A,3352.4772,N,09831.7961,W,30.04,345.79,300312,,,D*4F
$GPGGA,194329.000,3352.4850,N,09831.7992,W,2,08,1.0,296.9,M,-23.7,M,0.8,0000*41
$GPGSA,A,3,32,31,11,30,01,25,20,14,,,,,1.9,1.0,1.7*3C
$GPRMC,194329.000,A,3352.4850,N,09831.7992,W,29.39,339.24,300312,,,D*48
$GPGGA,194330.000,3352.4922,N,09831.8031,W,2,07,1.1,296.7,M,-23.7,M,1.8,0000*43
$GPGSA,A,3,32,31,11,30,01,25,14,,,,,,2.3,1.1,2.0*32
$GPRMC,194330.000,A,3352.4922,N,09831.8031,W,27.84,333.39,300312,,,D*45
$GPGGA,194331.000,3352.4986,N,09831.8074,W,2,08,1.0,296.7,M,-23.7,M,2.8,0000*40
$GPGSA,A,3,22,32,31,11,30,01,25,14,,,,,2.2,1.0,2.0*32
$GPGSV,3,1,12,31,87,002,38,14,43,052,32,32,42,316,32,22,36,132,25*78
$GPGSV,3,2,12,01,31,285,27,25,25,062,33,30,23,167,28,11,23,260,32*7A
$GPGSV,3,3,12,20,15,314,,16,01,181,16,12,01,031,,48,36,230,27*7E
$GPRMC,194331.000,A,3352.4986,N,09831.8074,W,25.49,329.36,300312,,,D*4C
$GPGGA,194332.000,3352.5041,N,09831.8116,W,2,09,0.9,296.8,M,-23.7,M,3.8,0000*42
$GPGSA,A,3,22,32,31,11,30,01,25,20,14,,,,1.9,0.9,1.7*34
$GPRMC,194332.000,A,3352.5041,N,09831.8116,W,22.54,326.34,300312,,,D*4F
$GPGGA,194333.000,3352.5087,N,09831.8155,W,2,08,1.0,296.8,M,-23.7,M,0.8,0000*44
$GPGSA,A,3,22,32,31,11,30,01,25,14,,,,,2.2,1.0,2.0*32
$GPRMC,194333.000,A,3352.5087,N,09831.8155,W,19.57,324.37,300312,,,D*49
$GPGGA,194334.000,3352.5122,N,09831.8188,W,2,08,1.0,296.9,M,-23.7,M,0.8,0000*4C
$GPGSA,A,3,22,32,31,11,30,01,25,14,,,,,2.2,1.0,2.0*32
$GPRMC,194334.000,A,3352.5122,N,09831.8188,W,15.81,324.23,300312,,,D*42
$GPGGA,194335.000,3352.5138,N,09831.8207,W,2,08,1.0,296.5,M,-23.7,M,0.8,0000*4E
$GPGSA,A,3,22,32,31,11,30,01,25,14,,,,,2.2,1.0,2.0*32
$GPRMC,194335.000,A,3352.5138,N,09831.8207,W,10.28,324.01,300312,,,D*4A
$GPGGA,194336.000,3352.5144,N,09831.8217,W,2,08,1.0,296.2,M,-23.7,M,1.8,0000*41
$GPGSA,A,3,22,32,31,11,30,01,25,14,,,,,2.2,1.0,2.0*32
$GPGSV,3,1,12,31,87,002,38,14,43,052,27,32,42,316,33,22,36,132,33*7A
$GPGSV,3,2,12,01,31,285,27,25,25,062,25,30,23,167,30,11,23,260,30*76
$GPGSV,3,3,12,20,15,314,,16,01,181,14,12,01,031,,48,36,230,37*7D
$GPRMC,194336.000,A,3352.5144,N,09831.8217,W,4.73,322.66,300312,,,D*7F
$GPGGA,194337.000,3352.5149,N,09831.8224,W,2,08,1.0,295.9,M,-23.7,M,2.8,0000*46
$GPGSA,A,3,22,32,31,11,30,01,25,14,,,,,2.2,1.0,2.0*32
$GPRMC,194337.000,A,3352.5149,N,09831.8224,W,1.12,323.68,300312,,,D*7E
$GPGGA,194338.000,3352.5148,N,09831.8225,W,2,08,1.0,295.8,M,-23.7,M,3.8,0000*49
$GPGSA,A,3,22,32,31,11,30,01,25,14,,,,,2.2,1.0,2.0*32
$GPRMC,194338.000,A,3352.5148,N,09831.8225,W,0.08,324.04,300312,,,D*76
$GPGGA,194339.000,3352.5146,N,09831.8224,W,2,08,1.0,295.7,M,-23.7,M,0.8,0000*4B
$GPGSA,A,3,22,32,31,11,30,01,25,14,,,,,2.2,1.0,2.0*32
$GPRMC,194339.000,A,3352.5146,N,09831.8224,W,0.09,85.39,300312,,,D*4F
$GPGGA,194340.000,3352.5144,N,09831.8223,W,2,08,1.0,295.5,M,-23.7,M,0.8,0000*42
$GPGSA,A,3,22,32,31,11,30,01,25,14,,,,,2.2,1.0,2.0*32
$GPRMC,194340.000,A,3352.5144,N,09831.8223,W,0.19,48.94,300312,,,D*43
$GPGGA,194341.000,3352.5143,N,09831.8223,W,2,08,1.0,295.4,M,-23.7,M,0.8,0000*45
$GPGSA,A,3,22,32,31,11,30,01,25,14,,,,,2.2,1.0,2.0*32
$GPGSV,3,1,12,31,87,002,34,14,43,052,27,32,42,316,34,22,36,132,34*76
$GPGSV,3,2,12,01,31,285,28,25,25,062,26,30,23,167,32,11,23,260,31*79
$GPGSV,3,3,12,20,15,314,,16,01,181,14,12,01,031,,48,36,230,37*7D
$GPRMC,194341.000,A,3352.5143,N,09831.8223,W,0.03,281.15,300312,,,D*70
$GPGGA,194342.000,3352.5142,N,09831.8222,W,2,08,1.0,295.2,M,-23.7,M,0.8,0000*40
$GPGSA,A,3,22,32,31,11,30,01,25,14,,,,,2.2,1.0,2.0*32
$GPRMC,194342.000,A,3352.5142,N,09831.8222,W,0.05,284.40,300312,,,D*70
$GPGGA,194343.000,3352.5141,N,09831.8222,W,2,08,1.0,295.1,M,-23.7,M,1.8,0000*40
$GPGSA,A,3,22,32,31,11,30,01,25,14,,,,,2.2,1.0,2.0*32
$GPRMC,194343.000,A,3352.5141,N,09831.8222,W,0.17,310.38,300312,,,D*72
$GPGGA,194344.000,3352.5141,N,09831.8223,W,2,08,1.0,295.0,M,-23.7,M,2.8,0000*44
$GPGSA,A,3,22,32,31,11,30,01,25,14,,,,,2.2,1.0,2.0*32
$GPRMC,194344.000,A,3352.5141,N,09831.8223,W,0.62,303.28,300312,,,D*75
$GPGGA,194345.000,3352.5142,N,09831.8226,W,2,08,1.0,295.0,M,-23.7,M,0.8,0000*41
$GPGSA,A,3,22,32,31,11,30,01,25,14,,,,,2.2,1.0,2.0*32
$GPRMC,194345.000,A,3352.5142,N,09831.8226,W,1.21,312.79,300312,,,D*70
$GPGGA,194346.000,3352.5144,N,09831.8228,W,2,09,0.9,294.9,M,-23.7,M,0.8,0000*4B
$GPGSA,A,3,22,32,31,11,30,01,25,20,14,,,,1.9,0.9,1.7*34
$GPGSV,3,1,12,31,87,002,35,14,43,052,27,32,42,316,33,22,36,132,34*70
$GPGSV,3,2,12,01,31,285,29,25,25,062,19,30,23,167,32,11,23,260,31*74
$GPGSV,3,3,12,20,15,314,21,16,01,181,13,12,01,031,,48,36,230,37*79
$GPRMC,194346.000,A,3352.5144,N,09831.8228,W,1.40,318.41,300312,,,D*7D
$GPGGA,194347.000,3352.5147,N,09831.8231,W,2,09,0.9,294.7,M,-23.7,M,0.8,0000*4F
$GPGSA,A,3,22,32,31,11,30,01,25,20,14,,,,1.9,0.9,1.7*34
$GPRMC,194347.000,A,3352.5147,N,09831.8231,W,1.26,324.21,300312,,,D*7E
$GPGGA,194348.000,3352.5148,N,09831.8232,W,2,09,0.9,294.7,M,-23.7,M,1.8,0000*4D
$GPGSA,A,3,22,32,31,11,30,01,25,20,14,,,,1.9,0.9,1.7*34
$GPRMC,194348.000,A,3352.5148,N,09831.8232,W,0.71,330.20,300312,,,D*7A
$GPGGA,194349.000,3352.5148,N,09831.8233,W,2,09,0.9,294.7,M,-23.7,M,2.8,0000*4E
$GPGSA,A,3,22,32,31,11,30,01,25,20,14,,,,1.9,0.9,1.7*34
$GPRMC,194349.000,A,3352.5148,N,09831.8233,W,0.10,19.62,300312,,,D*43
$GPGGA,194350.000,3352.5147,N,09831.8232,W,2,09,0.9,294.9,M,-23.7,M,3.8,0000*47
$GPGSA,A,3,22,32,31,11,30,01,25,20,14,,,,1.9,0.9,1.7*34
$GPRMC,194350.000,A,3352.5147,N,09831.8232,W,0.12,124.82,300312,,,D*76
$GPGGA,194351.000,3352.5147,N,09831.8232,W,2,09,0.9,294.8,M,-23.7,M,0.8,0000*44
$GPGSA,A,3,22,32,31,11,30,01,25,20,14,,,,1.9,0.9,1.7*34
$GPGSV,3,1,12,31,87,002,35,14,43,052,26,32,42,316,34,22,36,132,34*76
$GPGSV,3,2,12,01,31,285,29,25,25,062,28,30,23,167,33,11,23,260,32*74
$GPGSV,3,3,12,20,15,314,20,16,01,181,,12,01,031,,48,36,230,38*75
$GPRMC,194351.000,A,3352.5147,N,09831.8232,W,0.04,309.95,300312,,,D*7B
$GPGGA,194352.000,3352.5146,N,09831.8231,W,2,09,0.9,294.7,M,-23.7,M,0.8,0000*4A
$GPGSA,A,3,22,32,31,11,30,01,25,20,14,,,,1.9,0.9,1.7*34
$GPRMC,194352.000,A,3352.5146,N,09831.8231,W,0.08,298.65,300312,,,D*70
$GPGGA,194353.000,3352.5146,N,09831.8231,W,2,09,0.9,294.7,M,-23.7,M,0.8,0000*4B
$GPGSA,A,3,22,32,31,11,30,01,25,20,14,,,,1.9,0.9,1.7*34
$GPRMC,194353.000,A,3352.5146,N,09831.8231,W,0.03,134.67,300312,,,D*7D
$GPGGA,194354.000,3352.5146,N,09831.8231,W,2,09,0.9,294.7,M,-23.7,M,0.8,0000*4C
$GPGSA,A,3,22,32,31,11,30,01,25,20,14,,,,1.9,0.9,1.7*34
$GPRMC,194354.000,A,3352.5146,N,09831.8231,W,0.07,356.28,300312,,,D*73
$GPGGA,194355.000,3352.5145,N,09831.8230,W,2,08,1.0,294.7,M,-23.7,M,1.8,0000*47
$GPGSA,A,3,22,32,31,11,30,01,25,14,,,,,2.2,1.0,2.0*32
$GPRMC,194355.000,A,3352.5145,N,09831.8230,W,0.03,283.25,300312,,,D*70
$GPGGA,194356.000,3352.5145,N,09831.8230,W,2,08,1.0,294.7,M,-23.7,M,2.8,0000*47
$GPGSA,A,3,22,32,31,11,30,01,25,14,,,,,2.2,1.0,2.0*32
$GPGSV,3,1,12,31,87,002,36,14,43,052,26,32,42,316,34,22,36,132,33*72
$GPGSV,3,2,12,01,31,285,29,25,25,062,28,30,23,167,33,11,23,260,33*75
$GPGSV,3,3,12,20,15,314,07,16,01,181,,12,01,031,,48,36,230,38*70
$GPRMC,194356.000,A,3352.5145,N,09831.8230,W,0.05,347.46,300312,,,D*79
$GPGGA,194357.000,3352.5145,N,09831.8230,W,2,08,1.0,294.6,M,-23.7,M,3.8,0000*46
$GPGSA,A,3,22,32,31,11,30,01,25,14,,,,,2.2,1.0,2.0*32
$GPRMC,194357.000,A,3352.5145,N,09831.8230,W,0.05,283.60,300312,,,D*75
$GPGGA,194358.000,3352.5144,N,09831.8229,W,2,08,1.0,294.6,M,-23.7,M,0.8,0000*43
$GPGSA,A,3,22,32,31,11,30,01,25,14,,,,,2.2,1.0,2.0*32
$GPRMC,194358.000,A,3352.5144,N,09831.8229,W,0.03,19.31,300312,,,D*40
$GPGGA,194359.000,3352.5144,N,09831.8229,W,2,08,1.0,294.7,M,-23.7,M,0.8,0000*43
$GPGSA,A,3,22,32,31,11,30,01,25,14,,,,,2.2,1.0,2.0*32
$GPRMC,194359.000,A,3352.5144,N,09831.8229,W,0.06,125.71,300312,,,D*7E
$GPGGA,194400.000,3352.5143,N,09831.8228,W,2,08,1.0,294.8,M,-23.7,M,1.8,0000*40
$GPGSA,A,3,22,32,31,11,30,01,25,14,,,,,2.2,1.0,2.0*32
$GPRMC,194400.000,A,3352.5143,N,09831.8228,W,0.04,103.99,300312,,,D*73
$GPGGA,194401.000,3352.5143,N,09831.8228,W,2,08,1.0,294.9,M,-23.7,M,0.8,0000*41
$GPGSA,A,3,22,32,31,11,30,01,25,14,,,,,2.2,1.0,2.0*32
$GPGSV,3,1,12,31,87,002,36,14,43,052,27,32,42,316,34,22,36,132,34*74
$GPGSV,3,2,12,01,31,285,28,25,25,062,28,30,23,167,33,11,23,260,33*74
$GPGSV,3,3,12,20,15,314,,16,01,181,,12,01,031,,48,36,230,38*77
$GPRMC,194401.000,A,3352.5143,N,09831.8228,W,0.05,112.28,300312,,,D*79
$GPGGA,194402.000,3352.5143,N,09831.8227,W,2,08,1.0,295.0,M,-23.7,M,0.8,0000*45
$GPGSA,A,3,22,32,31,11,30,01,25,14,,,,,2.2,1.0,2.0*32
$GPRMC,194402.000,A,3352.5143,N,09831.8227,W,0.04,153.57,300312,,,D*79
$GPGGA,194403.000,3352.5142,N,09831.8227,W,2,08,1.0,295.2,M,-23.7,M,0.8,0000*47
$GPGSA,A,3,22,32,31,11,30,01,25,14,,,,,2.2,1.0,2.0*32
$GPRMC,194403.000,A,3352.5142,N,09831.8227,W,0.05,115.19,300312,,,D*70
$GPGGA,194404.000,3352.5142,N,09831.8226,W,2,08,1.0,295.2,M,-23.7,M,0.8,0000*41
$GPGSA,A,3,22,32,31,11,30,01,25,14,,,,,2.2,1.0,2.0*32
$GPRMC,194404.000,A,3352.5142,N,09831.8226,W,0.01,197.54,300312,,,D*71
$GPGGA,194405.000,3352.5142,N,09831.8226,W,2,08,1.0,295.2,M,-23.7,M,0.8,0000*40
$GPGSA,A,3,22,32,31,11,30,01,25,14,,,,,2.2,1.0,2.0*32
$GPRMC,194405.000,A,3352.5142,N,09831.8226,W,0.06,329.51,300312,,,D*75
$GPGGA,194406.000,3352.5142,N,09831.8226,W,2,08,1.0,295.2,M,-23.7,M,1.8,0000*42
$GPGSA,A,3,22,32,31,11,30,01,25,14,,,,,2.2,1.0,2.0*32
$GPGSV,3,1,12,31,87,002,36,14,43,052,28,32,42,316,34,22,36,132,34*7B
$GPGSV,3,2,12,01,31,285,28,25,25,062,28,30,23,167,33,11,23,260,33*74
$GPGSV,3,3,12,20,15,314,,16,01,181,,12,01,031,,48,36,230,38*77
$GPRMC,194406.000,A,3352.5142,N,09831.8226,W,0.06,351.71,300312,,,D*7B
$GPGGA,194407.000,3352.5144,N,09831.8225,W,2,08,1.0,294.8,M,-23.7,M,2.8,0000*4E
$GPGSA,A,3,22,32,31,11,30,01,25,14,,,,,2.2,1.0,2.0*32
$GPRMC,194407.000,A,3352.5144,N,09831.8225,W,0.07,1.60,300312,,,D*78
$GPGGA,194408.000,3352.5144,N,09831.8224,W,2,08,1.0,294.5,M,-23.7,M,3.8,0000*4C
$GPGSA,A,3,22,32,31,11,30,01,25,14,,,,,2.2,1.0,2.0*32
$GPRMC,194408.000,A,3352.5144,N,09831.8224,W,0.10,330.39,300312,,,D*7D
$GPGGA,194409.000,3352.5143,N,09831.8225,W,2,08,1.0,294.7,M,-23.7,M,0.8,0000*4A
$GPGSA,A,3,22,32,31,11,30,01,25,14,,,,,2.2,1.0,2.0*32
$GPRMC,194409.000,A,3352.5143,N,09831.8225,W,0.08,40.47,300312,,,D*4E
