$GPGGA,203152.000,3353.7520,N,09832.0262,W,2,08,1.1,317.8,M,-23.7,M,2.8,0000*40
$GPGSA,A,3,22,20,14,32,25,31,30,16,,,,,2.0,1.1,1.7*31
$GPRMC,203152.000,A,3353.7520,N,09832.0262,W,0.87,93.82,030412,,,D*45
$GPGGA,203153.000,3353.7521,N,09832.0261,W,2,08,1.1,318.0,M,-23.7,M,0.8,0000*46
$GPGSA,A,3,22,20,14,32,25,31,30,16,,,,,2.0,1.1,1.7*31
$GPGSV,3,1,12,32,69,301,19,31,57,031,27,30,51,151,29,20,40,309,20*7C
$GPGSV,3,2,12,16,27,172,34,14,26,082,28,01,23,252,,23,15,293,19*7B
$GPGSV,3,3,12,25,11,039,37,22,10,145,27,11,09,235,,51,49,195,36*7B
$GPRMC,203153.000,A,3353.7521,N,09832.0261,W,0.54,86.85,030412,,,D*4B
$GPGGA,203154.000,3353.7522,N,09832.0262,W,2,08,1.1,318.4,M,-23.7,M,0.8,0000*45
$GPGSA,A,3,22,20,14,32,25,31,30,16,,,,,2.0,1.1,1.7*31
$GPRMC,203154.000,A,3353.7522,N,09832.0262,W,0.15,0.61,030412,,,D*7D
$GPGGA,203155.000,3353.7523,N,09832.0264,W,2,08,1.1,318.7,M,-23.7,M,0.8,0000*40
$GPGSA,A,3,22,20,14,32,25,31,30,16,,,,,2.0,1.1,1.7*31
$GPRMC,203155.000,A,3353.7523,N,09832.0264,W,0.12,1.58,030412,,,D*77
$GPGGA,203156.000,3353.7524,N,09832.0265,W,2,08,1.1,318.9,M,-23.7,M,0.8,0000*4B
$GPGSA,A,3,22,20,14,32,25,31,30,16,,,,,2.0,1.1,1.6*30
$GPRMC,203156.000,A,3353.7524,N,09832.0265,W,0.45,85.19,030412,,,D*49
$GPGGA,203157.000,3353.7525,N,09832.0265,W,2,08,1.1,319.1,M,-23.7,M,1.8,0000*43
$GPGSA,A,3,22,20,14,32,25,31,30,16,,,,,2.0,1.1,1.6*30
$GPRMC,203157.000,A,3353.7525,N,09832.0265,W,0.54,91.55,030412,,,D*44
$GPGGA,203158.000,3353.7525,N,09832.0265,W,2,08,1.1,319.2,M,-23.7,M,0.8,0000*4E
$GPGSA,A,3,22,20,14,32,25,31,30,16,,,,,2.0,1.1,1.6*30
$GPGSV,3,1,12,32,69,301,19,31,57,031,27,30,51,151,28,20,40,309,20*7D
$GPGSV,3,2,12,16,27,172,34,14,26,082,28,01,23,252,,23,15,293,19*7B
$GPGSV,3,3,12,25,11,039,37,22,10,145,26,11,09,235,11,51,49,195,36*7A
$GPRMC,203158.000,A,3353.7525,N,09832.0265,W,0.60,94.60,030412,,,D*4F
$GPGGA,203159.000,3353.7525,N,09832.0265,W,2,08,1.1,319.4,M,-23.7,M,1.8,0000*48
$GPGSA,A,3,22,20,14,32,25,31,30,16,,,,,2.0,1.1,1.6*30
$GPRMC,203159.000,A,3353.7525,N,09832.0265,W,0.59,92.23,030412,,,D*45
$GPGGA,203200.000,3353.7526,N,09832.0266,W,2,08,1.1,319.5,M,-23.7,M,0.8,0000*47
$GPGSA,A,3,22,20,14,32,25,31,30,16,,,,,2.0,1.1,1.6*30
$GPRMC,203200.000,A,3353.7526,N,09832.0266,W,0.43,86.16,030412,,,D*42
$GPGGA,203201.000,3353.7526,N,09832.0268,W,2,08,1.1,319.4,M,-23.7,M,0.8,0000*49
$GPGSA,A,3,22,20,14,32,25,31,30,16,,,,,2.0,1.1,1.6*30
$GPRMC,203201.000,A,3353.7526,N,09832.0268,W,0.12,345.78,030412,,,D*7D
$GPGGA,203202.000,3353.7526,N,09832.0270,W,2,08,1.1,319.2,M,-23.7,M,0.8,0000*45
$GPGSA,A,3,22,20,14,32,25,31,30,16,,,,,2.0,1.1,1.6*30
$GPRMC,203202.000,A,3353.7526,N,09832.0270,W,0.12,7.52,030412,,,D*7A
$GPGGA,203203.000,3353.7527,N,09832.0273,W,2,08,1.1,319.1,M,-23.7,M,1.8,0000*44
$GPGSA,A,3,22,20,14,32,25,31,30,16,,,,,2.0,1.1,1.6*30
$GPGSV,3,1,12,32,69,301,19,31,57,031,27,30,51,151,28,20,40,309,20*7D
$GPGSV,3,2,12,16,27,172,34,14,26,082,28,01,23,252,,23,15,293,19*7B
$GPGSV,3,3,12,25,11,039,37,22,10,145,26,11,09,235,,51,49,195,36*7A
$GPRMC,203203.000,A,3353.7527,N,09832.0273,W,0.13,328.02,030412,,,D*73
$GPGGA,203204.000,3353.7527,N,09832.0274,W,2,09,0.9,319.1,M,-23.7,M,2.8,0000*4F
$GPGSA,A,3,22,20,14,01,32,25,31,30,16,,,,1.7,0.9,1.4*3E
$GPRMC,203204.000,A,3353.7527,N,09832.0274,W,0.21,75.66,030412,,,D*4B
$GPGGA,203205.000,3353.7527,N,09832.0278,W,2,09,0.9,319.1,M,-23.7,M,3.8,0000*43
$GPGSA,A,3,22,20,14,01,32,25,31,30,16,,,,1.7,0.9,1.4*3E
$GPRMC,203205.000,A,3353.7527,N,09832.0278,W,0.16,353.02,030412,,,D*77
$GPGGA,203206.000,3353.7527,N,09832.0281,W,2,09,0.9,319.0,M,-23.7,M,0.8,0000*44
$GPGSA,A,3,22,20,14,01,32,25,31,30,16,,,,1.7,0.9,1.4*3E
$GPRMC,203206.000,A,3353.7527,N,09832.0281,W,0.28,85.72,030412,,,D*40
$GPGGA,203207.000,3353.7528,N,09832.0282,W,2,09,0.9,319.2,M,-23.7,M,0.8,0000*4B
$GPGSA,A,3,22,20,14,01,32,25,31,30,16,,,,1.7,0.9,1.4*3E
$GPRMC,203207.000,A,3353.7528,N,09832.0282,W,0.45,83.20,030412,,,D*47
$GPGGA,203208.000,3353.7528,N,09832.0283,W,2,09,0.9,319.2,M,-23.7,M,0.8,0000*45
$GPGSA,A,3,22,20,14,01,32,25,31,30,16,,,,1.7,0.9,1.4*3E
$GPGSV,3,1,12,32,69,301,20,31,57,031,28,30,51,151,28,20,40,309,20*78
$GPGSV,3,2,12,16,27,172,34,14,26,082,28,01,23,252,19,23,15,293,19*73
$GPGSV,3,3,12,25,11,039,37,22,10,145,25,11,09,235,,51,49,195,36*79
$GPRMC,203208.000,A,3353.7528,N,09832.0283,W,0.27,98.13,030412,,,D*47
$GPGGA,203209.000,3353.7528,N,09832.0285,W,2,09,0.9,319.2,M,-23.7,M,1.8,0000*43
$GPGSA,A,3,22,20,14,01,32,25,31,30,16,,,,1.7,0.9,1.4*3E
$GPRMC,203209.000,A,3353.7528,N,09832.0285,W,0.21,86.19,030412,,,D*43
$GPGGA,203210.000,3353.7528,N,09832.0287,W,2,09,0.9,319.2,M,-23.7,M,2.8,0000*4A
$GPGSA,A,3,22,20,14,01,32,25,31,30,16,,,,1.7,0.9,1.4*3E
$GPRMC,203210.000,A,3353.7528,N,09832.0287,W,0.29,280.01,030412,,,D*7C
$GPGGA,203211.000,3353.7528,N,09832.0290,W,2,09,0.9,319.0,M,-23.7,M,3.8,0000*4E
$GPGSA,A,3,22,20,14,01,32,25,31,30,16,,,,1.7,0.9,1.4*3E
$GPRMC,203211.000,A,3353.7528,N,09832.0290,W,0.34,288.60,030412,,,D*78
$GPGGA,203212.000,3353.7529,N,09832.0293,W,2,09,0.9,319.1,M,-23.7,M,0.8,0000*4D
$GPGSA,A,3,22,20,14,01,32,25,31,30,16,,,,1.7,0.9,1.4*3E
$GPRMC,203212.000,A,3353.7529,N,09832.0293,W,0.57,303.72,030412,,,D*7D
$GPGGA,203213.000,3353.7529,N,09832.0295,W,2,09,0.9,319.0,M,-23.7,M,0.8,0000*4B
$GPGSA,A,3,22,20,14,01,32,25,31,30,16,,,,1.7,0.9,1.4*3E
$GPGSV,3,1,12,32,69,301,20,31,57,031,28,30,51,151,28,20,40,309,19*72
$GPGSV,3,2,12,16,27,172,34,14,26,082,28,01,23,252,19,23,15,293,19*73
$GPGSV,3,3,12,25,11,039,37,22,10,145,24,11,09,235,,51,49,195,38*76
$GPRMC,203213.000,A,3353.7529,N,09832.0295,W,0.13,44.02,030412,,,D*4D
$GPGGA,203214.000,3353.7529,N,09832.0296,W,2,09,0.9,318.9,M,-23.7,M,0.8,0000*47
$GPGSA,A,3,22,20,14,01,32,25,31,30,16,,,,1.7,0.9,1.4*3E
$GPRMC,203214.000,A,3353.7529,N,09832.0296,W,0.14,302.37,030412,,,D*79
$GPGGA,203215.000,3353.7529,N,09832.0298,W,2,08,1.0,318.7,M,-23.7,M,1.8,0000*4E
$GPGSA,A,3,22,14,01,32,25,31,30,16,,,,,1.7,1.0,1.4*34
$GPRMC,203215.000,A,3353.7529,N,09832.0298,W,0.53,293.75,030412,,,D*7A
$GPGGA,203216.000,3353.7529,N,09832.0299,W,2,09,0.9,318.5,M,-23.7,M,2.8,0000*44
$GPGSA,A,3,22,20,14,01,32,25,31,30,16,,,,1.7,0.9,1.4*3E
$GPRMC,203216.000,A,3353.7529,N,09832.0299,W,0.18,46.75,030412,,,D*4D
$GPGGA,203217.000,3353.7529,N,09832.0300,W,2,08,1.0,318.4,M,-23.7,M,0.8,0000*4E
$GPGSA,A,3,22,14,01,32,25,31,30,16,,,,,1.7,1.0,1.4*34
$GPRMC,203217.000,A,3353.7529,N,09832.0300,W,0.28,293.05,030412,,,D*73
$GPGGA,203218.000,3353.7528,N,09832.0302,W,2,09,0.9,318.2,M,-23.7,M,0.8,0000*4D
$GPGSA,A,3,22,20,14,01,32,25,31,30,16,,,,1.7,0.9,1.4*3E
$GPGSV,3,1,12,32,69,301,21,31,57,031,29,30,51,151,27,20,40,309,11*75
$GPGSV,3,2,12,16,27,172,34,14,26,082,28,01,23,252,18,23,15,293,17*7C
$GPGSV,3,3,12,25,11,039,37,22,10,145,24,11,09,235,,51,49,195,36*78
$GPRMC,203218.000,A,3353.7528,N,09832.0302,W,0.27,258.84,030412,,,D*7E
$GPGGA,203219.000,3353.7528,N,09832.0304,W,2,08,1.0,318.1,M,-23.7,M,0.8,0000*40
$GPGSA,A,3,22,14,01,32,25,31,30,16,,,,,1.7,1.0,1.4*34
$GPRMC,203219.000,A,3353.7528,N,09832.0304,W,0.36,290.38,030412,,,D*7A
$GPGGA,203220.000,3353.7528,N,09832.0305,W,2,09,0.9,317.8,M,-23.7,M,0.8,0000*44
$GPGSA,A,3,22,20,14,01,32,25,31,30,16,,,,1.6,0.9,1.4*3F
$GPRMC,203220.000,A,3353.7528,N,09832.0305,W,0.07,225.61,030412,,,D*71
$GPGGA,203221.000,3353.7527,N,09832.0306,W,2,09,0.9,317.4,M,-23.7,M,0.8,0000*45
$GPGSA,A,3,22,20,14,01,32,25,31,30,16,,,,1.6,0.9,1.4*3F
$GPRMC,203221.000,A,3353.7527,N,09832.0306,W,0.20,298.65,030412,,,D*7B
$GPGGA,203222.000,3353.7527,N,09832.0308,W,2,09,0.9,317.3,M,-23.7,M,1.8,0000*4E
$GPGSA,A,3,22,20,14,01,32,25,31,30,16,,,,1.6,0.9,1.4*3F
$GPRMC,203222.000,A,3353.7527,N,09832.0308,W,0.44,276.11,030412,,,D*77
$GPGGA,203223.000,3353.7527,N,09832.0310,W,2,09,0.9,317.2,M,-23.7,M,2.8,0000*44
$GPGSA,A,3,22,20,14,01,32,25,31,30,16,,,,1.6,0.9,1.4*3F
$GPGSV,3,1,12,32,69,301,20,31,57,031,29,30,51,151,28,20,40,309,15*7F
$GPGSV,3,2,12,16,27,172,34,14,26,082,27,01,23,252,17,23,15,293,16*7D
$GPGSV,3,3,12,25,11,039,37,22,10,145,23,11,09,235,,51,49,195,36*7F
$GPRMC,203223.000,A,3353.7527,N,09832.0310,W,0.40,292.24,030412,,,D*77
$GPGGA,203224.000,3353.7527,N,09832.0310,W,2,09,0.9,316.9,M,-23.7,M,0.8,0000*4B
$GPGSA,A,3,22,20,14,01,32,25,31,30,16,,,,1.6,0.9,1.4*3F
$GPRMC,203224.000,A,3353.7527,N,09832.0310,W,0.28,98.63,030412,,,D*45
$GPGGA,203225.000,3353.7526,N,09832.0312,W,2,09,0.9,316.3,M,-23.7,M,0.8,0000*43
$GPGSA,A,3,22,20,14,01,32,25,31,30,16,,,,1.6,0.9,1.4*3F
$GPRMC,203225.000,A,3353.7526,N,09832.0312,W,0.49,289.09,030412,,,D*7E
$GPGGA,203226.000,3353.7526,N,09832.0314,W,2,09,0.9,315.8,M,-23.7,M,0.8,0000*4E
$GPGSA,A,3,22,20,14,01,32,25,31,30,16,,,,1.6,0.9,1.4*3F
$GPRMC,203226.000,A,3353.7526,N,09832.0314,W,0.37,276.70,030412,,,D*7C
$GPGGA,203227.000,3353.7526,N,09832.0316,W,2,09,0.9,315.6,M,-23.7,M,0.8,0000*43
$GPGSA,A,3,22,20,14,01,32,25,31,30,16,,,,1.6,0.9,1.4*3F
$GPRMC,203227.000,A,3353.7526,N,09832.0316,W,0.34,287.39,030412,,,D*7F
$GPGGA,203228.000,3353.7526,N,09832.0317,W,2,09,0.9,315.2,M,-23.7,M,1.8,0000*48
$GPGSA,A,3,22,20,14,01,32,25,31,30,16,,,,1.6,0.9,1.4*3F
$GPGSV,3,1,12,32,69,301,21,31,57,031,30,30,51,151,28,20,40,309,17*74
$GPGSV,3,2,12,16,27,172,34,14,26,082,28,01,23,252,15,23,15,293,16*70
$GPGSV,3,3,12,25,11,039,37,22,10,145,23,11,09,235,,51,49,195,36*7F
$GPRMC,203228.000,A,3353.7526,N,09832.0317,W,0.07,164.16,030412,,,D*72
$GPGGA,203229.000,3353.7525,N,09832.0317,W,2,09,0.9,314.8,M,-23.7,M,2.8,0000*42
$GPGSA,A,3,22,20,14,01,32,25,31,30,16,,,,1.6,0.9,1.4*3F
$GPRMC,203229.000,A,3353.7525,N,09832.0317,W,0.14,153.30,030412,,,D*72
$GPGGA,203230.000,3353.7525,N,09832.0318,W,2,08,1.1,314.5,M,-23.7,M,0.8,0000*42
$GPGSA,A,3,22,20,14,32,25,31,30,16,,,,,2.0,1.1,1.6*30
$GPRMC,203230.000,A,3353.7525,N,09832.0318,W,0.39,294.54,030412,,,D*70
$GPGGA,203231.000,3353.7525,N,09832.0319,W,2,08,1.1,314.3,M,-23.7,M,0.8,0000*44
$GPGSA,A,3,22,20,14,32,25,31,30,16,,,,,2.0,1.1,1.6*30
$GPRMC,203231.000,A,3353.7525,N,09832.0319,W,0.10,350.64,030412,,,D*71
$GPGGA,203232.000,3353.7524,N,09832.0319,W,2,08,1.1,314.1,M,-23.7,M,0.8,0000*44
$GPGSA,A,3,22,20,14,32,25,31,30,16,,,,,2.0,1.1,1.6*30
$GPRMC,203232.000,A,3353.7524,N,09832.0319,W,0.29,105.41,030412,,,D*7C
$GPGGA,203233.000,3353.7524,N,09832.0318,W,2,08,1.1,314.0,M,-23.7,M,1.8,0000*44
$GPGSA,A,3,22,20,14,32,25,31,30,16,,,,,2.0,1.1,1.6*30
$GPGSV,3,1,12,32,69,301,20,31,57,031,31,30,51,151,28,20,40,309,17*74
$GPGSV,3,2,12,16,27,172,34,14,26,082,28,01,23,252,,23,15,293,15*77
$GPGSV,3,3,12,25,11,039,37,22,10,145,22,11,09,235,,51,49,195,36*7E
$GPRMC,203233.000,A,3353.7524,N,09832.0318,W,0.34,102.82,030412,,,D*78
$GPGGA,203234.000,3353.7523,N,09832.0318,W,2,08,1.1,313.6,M,-23.7,M,2.8,0000*46
$GPGSA,A,3,22,20,14,32,25,31,30,16,,,,,2.0,1.1,1.6*30
$GPRMC,203234.000,A,3353.7523,N,09832.0318,W,0.05,107.73,030412,,,D*71
$GPGGA,203235.000,3353.7523,N,09832.0319,W,2,08,1.1,313.5,M,-23.7,M,0.8,0000*47
$GPGSA,A,3,22,20,14,32,25,31,30,16,,,,,2.0,1.1,1.6*30
$GPRMC,203235.000,A,3353.7523,N,09832.0319,W,0.08,131.02,030412,,,D*7F
$GPGGA,203236.000,3353.7523,N,09832.0319,W,2,08,1.1,313.3,M,-23.7,M,0.8,0000*42
$GPGSA,A,3,22,20,14,32,25,31,30,16,,,,,2.0,1.1,1.6*30
$GPRMC,203236.000,A,3353.7523,N,09832.0319,W,0.13,125.35,030412,,,D*77
$GPGGA,203237.000,3353.7522,N,09832.0318,W,2,08,1.1,313.1,M,-23.7,M,0.8,0000*41
$GPGSA,A,3,22,20,14,32,25,31,30,16,,,,,2.0,1.1,1.6*30
$GPRMC,203237.000,A,3353.7522,N,09832.0318,W,0.45,90.53,030412,,,D*4A
$GPGGA,203238.000,3353.7522,N,09832.0317,W,2,08,1.1,313.0,M,-23.7,M,0.8,0000*40
$GPGSA,A,3,22,20,14,32,25,31,30,16,,,,,2.0,1.1,1.6*30
$GPGSV,3,1,12,32,69,301,20,31,57,031,31,30,51,151,29,20,40,309,18*7A
$GPGSV,3,2,12,16,27,172,34,14,26,082,29,01,23,252,,23,15,293,15*76
$GPGSV,3,3,12,25,11,039,37,22,10,145,22,11,09,235,,51,49,195,37*7F
$GPRMC,203238.000,A,3353.7522,N,09832.0317,W,0.47,90.76,030412,,,D*4F
$GPGGA,203239.000,3353.7522,N,09832.0315,W,2,08,1.1,312.9,M,-23.7,M,1.8,0000*4A
$GPGSA,A,3,22,20,14,32,25,31,30,16,,,,,2.0,1.1,1.6*30
$GPRMC,203239.000,A,3353.7522,N,09832.0315,W,0.63,99.68,030412,,,D*4C
$GPGGA,203240.000,3353.7521,N,09832.0314,W,2,08,1.1,312.7,M,-23.7,M,2.8,0000*4B
$GPGSA,A,3,22,20,14,32,25,31,30,16,,,,,2.0,1.1,1.6*30
$GPRMC,203240.000,A,3353.7521,N,09832.0314,W,0.43,103.46,030412,,,D*7C
$GPGGA,203241.000,3353.7521,N,09832.0314,W,2,08,1.1,312.5,M,-23.7,M,3.8,0000*49
$GPGSA,A,3,22,20,14,32,25,31,30,16,,,,,2.0,1.1,1.6*30
$GPRMC,203241.000,A,3353.7521,N,09832.0314,W,0.21,99.08,030412,,,D*41
$GPGGA,203242.000,3353.7521,N,09832.0314,W,2,08,1.1,312.5,M,-23.7,M,0.8,0000*49
$GPGSA,A,3,22,20,14,32,25,31,30,16,,,,,2.0,1.1,1.6*30
$GPRMC,203242.000,A,3353.7521,N,09832.0314,W,0.14,121.30,030412,,,D*7D
$GPGGA,203243.000,3353.7520,N,09832.0314,W,2,08,1.1,312.6,M,-23.7,M,0.8,0000*4A
$GPGSA,A,3,22,20,14,32,25,31,30,16,,,,,2.0,1.1,1.6*30
$GPGSV,3,1,12,32,69,301,21,31,57,031,31,30,51,151,29,20,40,309,17*74
$GPGSV,3,2,12,16,27,172,34,14,26,082,29,01,23,252,,23,15,293,13*70
$GPGSV,3,3,12,25,11,039,37,22,10,145,23,11,09,235,,51,49,195,36*7F
$GPRMC,203243.000,A,3353.7520,N,09832.0314,W,0.16,85.39,030412,,,D*49
$GPGGA,203244.000,3353.7521,N,09832.0313,W,2,08,1.1,312.9,M,-23.7,M,0.8,0000*44
$GPGSA,A,3,22,20,14,32,25,31,30,16,,,,,2.0,1.1,1.6*30
$GPRMC,203244.000,A,3353.7521,N,09832.0313,W,0.26,85.35,030412,,,D*47
$GPGGA,203245.000,3353.7521,N,09832.0312,W,2,08,1.1,313.2,M,-23.7,M,0.8,0000*4E
$GPGSA,A,3,22,20,14,32,25,31,30,16,,,,,2.0,1.1,1.6*30
$GPRMC,203245.000,A,3353.7521,N,09832.0312,W,0.65,98.38,030412,,,D*41
$GPGGA,203246.000,3353.7521,N,09832.0312,W,2,08,1.1,313.2,M,-23.7,M,1.8,0000*4C
$GPGSA,A,3,22,20,14,32,25,31,30,16,,,,,2.0,1.1,1.6*30
$GPRMC,203246.000,A,3353.7521,N,09832.0312,W,0.12,341.54,030412,,,D*7F
$GPGGA,203247.000,3353.7521,N,09832.0312,W,2,08,1.1,313.2,M,-23.7,M,2.8,0000*4E
$GPGSA,A,3,22,20,14,32,25,31,30,16,,,,,2.0,1.1,1.6*30
$GPRMC,203247.000,A,3353.7521,N,09832.0312,W,0.38,99.30,030412,,,D*42
$GPGGA,203248.000,3353.7521,N,09832.0312,W,2,08,1.1,313.3,M,-23.7,M,0.8,0000*42
$GPGSA,A,3,22,20,14,32,25,31,30,16,,,,,2.0,1.1,1.6*30
$GPGSV,3,1,12,32,69,301,21,31,57,031,31,30,51,151,29,20,40,309,17*74
$GPGSV,3,2,12,16,27,172,34,14,26,082,30,01,23,252,,23,15,293,*7A
$GPGSV,3,3,12,25,11,039,37,22,10,145,24,11,09,235,,51,49,195,36*78
$GPRMC,203248.000,A,3353.7521,N,09832.0312,W,0.21,48.89,030412,,,D*4B
$GPGGA,203249.000,3353.7521,N,09832.0312,W,2,08,1.1,313.4,M,-23.7,M,0.8,0000*44
$GPGSA,A,3,22,20,14,32,25,31,30,16,,,,,2.0,1.1,1.6*30
$GPRMC,203249.000,A,3353.7521,N,09832.0312,W,0.25,85.19,030412,,,D*46
$GPGGA,203250.000,3353.7521,N,09832.0313,W,2,08,1.1,313.3,M,-23.7,M,0.8,0000*4A
$GPGSA,A,3,22,20,14,32,25,31,30,16,,,,,2.0,1.1,1.6*30
$GPRMC,203250.000,A,3353.7521,N,09832.0313,W,0.20,89.14,030412,,,D*4B
$GPGGA,203251.000,3353.7521,N,09832.0313,W,2,08,1.1,313.5,M,-23.7,M,0.8,0000*4D
$GPGSA,A,3,22,20,14,32,25,31,30,16,,,,,2.0,1.1,1.6*30
$GPRMC,203251.000,A,3353.7521,N,09832.0313,W,0.14,51.19,030412,,,D*45
$GPGGA,203252.000,3353.7521,N,09832.0314,W,2,08,1.1,313.4,M,-23.7,M,1.8,0000*49
$GPGSA,A,3,22,20,14,32,25,31,30,16,,,,,2.0,1.1,1.6*30
$GPRMC,203252.000,A,3353.7521,N,09832.0314,W,0.14,60.39,030412,,,D*41
$GPGGA,203253.000,3353.7522,N,09832.0314,W,2,08,1.1,313.4,M,-23.7,M,2.8,0000*48
$GPGSA,A,3,22,20,14,32,25,31,30,16,,,,,2.0,1.1,1.6*30
$GPGSV,3,1,12,32,69,301,20,31,57,031,31,30,51,151,29,20,40,309,18*7A
$GPGSV,3,2,12,16,27,172,35,14,26,082,30,01,23,252,,23,15,293,*7B
$GPGSV,3,3,12,25,11,039,37,22,10,145,25,11,09,235,,51,49,195,36*79
$GPRMC,203253.000,A,3353.7522,N,09832.0314,W,0.15,319.31,030412,,,D*77
$GPGGA,203254.000,3353.7522,N,09832.0316,W,2,08,1.1,313.3,M,-23.7,M,0.8,0000*48
$GPGSA,A,3,22,20,14,32,25,31,30,16,,,,,2.0,1.1,1.6*30
$GPRMC,203254.000,A,3353.7522,N,09832.0316,W,0.25,290.84,030412,,,D*7F
$GPGGA,203255.000,3353.7522,N,09832.0317,W,2,09,0.9,313.4,M,-23.7,M,0.8,0000*47
$GPGSA,A,3,22,20,14,01,32,25,31,30,16,,,,1.6,0.9,1.4*3F
$GPRMC,203255.000,A,3353.7522,N,09832.0317,W,0.19,305.58,030412,,,D*7C
$GPGGA,203256.000,3353.7522,N,09832.0319,W,2,09,0.9,313.5,M,-23.7,M,0.8,0000*4B
$GPGSA,A,3,22,20,14,01,32,25,31,30,16,,,,1.6,0.9,1.4*3F
$GPRMC,203256.000,A,3353.7522,N,09832.0319,W,0.31,300.31,030412,,,D*71
$GPGGA,203257.000,3353.7522,N,09832.0320,W,2,09,0.9,313.4,M,-23.7,M,0.8,0000*41
$GPGSA,A,3,22,20,14,01,32,25,31,30,16,,,,1.6,0.9,1.4*3F
$GPRMC,203257.000,A,3353.7522,N,09832.0320,W,0.16,99.88,030412,,,D*4E
$GPGGA,203258.000,3353.7522,N,09832.0320,W,2,09,0.9,313.3,M,-23.7,M,0.8,0000*49
$GPGSA,A,3,22,20,14,01,32,25,31,30,16,,,,1.6,0.9,1.4*3F
$GPGSV,3,1,12,32,69,301,20,31,57,031,31,30,51,151,30,20,40,309,19*73
$GPGSV,3,2,12,16,27,172,35,14,26,082,30,01,23,252,17,23,15,293,*7D
$GPGSV,3,3,12,25,11,039,37,22,10,145,25,11,09,235,,51,49,195,39*76
$GPRMC,203258.000,A,3353.7522,N,09832.0320,W,0.36,101.65,030412,,,D*70
$GPGGA,203259.000,3353.7522,N,09832.0321,W,2,09,0.9,313.2,M,-23.7,M,1.8,0000*49
$GPGSA,A,3,22,20,14,01,32,25,31,30,16,,,,1.6,0.9,1.4*3F
$GPRMC,203259.000,A,3353.7522,N,09832.0321,W,0.23,288.69,030412,,,D*7A
$GPGGA,203300.000,3353.7523,N,09832.0323,W,2,09,0.9,313.1,M,-23.7,M,0.8,0000*45
$GPGSA,A,3,22,20,14,01,32,25,31,30,16,,,,1.6,0.9,1.4*3F
$GPRMC,203300.000,A,3353.7523,N,09832.0323,W,0.64,288.00,030412,,,D*78
$GPGGA,203301.000,3353.7523,N,09832.0324,W,2,09,0.9,312.9,M,-23.7,M,0.8,0000*4A
$GPGSA,A,3,22,20,14,01,32,25,31,30,16,,,,1.6,0.9,1.4*3F
$GPRMC,203301.000,A,3353.7523,N,09832.0324,W,0.27,294.45,030412,,,D*75
$GPGGA,203302.000,3353.7523,N,09832.0325,W,2,09,0.9,312.8,M,-23.7,M,0.8,0000*49
$GPGSA,A,3,22,20,14,01,32,25,31,30,16,,,,1.6,0.9,1.4*3F
$GPRMC,203302.000,A,3353.7523,N,09832.0325,W,0.32,90.88,030412,,,D*44
$GPGGA,203303.000,3353.7523,N,09832.0325,W,2,09,0.9,312.6,M,-23.7,M,1.8,0000*47
$GPGSA,A,3,22,20,14,01,32,25,31,30,16,,,,1.6,0.9,1.4*3F
$GPGSV,3,1,12,32,69,301,20,31,57,031,31,30,51,151,30,20,40,309,20*79
$GPGSV,3,2,12,16,27,172,34,14,26,082,31,01,23,252,15,23,15,293,*7F
$GPGSV,3,3,12,25,11,039,37,22,10,145,25,11,09,235,15,51,49,195,36*7D
$GPRMC,203303.000,A,3353.7523,N,09832.0325,W,0.44,290.21,030412,,,D*75
$GPGGA,203304.000,3353.7524,N,09832.0328,W,2,09,0.9,312.3,M,-23.7,M,2.8,0000*4C
$GPGSA,A,3,22,20,14,01,32,25,31,30,16,,,,1.6,0.9,1.4*3F
$GPRMC,203304.000,A,3353.7524,N,09832.0328,W,0.52,283.39,030412,,,D*74
$GPGGA,203305.000,3353.7524,N,09832.0329,W,2,09,0.9,311.9,M,-23.7,M,3.8,0000*44
$GPGSA,A,3,22,20,14,01,32,25,31,30,16,,,,1.6,0.9,1.4*3F
$GPRMC,203305.000,A,3353.7524,N,09832.0329,W,0.33,276.08,030412,,,D*7B
$GPGGA,203306.000,3353.7524,N,09832.0330,W,2,09,0.9,311.7,M,-23.7,M,0.8,0000*42
$GPGSA,A,3,22,20,14,01,32,25,31,30,16,,,,1.6,0.9,1.4*3F
$GPRMC,203306.000,A,3353.7524,N,09832.0330,W,0.26,107.84,030412,,,D*75
$GPGGA,203307.000,3353.7523,N,09832.0328,W,2,09,0.9,311.7,M,-23.7,M,0.8,0000*4D
$GPGSA,A,3,22,20,14,01,32,25,31,30,16,,,,1.6,0.9,1.4*3F
$GPRMC,203307.000,A,3353.7523,N,09832.0328,W,0.53,98.34,030412,,,D*44
$GPGGA,203308.000,3353.7523,N,09832.0327,W,2,09,0.9,311.8,M,-23.7,M,0.8,0000*42
$GPGSA,A,3,22,20,14,01,32,25,31,30,16,,,,1.6,0.9,1.4*3F
$GPGSV,3,1,12,32,69,301,20,31,57,031,32,30,51,151,30,20,40,309,21*7B
$GPGSV,3,2,12,16,27,172,34,14,26,082,31,01,23,252,14,23,15,293,*7E
$GPGSV,3,3,12,25,11,039,37,22,10,145,25,11,09,235,15,51,49,195,42*7E
$GPRMC,203308.000,A,3353.7523,N,09832.0327,W,0.34,82.82,030412,,,D*43
$GPGGA,203309.000,3353.7523,N,09832.0326,W,2,09,0.9,311.8,M,-23.7,M,1.8,0000*43
$GPGSA,A,3,22,20,14,01,32,25,31,30,16,,,,1.6,0.9,1.4*3F
$GPRMC,203309.000,A,3353.7523,N,09832.0326,W,0.37,87.20,030412,,,D*4D
$GPGGA,203310.000,3353.7523,N,09832.0327,W,2,08,1.1,311.7,M,-23.7,M,2.8,0000*4E
$GPGSA,A,3,22,20,14,32,25,31,30,16,,,,,2.0,1.1,1.6*30
$GPRMC,203310.000,A,3353.7523,N,09832.0327,W,0.08,324.25,030412,,,D*77
$GPGGA,203311.000,3353.7523,N,09832.0328,W,2,08,1.1,311.7,M,-23.7,M,3.8,0000*41
$GPGSA,A,3,22,20,14,32,25,31,30,16,,,,,2.0,1.1,1.6*30
$GPRMC,203311.000,A,3353.7523,N,09832.0328,W,0.28,286.49,030412,,,D*78
$GPGGA,203312.000,3353.7522,N,09832.0322,W,2,07,1.2,312.4,M,-23.7,M,0.8,0000*46
$GPGSA,A,3,20,14,32,25,31,30,16,,,,,,2.3,1.2,1.9*3F
$GPRMC,203312.000,A,3353.7522,N,09832.0322,W,0.12,355.51,030412,,,D*7F
$GPGGA,203313.000,3353.7522,N,09832.0321,W,2,07,1.2,312.4,M,-23.7,M,1.8,0000*45
$GPGSA,A,3,20,14,32,25,31,30,16,,,,,,2.3,1.2,1.9*3F
$GPGSV,3,1,12,32,69,301,21,31,57,031,32,30,51,151,30,20,40,309,22*79
$GPGSV,3,2,12,16,27,172,34,14,26,082,31,01,23,252,,23,15,293,*7B
$GPGSV,3,3,12,25,11,039,37,22,10,145,26,11,09,235,14,51,49,195,36*7F
$GPRMC,203313.000,A,3353.7522,N,09832.0321,W,0.20,71.20,030412,,,D*4F
$GPGGA,203314.000,3353.7521,N,09832.0317,W,2,07,1.2,312.8,M,-23.7,M,0.8,0000*49
$GPGSA,A,3,20,14,32,25,31,30,16,,,,,,2.3,1.2,1.9*3F
$GPRMC,203314.000,A,3353.7521,N,09832.0317,W,0.39,84.50,030412,,,D*4B
$GPGGA,203315.000,3353.7521,N,09832.0315,W,2,07,1.2,312.7,M,-23.7,M,1.8,0000*44
$GPGSA,A,3,20,14,32,25,31,30,16,,,,,,2.3,1.2,1.9*3F
$GPRMC,203315.000,A,3353.7521,N,09832.0315,W,0.42,82.74,030412,,,D*44
$GPGGA,203316.000,3353.7519,N,09832.0307,W,2,07,1.2,313.4,M,-23.7,M,2.8,0000*4E
$GPGSA,A,3,20,14,32,25,31,30,16,,,,,,2.3,1.2,1.9*3F
$GPRMC,203316.000,A,3353.7519,N,09832.0307,W,0.42,82.80,030412,,,D*44
$GPGGA,203317.000,3353.7519,N,09832.0305,W,2,07,1.2,313.3,M,-23.7,M,0.8,0000*48
$GPGSA,A,3,20,14,32,25,31,30,16,,,,,,2.3,1.2,1.9*3F
$GPRMC,203317.000,A,3353.7519,N,09832.0305,W,0.20,50.53,030412,,,D*42
$GPGGA,203318.000,3353.7517,N,09832.0300,W,2,07,1.2,313.9,M,-23.7,M,0.8,0000*46
$GPGSA,A,3,20,14,32,25,31,30,16,,,,,,2.3,1.2,1.9*3F
$GPGSV,3,1,12,32,69,301,21,31,57,031,32,30,51,151,29,20,40,309,22*71
$GPGSV,3,2,12,16,27,172,34,14,26,082,30,01,23,252,,23,15,293,*7A
$GPGSV,3,3,12,25,11,039,37,22,10,145,27,11,09,235,14,51,49,195,36*7E
$GPRMC,203318.000,A,3353.7517,N,09832.0300,W,0.25,300.92,030412,,,D*78
$GPGGA,203319.000,3353.7517,N,09832.0298,W,2,07,1.2,313.7,M,-23.7,M,0.8,0000*49
$GPGSA,A,3,20,14,32,25,31,30,16,,,,,,2.3,1.2,1.9*3F
$GPRMC,203319.000,A,3353.7517,N,09832.0298,W,0.41,292.76,030412,,,D*7B
$GPGGA,203320.000,3353.7516,N,09832.0296,W,2,07,1.2,314.2,M,-23.7,M,0.8,0000*4E
$GPGSA,A,3,20,14,32,25,31,30,16,,,,,,2.3,1.2,1.9*3F
$GPRMC,203320.000,A,3353.7516,N,09832.0296,W,0.23,296.60,030412,,,D*79
$GPGGA,203321.000,3353.7515,N,09832.0293,W,2,07,1.2,313.8,M,-23.7,M,1.8,0000*45
$GPGSA,A,3,20,14,32,25,31,30,16,,,,,,2.3,1.2,1.9*3F
$GPRMC,203321.000,A,3353.7515,N,09832.0293,W,0.36,290.38,030412,,,D*71
$GPGGA,203322.000,3353.7512,N,09832.0285,W,2,08,0.9,314.6,M,-23.7,M,0.8,0000*4B
$GPGSA,A,3,20,14,01,32,25,31,30,16,,,,,1.8,0.9,1.5*30
$GPRMC,203322.000,A,3353.7512,N,09832.0285,W,0.10,254.13,030412,,,D*77
$GPGGA,203323.000,3353.7511,N,09832.0282,W,2,08,0.9,315.0,M,-23.7,M,1.8,0000*48
$GPGSA,A,3,20,14,01,32,25,31,30,16,,,,,1.8,0.9,1.5*30
$GPGSV,3,1,12,32,69,301,21,31,57,031,32,30,51,151,29,20,40,309,23*70
$GPGSV,3,2,12,16,27,172,34,14,26,082,30,01,23,252,13,23,15,293,*78
$GPGSV,3,3,12,25,11,039,38,22,10,145,27,11,09,235,16,51,49,195,37*72
$GPRMC,203323.000,A,3353.7511,N,09832.0282,W,0.40,286.37,030412,,,D*7E
$GPGGA,203324.000,3353.7509,N,09832.0277,W,2,08,0.9,315.4,M,-23.7,M,0.8,0000*49
$GPGSA,A,3,20,14,01,32,25,31,30,16,,,,,1.8,0.9,1.5*30
$GPRMC,203324.000,A,3353.7509,N,09832.0277,W,0.11,285.61,030412,,,D*7E
$GPGGA,203325.000,3353.7508,N,09832.0273,W,2,08,0.9,315.7,M,-23.7,M,0.8,0000*4E
$GPGSA,A,3,20,14,01,32,25,31,30,16,,,,,1.8,0.9,1.5*30
$GPRMC,203325.000,A,3353.7508,N,09832.0273,W,0.40,95.16,030412,,,D*4D
$GPGGA,203326.000,3353.7508,N,09832.0272,W,2,08,0.9,315.5,M,-23.7,M,0.8,0000*4E
$GPGSA,A,3,20,14,01,32,25,31,30,16,,,,,1.8,0.9,1.5*30
$GPRMC,203326.000,A,3353.7508,N,09832.0272,W,0.13,67.40,030412,,,D*47
$GPGGA,203327.000,3353.7506,N,09832.0265,W,2,08,0.9,316.2,M,-23.7,M,1.8,0000*42
$GPGSA,A,3,20,14,01,32,25,31,30,16,,,,,1.8,0.9,1.5*30
$GPRMC,203327.000,A,3353.7506,N,09832.0265,W,0.18,69.00,030412,,,D*4F
$GPGGA,203328.000,3353.7505,N,09832.0262,W,2,08,0.9,316.4,M,-23.7,M,2.8,0000*4C
$GPGSA,A,3,20,14,01,32,25,31,30,16,,,,,1.8,0.9,1.5*30
$GPGSV,3,1,12,32,69,301,22,31,57,031,31,30,51,151,29,20,40,309,23*70
$GPGSV,3,2,12,16,27,172,34,14,26,082,29,01,23,252,12,23,15,293,*71
$GPGSV,3,3,12,25,11,039,38,22,10,145,28,11,09,235,17,51,49,195,37*7C
$GPRMC,203328.000,A,3353.7505,N,09832.0262,W,0.64,95.46,030412,,,D*4E
$GPGGA,203329.000,3353.7505,N,09832.0260,W,2,07,1.2,316.5,M,-23.7,M,0.8,0000*49
$GPGSA,A,3,20,14,32,25,31,30,16,,,,,,2.3,1.2,1.9*3F
$GPRMC,203329.000,A,3353.7505,N,09832.0260,W,0.14,15.53,030412,,,D*46
$GPGGA,203330.000,3353.7504,N,09832.0258,W,2,07,1.2,316.7,M,-23.7,M,0.8,0000*49
$GPGSA,A,3,20,14,32,25,31,30,16,,,,,,2.3,1.2,1.9*3F
$GPRMC,203330.000,A,3353.7504,N,09832.0258,W,0.18,97.31,030412,,,D*46
$GPGGA,203331.000,3353.7505,N,09832.0259,W,2,07,1.2,316.7,M,-23.7,M,0.8,0000*48
$GPGSA,A,3,20,14,32,25,31,30,16,,,,,,2.3,1.2,1.9*3F
$GPRMC,203331.000,A,3353.7505,N,09832.0259,W,0.06,19.08,030412,,,D*44
$GPGGA,203332.000,3353.7504,N,09832.0257,W,2,07,1.2,316.9,M,-23.7,M,0.8,0000*4A
$GPGSA,A,3,20,14,32,25,31,30,16,,,,,,2.3,1.2,1.9*3F
$GPRMC,203332.000,A,3353.7504,N,09832.0257,W,0.15,312.67,030412,,,D*7B
$GPGGA,203333.000,3353.7502,N,09832.0252,W,2,07,1.2,317.5,M,-23.7,M,1.8,0000*44
$GPGSA,A,3,20,14,32,25,31,30,16,,,,,,2.3,1.2,1.9*3F
$GPGSV,3,1,12,32,69,301,23,31,57,031,31,30,51,151,29,20,40,309,24*76
$GPGSV,3,2,12,16,27,172,34,14,26,082,28,01,23,252,,23,15,293,*73
$GPGSV,3,3,12,25,11,039,38,22,10,145,28,11,09,235,17,51,49,195,37*7C
$GPRMC,203333.000,A,3353.7502,N,09832.0252,W,0.22,84.90,030412,,,D*49
$GPGGA,203334.000,3353.7501,N,09832.0247,W,2,07,1.2,317.9,M,-23.7,M,2.8,0000*4B
$GPGSA,A,3,20,14,32,25,31,30,16,,,,,,2.3,1.2,1.9*3F
$GPRMC,203334.000,A,3353.7501,N,09832.0247,W,0.14,71.19,030412,,,D*47
$GPGGA,203335.000,3353.7500,N,09832.0243,W,2,07,1.2,318.4,M,-23.7,M,3.8,0000*4C
$GPGSA,A,3,20,14,32,25,31,30,16,,,,,,2.3,1.2,1.9*3F
$GPRMC,203335.000,A,3353.7500,N,09832.0243,W,0.33,87.54,030412,,,D*46
$GPGGA,203336.000,3353.7499,N,09832.0237,W,2,07,1.2,318.8,M,-23.7,M,0.8,0000*42
$GPGSA,A,3,20,14,32,25,31,30,16,,,,,,2.3,1.2,1.9*3F
$GPRMC,203336.000,A,3353.7499,N,09832.0237,W,0.49,84.73,030412,,,D*4C
$GPGGA,203337.000,3353.7497,N,09832.0229,W,2,07,1.2,319.6,M,-23.7,M,0.8,0000*4D
$GPGSA,A,3,20,14,32,25,31,30,16,,,,,,2.3,1.2,1.9*3F
$GPRMC,203337.000,A,3353.7497,N,09832.0229,W,0.37,78.50,030412,,,D*47
$GPGGA,203338.000,3353.7496,N,09832.0224,W,2,07,1.2,320.0,M,-23.7,M,0.8,0000*42
$GPGSA,A,3,20,14,32,25,31,30,16,,,,,,2.3,1.2,1.9*3F
$GPGSV,3,1,12,32,69,301,23,31,57,031,31,30,51,151,29,20,40,309,25*77
$GPGSV,3,2,12,16,27,172,34,14,26,082,27,01,23,252,,23,15,293,*7C
$GPGSV,3,3,12,25,11,039,38,22,10,145,28,11,09,235,17,51,49,195,37*7C
$GPRMC,203338.000,A,3353.7496,N,09832.0224,W,0.47,81.70,030412,,,D*47
$GPGGA,203339.000,3353.7495,N,09832.0220,W,2,07,1.2,320.3,M,-23.7,M,1.8,0000*46
$GPGSA,A,3,20,14,32,25,31,30,16,,,,,,2.3,1.2,1.9*3F
$GPRMC,203339.000,A,3353.7495,N,09832.0220,W,0.38,76.78,030412,,,D*49
$GPGGA,203340.000,3353.7495,N,09832.0217,W,2,07,1.2,320.5,M,-23.7,M,2.8,0000*49
$GPGSA,A,3,20,14,32,25,31,30,16,,,,,,2.3,1.2,1.9*3F
$GPRMC,203340.000,A,3353.7495,N,09832.0217,W,0.20,49.80,030412,,,D*41
$GPGGA,203341.000,3353.7494,N,09832.0216,W,2,07,1.2,320.6,M,-23.7,M,3.8,0000*4A
$GPGSA,A,3,20,14,32,25,31,30,16,,,,,,2.3,1.2,1.9*3F
$GPRMC,203341.000,A,3353.7494,N,09832.0216,W,0.27,64.86,030412,,,D*4E
$GPGGA,203342.000,3353.7494,N,09832.0214,W,2,07,1.2,320.6,M,-23.7,M,0.8,0000*48
$GPGSA,A,3,20,14,32,25,31,30,16,,,,,,2.3,1.2,1.9*3F
$GPRMC,203342.000,A,3353.7494,N,09832.0214,W,0.26,82.25,030412,,,D*4F
$GPGGA,203343.000,3353.7494,N,09832.0214,W,2,07,1.2,320.6,M,-23.7,M,0.8,0000*49
$GPGSA,A,3,20,14,32,25,31,30,16,,,,,,2.3,1.2,1.9*3F
$GPGSV,3,1,12,32,69,301,17,31,57,031,31,30,51,151,29,20,40,309,26*73
$GPGSV,3,2,12,16,27,172,34,14,26,082,27,01,23,252,,23,15,293,*7C
$GPGSV,3,3,12,25,11,039,38,22,10,145,27,11,09,235,16,51,49,195,37*72
$GPRMC,203343.000,A,3353.7494,N,09832.0214,W,0.17,73.03,030412,,,D*46
$GPGGA,203344.000,3353.7494,N,09832.0213,W,2,07,1.2,320.6,M,-23.7,M,0.8,0000*49
$GPGSA,A,3,20,14,32,25,31,30,16,,,,,,2.3,1.2,1.9*3F
$GPRMC,203344.000,A,3353.7494,N,09832.0213,W,0.24,80.35,030412,,,D*4F
$GPGGA,203345.000,3353.7494,N,09832.0210,W,2,07,1.2,320.3,M,-23.7,M,1.8,0000*4F
$GPGSA,A,3,20,14,32,25,31,30,16,,,,,,2.3,1.2,1.9*3F
$GPRMC,203345.000,A,3353.7494,N,09832.0210,W,0.31,84.69,030412,,,D*44
$GPGGA,203346.000,3353.7494,N,09832.0208,W,2,07,1.2,320.2,M,-23.7,M,2.8,0000*47
$GPGSA,A,3,20,14,32,25,31,30,16,,,,,,2.3,1.2,1.9*3F
$GPRMC,203346.000,A,3353.7494,N,09832.0208,W,0.18,71.47,030412,,,D*43
$GPGGA,203347.000,3353.7494,N,09832.0207,W,2,07,1.2,320.0,M,-23.7,M,0.8,0000*49
$GPGSA,A,3,20,14,32,25,31,30,16,,,,,,2.3,1.2,1.9*3F
$GPRMC,203347.000,A,3353.7494,N,09832.0207,W,0.19,75.89,030412,,,D*4A
$GPGGA,203348.000,3353.7494,N,09832.0206,W,2,07,1.2,319.8,M,-23.7,M,0.8,0000*45
$GPGSA,A,3,20,14,32,25,31,30,16,,,,,,2.3,1.2,1.9*3F
$GPGSV,3,1,12,32,69,301,15,31,57,031,32,30,51,151,29,20,40,309,26*72
$GPGSV,3,2,12,16,27,172,33,14,26,082,26,01,23,252,,23,15,293,*7A
$GPGSV,3,3,12,25,11,039,38,22,10,145,27,11,09,235,15,51,49,195,37*71
$GPRMC,203348.000,A,3353.7494,N,09832.0206,W,0.24,66.74,030412,,,D*4A
$GPGGA,203349.000,3353.7494,N,09832.0205,W,2,07,1.2,319.5,M,-23.7,M,0.8,0000*4A
$GPGSA,A,3,20,14,32,25,31,30,16,,,,,,2.3,1.2,1.9*3F
$GPRMC,203349.000,A,3353.7494,N,09832.0205,W,0.18,59.81,030412,,,D*41
$GPGGA,203350.000,3353.7494,N,09832.0204,W,2,07,1.2,319.3,M,-23.7,M,0.8,0000*45
$GPGSA,A,3,20,14,32,25,31,30,16,,,,,,2.3,1.2,1.9*3F
$GPRMC,203350.000,A,3353.7494,N,09832.0204,W,0.18,67.62,030412,,,D*48
$GPGGA,203351.000,3353.7494,N,09832.0204,W,2,07,1.2,319.0,M,-23.7,M,1.8,0000*46
$GPGSA,A,3,20,14,32,25,31,30,16,,,,,,2.3,1.2,1.9*3F
$GPRMC,203351.000,A,3353.7494,N,09832.0204,W,0.15,60.86,030412,,,D*49
$GPGGA,203352.000,3353.7495,N,09832.0203,W,2,07,1.2,318.8,M,-23.7,M,0.8,0000*4B
$GPGSA,A,3,20,14,32,25,31,30,16,,,,,,2.3,1.2,1.9*3F
$GPRMC,203352.000,A,3353.7495,N,09832.0203,W,0.15,68.08,030412,,,D*42
$GPGGA,203353.000,3353.7495,N,09832.0203,W,2,07,1.2,318.5,M,-23.7,M,1.8,0000*46
$GPGSA,A,3,20,14,32,25,31,30,16,,,,,,2.3,1.2,1.9*3F
$GPGSV,3,1,12,32,70,298,13,31,56,031,32,30,53,150,29,20,41,308,26*7F
$GPGSV,3,2,12,16,29,171,33,14,25,083,26,01,22,251,,23,15,294,*70
$GPGSV,3,3,12,25,10,038,38,22,09,145,26,11,09,234,,51,49,195,37*7D
$GPRMC,203353.000,A,3353.7495,N,09832.0203,W,0.16,60.05,030412,,,D*45
$GPGGA,203354.000,3353.7495,N,09832.0203,W,2,06,1.2,318.3,M,-23.7,M,0.8,0000*47
$GPGSA,A,3,20,14,25,31,30,16,,,,,,,2.4,1.2,2.1*32
$GPRMC,203354.000,A,3353.7495,N,09832.0203,W,0.06,97.16,030412,,,D*49
$GPGGA,203355.000,3353.7495,N,09832.0203,W,2,06,1.2,318.0,M,-23.7,M,0.8,0000*45
$GPGSA,A,3,20,14,25,31,30,16,,,,,,,2.4,1.2,2.1*32
$GPRMC,203355.000,A,3353.7495,N,09832.0203,W,0.03,34.86,030412,,,D*4D
$GPGGA,203356.000,3353.7495,N,09832.0203,W,2,06,1.2,317.8,M,-23.7,M,0.8,0000*41
$GPGSA,A,3,20,14,25,31,30,16,,,,,,,2.4,1.2,2.1*32
$GPRMC,203356.000,A,3353.7495,N,09832.0203,W,0.06,64.61,030412,,,D*47
$GPGGA,203357.000,3353.7495,N,09832.0203,W,2,06,1.2,317.5,M,-23.7,M,1.8,0000*4C
$GPGSA,A,3,20,14,25,31,30,16,,,,,,,2.4,1.2,2.1*32
$GPRMC,203357.000,A,3353.7495,N,09832.0203,W,0.05,54.86,030412,,,D*4F
$GPGGA,203358.000,3353.7495,N,09832.0204,W,2,06,1.2,317.4,M,-23.7,M,2.8,0000*46
$GPGSA,A,3,20,14,25,31,30,16,,,,,,,2.4,1.2,2.1*32
$GPGSV,3,1,12,32,70,298,,31,56,031,32,30,53,150,28,20,41,308,26*7C
$GPGSV,3,2,12,16,29,171,32,14,25,083,26,01,22,251,,23,15,294,*71
$GPGSV,3,3,12,25,10,038,38,22,09,145,25,11,09,234,,51,49,195,37*7E
$GPRMC,203358.000,A,3353.7495,N,09832.0204,W,0.05,336.80,030412,,,D*76
$GPGGA,203359.000,3353.7495,N,09832.0204,W,2,06,1.2,317.1,M,-23.7,M,3.8,0000*43
$GPGSA,A,3,20,14,25,31,30,16,,,,,,,2.4,1.2,2.1*32
$GPRMC,203359.000,A,3353.7495,N,09832.0204,W,0.04,55.50,030412,,,D*4D
$GPGGA,203400.000,3353.7496,N,09832.0205,W,2,06,1.2,316.8,M,-23.7,M,0.8,0000*41
$GPGSA,A,3,20,14,25,31,30,16,,,,,,,2.4,1.2,2.1*32
$GPRMC,203400.000,A,3353.7496,N,09832.0205,W,0.09,348.23,030412,,,D*72
$GPGGA,203401.000,3353.7496,N,09832.0206,W,2,06,1.2,316.4,M,-23.7,M,0.8,0000*4F
$GPGSA,A,3,20,14,25,31,30,16,,,,,,,2.4,1.2,2.1*32
$GPRMC,203401.000,A,3353.7496,N,09832.0206,W,0.19,306.85,030412,,,D*77
$GPGGA,203402.000,3353.7497,N,09832.0212,W,2,06,1.2,315.8,M,-23.7,M,0.8,0000*47
$GPGSA,A,3,20,14,25,31,30,16,,,,,,,2.4,1.2,2.1*32
$GPRMC,203402.000,A,3353.7497,N,09832.0212,W,0.10,318.05,030412,,,D*7E
$GPGGA,203403.000,3353.7498,N,09832.0213,W,2,06,1.2,315.5,M,-23.7,M,0.8,0000*45
$GPGSA,A,3,20,14,25,31,30,16,,,,,,,2.4,1.2,2.1*32
$GPGSV,3,1,12,32,70,298,,31,56,031,32,30,53,150,28,20,41,308,27*7D
$GPGSV,3,2,12,16,29,171,32,14,25,083,27,01,22,251,,23,15,294,*70
$GPGSV,3,3,12,25,10,038,38,22,09,145,25,11,09,234,,51,49,195,37*7E
$GPRMC,203403.000,A,3353.7498,N,09832.0213,W,0.14,82.26,030412,,,D*44
$GPGGA,203404.000,3353.7498,N,09832.0215,W,2,06,1.2,315.0,M,-23.7,M,0.8,0000*41
$GPGSA,A,3,20,14,25,31,30,16,,,,,,,2.4,1.2,2.1*32
$GPRMC,203404.000,A,3353.7498,N,09832.0215,W,0.13,77.88,030412,,,D*4C
$GPGGA,203405.000,3353.7499,N,09832.0218,W,2,06,1.2,314.5,M,-23.7,M,1.8,0000*49
$GPGSA,A,3,20,14,25,31,30,16,,,,,,,2.4,1.2,2.1*32
$GPRMC,203405.000,A,3353.7499,N,09832.0218,W,0.15,304.04,030412,,,D*74
$GPGGA,203406.000,3353.7499,N,09832.0221,W,2,06,1.2,314.1,M,-23.7,M,0.8,0000*45
$GPGSA,A,3,20,14,25,31,30,16,,,,,,,2.4,1.2,2.1*32
$GPRMC,203406.000,A,3353.7499,N,09832.0221,W,0.09,273.89,030412,,,D*74
$GPGGA,203407.000,3353.7500,N,09832.0224,W,2,06,1.2,313.8,M,-23.7,M,0.8,0000*4E
$GPGSA,A,3,20,14,25,31,30,16,,,,,,,2.4,1.2,2.1*32
$GPRMC,203407.000,A,3353.7500,N,09832.0224,W,0.08,277.77,030412,,,D*75
$GPGGA,203408.000,3353.7500,N,09832.0225,W,2,06,1.2,313.5,M,-23.7,M,0.8,0000*4D
$GPGSA,A,3,20,14,25,31,30,16,,,,,,,2.4,1.2,2.1*32
$GPGSV,3,1,12,32,70,298,,31,56,031,32,30,53,150,29,20,41,308,27*7C
$GPGSV,3,2,12,16,29,171,32,14,25,083,27,01,22,251,,23,15,294,*70
$GPGSV,3,3,12,25,10,038,38,22,09,145,24,11,09,234,,51,49,195,37*7F
$GPRMC,203408.000,A,3353.7500,N,09832.0225,W,0.07,273.16,030412,,,D*77
$GPGGA,203409.000,3353.7500,N,09832.0227,W,2,06,1.2,313.3,M,-23.7,M,1.8,0000*49
$GPGSA,A,3,20,14,25,31,30,16,,,,,,,2.4,1.2,2.1*32
$GPRMC,203409.000,A,3353.7500,N,09832.0227,W,0.05,254.13,030412,,,D*76
$GPGGA,203410.000,3353.7500,N,09832.0228,W,2,06,1.2,313.2,M,-23.7,M,0.8,0000*4E
$GPGSA,A,3,20,14,25,31,30,16,,,,,,,2.4,1.2,2.1*32
$GPRMC,203410.000,A,3353.7500,N,09832.0228,W,0.05,277.07,030412,,,D*75
$GPGGA,203411.000,3353.7501,N,09832.0230,W,2,08,0.9,313.0,M,-23.7,M,1.8,0000*40
$GPGSA,A,3,20,14,01,25,31,32,30,16,,,,,1.8,0.9,1.5*30
$GPRMC,203411.000,A,3353.7501,N,09832.0230,W,0.29,275.05,030412,,,D*72
$GPGGA,203412.000,3353.7501,N,09832.0232,W,2,08,0.9,312.9,M,-23.7,M,0.8,0000*48
$GPGSA,A,3,20,14,01,25,31,32,30,16,,,,,1.8,0.9,1.5*30
$GPRMC,203412.000,A,3353.7501,N,09832.0232,W,0.60,283.43,030412,,,D*75
$GPGGA,203413.000,3353.7502,N,09832.0235,W,2,08,0.9,312.8,M,-23.7,M,0.8,0000*4C
$GPGSA,A,3,20,14,01,25,31,32,30,16,,,,,1.8,0.9,1.5*30
$GPGSV,3,1,12,32,70,298,19,31,56,031,32,30,53,150,29,20,41,308,27*74
$GPGSV,3,2,12,16,29,171,32,14,25,083,27,01,22,251,17,23,15,294,18*7F
$GPGSV,3,3,12,25,10,038,38,22,09,145,23,11,09,234,,51,49,195,37*78
$GPRMC,203413.000,A,3353.7502,N,09832.0235,W,0.42,294.71,030412,,,D*77
$GPGGA,203414.000,3353.7502,N,09832.0236,W,2,08,0.9,312.8,M,-23.7,M,0.8,0000*48
$GPGSA,A,3,20,14,01,25,31,32,30,16,,,,,1.8,0.9,1.5*30
$GPRMC,203414.000,A,3353.7502,N,09832.0236,W,0.16,348.64,030412,,,D*76
$GPGGA,203415.000,3353.7503,N,09832.0238,W,2,08,0.9,312.5,M,-23.7,M,1.8,0000*4A
$GPGSA,A,3,20,14,01,25,31,32,30,16,,,,,1.8,0.9,1.5*30
$GPRMC,203415.000,A,3353.7503,N,09832.0238,W,0.27,290.67,030412,,,D*7D
$GPGGA,203416.000,3353.7503,N,09832.0239,W,2,08,0.9,312.3,M,-23.7,M,2.8,0000*4D
$GPGSA,A,3,20,14,01,25,31,32,30,16,,,,,1.8,0.9,1.5*30
$GPRMC,203416.000,A,3353.7503,N,09832.0239,W,0.21,297.91,030412,,,D*77
$GPGGA,203417.000,3353.7503,N,09832.0240,W,2,08,0.9,312.4,M,-23.7,M,3.8,0000*44
$GPGSA,A,3,20,14,01,25,31,32,30,16,,,,,1.8,0.9,1.5*30
$GPRMC,203417.000,A,3353.7503,N,09832.0240,W,0.17,342.63,030412,,,D*79
$GPGGA,203418.000,3353.7503,N,09832.0241,W,2,08,0.9,312.3,M,-23.7,M,0.8,0000*4E
$GPGSA,A,3,20,14,01,25,31,32,30,16,,,,,1.8,0.9,1.5*30
$GPGSV,3,1,12,32,70,298,20,31,56,031,31,30,53,150,28,20,41,308,27*7C
$GPGSV,3,2,12,16,29,171,32,14,25,083,27,01,22,251,19,23,15,294,19*70
$GPGSV,3,3,12,25,10,038,38,22,09,145,23,11,09,234,,51,49,195,37*78
$GPRMC,203418.000,A,3353.7503,N,09832.0241,W,0.28,276.33,030412,,,D*78
$GPGGA,203419.000,3353.7503,N,09832.0243,W,2,08,0.9,312.2,M,-23.7,M,0.8,0000*4C
$GPGSA,A,3,20,14,01,25,31,32,30,16,,,,,1.8,0.9,1.5*30
$GPRMC,203419.000,A,3353.7503,N,09832.0243,W,0.35,275.24,030412,,,D*72
$GPGGA,203420.000,3353.7503,N,09832.0243,W,2,08,0.9,312.2,M,-23.7,M,0.8,0000*46
$GPGSA,A,3,20,14,01,25,31,32,30,16,,,,,1.8,0.9,1.5*30
$GPRMC,203420.000,A,3353.7503,N,09832.0243,W,0.07,63.87,030412,,,D*45
$GPGGA,203421.000,3353.7503,N,09832.0243,W,2,08,0.9,312.1,M,-23.7,M,0.8,0000*44
$GPGSA,A,3,20,14,01,25,31,32,30,16,,,,,1.8,0.9,1.5*30
$GPRMC,203421.000,A,3353.7503,N,09832.0243,W,0.12,97.43,030412,,,D*43
$GPGGA,203422.000,3353.7503,N,09832.0243,W,2,08,0.9,312.3,M,-23.7,M,1.8,0000*44
$GPGSA,A,3,20,14,01,25,31,32,30,16,,,,,1.8,0.9,1.5*30
$GPRMC,203422.000,A,3353.7503,N,09832.0243,W,0.07,7.98,030412,,,D*7B
$GPGGA,203423.000,3353.7503,N,09832.0244,W,2,08,0.9,312.2,M,-23.7,M,2.8,0000*40
$GPGSA,A,3,20,14,01,25,31,32,30,16,,,,,1.8,0.9,1.5*30
$GPGSV,3,1,12,32,70,298,20,31,56,031,32,30,53,150,28,20,41,308,28*70
$GPGSV,3,2,12,16,29,171,32,14,25,083,27,01,22,251,20,23,15,294,18*7B
$GPGSV,3,3,12,25,10,038,38,22,09,145,23,11,09,234,,51,49,195,37*78
$GPRMC,203423.000,A,3353.7503,N,09832.0244,W,0.02,289.10,030412,,,D*7C
$GPGGA,203424.000,3353.7503,N,09832.0244,W,2,08,0.9,312.4,M,-23.7,M,0.8,0000*43
$GPGSA,A,3,20,14,01,25,31,32,30,16,,,,,1.8,0.9,1.5*30
$GPRMC,203424.000,A,3353.7503,N,09832.0244,W,0.18,40.99,030412,,,D*46
$GPGGA,203425.000,3353.7503,N,09832.0244,W,2,08,0.9,312.4,M,-23.7,M,0.8,0000*42
$GPGSA,A,3,20,14,01,25,31,32,30,16,,,,,1.8,0.9,1.5*30
$GPRMC,203425.000,A,3353.7503,N,09832.0244,W,0.11,21.36,030412,,,D*4C
$GPGGA,203426.000,3353.7503,N,09832.0244,W,2,08,0.9,312.3,M,-23.7,M,0.8,0000*46
$GPGSA,A,3,20,14,01,25,31,32,30,16,,,,,1.8,0.9,1.5*30
$GPRMC,203426.000,A,3353.7503,N,09832.0244,W,0.23,75.79,030412,,,D*44
$GPGGA,203427.000,3353.7503,N,09832.0243,W,2,08,0.9,312.3,M,-23.7,M,0.8,0000*40
$GPGSA,A,3,20,14,01,25,31,32,30,16,,,,,1.8,0.9,1.5*30
$GPRMC,203427.000,A,3353.7503,N,09832.0243,W,0.29,69.77,030412,,,D*4B
$GPGGA,203428.000,3353.7504,N,09832.0244,W,2,08,0.9,312.3,M,-23.7,M,1.8,0000*4E
$GPGSA,A,3,20,14,01,25,31,32,30,16,,,,,1.8,0.9,1.5*30
$GPGSV,3,1,12,32,70,298,21,31,56,031,32,30,53,150,29,20,41,308,28*70
$GPGSV,3,2,12,16,29,171,32,14,25,083,27,01,22,251,21,23,15,294,18*7A
$GPGSV,3,3,12,25,10,038,37,22,09,145,23,11,09,234,,51,49,195,37*77
$GPRMC,203428.000,A,3353.7504,N,09832.0244,W,0.17,298.99,030412,,,D*75
$GPGGA,203429.000,3353.7504,N,09832.0245,W,2,08,0.9,312.1,M,-23.7,M,2.8,0000*4F
$GPGSA,A,3,20,14,01,25,31,32,30,16,,,,,1.8,0.9,1.5*30
$GPRMC,203429.000,A,3353.7504,N,09832.0245,W,0.13,296.25,030412,,,D*78
$GPGGA,203430.000,3353.7503,N,09832.0245,W,2,08,0.9,312.0,M,-23.7,M,0.8,0000*43
$GPGSA,A,3,20,14,01,25,31,32,30,16,,,,,1.8,0.9,1.5*30
$GPRMC,203430.000,A,3353.7503,N,09832.0245,W,0.10,273.58,030412,,,D*75
$GPGGA,203431.000,3353.7504,N,09832.0246,W,2,08,0.9,311.9,M,-23.7,M,0.8,0000*4C
$GPGSA,A,3,20,14,01,25,31,32,30,16,,,,,1.8,0.9,1.5*30
$GPRMC,203431.000,A,3353.7504,N,09832.0246,W,0.12,299.80,030412,,,D*73
$GPGGA,203432.000,3353.7504,N,09832.0247,W,2,08,0.9,311.9,M,-23.7,M,0.8,0000*4E
$GPGSA,A,3,20,14,01,25,31,32,30,16,,,,,1.8,0.9,1.5*30
$GPRMC,203432.000,A,3353.7504,N,09832.0247,W,0.12,46.34,030412,,,D*4E
$GPGGA,203433.000,3353.7504,N,09832.0247,W,2,08,0.9,311.9,M,-23.7,M,0.8,0000*4F
$GPGSA,A,3,20,14,01,25,31,32,30,16,,,,,1.8,0.9,1.5*30
$GPGSV,3,1,12,32,70,298,21,31,56,031,32,30,53,150,30,20,41,308,28*78
$GPGSV,3,2,12,16,29,171,32,14,25,083,27,01,22,251,21,23,15,294,18*7A
$GPGSV,3,3,12,25,10,038,37,22,09,145,23,11,09,234,,51,49,195,37*77
$GPRMC,203433.000,A,3353.7504,N,09832.0247,W,0.08,26.50,030412,,,D*40
$GPGGA,203434.000,3353.7504,N,09832.0247,W,2,08,0.9,311.9,M,-23.7,M,1.8,0000*49
$GPGSA,A,3,20,14,01,25,31,32,30,16,,,,,1.8,0.9,1.5*30
$GPRMC,203434.000,A,3353.7504,N,09832.0247,W,0.25,64.62,030412,,,D*4F
$GPGGA,203435.000,3353.7505,N,09832.0247,W,2,08,0.9,312.0,M,-23.7,M,2.8,0000*40
$GPGSA,A,3,20,14,01,25,31,32,30,16,,,,,1.8,0.9,1.5*30
$GPRMC,203435.000,A,3353.7505,N,09832.0247,W,0.16,43.88,030412,,,D*4E
$GPGGA,203436.000,3353.7505,N,09832.0248,W,2,08,0.9,312.0,M,-23.7,M,0.8,0000*4E
$GPGSA,A,3,20,14,01,25,31,32,30,16,,,,,1.8,0.9,1.5*30
$GPRMC,203436.000,A,3353.7505,N,09832.0248,W,0.20,318.60,030412,,,D*7C
$GPGGA,203437.000,3353.7505,N,09832.0249,W,2,08,0.9,311.9,M,-23.7,M,0.8,0000*44
$GPGSA,A,3,20,14,01,25,31,32,30,16,,,,,1.8,0.9,1.5*30
$GPRMC,203437.000,A,3353.7505,N,09832.0249,W,0.30,291.98,030412,,,D*7A
$GPGGA,203438.000,3353.7505,N,09832.0250,W,2,08,0.9,311.7,M,-23.7,M,0.8,0000*4D
$GPGSA,A,3,20,14,01,25,31,32,30,16,,,,,1.8,0.9,1.5*30
$GPGSV,3,1,12,32,70,298,22,31,56,031,33,30,53,150,31,20,41,308,28*7B
$GPGSV,3,2,12,16,29,171,32,14,25,083,27,01,22,251,20,23,15,294,16*75
$GPGSV,3,3,12,25,10,038,37,22,09,145,23,11,09,234,,51,49,195,37*77
$GPRMC,203438.000,A,3353.7505,N,09832.0250,W,0.37,290.18,030412,,,D*73
$GPGGA,203439.000,3353.7505,N,09832.0252,W,2,08,0.9,311.6,M,-23.7,M,1.8,0000*4E
$GPGSA,A,3,20,14,01,25,31,32,30,16,,,,,1.8,0.9,1.5*30
$GPRMC,203439.000,A,3353.7505,N,09832.0252,W,0.44,287.15,030412,,,D*7F
$GPGGA,203440.000,3353.7506,N,09832.0253,W,2,08,0.9,311.4,M,-23.7,M,2.8,0000*43
$GPGSA,A,3,20,14,01,25,31,32,30,16,,,,,1.8,0.9,1.5*30
$GPRMC,203440.000,A,3353.7506,N,09832.0253,W,0.40,282.90,030412,,,D*7F
$GPGGA,203441.000,3353.7506,N,09832.0254,W,2,08,0.9,311.3,M,-23.7,M,3.8,0000*43
$GPGSA,A,3,20,14,01,25,31,32,30,16,,,,,1.8,0.9,1.5*30
$GPRMC,203441.000,A,3353.7506,N,09832.0254,W,0.10,355.38,030412,,,D*75
$GPGGA,203442.000,3353.7506,N,09832.0254,W,2,08,0.9,311.1,M,-23.7,M,0.8,0000*41
$GPGSA,A,3,20,14,01,25,31,32,30,16,,,,,1.8,0.9,1.5*30
$GPRMC,203442.000,A,3353.7506,N,09832.0254,W,0.09,253.56,030412,,,D*71
$GPGGA,203443.000,3353.7505,N,09832.0255,W,2,08,0.9,310.9,M,-23.7,M,0.8,0000*4B
$GPGSA,A,3,20,14,01,25,31,32,30,16,,,,,1.8,0.9,1.5*30
$GPGSV,3,1,12,32,70,298,23,31,56,031,33,30,53,150,32,20,41,308,28*79
$GPGSV,3,2,12,16,29,171,32,14,25,083,27,01,22,251,20,23,15,294,16*75
$GPGSV,3,3,12,25,10,038,37,22,09,145,23,11,09,234,,51,49,195,37*77
$GPRMC,203443.000,A,3353.7505,N,09832.0255,W,0.04,283.79,030412,,,D*7F
$GPGGA,203444.000,3353.7505,N,09832.0255,W,2,08,0.9,310.7,M,-23.7,M,0.8,0000*42
$GPGSA,A,3,20,14,01,25,31,32,30,16,,,,,1.8,0.9,1.5*30
$GPRMC,203444.000,A,3353.7505,N,09832.0255,W,0.11,252.63,030412,,,D*7B
$GPGGA,203445.000,3353.7505,N,09832.0255,W,2,08,0.9,310.7,M,-23.7,M,1.8,0000*42
$GPGSA,A,3,20,14,01,25,31,32,30,16,,,,,1.8,0.9,1.5*30
$GPRMC,203445.000,A,3353.7505,N,09832.0255,W,0.12,64.09,030412,,,D*42
$GPGGA,203446.000,3353.7505,N,09832.0254,W,2,07,1.2,310.5,M,-23.7,M,2.8,0000*44
$GPGSA,A,3,20,14,25,31,32,30,16,,,,,,2.3,1.2,1.9*3F
$GPRMC,203446.000,A,3353.7505,N,09832.0254,W,0.13,89.30,030412,,,D*48
$GPGGA,203447.000,3353.7505,N,09832.0255,W,2,07,1.2,310.5,M,-23.7,M,3.8,0000*45
$GPGSA,A,3,20,14,25,31,32,30,16,,,,,,2.3,1.2,1.9*3F
$GPRMC,203447.000,A,3353.7505,N,09832.0255,W,0.14,291.78,030412,,,D*78
$GPGGA,203448.000,3353.7505,N,09832.0255,W,2,07,1.2,310.6,M,-23.7,M,0.8,0000*4A
$GPGSA,A,3,20,14,25,31,32,30,16,,,,,,2.3,1.2,1.9*3F
$GPGSV,3,1,12,32,70,298,23,31,56,031,33,30,53,150,32,20,41,308,27*76
$GPGSV,3,2,12,16,29,171,33,14,25,083,27,01,22,251,,23,15,294,16*76
$GPGSV,3,3,12,25,10,038,37,22,09,145,24,11,09,234,,51,49,195,37*70
$GPRMC,203448.000,A,3353.7505,N,09832.0255,W,0.19,309.44,030412,,,D*75
$GPGGA,203449.000,3353.7506,N,09832.0255,W,2,07,1.2,310.5,M,-23.7,M,1.8,0000*4A
$GPGSA,A,3,20,14,25,31,32,30,16,,,,,,2.3,1.2,1.9*3F
$GPRMC,203449.000,A,3353.7506,N,09832.0255,W,0.13,36.88,030412,,,D*42
$GPGGA,203450.000,3353.7506,N,09832.0255,W,2,07,1.2,310.6,M,-23.7,M,0.8,0000*40
$GPGSA,A,3,20,14,25,31,32,30,16,,,,,,2.3,1.2,1.9*3F
$GPRMC,203450.000,A,3353.7506,N,09832.0255,W,0.14,327.83,030412,,,D*75
$GPGGA,203451.000,3353.7506,N,09832.0255,W,2,07,1.2,310.5,M,-23.7,M,1.8,0000*43
$GPGSA,A,3,20,14,25,31,32,30,16,,,,,,2.3,1.2,1.9*3F
$GPRMC,203451.000,A,3353.7506,N,09832.0255,W,0.19,66.53,030412,,,D*42
$GPGGA,203452.000,3353.7506,N,09832.0255,W,2,07,1.2,310.5,M,-23.7,M,0.8,0000*41
$GPGSA,A,3,20,14,25,31,32,30,16,,,,,,2.3,1.2,1.9*3F
$GPRMC,203452.000,A,3353.7506,N,09832.0255,W,0.22,68.54,030412,,,D*40
$GPGGA,203453.000,3353.7506,N,09832.0254,W,2,07,1.2,310.5,M,-23.7,M,1.8,0000*40
$GPGSA,A,3,20,14,25,31,32,30,16,,,,,,2.3,1.2,1.9*3F
$GPGSV,3,1,12,32,70,298,23,31,56,031,34,30,53,150,31,20,41,308,27*72
$GPGSV,3,2,12,16,29,171,33,14,25,083,27,01,22,251,,23,15,294,17*77
$GPGSV,3,3,12,25,10,038,37,22,09,145,24,11,09,234,,51,49,195,37*70
$GPRMC,203453.000,A,3353.7506,N,09832.0254,W,0.13,49.69,030412,,,D*4F
$GPGGA,203454.000,3353.7506,N,09832.0255,W,2,07,1.2,310.5,M,-23.7,M,0.8,0000*47
$GPGSA,A,3,20,14,25,31,32,30,16,,,,,,2.3,1.2,1.9*3F
$GPRMC,203454.000,A,3353.7506,N,09832.0255,W,0.12,302.54,030412,,,D*7A
$GPGGA,203455.000,3353.7506,N,09832.0255,W,2,07,1.2,310.4,M,-23.7,M,0.8,0000*47
$GPGSA,A,3,20,14,25,31,32,30,16,,,,,,2.3,1.2,1.9*3F
$GPRMC,203455.000,A,3353.7506,N,09832.0255,W,0.18,297.77,030412,,,D*7D
$GPGGA,203456.000,3353.7506,N,09832.0256,W,2,07,1.2,310.4,M,-23.7,M,0.8,0000*47
$GPGSA,A,3,20,14,25,31,32,30,16,,,,,,2.3,1.2,1.9*3F
$GPRMC,203456.000,A,3353.7506,N,09832.0256,W,0.09,312.13,030412,,,D*73
$GPGGA,203457.000,3353.7506,N,09832.0257,W,2,07,1.2,310.3,M,-23.7,M,1.8,0000*41
$GPGSA,A,3,20,14,25,31,32,30,16,,,,,,2.3,1.2,1.9*3F
$GPRMC,203457.000,A,3353.7506,N,09832.0257,W,0.05,50.87,030412,,,D*47
$GPGGA,203458.000,3353.7506,N,09832.0257,W,2,07,1.2,310.1,M,-23.7,M,2.8,0000*4F
$GPGSA,A,3,20,14,25,31,32,30,16,,,,,,2.3,1.2,1.9*3F
$GPGSV,3,1,12,32,70,298,24,31,56,031,34,30,53,150,31,20,41,308,26*74
$GPGSV,3,2,12,16,29,171,32,14,25,083,26,01,22,251,,23,15,294,17*77
$GPGSV,3,3,12,25,10,038,37,22,09,145,25,11,09,234,,51,49,195,37*71
$GPRMC,203458.000,A,3353.7506,N,09832.0257,W,0.10,300.81,030412,,,D*7C
$GPGGA,203459.000,3353.7506,N,09832.0258,W,2,07,1.2,310.1,M,-23.7,M,0.8,0000*43
$GPGSA,A,3,20,14,25,31,32,30,16,,,,,,2.3,1.2,1.9*3F
$GPRMC,203459.000,A,3353.7506,N,09832.0258,W,0.08,314.07,030412,,,D*70
$GPGGA,203500.000,3353.7506,N,09832.0259,W,2,07,1.2,310.0,M,-23.7,M,0.8,0000*4E
$GPGSA,A,3,20,14,25,31,32,30,16,,,,,,2.3,1.2,1.9*3F
$GPRMC,203500.000,A,3353.7506,N,09832.0259,W,0.12,324.86,030412,,,D*7D
$GPGGA,203501.000,3353.7507,N,09832.0263,W,2,07,1.2,309.8,M,-23.7,M,0.8,0000*47
$GPGSA,A,3,20,14,25,31,32,30,16,,,,,,2.3,1.2,1.9*3F
$GPRMC,203501.000,A,3353.7507,N,09832.0263,W,0.13,313.20,030412,,,D*7D
$GPGGA,203502.000,3353.7507,N,09832.0268,W,2,07,1.2,309.4,M,-23.7,M,0.8,0000*43
$GPGSA,A,3,20,14,25,31,32,30,16,,,,,,2.3,1.2,1.9*3F
$GPRMC,203502.000,A,3353.7507,N,09832.0268,W,0.08,33.23,030412,,,D*4D
$GPGGA,203503.000,3353.7508,N,09832.0272,W,2,07,1.2,309.0,M,-23.7,M,1.8,0000*43
$GPGSA,A,3,20,14,25,31,32,30,16,,,,,,2.3,1.2,1.9*3F
$GPGSV,3,1,12,32,70,298,24,31,56,031,35,30,53,150,30,20,41,308,26*74
$GPGSV,3,2,12,16,29,171,32,14,25,083,26,01,22,251,,23,15,294,16*76
$GPGSV,3,3,12,25,10,038,37,22,09,145,25,11,09,234,,51,49,195,37*71
$GPRMC,203503.000,A,3353.7508,N,09832.0272,W,0.07,334.33,030412,,,D*72
$GPGGA,203504.000,3353.7509,N,09832.0276,W,2,07,1.2,308.8,M,-23.7,M,0.8,0000*49
$GPGSA,A,3,20,14,25,31,32,30,16,,,,,,2.3,1.2,1.9*3F
$GPRMC,203504.000,A,3353.7509,N,09832.0276,W,0.10,304.54,030412,,,D*74
$GPGGA,203505.000,3353.7509,N,09832.0279,W,2,07,1.2,308.5,M,-23.7,M,0.8,0000*4A
$GPGSA,A,3,20,14,25,31,32,30,16,,,,,,2.3,1.2,1.9*3F
$GPRMC,203505.000,A,3353.7509,N,09832.0279,W,0.04,330.59,030412,,,D*75
$GPGGA,203506.000,3353.7509,N,09832.0281,W,2,07,1.2,308.3,M,-23.7,M,0.8,0000*48
$GPGSA,A,3,20,14,25,31,32,30,16,,,,,,2.3,1.2,1.9*3F
$GPRMC,203506.000,A,3353.7509,N,09832.0281,W,0.13,274.95,030412,,,D*76
$GPGGA,203507.000,3353.7509,N,09832.0283,W,2,07,1.2,308.2,M,-23.7,M,0.8,0000*4A
$GPGSA,A,3,20,14,25,31,32,30,16,,,,,,2.3,1.2,1.9*3F
$GPRMC,203507.000,A,3353.7509,N,09832.0283,W,0.10,281.87,030412,,,D*7F
$GPGGA,203508.000,3353.7509,N,09832.0285,W,2,07,1.2,308.1,M,-23.7,M,0.8,0000*40
$GPGSA,A,3,20,14,25,31,32,30,16,,,,,,2.3,1.2,1.9*3F
$GPGSV,3,1,12,32,70,298,24,31,56,031,35,30,53,150,30,20,41,308,25*77
$GPGSV,3,2,12,16,29,171,32,14,25,083,27,01,22,251,,23,15,294,15*74
$GPGSV,3,3,12,25,10,038,37,22,09,145,25,11,09,234,,51,49,195,37*71
$GPRMC,203508.000,A,3353.7509,N,09832.0285,W,0.17,287.47,030412,,,D*7B
$GPGGA,203509.000,3353.7509,N,09832.0286,W,2,07,1.2,308.1,M,-23.7,M,1.8,0000*43
$GPGSA,A,3,20,14,25,31,32,30,16,,,,,,2.3,1.2,1.9*3F
$GPRMC,203509.000,A,3353.7509,N,09832.0286,W,0.04,326.45,030412,,,D*73
$GPGGA,203510.000,3353.7509,N,09832.0290,W,2,07,1.2,307.7,M,-23.7,M,2.8,0000*46
$GPGSA,A,3,20,14,25,31,32,30,16,,,,,,2.3,1.2,1.9*3F
$GPRMC,203510.000,A,3353.7509,N,09832.0290,W,0.22,291.20,030412,,,D*76
$GPGGA,203511.000,3353.7510,N,09832.0294,W,2,07,1.2,307.5,M,-23.7,M,0.8,0000*4B
$GPGSA,A,3,20,14,25,31,32,30,16,,,,,,2.3,1.2,1.9*3F
$GPRMC,203511.000,A,3353.7510,N,09832.0294,W,0.30,283.83,030412,,,D*72
$GPGGA,203512.000,3353.7511,N,09832.0298,W,2,07,1.2,307.3,M,-23.7,M,0.8,0000*43
$GPGSA,A,3,20,14,25,31,32,30,16,,,,,,2.3,1.2,1.9*3F
$GPRMC,203512.000,A,3353.7511,N,09832.0298,W,0.22,307.13,030412,,,D*7B
$GPGGA,203513.000,3353.7511,N,09832.0300,W,2,07,1.2,307.2,M,-23.7,M,0.8,0000*43
$GPGSA,A,3,20,14,25,31,32,30,16,,,,,,2.3,1.2,1.9*3F
$GPGSV,3,1,12,32,70,298,24,31,56,031,35,30,53,150,29,20,41,308,25*7F
$GPGSV,3,2,12,16,29,171,32,14,25,083,27,01,22,251,,23,15,294,16*77
$GPGSV,3,3,12,25,10,038,36,22,09,145,25,11,09,234,,51,49,195,39*7E
$GPRMC,203513.000,A,3353.7511,N,09832.0300,W,0.14,316.15,030412,,,D*79
$GPGGA,203514.000,3353.7511,N,09832.0302,W,2,07,1.2,307.1,M,-23.7,M,0.8,0000*45
$GPGSA,A,3,20,14,25,31,32,30,16,,,,,,2.3,1.2,1.9*3F
$GPRMC,203514.000,A,3353.7511,N,09832.0302,W,0.22,298.02,030412,,,D*78
$GPGGA,203515.000,3353.7511,N,09832.0303,W,2,07,1.2,307.0,M,-23.7,M,0.8,0000*44
$GPGSA,A,3,20,14,25,31,32,30,16,,,,,,2.3,1.2,1.9*3F
$GPRMC,203515.000,A,3353.7511,N,09832.0303,W,0.25,295.47,030412,,,D*73
$GPGGA,203516.000,3353.7511,N,09832.0304,W,2,07,1.2,307.0,M,-23.7,M,1.8,0000*41
$GPGSA,A,3,20,14,25,31,32,30,16,,,,,,2.3,1.2,1.9*3F
$GPRMC,203516.000,A,3353.7511,N,09832.0304,W,0.08,327.33,030412,,,D*73
$GPGGA,203517.000,3353.7511,N,09832.0304,W,2,07,1.2,307.0,M,-23.7,M,2.8,0000*43
$GPGSA,A,3,20,14,25,31,32,30,16,,,,,,2.3,1.2,1.9*3F
$GPRMC,203517.000,A,3353.7511,N,09832.0304,W,0.11,53.95,030412,,,D*46
$GPGGA,203518.000,3353.7510,N,09832.0302,W,2,07,1.2,307.0,M,-23.7,M,0.8,0000*49
$GPGSA,A,3,20,14,25,31,32,30,16,,,,,,2.3,1.2,1.9*3F
$GPGSV,3,1,12,32,70,298,24,31,56,031,35,30,53,150,29,20,41,308,24*7E
$GPGSV,3,2,12,16,29,171,32,14,25,083,27,01,22,251,,23,15,294,18*79
$GPGSV,3,3,12,25,10,038,36,22,09,145,25,11,09,234,,51,49,195,37*70
$GPRMC,203518.000,A,3353.7510,N,09832.0302,W,0.21,95.39,030412,,,D*41
$GPGGA,203519.000,3353.7511,N,09832.0307,W,2,07,1.2,306.5,M,-23.7,M,0.8,0000*48
$GPGSA,A,3,20,14,25,31,32,30,16,,,,,,2.3,1.2,1.9*3F
$GPRMC,203519.000,A,3353.7511,N,09832.0307,W,0.18,90.90,030412,,,D*48
$GPGGA,203520.000,3353.7512,N,09832.0312,W,2,07,1.2,306.1,M,-23.7,M,0.8,0000*41
$GPGSA,A,3,20,14,25,31,32,30,16,,,,,,2.3,1.2,1.9*3F
$GPRMC,203520.000,A,3353.7512,N,09832.0312,W,0.15,298.23,030412,,,D*7A
$GPGGA,203521.000,3353.7512,N,09832.0311,W,2,07,1.2,305.8,M,-23.7,M,1.8,0000*48
$GPGSA,A,3,20,14,25,31,32,30,16,,,,,,2.3,1.2,1.9*3F
$GPRMC,203521.000,A,3353.7512,N,09832.0311,W,0.09,314.62,030412,,,D*75
$GPGGA,203522.000,3353.7511,N,09832.0307,W,2,07,1.2,305.0,M,-23.7,M,0.8,0000*46
$GPGSA,A,3,20,14,25,31,32,30,16,,,,,,2.3,1.2,1.9*3F
$GPRMC,203522.000,A,3353.7511,N,09832.0307,W,0.05,66.79,030412,,,D*42
$GPGGA,203523.000,3353.7510,N,09832.0304,W,2,07,1.2,304.3,M,-23.7,M,1.8,0000*46
$GPGSA,A,3,20,14,25,31,32,30,16,,,,,,2.3,1.2,1.9*3F
$GPGSV,3,1,12,32,70,298,24,31,56,031,35,30,53,150,29,20,41,308,24*7E
$GPGSV,3,2,12,16,29,171,32,14,25,083,26,01,22,251,,23,15,294,19*79
$GPGSV,3,3,12,25,10,038,37,22,09,145,25,11,09,234,,51,49,195,37*71
$GPRMC,203523.000,A,3353.7510,N,09832.0304,W,0.04,15.31,030412,,,D*48
$GPGGA,203524.000,3353.7509,N,09832.0299,W,2,07,1.2,303.6,M,-23.7,M,0.8,0000*4F
$GPGSA,A,3,20,14,25,31,32,30,16,,,,,,2.3,1.2,1.9*3F
$GPRMC,203524.000,A,3353.7509,N,09832.0299,W,0.09,32.19,030412,,,D*40
$GPGGA,203525.000,3353.7508,N,09832.0294,W,2,07,1.2,303.1,M,-23.7,M,0.8,0000*45
$GPGSA,A,3,20,14,25,31,32,30,16,,,,,,2.3,1.2,1.9*3F
$GPRMC,203525.000,A,3353.7508,N,09832.0294,W,0.10,72.00,030412,,,D*49
$GPGGA,203526.000,3353.7507,N,09832.0288,W,2,07,1.2,302.5,M,-23.7,M,0.8,0000*41
$GPGSA,A,3,20,14,25,31,32,30,16,,,,,,2.3,1.2,1.9*3F
$GPRMC,203526.000,A,3353.7507,N,09832.0288,W,0.20,92.66,030412,,,D*45
$GPGGA,203527.000,3353.7505,N,09832.0277,W,2,07,1.2,303.5,M,-23.7,M,1.8,0000*42
$GPGSA,A,3,20,14,25,31,32,30,16,,,,,,2.3,1.2,1.9*3F
$GPRMC,203527.000,A,3353.7505,N,09832.0277,W,0.90,97.89,030412,,,D*49
$GPGGA,203528.000,3353.7504,N,09832.0269,W,2,07,1.2,303.3,M,-23.7,M,2.8,0000*46
$GPGSA,A,3,20,14,25,31,32,30,16,,,,,,2.3,1.2,1.9*3F
$GPGSV,3,1,12,32,70,298,24,31,56,031,35,30,53,150,29,20,41,308,24*7E
$GPGSV,3,2,12,16,29,171,32,14,25,083,25,01,22,251,,23,15,294,20*70
$GPGSV,3,3,12,25,10,038,37,22,09,145,25,11,09,234,,51,49,195,37*71
$GPRMC,203528.000,A,3353.7504,N,09832.0269,W,0.66,96.13,030412,,,D*43
$GPGGA,203529.000,3353.7503,N,09832.0267,W,2,07,1.2,303.3,M,-23.7,M,3.8,0000*4F
$GPGSA,A,3,20,14,25,31,32,30,16,,,,,,2.3,1.2,1.9*3F
$GPRMC,203529.000,A,3353.7503,N,09832.0267,W,0.26,78.69,030412,,,D*42
$GPGGA,203530.000,3353.7503,N,09832.0265,W,2,07,1.2,303.4,M,-23.7,M,0.8,0000*41
$GPGSA,A,3,20,14,25,31,32,30,16,,,,,,2.3,1.2,1.9*3F
$GPRMC,203530.000,A,3353.7503,N,09832.0265,W,0.01,9.85,030412,,,D*79
$GPGGA,203531.000,3353.7503,N,09832.0267,W,2,07,1.2,303.7,M,-23.7,M,0.8,0000*41
$GPGSA,A,3,20,14,25,31,32,30,16,,,,,,2.3,1.2,1.9*3F
$GPRMC,203531.000,A,3353.7503,N,09832.0267,W,0.12,324.10,030412,,,D*78
$GPGGA,203532.000,3353.7503,N,09832.0267,W,2,07,1.2,303.9,M,-23.7,M,0.8,0000*4C
$GPGSA,A,3,20,14,25,31,32,30,16,,,,,,2.3,1.2,1.9*3F
$GPRMC,203532.000,A,3353.7503,N,09832.0267,W,0.15,294.32,030412,,,D*76
$GPGGA,203533.000,3353.7503,N,09832.0268,W,2,07,1.2,304.0,M,-23.7,M,1.8,0000*4D
$GPGSA,A,3,20,14,25,31,32,30,16,,,,,,2.3,1.2,1.9*3F
$GPGSV,3,1,12,32,70,298,24,31,56,031,35,30,53,150,28,20,41,308,24*7F
$GPGSV,3,2,12,16,29,171,32,14,25,083,22,01,22,251,,23,15,294,20*77
$GPGSV,3,3,12,25,10,038,36,22,09,145,25,11,09,234,,51,49,195,37*70
$GPRMC,203533.000,A,3353.7503,N,09832.0268,W,0.14,72.33,030412,,,D*42
$GPGGA,203534.000,3353.7503,N,09832.0264,W,2,07,1.2,304.6,M,-23.7,M,2.8,0000*43
$GPGSA,A,3,20,14,25,31,32,30,16,,,,,,2.3,1.2,1.9*3F
$GPRMC,203534.000,A,3353.7503,N,09832.0264,W,0.23,77.76,030412,,,D*49
$GPGGA,203535.000,3353.7502,N,09832.0262,W,2,07,1.2,305.0,M,-23.7,M,3.8,0000*43
$GPGSA,A,3,20,14,25,31,32,30,16,,,,,,2.3,1.2,1.9*3F
$GPRMC,203535.000,A,3353.7502,N,09832.0262,W,0.13,70.27,030412,,,D*4F
$GPGGA,203536.000,3353.7503,N,09832.0263,W,2,07,1.2,305.0,M,-23.7,M,0.8,0000*43
$GPGSA,A,3,20,14,25,31,32,30,16,,,,,,2.3,1.2,1.9*3F
$GPRMC,203536.000,A,3353.7503,N,09832.0263,W,0.20,32.84,030412,,,D*43
$GPGGA,203537.000,3353.7502,N,09832.0260,W,2,07,1.2,305.4,M,-23.7,M,0.8,0000*44
$GPGSA,A,3,20,14,25,31,32,30,16,,,,,,2.3,1.2,1.9*3F
$GPRMC,203537.000,A,3353.7502,N,09832.0260,W,0.59,92.19,030412,,,D*40
$GPGGA,203538.000,3353.7502,N,09832.0257,W,2,07,1.2,305.7,M,-23.7,M,0.8,0000*4C
$GPGSA,A,3,20,14,25,31,32,30,16,,,,,,2.3,1.2,1.9*3F
$GPGSV,3,1,12,32,70,298,24,31,56,031,35,30,53,150,29,20,41,308,24*7E
$GPGSV,3,2,12,16,29,171,32,14,25,083,22,01,22,251,,23,15,294,19*7D
$GPGSV,3,3,12,25,10,038,36,22,09,145,25,11,09,234,,51,49,195,37*70
$GPRMC,203538.000,A,3353.7502,N,09832.0257,W,0.28,76.04,030412,,,D*4B
$GPGGA,203539.000,3353.7503,N,09832.0261,W,2,07,1.2,305.5,M,-23.7,M,0.8,0000*4B
$GPGSA,A,3,20,14,25,31,32,30,16,,,,,,2.3,1.2,1.9*3F
$GPRMC,203539.000,A,3353.7503,N,09832.0261,W,0.21,334.13,030412,,,D*74
$GPGGA,203540.000,3353.7502,N,09832.0260,W,2,07,1.2,305.6,M,-23.7,M,1.8,0000*47
$GPGSA,A,3,20,14,25,31,32,30,16,,,,,,2.3,1.2,1.9*3F
$GPRMC,203540.000,A,3353.7502,N,09832.0260,W,0.13,29.71,030412,,,D*40
$GPGGA,203541.000,3353.7502,N,09832.0259,W,2,07,1.2,305.7,M,-23.7,M,2.8,0000*4E
$GPGSA,A,3,20,14,25,31,32,30,16,,,,,,2.3,1.2,1.9*3F
$GPRMC,203541.000,A,3353.7502,N,09832.0259,W,0.18,313.34,030412,,,D*7B
$GPGGA,203542.000,3353.7502,N,09832.0259,W,2,07,1.2,305.9,M,-23.7,M,0.8,0000*41
$GPGSA,A,3,20,14,25,31,32,30,16,,,,,,2.3,1.2,1.9*3F
$GPRMC,203542.000,A,3353.7502,N,09832.0259,W,0.06,41.17,030412,,,D*42
$GPGGA,203543.000,3353.7502,N,09832.0257,W,2,07,1.2,306.0,M,-23.7,M,0.8,0000*44
$GPGSA,A,3,20,14,25,31,32,30,16,,,,,,2.3,1.2,1.9*3F
$GPGSV,3,1,12,32,70,298,24,31,56,031,35,30,53,150,29,20,41,308,24*7E
$GPGSV,3,2,12,16,29,171,32,14,25,083,23,01,22,251,,23,15,294,19*7C
$GPGSV,3,3,12,25,10,038,36,22,09,145,24,11,09,234,,51,49,195,37*71
$GPRMC,203543.000,A,3353.7502,N,09832.0257,W,0.08,323.20,030412,,,D*70
$GPGGA,203544.000,3353.7501,N,09832.0256,W,2,07,1.2,306.3,M,-23.7,M,0.8,0000*42
$GPGSA,A,3,20,14,25,31,32,30,16,,,,,,2.3,1.2,1.9*3F
$GPRMC,203544.000,A,3353.7501,N,09832.0256,W,0.06,21.38,030412,,,D*43
$GPGGA,203545.000,3353.7501,N,09832.0255,W,2,07,1.2,306.5,M,-23.7,M,1.8,0000*47
$GPGSA,A,3,20,14,25,31,32,30,16,,,,,,2.3,1.2,1.9*3F
$GPRMC,203545.000,A,3353.7501,N,09832.0255,W,0.11,321.72,030412,,,D*7A
$GPGGA,203546.000,3353.7500,N,09832.0253,W,2,07,1.2,306.7,M,-23.7,M,2.8,0000*42
$GPGSA,A,3,20,14,25,31,32,30,16,,,,,,2.3,1.2,1.9*3F
$GPRMC,203546.000,A,3353.7500,N,09832.0253,W,0.10,39.27,030412,,,D*45
$GPGGA,203547.000,3353.7500,N,09832.0251,W,2,07,1.2,306.7,M,-23.7,M,0.8,0000*43
$GPGSA,A,3,20,14,25,31,32,30,16,,,,,,2.3,1.2,1.9*3F
$GPRMC,203547.000,A,3353.7500,N,09832.0251,W,0.21,79.85,030412,,,D*48
$GPGGA,203548.000,3353.7499,N,09832.0250,W,2,07,1.2,306.8,M,-23.7,M,0.8,0000*43
$GPGSA,A,3,20,14,25,31,32,30,16,,,,,,2.3,1.2,1.9*3F
$GPGSV,3,1,12,32,70,298,24,31,56,031,35,30,53,150,28,20,41,308,25*7E
$GPGSV,3,2,12,16,29,171,32,14,25,083,23,01,22,251,,23,15,294,20*76
$GPGSV,3,3,12,25,10,038,36,22,09,145,23,11,09,234,,51,49,195,36*77
$GPRMC,203548.000,A,3353.7499,N,09832.0250,W,0.47,83.59,030412,,,D*43
$GPGGA,203549.000,3353.7499,N,09832.0248,W,2,07,1.2,306.8,M,-23.7,M,1.8,0000*4A
$GPGSA,A,3,20,14,25,31,32,30,16,,,,,,2.3,1.2,1.9*3F
$GPRMC,203549.000,A,3353.7499,N,09832.0248,W,0.35,78.91,030412,,,D*4E
$GPGGA,203550.000,3353.7499,N,09832.0247,W,2,07,1.2,306.9,M,-23.7,M,0.8,0000*4D
$GPGSA,A,3,20,14,25,31,32,30,16,,,,,,2.3,1.2,1.9*3F
$GPRMC,203550.000,A,3353.7499,N,09832.0247,W,0.14,41.81,030412,,,D*41
$GPGGA,203551.000,3353.7499,N,09832.0247,W,2,07,1.2,306.9,M,-23.7,M,1.8,0000*4D
$GPGSA,A,3,20,14,25,31,32,30,16,,,,,,2.3,1.2,1.9*3F
$GPRMC,203551.000,A,3353.7499,N,09832.0247,W,0.17,44.37,030412,,,D*4B
$GPGGA,203552.000,3353.7499,N,09832.0247,W,2,07,1.2,306.9,M,-23.7,M,2.8,0000*4D
$GPGSA,A,3,20,14,25,31,32,30,16,,,,,,2.3,1.2,1.9*3F
$GPRMC,203552.000,A,3353.7499,N,09832.0247,W,0.13,6.57,030412,,,D*7C
$GPGGA,203553.000,3353.7499,N,09832.0247,W,2,07,1.2,306.8,M,-23.7,M,3.8,0000*4C
$GPGSA,A,3,20,14,25,31,32,30,16,,,,,,2.3,1.2,1.9*3F
$GPGSV,3,1,12,32,70,298,24,31,56,031,35,30,53,150,29,20,41,308,25*7F
$GPGSV,3,2,12,16,29,171,31,14,25,083,24,01,22,251,,23,15,294,20*72
