$GPGGA,214501.000,3352.0640,N,09831.8452,W,2,06,2.3,266.2,M,-23.7,M,1.8,0000*48
$GPGSA,A,3,30,32,31,23,16,20,,,,,,,5.8,2.3,5.3*3C
$GPRMC,214501.000,A,3352.0640,N,09831.8452,W,0.60,187.57,010412,,,D*7B
$GPGGA,214502.000,3352.0637,N,09831.8452,W,2,06,2.3,265.3,M,-23.7,M,2.8,0000*4A
$GPGSA,A,3,30,32,31,23,16,20,,,,,,,5.8,2.3,5.3*3C
$GPGSV,3,1,12,30,68,089,33,32,66,210,35,16,59,158,25,20,56,271,40*71
$GPGSV,3,2,12,23,35,312,39,31,32,047,27,14,08,106,29,06,08,145,31*7E
$GPGSV,3,3,12,13,08,300,,01,06,228,11,03,06,159,26,29,01,050,*7F
$GPRMC,214502.000,A,3352.0637,N,09831.8452,W,0.55,181.82,010412,,,D*70
$GPGGA,214503.000,3352.0633,N,09831.8452,W,2,06,2.3,264.2,M,-23.7,M,0.8,0000*4D
$GPGSA,A,3,30,32,31,23,16,20,,,,,,,5.8,2.3,5.3*3C
$GPRMC,214503.000,A,3352.0633,N,09831.8452,W,0.74,173.46,010412,,,D*73
$GPGGA,214504.000,3352.0631,N,09831.8452,W,2,06,2.3,263.8,M,-23.7,M,0.8,0000*45
$GPGSA,A,3,30,32,31,23,16,20,,,,,,,5.8,2.3,5.3*3C
$GPRMC,214504.000,A,3352.0631,N,09831.8452,W,0.62,177.95,010412,,,D*7B
$GPGGA,214505.000,3352.0630,N,09831.8452,W,2,06,2.3,263.6,M,-23.7,M,0.8,0000*4B
$GPGSA,A,3,30,32,31,23,16,20,,,,,,,5.8,2.3,5.3*3C
$GPRMC,214505.000,A,3352.0630,N,09831.8452,W,0.63,178.44,010412,,,D*79
$GPGGA,214506.000,3352.0633,N,09831.8453,W,2,06,2.3,264.9,M,-23.7,M,0.8,0000*42
$GPGSA,A,3,30,32,31,23,16,20,,,,,,,5.8,2.3,5.3*3C
$GPRMC,214506.000,A,3352.0633,N,09831.8453,W,0.67,172.87,010412,,,D*79
$GPGGA,214507.000,3352.0632,N,09831.8453,W,2,06,2.3,265.0,M,-23.7,M,1.8,0000*4B
$GPGSA,A,3,30,32,31,23,16,20,,,,,,,5.8,2.3,5.3*3C
$GPGSV,3,1,12,30,68,089,33,32,66,210,35,16,59,158,25,20,56,271,40*71
$GPGSV,3,2,12,23,35,312,39,31,32,047,27,14,08,106,29,06,08,145,30*7F
$GPGSV,3,3,12,13,08,300,,01,06,228,13,03,06,159,27,29,01,050,*7C
$GPRMC,214507.000,A,3352.0632,N,09831.8453,W,0.47,177.89,010412,,,D*70
$GPGGA,214508.000,3352.0631,N,09831.8454,W,2,06,2.3,264.9,M,-23.7,M,0.8,0000*49
$GPGSA,A,3,30,32,31,23,16,20,,,,,,,5.8,2.3,5.3*3C
$GPRMC,214508.000,A,3352.0631,N,09831.8454,W,0.60,173.73,010412,,,D*7F
$GPGGA,214509.000,3352.0632,N,09831.8454,W,2,06,2.3,265.7,M,-23.7,M,0.8,0000*44
$GPGSA,A,3,30,32,31,23,16,20,,,,,,,5.8,2.3,5.3*3C
$GPRMC,214509.000,A,3352.0632,N,09831.8454,W,0.40,187.85,010412,,,D*7D
$GPGGA,214510.000,3352.0635,N,09831.8455,W,2,06,2.3,266.6,M,-23.7,M,0.8,0000*48
$GPGSA,A,3,30,32,31,23,16,20,,,,,,,5.8,2.3,5.3*3C
$GPRMC,214510.000,A,3352.0635,N,09831.8455,W,0.26,186.87,010412,,,D*70
$GPGGA,214511.000,3352.0639,N,09831.8456,W,2,06,2.3,267.9,M,-23.7,M,0.8,0000*48
$GPGSA,A,3,30,32,31,23,16,20,,,,,,,5.8,2.3,5.3*3C
$GPRMC,214511.000,A,3352.0639,N,09831.8456,W,0.21,187.90,010412,,,D*7E
$GPGGA,214512.000,3352.0643,N,09831.8456,W,2,06,2.3,269.3,M,-23.7,M,1.8,0000*43
$GPGSA,A,3,30,32,31,23,16,20,,,,,,,5.8,2.3,5.3*3C
$GPGSV,3,1,12,30,68,089,33,32,66,210,35,16,59,158,25,20,56,271,40*71
$GPGSV,3,2,12,23,35,312,39,31,32,047,27,14,08,106,29,06,08,145,30*7F
$GPGSV,3,3,12,13,08,300,21,01,06,228,13,03,06,159,28,29,01,050,*70
$GPRMC,214512.000,A,3352.0643,N,09831.8456,W,0.20,186.07,010412,,,D*7E
$GPGGA,214513.000,3352.0641,N,09831.8456,W,2,06,2.3,268.8,M,-23.7,M,0.8,0000*4B
$GPGSA,A,3,30,32,31,23,16,20,,,,,,,5.8,2.3,5.3*3C
$GPRMC,214513.000,A,3352.0641,N,09831.8456,W,0.19,171.21,010412,,,D*7B
$GPGGA,214514.000,3352.0640,N,09831.8455,W,2,06,2.3,267.9,M,-23.7,M,1.8,0000*41
$GPGSA,A,3,30,32,31,23,16,20,,,,,,,5.8,2.3,5.3*3C
$GPRMC,214514.000,A,3352.0640,N,09831.8455,W,0.20,172.66,010412,,,D*74
$GPGGA,214515.000,3352.0639,N,09831.8453,W,2,06,2.3,267.3,M,-23.7,M,0.8,0000*43
$GPGSA,A,3,30,32,31,23,16,20,,,,,,,5.8,2.3,5.3*3C
$GPRMC,214515.000,A,3352.0639,N,09831.8453,W,0.28,154.46,010412,,,D*73
$GPGGA,214516.000,3352.0640,N,09831.8452,W,2,06,2.3,267.2,M,-23.7,M,0.8,0000*4E
$GPGSA,A,3,30,32,31,23,16,20,,,,,,,5.8,2.3,5.3*3C
$GPRMC,214516.000,A,3352.0640,N,09831.8452,W,0.25,164.64,010412,,,D*71
$GPGGA,214517.000,3352.0642,N,09831.8451,W,2,06,2.3,267.9,M,-23.7,M,0.8,0000*45
$GPGSA,A,3,30,32,31,23,16,20,,,,,,,5.8,2.3,5.3*3C
$GPGSV,3,1,12,30,68,089,33,32,66,210,35,16,59,158,25,20,56,271,40*71
$GPGSV,3,2,12,23,35,312,39,31,32,047,27,14,08,106,29,06,08,145,29*77
$GPGSV,3,3,12,13,08,300,21,01,06,228,14,03,06,159,28,29,01,050,*77
$GPRMC,214517.000,A,3352.0642,N,09831.8451,W,0.26,159.52,010412,,,D*79
$GPGGA,214518.000,3352.0645,N,09831.8451,W,2,06,2.3,268.8,M,-23.7,M,1.8,0000*42
$GPGSA,A,3,30,32,31,23,16,20,,,,,,,5.8,2.3,5.3*3C
$GPRMC,214518.000,A,3352.0645,N,09831.8451,W,0.20,158.61,010412,,,D*76
$GPGGA,214519.000,3352.0647,N,09831.8451,W,2,06,2.3,269.9,M,-23.7,M,2.8,0000*42
$GPGSA,A,3,30,32,31,23,16,20,,,,,,,5.8,2.3,5.3*3C
$GPRMC,214519.000,A,3352.0647,N,09831.8451,W,0.17,159.83,010412,,,D*7C
$GPGGA,214520.000,3352.0651,N,09831.8451,W,2,06,2.3,271.2,M,-23.7,M,3.8,0000*4C
$GPGSA,A,3,30,32,31,23,16,20,,,,,,,5.8,2.3,5.3*3C
$GPRMC,214520.000,A,3352.0651,N,09831.8451,W,0.13,152.87,010412,,,D*7A
$GPGGA,214521.000,3352.0655,N,09831.8452,W,2,06,2.3,272.8,M,-23.7,M,0.8,0000*40
$GPGSA,A,3,30,32,31,23,16,20,,,,,,,5.8,2.3,5.3*3C
$GPRMC,214521.000,A,3352.0655,N,09831.8452,W,0.03,181.53,010412,,,D*7A
$GPGGA,214522.000,3352.0658,N,09831.8453,W,2,06,2.3,274.1,M,-23.7,M,0.8,0000*40
$GPGSA,A,3,30,32,31,23,16,20,,,,,,,5.8,2.3,5.3*3C
$GPGSV,3,1,12,30,68,089,33,32,66,210,35,16,59,158,25,20,56,271,40*71
$GPGSV,3,2,12,23,35,312,40,31,32,047,27,14,08,106,28,06,08,145,30*70
$GPGSV,3,3,12,13,08,300,21,01,06,228,14,03,06,159,28,29,01,050,*77
$GPRMC,214522.000,A,3352.0658,N,09831.8453,W,0.20,337.64,010412,,,D*7F
$GPGGA,214523.000,3352.0662,N,09831.8454,W,2,06,2.3,275.6,M,-23.7,M,0.8,0000*49
$GPGSA,A,3,30,32,31,23,16,20,,,,,,,5.8,2.3,5.3*3C
$GPRMC,214523.000,A,3352.0662,N,09831.8454,W,0.13,357.61,010412,,,D*73
$GPGGA,214524.000,3352.0661,N,09831.8454,W,2,06,2.3,275.5,M,-23.7,M,0.8,0000*4E
$GPGSA,A,3,30,32,31,23,16,20,,,,,,,5.8,2.3,5.3*3C
$GPRMC,214524.000,A,3352.0661,N,09831.8454,W,0.06,349.95,010412,,,D*77
$GPGGA,214525.000,3352.0667,N,09831.8455,W,2,06,2.3,277.6,M,-23.7,M,1.8,0000*48
$GPGSA,A,3,30,32,31,23,16,20,,,,,,,5.8,2.3,5.3*3C
$GPRMC,214525.000,A,3352.0667,N,09831.8455,W,0.19,358.71,010412,,,D*75
$GPGGA,214526.000,3352.0671,N,09831.8456,W,2,06,2.3,279.2,M,-23.7,M,2.8,0000*46
$GPGSA,A,3,30,32,31,23,16,20,,,,,,,5.8,2.3,5.3*3C
$GPRMC,214526.000,A,3352.0671,N,09831.8456,W,0.27,350.58,010412,,,D*7C
$GPGGA,214527.000,3352.0674,N,09831.8457,W,2,06,2.3,280.7,M,-23.7,M,0.8,0000*42
$GPGSA,A,3,30,32,31,23,16,20,,,,,,,5.8,2.3,5.3*3C
$GPGSV,3,1,12,30,68,089,33,32,66,210,35,16,59,158,25,20,56,271,40*71
$GPGSV,3,2,12,23,35,312,40,31,32,047,28,14,08,106,28,06,08,145,30*7F
$GPGSV,3,3,12,13,08,300,21,01,06,228,14,03,06,159,29,29,01,050,*76
$GPRMC,214527.000,A,3352.0674,N,09831.8457,W,0.22,21.73,010412,,,D*40
$GPGGA,214528.000,3352.0677,N,09831.8457,W,2,06,2.3,282.3,M,-23.7,M,0.8,0000*48
$GPGSA,A,3,30,32,31,23,16,20,,,,,,,5.8,2.3,5.3*3C
$GPRMC,214528.000,A,3352.0677,N,09831.8457,W,0.19,27.19,010412,,,D*4E
$GPGGA,214529.000,3352.0677,N,09831.8457,W,2,06,2.3,282.7,M,-23.7,M,0.8,0000*4D
$GPGSA,A,3,30,32,31,23,16,20,,,,,,,5.8,2.3,5.3*3C
$GPRMC,214529.000,A,3352.0677,N,09831.8457,W,0.22,7.35,010412,,,D*7B
$GPGGA,214530.000,3352.0675,N,09831.8458,W,2,06,2.3,282.7,M,-23.7,M,0.8,0000*48
$GPGSA,A,3,30,32,31,23,16,20,,,,,,,5.8,2.3,5.3*3C
$GPRMC,214530.000,A,3352.0675,N,09831.8458,W,0.17,26.49,010412,,,D*40
$GPGGA,214531.000,3352.0674,N,09831.8458,W,2,06,2.3,283.0,M,-23.7,M,0.8,0000*4E
$GPGSA,A,3,30,32,31,23,16,20,,,,,,,5.8,2.3,5.3*3C
$GPRMC,214531.000,A,3352.0674,N,09831.8458,W,0.13,63.87,010412,,,D*47
$GPGGA,214532.000,3352.0669,N,09831.8458,W,2,06,2.3,282.1,M,-23.7,M,1.8,0000*40
$GPGSA,A,3,30,32,31,23,16,20,,,,,,,5.8,2.3,5.3*3C
$GPGSV,3,1,12,30,68,089,33,32,66,210,35,16,59,158,25,20,56,271,40*71
$GPGSV,3,2,12,23,35,312,40,31,32,047,28,14,08,106,29,06,08,145,31*7F
$GPGSV,3,3,12,13,08,300,21,01,06,228,13,03,06,159,29,29,01,050,*71
$GPRMC,214532.000,A,3352.0669,N,09831.8458,W,0.10,58.58,010412,,,D*41
$GPGGA,214533.000,3352.0668,N,09831.8458,W,2,06,2.3,282.1,M,-23.7,M,0.8,0000*41
$GPGSA,A,3,30,32,31,23,16,20,,,,,,,5.8,2.3,5.3*3C
$GPRMC,214533.000,A,3352.0668,N,09831.8458,W,0.11,1.70,010412,,,D*76
$GPGGA,214534.000,3352.0668,N,09831.8459,W,2,06,2.3,282.3,M,-23.7,M,0.8,0000*45
$GPGSA,A,3,30,32,31,23,16,20,,,,,,,5.8,2.3,5.3*3C
$GPRMC,214534.000,A,3352.0668,N,09831.8459,W,0.17,355.23,010412,,,D*72
$GPGGA,214535.000,3352.0669,N,09831.8459,W,2,06,2.3,282.9,M,-23.7,M,0.8,0000*4F
$GPGSA,A,3,30,32,31,23,16,20,,,,,,,5.8,2.3,5.3*3C
$GPRMC,214535.000,A,3352.0669,N,09831.8459,W,0.19,1.43,010412,,,D*78
$GPGGA,214536.000,3352.0670,N,09831.8460,W,2,06,2.3,283.2,M,-23.7,M,1.8,0000*45
$GPGSA,A,3,30,32,31,23,16,20,,,,,,,5.8,2.3,5.3*3C
$GPRMC,214536.000,A,3352.0670,N,09831.8460,W,0.15,352.06,010412,,,D*71
$GPGGA,214537.000,3352.0666,N,09831.8460,W,2,06,2.3,282.3,M,-23.7,M,2.8,0000*40
$GPGSA,A,3,30,32,31,23,16,20,,,,,,,5.8,2.3,5.3*3C
$GPGSV,3,1,12,30,68,089,33,32,66,210,36,16,59,158,24,20,56,271,40*73
$GPGSV,3,2,12,23,35,312,40,31,32,047,29,14,08,106,29,06,08,145,32*7D
$GPGSV,3,3,12,13,08,300,21,01,06,228,,03,06,159,28,29,01,050,*72
$GPRMC,214537.000,A,3352.0666,N,09831.8460,W,0.15,349.88,010412,,,D*7B
$GPGGA,214538.000,3352.0663,N,09831.8460,W,2,06,2.3,281.4,M,-23.7,M,3.8,0000*4F
$GPGSA,A,3,30,32,31,23,16,20,,,,,,,5.8,2.3,5.3*3C
$GPRMC,214538.000,A,3352.0663,N,09831.8460,W,0.05,6.44,010412,,,D*78
$GPGGA,214539.000,3352.0661,N,09831.8461,W,2,06,2.3,281.1,M,-23.7,M,0.8,0000*4B
$GPGSA,A,3,30,32,31,23,16,20,,,,,,,5.8,2.3,5.3*3C
$GPRMC,214539.000,A,3352.0661,N,09831.8461,W,0.09,30.62,010412,,,D*47
$GPGGA,214540.000,3352.0655,N,09831.8460,W,2,06,2.3,279.5,M,-23.7,M,0.8,0000*40
$GPGSA,A,3,30,32,31,23,16,20,,,,,,,5.8,2.3,5.3*3C
$GPRMC,214540.000,A,3352.0655,N,09831.8460,W,0.29,151.68,010412,,,D*71
$GPGGA,214541.000,3352.0649,N,09831.8460,W,2,06,2.3,277.9,M,-23.7,M,0.8,0000*4E
$GPGSA,A,3,30,32,31,23,16,20,,,,,,,5.8,2.3,5.3*3C
$GPRMC,214541.000,A,3352.0649,N,09831.8460,W,0.36,156.72,010412,,,D*7F
$GPGGA,214542.000,3352.0644,N,09831.8459,W,2,06,2.3,276.6,M,-23.7,M,1.8,0000*45
$GPGSA,A,3,30,32,31,23,16,20,,,,,,,5.8,2.3,5.3*3C
$GPGSV,3,1,12,30,68,089,33,32,66,210,36,16,59,158,24,20,56,271,40*73
$GPGSV,3,2,12,23,35,312,40,31,32,047,29,14,08,106,29,06,08,145,33*7C
$GPGSV,3,3,12,13,08,300,21,01,06,228,,03,06,159,28,29,01,050,*72
$GPRMC,214542.000,A,3352.0644,N,09831.8459,W,0.46,158.72,010412,,,D*72
$GPGGA,214543.000,3352.0641,N,09831.8459,W,2,06,2.3,275.9,M,-23.7,M,2.8,0000*4E
$GPGSA,A,3,30,32,31,23,16,20,,,,,,,5.8,2.3,5.3*3C
$GPRMC,214543.000,A,3352.0641,N,09831.8459,W,0.43,164.12,010412,,,D*7A
$GPGGA,214544.000,3352.0633,N,09831.8459,W,2,06,2.3,273.9,M,-23.7,M,3.8,0000*4B
$GPGSA,A,3,30,32,31,23,16,20,,,,,,,5.8,2.3,5.3*3C
$GPRMC,214544.000,A,3352.0633,N,09831.8459,W,0.56,165.10,010412,,,D*7F
$GPGGA,214545.000,3352.0634,N,09831.8459,W,2,06,2.3,274.3,M,-23.7,M,0.8,0000*43
$GPGSA,A,3,30,32,31,23,16,20,,,,,,,5.8,2.3,5.3*3C
$GPRMC,214545.000,A,3352.0634,N,09831.8459,W,0.25,185.86,010412,,,D*7C
$GPGGA,214546.000,3352.0632,N,09831.8459,W,2,06,2.3,273.5,M,-23.7,M,0.8,0000*47
$GPGSA,A,3,30,32,31,23,16,20,,,,,,,5.8,2.3,5.3*3C
$GPRMC,214546.000,A,3352.0632,N,09831.8459,W,0.39,166.88,010412,,,D*77
$GPGGA,214547.000,3352.0630,N,09831.8459,W,2,06,2.3,272.9,M,-23.7,M,0.8,0000*49
$GPGSA,A,3,30,32,31,23,16,20,,,,,,,5.8,2.3,5.3*3C
$GPGSV,3,1,12,30,68,089,32,32,66,210,36,16,59,158,23,20,56,271,40*75
$GPGSV,3,2,12,23,35,312,40,31,32,047,29,14,08,106,29,06,08,145,33*7C
$GPGSV,3,3,12,13,08,300,20,01,06,228,,03,06,159,28,29,01,050,*73
$GPRMC,214547.000,A,3352.0630,N,09831.8459,W,0.36,169.56,010412,,,D*77
$GPGGA,214548.000,3352.0630,N,09831.8460,W,2,06,2.3,273.0,M,-23.7,M,1.8,0000*45
$GPGSA,A,3,30,32,31,23,16,20,,,,,,,5.8,2.3,5.3*3C
$GPRMC,214548.000,A,3352.0630,N,09831.8460,W,0.17,188.83,010412,,,D*76
$GPGGA,214549.000,3352.0633,N,09831.8461,W,2,06,2.3,273.6,M,-23.7,M,0.8,0000*41
$GPGSA,A,3,30,32,31,23,16,20,,,,,,,5.8,2.3,5.3*3C
$GPRMC,214549.000,A,3352.0633,N,09831.8461,W,0.10,217.36,010412,,,D*79
$GPGGA,214550.000,3352.0635,N,09831.8461,W,2,06,2.3,274.2,M,-23.7,M,1.8,0000*4D
$GPGSA,A,3,30,32,31,23,16,20,,,,,,,5.8,2.3,5.3*3C
$GPRMC,214550.000,A,3352.0635,N,09831.8461,W,0.14,172.79,010412,,,D*78
$GPGGA,214551.000,3352.0640,N,09831.8462,W,2,06,2.3,275.7,M,-23.7,M,0.8,0000*48
$GPGSA,A,3,30,32,31,23,16,20,,,,,,,5.8,2.3,5.3*3C
$GPRMC,214551.000,A,3352.0640,N,09831.8462,W,0.07,213.22,010412,,,D*70
$GPGGA,214552.000,3352.0639,N,09831.8463,W,2,06,2.3,275.7,M,-23.7,M,0.8,0000*44
$GPGSA,A,3,30,32,31,23,16,20,,,,,,,5.8,2.3,5.3*3C
$GPGSV,3,1,12,30,68,089,32,32,66,210,36,16,59,158,23,20,56,271,40*75
$GPGSV,3,2,12,23,35,312,40,31,32,047,29,14,08,106,29,06,08,145,33*7C
$GPGSV,3,3,12,13,08,300,20,01,06,228,,03,06,159,28,29,01,050,*73
$GPRMC,214552.000,A,3352.0639,N,09831.8463,W,0.29,172.36,010412,,,D*71
$GPGGA,214553.000,3352.0643,N,09831.8463,W,2,06,2.3,277.1,M,-23.7,M,0.8,0000*4C
$GPGSA,A,3,30,32,31,23,16,20,,,,,,,5.8,2.3,5.3*3C
$GPRMC,214553.000,A,3352.0643,N,09831.8463,W,0.33,161.55,010412,,,D*71
$GPGGA,214554.000,3352.0641,N,09831.8463,W,2,06,2.3,276.8,M,-23.7,M,0.8,0000*41
$GPGSA,A,3,30,32,31,23,16,20,,,,,,,5.8,2.3,5.3*3C
$GPRMC,214554.000,A,3352.0641,N,09831.8463,W,0.41,164.05,010412,,,D*71
$GPGGA,214555.000,3352.0639,N,09831.8463,W,2,06,2.3,276.5,M,-23.7,M,1.8,0000*43
$GPGSA,A,3,30,32,31,23,16,20,,,,,,,5.8,2.3,5.3*3C
$GPRMC,214555.000,A,3352.0639,N,09831.8463,W,0.33,169.64,010412,,,D*70
$GPGGA,214556.000,3352.0639,N,09831.8463,W,2,06,2.3,276.6,M,-23.7,M,2.8,0000*40
$GPGSA,A,3,30,32,31,23,16,20,,,,,,,5.8,2.3,5.3*3C
$GPRMC,214556.000,A,3352.0639,N,09831.8463,W,0.37,169.04,010412,,,D*71
$GPGGA,214557.000,3352.0641,N,09831.8464,W,2,06,2.3,277.3,M,-23.7,M,0.8,0000*4F
$GPGSA,A,3,30,32,31,23,16,20,,,,,,,5.8,2.3,5.3*3C
$GPGSV,3,1,12,30,68,089,32,32,66,210,36,16,59,158,22,20,56,271,40*74
$GPGSV,3,2,12,23,35,312,40,31,32,047,29,14,08,106,29,06,08,145,33*7C
$GPGSV,3,3,12,13,08,300,19,01,06,228,,03,06,159,28,29,01,050,*79
$GPRMC,214557.000,A,3352.0641,N,09831.8464,W,0.05,179.70,010412,,,D*7B
$GPGGA,214558.000,3352.0646,N,09831.8464,W,2,06,2.3,279.0,M,-23.7,M,0.8,0000*4A
$GPGSA,A,3,30,32,31,23,16,20,,,,,,,5.8,2.3,5.3*3C
$GPRMC,214558.000,A,3352.0646,N,09831.8464,W,0.20,355.85,010412,,,D*72
$GPGGA,214559.000,3352.0649,N,09831.8465,W,2,06,2.3,279.8,M,-23.7,M,0.8,0000*4D
$GPGSA,A,3,30,32,31,23,16,20,,,,,,,5.8,2.3,5.3*3C
$GPRMC,214559.000,A,3352.0649,N,09831.8465,W,0.16,359.44,010412,,,D*79
$GPGGA,214600.000,3352.0653,N,09831.8465,W,2,06,2.3,280.8,M,-23.7,M,1.8,0000*4E
$GPGSA,A,3,30,32,31,23,16,20,,,,,,,5.8,2.3,5.3*3C
$GPRMC,214600.000,A,3352.0653,N,09831.8465,W,0.10,58.57,010412,,,D*4B
$GPGGA,214601.000,3352.0657,N,09831.8466,W,2,06,2.3,282.0,M,-23.7,M,0.8,0000*43
$GPGSA,A,3,30,32,31,23,16,20,,,,,,,5.8,2.3,5.3*3C
$GPRMC,214601.000,A,3352.0657,N,09831.8466,W,0.25,352.39,010412,,,D*7A
$GPGGA,214602.000,3352.0660,N,09831.8466,W,2,06,2.3,283.0,M,-23.7,M,1.8,0000*44
$GPGSA,A,3,30,32,31,23,16,20,,,,,,,5.8,2.3,5.3*3C
$GPGSV,3,1,12,30,68,089,32,32,66,210,36,16,59,158,23,20,56,271,40*75
$GPGSV,3,2,12,23,35,312,40,31,32,047,29,14,08,106,29,06,08,145,33*7C
$GPGSV,3,3,12,13,08,300,20,01,06,228,19,03,06,159,28,29,01,050,*7B
$GPRMC,214602.000,A,3352.0660,N,09831.8466,W,0.30,351.44,010412,,,D*70
$GPGGA,214603.000,3352.0665,N,09831.8467,W,2,06,2.3,284.6,M,-23.7,M,0.8,0000*41
$GPGSA,A,3,30,32,31,23,16,20,,,,,,,5.8,2.3,5.3*3C
$GPRMC,214603.000,A,3352.0665,N,09831.8467,W,0.15,350.23,010412,,,D*72
$GPGGA,214604.000,3352.0671,N,09831.8468,W,2,06,2.3,286.8,M,-23.7,M,0.8,0000*40
$GPGSA,A,3,30,32,31,23,16,20,,,,,,,5.8,2.3,5.3*3C
$GPRMC,214604.000,A,3352.0671,N,09831.8468,W,0.11,39.14,010412,,,D*43
$GPGGA,214605.000,3352.0673,N,09831.8468,W,2,06,2.3,287.8,M,-23.7,M,0.8,0000*42
$GPGSA,A,3,30,32,31,23,16,20,,,,,,,5.8,2.3,5.3*3C
$GPRMC,214605.000,A,3352.0673,N,09831.8468,W,0.11,26.54,010412,,,D*4A
$GPGGA,214606.000,3352.0675,N,09831.8468,W,2,06,2.3,288.6,M,-23.7,M,1.8,0000*47
$GPGSA,A,3,30,32,31,23,16,20,,,,,,,5.8,2.3,5.3*3C
$GPRMC,214606.000,A,3352.0675,N,09831.8468,W,0.20,350.25,010412,,,D*79
$GPGGA,214607.000,3352.0679,N,09831.8469,W,2,06,2.3,290.3,M,-23.7,M,2.8,0000*44
$GPGSA,A,3,30,32,31,23,16,20,,,,,,,5.8,2.3,5.3*3C
$GPGSV,3,1,12,30,68,085,32,32,65,208,36,16,60,157,23,20,56,269,40*7F
$GPGSV,3,2,12,23,36,313,40,31,31,048,29,06,09,144,32,13,08,301,20*78
$GPGSV,3,3,12,14,07,107,29,03,07,158,28,01,05,227,18,29,01,049,*7A
$GPRMC,214607.000,A,3352.0679,N,09831.8469,W,0.30,355.01,010412,,,D*77
$GPGGA,214608.000,3352.0683,N,09831.8469,W,2,06,2.3,291.7,M,-23.7,M,3.8,0000*4A
$GPGSA,A,3,30,32,31,23,16,20,,,,,,,5.8,2.3,5.3*3C
$GPRMC,214608.000,A,3352.0683,N,09831.8469,W,0.36,353.24,010412,,,D*7A
$GPGGA,214609.000,3352.0689,N,09831.8470,W,2,06,2.3,293.5,M,-23.7,M,0.8,0000*4A
$GPGSA,A,3,30,32,31,23,16,20,,,,,,,5.8,2.3,5.3*3C
$GPRMC,214609.000,A,3352.0689,N,09831.8470,W,0.40,15.99,010412,,,D*4F
$GPGGA,214610.000,3352.0696,N,09831.8471,W,2,06,2.3,296.0,M,-23.7,M,0.8,0000*4D
$GPGSA,A,3,30,32,31,23,16,20,,,,,,,5.8,2.3,5.4*3B
$GPRMC,214610.000,A,3352.0696,N,09831.8471,W,0.62,357.69,010412,,,D*72
$GPGGA,214611.000,3352.0702,N,09831.8471,W,2,06,2.3,297.8,M,-23.7,M,0.8,0000*49
$GPGSA,A,3,30,32,31,23,16,20,,,,,,,5.8,2.3,5.4*3B
$GPRMC,214611.000,A,3352.0702,N,09831.8471,W,0.64,1.07,010412,,,D*71
$GPGGA,214612.000,3352.0704,N,09831.8472,W,2,06,2.3,298.4,M,-23.7,M,0.8,0000*4C
$GPGSA,A,3,30,32,31,23,16,20,,,,,,,5.8,2.3,5.4*3B
$GPGSV,3,1,12,30,68,085,31,32,65,208,36,16,60,157,23,20,56,269,40*7C
$GPGSV,3,2,12,23,36,313,40,31,31,048,29,06,09,144,31,13,08,301,20*7B
$GPGSV,3,3,12,14,07,107,29,03,07,158,28,01,05,227,17,29,01,049,*75
$GPRMC,214612.000,A,3352.0704,N,09831.8472,W,0.58,0.72,010412,,,D*7B
$GPGGA,214613.000,3352.0704,N,09831.8472,W,2,06,2.3,298.6,M,-23.7,M,1.8,0000*4E
$GPGSA,A,3,30,32,31,23,16,20,,,,,,,5.8,2.3,5.4*3B
$GPRMC,214613.000,A,3352.0704,N,09831.8472,W,0.50,5.20,010412,,,D*70
$GPGGA,214614.000,3352.0704,N,09831.8472,W,2,06,2.3,298.5,M,-23.7,M,2.8,0000*49
$GPGSA,A,3,30,32,31,23,16,20,,,,,,,5.8,2.3,5.4*3B
$GPRMC,214614.000,A,3352.0704,N,09831.8472,W,0.40,12.78,010412,,,D*4D
$GPGGA,214615.000,3352.0702,N,09831.8471,W,2,06,2.3,298.4,M,-23.7,M,0.8,0000*4E
$GPGSA,A,3,30,32,31,23,16,20,,,,,,,5.8,2.3,5.4*3B
$GPRMC,214615.000,A,3352.0702,N,09831.8471,W,0.24,23.61,010412,,,D*41
$GPGGA,214616.000,3352.0708,N,09831.8472,W,2,06,2.3,300.3,M,-23.7,M,0.8,0000*43
$GPGSA,A,3,30,32,31,23,16,20,,,,,,,5.8,2.3,5.4*3B
$GPRMC,214616.000,A,3352.0708,N,09831.8472,W,0.30,13.08,010412,,,D*42
$GPGGA,214617.000,3352.0712,N,09831.8472,W,2,06,2.3,301.9,M,-23.7,M,0.8,0000*42
$GPGSA,A,3,30,32,31,23,16,20,,,,,,,5.8,2.3,5.4*3B
$GPGSV,3,1,12,30,68,085,31,32,65,208,36,16,60,157,24,20,56,269,41*7A
$GPGSV,3,2,12,23,36,313,40,31,31,048,30,06,09,144,30,13,08,301,21*73
$GPGSV,3,3,12,14,07,107,29,03,07,158,28,01,05,227,16,29,01,049,*74
$GPRMC,214617.000,A,3352.0712,N,09831.8472,W,0.31,19.36,010412,,,D*4E
$GPGGA,214618.000,3352.0718,N,09831.8472,W,2,06,2.3,304.2,M,-23.7,M,0.8,0000*49
$GPGSA,A,3,30,32,31,23,16,20,,,,,,,5.8,2.3,5.4*3B
$GPRMC,214618.000,A,3352.0718,N,09831.8472,W,0.34,22.01,010412,,,D*42
$GPGGA,214619.000,3352.0724,N,09831.8473,W,2,06,2.3,306.4,M,-23.7,M,0.8,0000*42
$GPGSA,A,3,30,32,31,23,16,20,,,,,,,5.8,2.3,5.4*3B
$GPRMC,214619.000,A,3352.0724,N,09831.8473,W,0.41,12.96,010412,,,D*42
$GPGGA,214620.000,3352.0724,N,09831.8472,W,2,06,2.3,307.0,M,-23.7,M,0.8,0000*4C
$GPGSA,A,3,30,32,31,23,16,20,,,,,,,5.8,2.3,5.4*3B
$GPRMC,214620.000,A,3352.0724,N,09831.8472,W,0.43,6.30,010412,,,D*72
$GPGGA,214621.000,3352.0726,N,09831.8473,W,2,06,2.3,307.6,M,-23.7,M,0.8,0000*48
$GPGSA,A,3,30,32,31,23,16,20,,,,,,,5.8,2.3,5.4*3B
$GPRMC,214621.000,A,3352.0726,N,09831.8473,W,0.53,0.11,010412,,,D*74
$GPGGA,214622.000,3352.0724,N,09831.8472,W,2,06,2.3,307.1,M,-23.7,M,0.8,0000*4F
$GPGSA,A,3,30,32,31,23,16,20,,,,,,,5.8,2.3,5.4*3B
$GPGSV,3,1,12,30,68,085,31,32,65,208,36,16,60,157,24,20,56,269,41*7A
$GPGSV,3,2,12,23,36,313,40,31,31,048,30,06,09,144,29,13,08,301,20*7A
$GPGSV,3,3,12,14,07,107,29,03,07,158,28,01,05,227,,29,01,049,*73
$GPRMC,214622.000,A,3352.0724,N,09831.8472,W,0.41,12.00,010412,,,D*44
$GPGGA,214623.000,3352.0721,N,09831.8472,W,2,06,2.3,306.3,M,-23.7,M,0.8,0000*48
$GPGSA,A,3,30,32,31,23,16,20,,,,,,,5.8,2.3,5.4*3B
$GPRMC,214623.000,A,3352.0721,N,09831.8472,W,0.32,20.75,010412,,,D*47
$GPGGA,214624.000,3352.0716,N,09831.8471,W,2,06,2.3,304.4,M,-23.7,M,1.8,0000*4C
$GPGSA,A,3,30,32,31,23,16,20,,,,,,,5.8,2.3,5.4*3B
$GPRMC,214624.000,A,3352.0716,N,09831.8471,W,0.23,21.04,010412,,,D*40
$GPGGA,214625.000,3352.0715,N,09831.8471,W,2,06,2.3,304.2,M,-23.7,M,2.8,0000*4B
$GPGSA,A,3,30,32,31,23,16,20,,,,,,,5.8,2.3,5.4*3B
$GPRMC,214625.000,A,3352.0715,N,09831.8471,W,0.25,354.84,010412,,,D*7D
$GPGGA,214626.000,3352.0711,N,09831.8471,W,2,06,2.3,302.9,M,-23.7,M,3.8,0000*40
$GPGSA,A,3,30,32,31,23,16,20,,,,,,,5.8,2.3,5.4*3B
$GPRMC,214626.000,A,3352.0711,N,09831.8471,W,0.13,7.59,010412,,,D*7A
$GPGGA,214627.000,3352.0710,N,09831.8471,W,2,06,2.3,302.8,M,-23.7,M,0.8,0000*42
$GPGSA,A,3,30,32,31,23,16,20,,,,,,,5.8,2.3,5.4*3B
$GPGSV,3,1,12,30,68,085,31,32,65,208,36,16,60,157,23,20,56,269,41*7D
$GPGSV,3,2,12,23,36,313,40,31,31,048,30,06,09,144,30,13,08,301,21*73
$GPGSV,3,3,12,14,07,107,29,03,07,158,28,01,05,227,,29,01,049,*73
$GPRMC,214627.000,A,3352.0710,N,09831.8471,W,0.10,16.48,010412,,,D*49
$GPGGA,214628.000,3352.0706,N,09831.8471,W,2,06,2.3,301.2,M,-23.7,M,0.8,0000*43
$GPGSA,A,3,30,32,31,23,16,20,,,,,,,5.8,2.3,5.4*3B
$GPRMC,214628.000,A,3352.0706,N,09831.8471,W,0.21,130.71,010412,,,D*7C
$GPGGA,214629.000,3352.0699,N,09831.8470,W,2,06,2.3,299.0,M,-23.7,M,0.8,0000*46
$GPGSA,A,3,30,32,31,23,16,20,,,,,,,5.8,2.3,5.4*3B
$GPRMC,214629.000,A,3352.0699,N,09831.8470,W,0.30,150.87,010412,,,D*74
$GPGGA,214630.000,3352.0696,N,09831.8470,W,2,06,2.3,298.3,M,-23.7,M,1.8,0000*42
$GPGSA,A,3,30,32,31,23,16,20,,,,,,,5.8,2.3,5.4*3B
$GPRMC,214630.000,A,3352.0696,N,09831.8470,W,0.20,169.37,010412,,,D*73
$GPGGA,214631.000,3352.0695,N,09831.8469,W,2,06,2.3,297.9,M,-23.7,M,2.8,0000*4E
$GPGSA,A,3,30,32,31,23,16,20,,,,,,,5.8,2.3,5.4*3B
$GPRMC,214631.000,A,3352.0695,N,09831.8469,W,0.28,157.27,010412,,,D*7D
$GPGGA,214632.000,3352.0691,N,09831.8469,W,2,06,2.3,296.8,M,-23.7,M,3.8,0000*48
$GPGSA,A,3,30,32,31,23,16,20,,,,,,,5.8,2.3,5.4*3B
$GPGSV,3,1,12,30,68,085,31,32,65,208,36,16,60,157,23,20,56,269,41*7D
$GPGSV,3,2,12,23,36,313,40,31,31,048,30,06,09,144,31,13,08,301,21*72
$GPGSV,3,3,12,14,07,107,29,03,07,158,28,01,05,227,17,29,01,049,*75
$GPRMC,214632.000,A,3352.0691,N,09831.8469,W,0.39,156.51,010412,,,D*7A
$GPGGA,214633.000,3352.0690,N,09831.8469,W,2,06,2.3,296.7,M,-23.7,M,0.8,0000*44
$GPGSA,A,3,30,32,31,23,16,20,,,,,,,5.8,2.3,5.4*3B
$GPRMC,214633.000,A,3352.0690,N,09831.8469,W,0.42,171.46,010412,,,D*75
$GPGGA,214634.000,3352.0691,N,09831.8469,W,2,06,2.3,297.1,M,-23.7,M,0.8,0000*45
$GPGSA,A,3,30,32,31,23,16,20,,,,,,,5.8,2.3,5.4*3B
$GPRMC,214634.000,A,3352.0691,N,09831.8469,W,0.31,188.33,010412,,,D*73
$GPGGA,214635.000,3352.0691,N,09831.8470,W,2,06,2.3,297.0,M,-23.7,M,0.8,0000*4D
$GPGSA,A,3,30,32,31,23,16,20,,,,,,,5.8,2.3,5.4*3B
$GPRMC,214635.000,A,3352.0691,N,09831.8470,W,0.28,185.24,010412,,,D*79
$GPGGA,214636.000,3352.0692,N,09831.8470,W,2,06,2.3,297.6,M,-23.7,M,0.8,0000*4B
$GPGSA,A,3,30,32,31,23,16,20,,,,,,,5.8,2.3,5.4*3B
$GPRMC,214636.000,A,3352.0692,N,09831.8470,W,0.25,182.95,010412,,,D*79
$GPGGA,214637.000,3352.0696,N,09831.8471,W,2,06,2.3,298.9,M,-23.7,M,0.8,0000*4F
$GPGSA,A,3,30,32,31,23,16,20,,,,,,,5.8,2.3,5.4*3B
$GPGSV,3,1,12,30,68,085,31,32,65,208,36,16,60,157,24,20,56,269,41*7A
$GPGSV,3,2,12,23,36,313,40,31,31,048,31,06,09,144,32,13,08,301,22*73
$GPGSV,3,3,12,14,07,107,29,03,07,158,28,01,05,227,,29,01,049,*73
$GPRMC,214637.000,A,3352.0696,N,09831.8471,W,0.21,187.21,010412,,,D*73
$GPGGA,214638.000,3352.0699,N,09831.8471,W,2,06,2.3,300.3,M,-23.7,M,1.8,0000*44
$GPGSA,A,3,30,32,31,23,16,20,,,,,,,5.8,2.3,5.4*3B
$GPRMC,214638.000,A,3352.0699,N,09831.8471,W,0.18,160.69,010412,,,D*7C
$GPGGA,214639.000,3352.0703,N,09831.8472,W,2,06,2.3,301.7,M,-23.7,M,0.8,0000*40
$GPGSA,A,3,30,32,31,23,16,20,,,,,,,5.8,2.3,5.4*3B
$GPRMC,214639.000,A,3352.0703,N,09831.8472,W,0.10,27.43,010412,,,D*4E
$GPGGA,214640.000,3352.0710,N,09831.8472,W,2,06,2.3,304.0,M,-23.7,M,0.8,0000*4E
$GPGSA,A,3,30,32,31,23,16,20,,,,,,,5.8,2.3,5.4*3B
$GPRMC,214640.000,A,3352.0710,N,09831.8472,W,0.18,10.99,010412,,,D*49
$GPGGA,214641.000,3352.0712,N,09831.8473,W,2,06,2.3,304.5,M,-23.7,M,0.8,0000*49
$GPGSA,A,3,30,32,31,23,16,20,,,,,,,5.8,2.3,5.4*3B
$GPRMC,214641.000,A,3352.0712,N,09831.8473,W,0.14,33.85,010412,,,D*4B
$GPGGA,214642.000,3352.0713,N,09831.8473,W,2,06,2.3,304.8,M,-23.7,M,1.8,0000*47
$GPGSA,A,3,30,32,31,23,16,20,,,,,,,5.8,2.3,5.4*3B
$GPGSV,3,1,12,30,68,085,30,32,65,208,36,16,60,157,25,20,56,269,41*7A
$GPGSV,3,2,12,23,36,313,40,31,31,048,30,06,09,144,32,13,08,301,22*72
$GPGSV,3,3,12,14,07,107,29,03,07,158,27,01,05,227,,29,01,049,*7C
$GPRMC,214642.000,A,3352.0713,N,09831.8473,W,0.14,41.93,010412,,,D*4B
$GPGGA,214643.000,3352.0714,N,09831.8473,W,2,06,2.3,305.3,M,-23.7,M,0.8,0000*4A
$GPGSA,A,3,30,32,31,23,16,20,,,,,,,5.8,2.3,5.4*3B
$GPRMC,214643.000,A,3352.0714,N,09831.8473,W,0.14,33.29,010412,,,D*49
$GPGGA,214644.000,3352.0715,N,09831.8473,W,2,06,2.3,305.5,M,-23.7,M,1.8,0000*4B
$GPGSA,A,3,30,32,31,23,16,20,,,,,,,5.8,2.3,5.4*3B
$GPRMC,214644.000,A,3352.0715,N,09831.8473,W,0.14,29.12,010412,,,D*4C
$GPGGA,214645.000,3352.0716,N,09831.8473,W,2,06,2.3,306.0,M,-23.7,M,0.8,0000*4E
$GPGSA,A,3,30,32,31,23,16,20,,,,,,,5.8,2.3,5.4*3B
$GPRMC,214645.000,A,3352.0716,N,09831.8473,W,0.03,154.16,010412,,,D*77
$GPGGA,214646.000,3352.0717,N,09831.8473,W,2,06,2.3,306.4,M,-23.7,M,0.8,0000*48
$GPGSA,A,3,30,32,31,23,16,20,,,,,,,5.8,2.3,5.4*3B
$GPRMC,214646.000,A,3352.0717,N,09831.8473,W,0.01,91.52,010412,,,D*4F
$GPGGA,214647.000,3352.0717,N,09831.8473,W,2,06,2.3,306.7,M,-23.7,M,0.8,0000*4A
$GPGSA,A,3,30,32,31,23,16,20,,,,,,,5.8,2.3,5.4*3B
$GPGSV,3,1,12,30,68,085,30,32,65,208,36,16,60,157,25,20,56,269,41*7A
$GPGSV,3,2,12,23,36,313,40,31,31,048,30,06,09,144,33,13,08,301,23*72
$GPGSV,3,3,12,14,07,107,29,03,07,158,26,01,05,227,,29,01,049,*7D
$GPRMC,214647.000,A,3352.0717,N,09831.8473,W,0.03,116.11,010412,,,D*75
$GPGGA,214648.000,3352.0717,N,09831.8473,W,2,06,2.3,306.9,M,-23.7,M,1.8,0000*4A
$GPGSA,A,3,30,32,31,23,16,20,,,,,,,5.8,2.3,5.4*3B
$GPRMC,214648.000,A,3352.0717,N,09831.8473,W,0.01,313.06,010412,,,D*79
$GPGGA,214649.000,3352.0719,N,09831.8474,W,2,06,2.3,307.7,M,-23.7,M,0.8,0000*4C
$GPGSA,A,3,30,32,31,23,16,20,,,,,,,5.8,2.3,5.4*3B
$GPRMC,214649.000,A,3352.0719,N,09831.8474,W,0.03,33.78,010412,,,D*4B
$GPGGA,214650.000,3352.0721,N,09831.8474,W,2,06,2.3,308.3,M,-23.7,M,0.8,0000*44
$GPGSA,A,3,30,32,31,23,16,20,,,,,,,5.8,2.3,5.4*3B
$GPRMC,214650.000,A,3352.0721,N,09831.8474,W,0.04,12.11,010412,,,D*43
$GPGGA,214651.000,3352.0722,N,09831.8474,W,2,06,2.3,308.6,M,-23.7,M,0.8,0000*43
$GPGSA,A,3,30,32,31,23,16,20,,,,,,,5.8,2.3,5.4*3B
$GPRMC,214651.000,A,3352.0722,N,09831.8474,W,0.20,16.90,010412,,,D*4A
$GPGGA,214652.000,3352.0724,N,09831.8474,W,2,06,2.3,309.2,M,-23.7,M,0.8,0000*43
$GPGSA,A,3,30,32,31,23,16,20,,,,,,,5.8,2.3,5.4*3B
$GPGSV,3,1,12,30,68,085,30,32,65,208,36,16,60,157,26,20,56,269,41*79
$GPGSV,3,2,12,23,36,313,41,31,31,048,30,06,09,144,33,13,08,301,23*73
$GPGSV,3,3,12,14,07,107,29,03,07,158,25,01,05,227,,29,01,049,*7E
$GPRMC,214652.000,A,3352.0724,N,09831.8474,W,0.17,13.07,010412,,,D*40
$GPGGA,214653.000,3352.0726,N,09831.8475,W,2,06,2.3,309.7,M,-23.7,M,0.8,0000*44
$GPGSA,A,3,30,32,31,23,16,20,,,,,,,5.8,2.3,5.4*3B
$GPRMC,214653.000,A,3352.0726,N,09831.8475,W,0.19,15.49,010412,,,D*40
$GPGGA,214654.000,3352.0726,N,09831.8475,W,2,06,2.3,310.0,M,-23.7,M,1.8,0000*4D
$GPGSA,A,3,30,32,31,23,16,20,,,,,,,5.8,2.3,5.4*3B
$GPRMC,214654.000,A,3352.0726,N,09831.8475,W,0.16,27.62,010412,,,D*40
$GPGGA,214655.000,3352.0727,N,09831.8475,W,2,06,2.3,310.1,M,-23.7,M,2.8,0000*4F
$GPGSA,A,3,30,32,31,23,16,20,,,,,,,5.8,2.3,5.4*3B
$GPRMC,214655.000,A,3352.0727,N,09831.8475,W,0.15,14.55,010412,,,D*47
$GPGGA,214656.000,3352.0727,N,09831.8475,W,2,06,2.3,310.2,M,-23.7,M,3.8,0000*4E
$GPGSA,A,3,30,32,31,23,16,20,,,,,,,5.8,2.3,5.4*3B
$GPRMC,214656.000,A,3352.0727,N,09831.8475,W,0.15,26.93,010412,,,D*4F
$GPGGA,214657.000,3352.0728,N,09831.8475,W,2,06,2.3,310.5,M,-23.7,M,0.8,0000*44
$GPGSA,A,3,30,32,31,23,16,20,,,,,,,5.8,2.3,5.4*3B
$GPGSV,3,1,12,30,68,085,30,32,65,208,36,16,60,157,26,20,56,269,41*79
$GPGSV,3,2,12,23,36,313,41,31,31,048,31,06,09,144,33,13,08,301,23*72
$GPGSV,3,3,12,14,07,107,29,03,07,158,24,01,05,227,,29,01,049,*7F
$GPRMC,214657.000,A,3352.0728,N,09831.8475,W,0.07,174.57,010412,,,D*7C
$GPGGA,214658.000,3352.0728,N,09831.8475,W,2,06,2.3,310.6,M,-23.7,M,0.8,0000*48
$GPGSA,A,3,30,32,31,23,16,20,,,,,,,5.8,2.3,5.4*3B
$GPRMC,214658.000,A,3352.0728,N,09831.8475,W,0.04,182.05,010412,,,D*7E
$GPGGA,214659.000,3352.0728,N,09831.8475,W,2,06,2.3,310.7,M,-23.7,M,0.8,0000*48
$GPGSA,A,3,30,32,31,23,16,20,,,,,,,5.8,2.3,5.4*3B
$GPRMC,214659.000,A,3352.0728,N,09831.8475,W,0.04,151.66,010412,,,D*74
$GPGGA,214700.000,3352.0728,N,09831.8475,W,2,06,2.3,310.8,M,-23.7,M,1.8,0000*4B
$GPGSA,A,3,30,32,31,23,16,20,,,,,,,5.8,2.3,5.3*3C
$GPRMC,214700.000,A,3352.0728,N,09831.8475,W,0.08,189.10,010412,,,D*71
$GPGGA,214701.000,3352.0728,N,09831.8475,W,2,06,2.3,310.9,M,-23.7,M,2.8,0000*48
$GPGSA,A,3,30,32,31,23,16,20,,,,,,,5.8,2.3,5.3*3C
$GPRMC,214701.000,A,3352.0728,N,09831.8475,W,0.06,144.15,010412,,,D*7A
$GPGGA,214702.000,3352.0728,N,09831.8475,W,2,06,2.3,310.9,M,-23.7,M,3.8,0000*4A
$GPGSA,A,3,30,32,31,23,16,20,,,,,,,5.8,2.3,5.3*3C
$GPGSV,3,1,12,30,68,085,29,32,65,208,36,16,60,157,27,20,56,269,41*70
$GPGSV,3,2,12,23,36,313,41,31,31,048,31,06,09,144,33,13,08,301,23*72
$GPGSV,3,3,12,14,07,107,30,03,07,158,23,01,05,227,,29,01,049,*70
$GPRMC,214702.000,A,3352.0728,N,09831.8475,W,0.07,174.66,010412,,,D*7F
$GPGGA,214703.000,3352.0728,N,09831.8475,W,2,06,2.3,310.7,M,-23.7,M,0.8,0000*46
$GPGSA,A,3,30,32,31,23,16,20,,,,,,,5.8,2.3,5.3*3C
$GPRMC,214703.000,A,3352.0728,N,09831.8475,W,0.13,24.37,010412,,,D*4B
$GPGGA,214704.000,3352.0728,N,09831.8475,W,2,06,2.3,310.7,M,-23.7,M,0.8,0000*41
$GPGSA,A,3,30,32,31,23,16,20,,,,,,,5.8,2.3,5.3*3C
$GPRMC,214704.000,A,3352.0728,N,09831.8475,W,0.06,51.09,010412,,,D*47
$GPGGA,214705.000,3352.0727,N,09831.8475,W,2,06,2.3,310.6,M,-23.7,M,0.8,0000*4E
$GPGSA,A,3,30,32,31,23,16,20,,,,,,,5.8,2.3,5.3*3C
$GPRMC,214705.000,A,3352.0727,N,09831.8475,W,0.09,57.15,010412,,,D*4D
$GPGGA,214706.000,3352.0727,N,09831.8475,W,2,06,2.3,310.5,M,-23.7,M,0.8,0000*4E
$GPGSA,A,3,30,32,31,23,16,20,,,,,,,5.8,2.3,5.3*3C
$GPRMC,214706.000,A,3352.0727,N,09831.8475,W,0.06,59.82,010412,,,D*41
$GPGGA,214707.000,3352.0727,N,09831.8475,W,2,06,2.3,310.4,M,-23.7,M,1.8,0000*4F
$GPGSA,A,3,30,32,31,23,16,20,,,,,,,5.8,2.3,5.3*3C
$GPGSV,3,1,12,30,68,085,29,32,65,208,36,16,60,157,27,20,56,269,41*70
$GPGSV,3,2,12,23,36,313,41,31,31,048,31,06,09,144,33,13,08,301,24*75
$GPGSV,3,3,12,14,07,107,30,03,07,158,17,01,05,227,,29,01,049,*77
$GPRMC,214707.000,A,3352.0727,N,09831.8475,W,0.06,62.56,010412,,,D*41
$GPGGA,214708.000,3352.0727,N,09831.8475,W,2,06,2.3,310.3,M,-23.7,M,2.8,0000*44
$GPGSA,A,3,30,32,31,23,16,20,,,,,,,5.8,2.3,5.3*3C
$GPRMC,214708.000,A,3352.0727,N,09831.8475,W,0.03,101.42,010412,,,D*7A
$GPGGA,214709.000,3352.0727,N,09831.8475,W,2,06,2.3,310.2,M,-23.7,M,0.8,0000*46
$GPGSA,A,3,30,32,31,23,16,20,,,,,,,5.8,2.3,5.3*3C
$GPRMC,214709.000,A,3352.0727,N,09831.8475,W,0.17,174.24,010412,,,D*7C
$GPGGA,214710.000,3352.0726,N,09831.8475,W,2,06,2.3,310.1,M,-23.7,M,0.8,0000*4C
$GPGSA,A,3,30,32,31,23,16,20,,,,,,,5.8,2.3,5.3*3C
$GPRMC,214710.000,A,3352.0726,N,09831.8475,W,0.17,176.78,010412,,,D*7E
$GPGGA,214711.000,3352.0725,N,09831.8475,W,2,06,2.3,310.0,M,-23.7,M,0.8,0000*4F
$GPGSA,A,3,30,32,31,23,16,20,,,,,,,5.8,2.3,5.3*3C
$GPRMC,214711.000,A,3352.0725,N,09831.8475,W,0.17,175.83,010412,,,D*7B
$GPGGA,214712.000,3352.0725,N,09831.8475,W,2,06,2.3,309.9,M,-23.7,M,1.8,0000*4C
$GPGSA,A,3,30,32,31,23,16,20,,,,,,,5.8,2.3,5.3*3C
$GPGSV,3,1,12,30,68,085,29,32,65,208,36,16,60,157,27,20,56,269,41*70
$GPGSV,3,2,12,23,36,313,40,31,31,048,31,06,09,144,33,13,08,301,24*74
$GPGSV,3,3,12,14,07,107,30,03,07,158,18,01,05,227,,29,01,049,*78
$GPRMC,214712.000,A,3352.0725,N,09831.8475,W,0.15,176.72,010412,,,D*77
$GPGGA,214713.000,3352.0724,N,09831.8475,W,2,06,2.3,309.7,M,-23.7,M,2.8,0000*41
$GPGSA,A,3,30,32,31,23,16,20,,,,,,,5.8,2.3,5.3*3C
$GPRMC,214713.000,A,3352.0724,N,09831.8475,W,0.18,176.21,010412,,,D*7C
$GPGGA,214714.000,3352.0724,N,09831.8476,W,2,06,2.3,309.6,M,-23.7,M,3.8,0000*45
$GPGSA,A,3,30,32,31,23,16,20,,,,,,,5.8,2.3,5.3*3C
$GPRMC,214714.000,A,3352.0724,N,09831.8476,W,0.17,181.18,010412,,,D*75
$GPGGA,214715.000,3352.0723,N,09831.8476,W,2,06,2.3,309.4,M,-23.7,M,0.8,0000*42
$GPGSA,A,3,30,32,31,23,16,20,,,,,,,5.8,2.3,5.3*3C
$GPRMC,214715.000,A,3352.0723,N,09831.8476,W,0.05,98.76,010412,,,D*41
$GPGGA,214716.000,3352.0723,N,09831.8476,W,2,06,2.3,309.2,M,-23.7,M,0.8,0000*47
$GPGSA,A,3,30,32,31,23,16,20,,,,,,,5.8,2.3,5.3*3C
$GPRMC,214716.000,A,3352.0723,N,09831.8476,W,0.06,129.08,010412,,,D*73
$GPGGA,214717.000,3352.0723,N,09831.8475,W,2,06,2.3,309.1,M,-23.7,M,0.8,0000*46
$GPGSA,A,3,30,32,31,23,16,20,,,,,,,5.8,2.3,5.3*3C
$GPGSV,3,1,12,30,68,085,29,32,65,208,36,16,60,157,28,20,56,269,41*7F
$GPGSV,3,2,12,23,36,313,40,31,31,048,31,06,09,144,32,13,08,301,24*75
$GPGSV,3,3,12,14,07,107,30,03,07,158,17,01,05,227,,29,01,049,*77
$GPRMC,214717.000,A,3352.0723,N,09831.8475,W,0.06,124.83,010412,,,D*7F
$GPGGA,214718.000,3352.0723,N,09831.8475,W,2,06,2.3,309.0,M,-23.7,M,1.8,0000*49
$GPGSA,A,3,30,32,31,23,16,20,,,,,,,5.8,2.3,5.3*3C
$GPRMC,214718.000,A,3352.0723,N,09831.8475,W,0.07,135.66,010412,,,D*7A
$GPGGA,214719.000,3352.0723,N,09831.8475,W,2,06,2.3,308.9,M,-23.7,M,2.8,0000*43
$GPGSA,A,3,30,32,31,23,16,20,,,,,,,5.8,2.3,5.3*3C
$GPRMC,214719.000,A,3352.0723,N,09831.8475,W,0.08,144.18,010412,,,D*7B
$GPGGA,214720.000,3352.0723,N,09831.8475,W,2,06,2.3,308.9,M,-23.7,M,3.8,0000*48
$GPGSA,A,3,30,32,31,23,16,20,,,,,,,5.8,2.3,5.3*3C
$GPRMC,214720.000,A,3352.0723,N,09831.8475,W,0.08,141.02,010412,,,D*7F
$GPGGA,214721.000,3352.0722,N,09831.8476,W,2,06,2.3,308.9,M,-23.7,M,0.8,0000*48
$GPGSA,A,3,30,32,31,23,16,20,,,,,,,5.8,2.3,5.3*3C
$GPRMC,214721.000,A,3352.0722,N,09831.8476,W,0.23,183.30,010412,,,D*7A
$GPGGA,214722.000,3352.0722,N,09831.8476,W,2,06,2.3,308.9,M,-23.7,M,0.8,0000*4B
$GPGSA,A,3,30,32,31,23,16,20,,,,,,,5.8,2.3,5.3*3C
$GPGSV,3,1,12,30,68,085,28,32,65,208,35,16,60,157,28,20,56,269,41*7D
$GPGSV,3,2,12,23,36,313,40,31,31,048,32,06,09,144,31,13,08,301,23*72
$GPGSV,3,3,12,14,07,107,30,03,07,158,17,01,05,227,,29,01,049,*77
$GPRMC,214722.000,A,3352.0722,N,09831.8476,W,0.24,177.06,010412,,,D*70
$GPGGA,214723.000,3352.0722,N,09831.8476,W,2,06,2.3,308.9,M,-23.7,M,0.8,0000*4A
$GPGSA,A,3,30,32,31,23,16,20,,,,,,,5.8,2.3,5.3*3C
$GPRMC,214723.000,A,3352.0722,N,09831.8476,W,0.19,177.94,010412,,,D*74
$GPGGA,214724.000,3352.0721,N,09831.8476,W,2,06,2.3,308.8,M,-23.7,M,0.8,0000*4F
$GPGSA,A,3,30,32,31,23,16,20,,,,,,,5.8,2.3,5.3*3C
$GPRMC,214724.000,A,3352.0721,N,09831.8476,W,0.21,179.04,010412,,,D*7C
$GPGGA,214725.000,3352.0721,N,09831.8476,W,2,06,2.3,308.8,M,-23.7,M,1.8,0000*4F
$GPGSA,A,3,30,32,31,23,16,20,,,,,,,5.8,2.3,5.3*3C
$GPRMC,214725.000,A,3352.0721,N,09831.8476,W,0.19,179.35,010412,,,D*74
$GPGGA,214726.000,3352.0721,N,09831.8476,W,2,06,2.3,308.7,M,-23.7,M,0.8,0000*42
$GPGSA,A,3,30,32,31,23,16,20,,,,,,,5.8,2.3,5.3*3C
$GPRMC,214726.000,A,3352.0721,N,09831.8476,W,0.18,170.57,010412,,,D*7B
$GPGGA,214727.000,3352.0720,N,09831.8476,W,2,06,2.3,308.5,M,-23.7,M,0.8,0000*40
$GPGSA,A,3,30,32,31,23,16,20,,,,,,,5.8,2.3,5.3*3C
$GPGSV,3,1,12,30,68,085,28,32,65,208,35,16,60,157,28,20,56,269,41*7D
$GPGSV,3,2,12,23,36,313,40,31,31,048,32,06,09,144,31,13,08,301,23*72
$GPGSV,3,3,12,14,07,107,30,03,07,158,17,01,05,227,,29,01,049,*77
$GPRMC,214727.000,A,3352.0720,N,09831.8476,W,0.05,122.24,010412,,,D*74
$GPGGA,214728.000,3352.0720,N,09831.8476,W,2,06,2.3,308.3,M,-23.7,M,0.8,0000*49
$GPGSA,A,3,30,32,31,23,16,20,,,,,,,5.8,2.3,5.3*3C
$GPRMC,214728.000,A,3352.0720,N,09831.8476,W,0.08,143.10,010412,,,D*76
$GPGGA,214729.000,3352.0720,N,09831.8476,W,2,06,2.3,308.2,M,-23.7,M,0.8,0000*49
$GPGSA,A,3,30,32,31,23,16,20,,,,,,,5.8,2.3,5.3*3C
$GPRMC,214729.000,A,3352.0720,N,09831.8476,W,0.07,147.61,010412,,,D*7A
$GPGGA,214730.000,3352.0719,N,09831.8476,W,2,06,2.3,308.0,M,-23.7,M,1.8,0000*48
$GPGSA,A,3,30,32,31,23,16,20,,,,,,,5.8,2.3,5.3*3C
$GPRMC,214730.000,A,3352.0719,N,09831.8476,W,0.10,158.58,010412,,,D*7A
$GPGGA,214731.000,3352.0719,N,09831.8476,W,2,06,2.3,307.8,M,-23.7,M,0.8,0000*4F
$GPGSA,A,3,30,32,31,23,16,20,,,,,,,5.8,2.3,5.3*3C
$GPRMC,214731.000,A,3352.0719,N,09831.8476,W,0.09,140.97,010412,,,D*79
$GPGGA,214732.000,3352.0719,N,09831.8476,W,2,06,2.3,307.7,M,-23.7,M,1.8,0000*42
$GPGSA,A,3,30,32,31,23,16,20,,,,,,,5.8,2.3,5.3*3C
$GPGSV,3,1,12,30,68,085,28,32,65,208,35,16,60,157,28,20,56,269,41*7D
$GPGSV,3,2,12,23,36,313,40,31,31,048,32,06,09,144,31,13,08,301,23*72
$GPGSV,3,3,12,14,07,107,30,03,07,158,18,01,05,227,,29,01,049,*78
$GPRMC,214732.000,A,3352.0719,N,09831.8476,W,0.09,158.60,010412,,,D*7B
$GPGGA,214733.000,3352.0718,N,09831.8476,W,2,06,2.3,307.7,M,-23.7,M,0.8,0000*43
$GPGSA,A,3,30,32,31,23,16,20,,,,,,,5.8,2.3,5.3*3C
$GPRMC,214733.000,A,3352.0718,N,09831.8476,W,0.27,178.36,010412,,,D*76
$GPGGA,214734.000,3352.0718,N,09831.8476,W,2,06,2.3,307.6,M,-23.7,M,0.8,0000*45
$GPGSA,A,3,30,32,31,23,16,20,,,,,,,5.8,2.3,5.3*3C
$GPRMC,214734.000,A,3352.0718,N,09831.8476,W,0.25,176.99,010412,,,D*78
$GPGGA,214735.000,3352.0717,N,09831.8477,W,2,06,2.3,307.5,M,-23.7,M,0.8,0000*49
$GPGSA,A,3,30,32,31,23,16,20,,,,,,,5.8,2.3,5.3*3C
$GPRMC,214735.000,A,3352.0717,N,09831.8477,W,0.23,178.48,010412,,,D*73
$GPGGA,214736.000,3352.0717,N,09831.8477,W,2,06,2.3,307.4,M,-23.7,M,1.8,0000*4A
$GPGSA,A,3,30,32,31,23,16,20,,,,,,,5.8,2.3,5.3*3C
$GPRMC,214736.000,A,3352.0717,N,09831.8477,W,0.25,179.79,010412,,,D*75
$GPGGA,214737.000,3352.0716,N,09831.8477,W,2,06,2.3,307.4,M,-23.7,M,0.8,0000*4B
$GPGSA,A,3,30,32,31,23,16,20,,,,,,,5.8,2.3,5.3*3C
$GPGSV,3,1,12,30,68,085,28,32,65,208,35,16,60,157,28,20,56,269,41*7D
$GPGSV,3,2,12,23,36,313,40,31,31,048,33,06,09,144,31,13,08,301,23*73
$GPGSV,3,3,12,14,07,107,30,03,07,158,19,01,05,227,,29,01,049,*79
$GPRMC,214737.000,A,3352.0716,N,09831.8477,W,0.20,183.24,010412,,,D*7D
$GPGGA,214738.000,3352.0716,N,09831.8477,W,2,06,2.3,307.3,M,-23.7,M,1.8,0000*42
$GPGSA,A,3,30,32,31,23,16,20,,,,,,,5.8,2.3,5.3*3C
$GPRMC,214738.000,A,3352.0716,N,09831.8477,W,0.21,182.07,010412,,,D*73
$GPGGA,214739.000,3352.0715,N,09831.8477,W,2,06,2.3,307.1,M,-23.7,M,0.8,0000*43
$GPGSA,A,3,30,32,31,23,16,20,,,,,,,5.8,2.3,5.3*3C
$GPRMC,214739.000,A,3352.0715,N,09831.8477,W,0.07,126.61,010412,,,D*7B
$GPGGA,214740.000,3352.0715,N,09831.8477,W,2,06,2.3,306.9,M,-23.7,M,0.8,0000*44
$GPGSA,A,3,30,32,31,23,16,20,,,,,,,5.8,2.3,5.3*3C
$GPRMC,214740.000,A,3352.0715,N,09831.8477,W,0.09,157.96,010412,,,D*75
$GPGGA,214741.000,3352.0715,N,09831.8477,W,2,06,2.3,306.8,M,-23.7,M,0.8,0000*44
$GPGSA,A,3,30,32,31,23,16,20,,,,,,,5.8,2.3,5.3*3C
$GPRMC,214741.000,A,3352.0715,N,09831.8477,W,0.09,154.37,010412,,,D*7C
$GPGGA,214742.000,3352.0715,N,09831.8477,W,2,06,2.3,306.7,M,-23.7,M,0.8,0000*48
$GPGSA,A,3,30,32,31,23,16,20,,,,,,,5.8,2.3,5.3*3C
$GPGSV,3,1,12,30,68,085,28,32,65,208,35,16,60,157,29,20,56,269,41*7C
$GPGSV,3,2,12,23,36,313,41,31,31,048,33,06,09,144,32,13,08,301,23*71
$GPGSV,3,3,12,14,07,107,30,03,07,158,19,01,05,227,,29,01,049,*79
$GPRMC,214742.000,A,3352.0715,N,09831.8477,W,0.10,151.49,010412,,,D*7B
$GPGGA,214743.000,3352.0714,N,09831.8477,W,2,06,2.3,306.5,M,-23.7,M,1.8,0000*4B
$GPGSA,A,3,30,32,31,23,16,20,,,,,,,5.8,2.3,5.3*3C
$GPRMC,214743.000,A,3352.0714,N,09831.8477,W,0.10,149.05,010412,,,D*7A
$GPGGA,214744.000,3352.0714,N,09831.8477,W,2,06,2.3,306.3,M,-23.7,M,2.8,0000*49
$GPGSA,A,3,30,32,31,23,16,20,,,,,,,5.8,2.3,5.3*3C
$GPRMC,214744.000,A,3352.0714,N,09831.8477,W,0.13,172.00,010412,,,D*73
$GPGGA,214745.000,3352.0714,N,09831.8477,W,2,06,2.3,306.3,M,-23.7,M,0.8,0000*4A
$GPGSA,A,3,30,32,31,23,16,20,,,,,,,5.8,2.3,5.3*3C
$GPRMC,214745.000,A,3352.0714,N,09831.8477,W,0.26,181.17,010412,,,D*7E
$GPGGA,214746.000,3352.0713,N,09831.8477,W,2,06,2.3,306.3,M,-23.7,M,0.8,0000*4E
$GPGSA,A,3,30,32,31,23,16,20,,,,,,,5.8,2.3,5.3*3C
$GPRMC,214746.000,A,3352.0713,N,09831.8477,W,0.24,182.53,010412,,,D*7B
$GPGGA,214747.000,3352.0713,N,09831.8478,W,2,06,2.3,306.2,M,-23.7,M,0.8,0000*41
$GPGSA,A,3,30,32,31,23,16,20,,,,,,,5.8,2.3,5.3*3C
$GPGSV,3,1,12,30,68,085,28,32,65,208,35,16,60,157,29,20,56,269,41*7C
$GPGSV,3,2,12,23,36,313,41,31,31,048,33,06,09,144,32,13,08,301,22*70
$GPGSV,3,3,12,14,07,107,29,03,07,158,19,01,05,227,,29,01,049,*71
$GPRMC,214747.000,A,3352.0713,N,09831.8478,W,0.22,181.89,010412,,,D*77
$GPGGA,214748.000,3352.0712,N,09831.8478,W,2,06,2.3,306.1,M,-23.7,M,1.8,0000*4D
$GPGSA,A,3,30,32,31,23,16,20,,,,,,,5.8,2.3,5.3*3C
$GPRMC,214748.000,A,3352.0712,N,09831.8478,W,0.26,182.05,010412,,,D*7A
$GPGGA,214749.000,3352.0712,N,09831.8478,W,2,06,2.3,306.0,M,-23.7,M,2.8,0000*4E
$GPGSA,A,3,30,32,31,23,16,20,,,,,,,5.8,2.3,5.3*3C
$GPRMC,214749.000,A,3352.0712,N,09831.8478,W,0.25,178.90,010412,,,D*71
$GPGGA,214750.000,3352.0711,N,09831.8478,W,2,06,2.3,305.9,M,-23.7,M,3.8,0000*4E
$GPGSA,A,3,30,32,31,23,16,20,,,,,,,5.8,2.3,5.3*3C
$GPRMC,214750.000,A,3352.0711,N,09831.8478,W,0.25,181.11,010412,,,D*75
$GPGGA,214751.000,3352.0711,N,09831.8478,W,2,06,2.3,305.7,M,-23.7,M,0.8,0000*42
$GPGSA,A,3,30,32,31,23,16,20,,,,,,,5.8,2.3,5.3*3C
$GPRMC,214751.000,A,3352.0711,N,09831.8478,W,0.07,147.17,010412,,,D*78
$GPGGA,214752.000,3352.0711,N,09831.8478,W,2,06,2.3,305.5,M,-23.7,M,0.8,0000*43
$GPGSA,A,3,30,32,31,23,16,20,,,,,,,5.8,2.3,5.3*3C
$GPGSV,3,1,12,30,68,085,28,32,65,208,35,16,60,157,30,20,56,269,41*74
$GPGSV,3,2,12,23,36,313,41,31,31,048,33,06,09,144,33,13,08,301,21*72
$GPGSV,3,3,12,14,07,107,28,03,07,158,20,01,05,227,,29,01,049,*7A
$GPRMC,214752.000,A,3352.0711,N,09831.8478,W,0.11,162.16,010412,,,D*7A
$GPGGA,214753.000,3352.0710,N,09831.8478,W,2,06,2.3,305.4,M,-23.7,M,0.8,0000*42
$GPGSA,A,3,30,32,31,23,16,20,,,,,,,5.8,2.3,5.3*3C
$GPRMC,214753.000,A,3352.0710,N,09831.8478,W,0.10,153.37,010412,,,D*7A
$GPGGA,214754.000,3352.0710,N,09831.8478,W,2,06,2.3,305.2,M,-23.7,M,1.8,0000*42
$GPGSA,A,3,30,32,31,23,16,20,,,,,,,5.8,2.3,5.3*3C
$GPRMC,214754.000,A,3352.0710,N,09831.8478,W,0.09,159.06,010412,,,D*7D
$GPGGA,214755.000,3352.0710,N,09831.8478,W,2,06,2.3,305.0,M,-23.7,M,0.8,0000*40
$GPGSA,A,3,30,32,31,23,16,20,,,,,,,5.8,2.3,5.3*3C
$GPRMC,214755.000,A,3352.0710,N,09831.8478,W,0.12,175.75,010412,,,D*7C
$GPGGA,214756.000,3352.0709,N,09831.8478,W,2,06,2.3,304.8,M,-23.7,M,1.8,0000*43
$GPGSA,A,3,30,32,31,23,16,20,,,,,,,5.8,2.3,5.3*3C
$GPRMC,214756.000,A,3352.0709,N,09831.8478,W,0.12,158.31,010412,,,D*78
$GPGGA,214757.000,3352.0709,N,09831.8479,W,2,06,2.3,304.6,M,-23.7,M,0.8,0000*4C
$GPGSA,A,3,30,32,31,23,16,20,,,,,,,5.8,2.3,5.3*3C
$GPGSV,3,1,12,30,68,085,28,32,65,208,35,16,60,157,31,20,56,269,41*75
$GPGSV,3,2,12,23,36,313,41,31,31,048,33,06,09,144,34,13,08,301,21*75
$GPGSV,3,3,12,14,07,107,28,03,07,158,22,01,05,227,,29,01,049,*78
$GPRMC,214757.000,A,3352.0709,N,09831.8479,W,0.30,183.50,010412,,,D*79
$GPGGA,214758.000,3352.0708,N,09831.8479,W,2,06,2.3,304.3,M,-23.7,M,0.8,0000*47
$GPGSA,A,3,30,32,31,23,16,20,,,,,,,5.8,2.3,5.3*3C
$GPRMC,214758.000,A,3352.0708,N,09831.8479,W,0.31,180.53,010412,,,D*76
$GPGGA,214759.000,3352.0707,N,09831.8479,W,2,06,2.3,304.0,M,-23.7,M,0.8,0000*4A
$GPGSA,A,3,30,32,31,23,16,20,,,,,,,5.8,2.3,5.3*3C
$GPRMC,214759.000,A,3352.0707,N,09831.8479,W,0.29,184.06,010412,,,D*75
$GPGGA,214800.000,3352.0706,N,09831.8479,W,2,06,2.3,303.7,M,-23.7,M,0.8,0000*48
$GPGSA,A,3,30,32,31,23,16,20,,,,,,,5.8,2.3,5.3*3C
$GPRMC,214800.000,A,3352.0706,N,09831.8479,W,0.30,181.22,010412,,,D*7C
$GPGGA,214801.000,3352.0705,N,09831.8480,W,2,06,2.3,303.4,M,-23.7,M,1.8,0000*4E
$GPGSA,A,3,30,32,31,23,16,20,,,,,,,5.8,2.3,5.3*3C
$GPRMC,214801.000,A,3352.0705,N,09831.8480,W,0.33,185.93,010412,,,D*75
$GPGGA,214802.000,3352.0705,N,09831.8480,W,2,06,2.3,303.1,M,-23.7,M,2.8,0000*4B
$GPGSA,A,3,30,32,31,23,16,20,,,,,,,5.8,2.3,5.3*3C
$GPGSV,3,1,12,30,68,085,28,32,65,208,35,16,60,157,31,20,56,269,41*75
$GPGSV,3,2,12,23,36,313,41,31,31,048,33,06,09,144,34,13,08,301,21*75
$GPGSV,3,3,12,14,07,107,27,03,07,158,23,01,05,227,,29,01,049,*76
$GPRMC,214802.000,A,3352.0705,N,09831.8480,W,0.32,180.67,010412,,,D*79
$GPGGA,214803.000,3352.0704,N,09831.8480,W,2,06,2.3,302.8,M,-23.7,M,0.8,0000*41
$GPGSA,A,3,30,32,31,23,16,20,,,,,,,5.8,2.3,5.3*3C
$GPRMC,214803.000,A,3352.0704,N,09831.8480,W,0.15,160.97,010412,,,D*7D
$GPGGA,214804.000,3352.0704,N,09831.8480,W,2,06,2.3,302.6,M,-23.7,M,0.8,0000*48
$GPGSA,A,3,30,32,31,23,16,20,,,,,,,5.8,2.3,5.3*3C
$GPRMC,214804.000,A,3352.0704,N,09831.8480,W,0.15,176.14,010412,,,D*76
$GPGGA,214805.000,3352.0703,N,09831.8480,W,2,06,2.3,302.3,M,-23.7,M,0.8,0000*4B
$GPGSA,A,3,30,32,31,23,16,20,,,,,,,5.8,2.3,5.3*3C
$GPRMC,214805.000,A,3352.0703,N,09831.8480,W,0.18,165.87,010412,,,D*75
$GPGGA,214806.000,3352.0703,N,09831.8480,W,2,06,2.3,302.1,M,-23.7,M,1.8,0000*4B
$GPGSA,A,3,30,32,31,23,16,20,,,,,,,5.8,2.3,5.3*3C
$GPRMC,214806.000,A,3352.0703,N,09831.8480,W,0.17,173.71,010412,,,D*77
$GPGGA,214807.000,3352.0703,N,09831.8480,W,2,06,2.3,301.9,M,-23.7,M,2.8,0000*42
$GPGSA,A,3,30,32,31,23,16,20,,,,,,,5.8,2.3,5.3*3C
$GPGSV,3,1,12,30,68,085,27,32,65,208,34,16,60,157,31,20,56,269,41*7B
$GPGSV,3,2,12,23,36,313,40,31,31,048,33,06,09,144,35,13,08,301,21*75
$GPGSV,3,3,12,14,07,107,27,03,07,158,24,01,05,227,,29,01,049,*71
$GPRMC,214807.000,A,3352.0703,N,09831.8480,W,0.18,179.18,010412,,,D*7C
$GPGGA,214808.000,3352.0702,N,09831.8480,W,2,06,2.3,301.6,M,-23.7,M,3.8,0000*42
$GPGSA,A,3,30,32,31,23,16,20,,,,,,,5.8,2.3,5.3*3C
$GPRMC,214808.000,A,3352.0702,N,09831.8480,W,0.18,167.82,010412,,,D*7E
$GPGGA,214809.000,3352.0702,N,09831.8481,W,2,06,2.3,301.5,M,-23.7,M,0.8,0000*42
$GPGSA,A,3,30,32,31,23,16,20,,,,,,,5.8,2.3,5.3*3C
$GPRMC,214809.000,A,3352.0702,N,09831.8481,W,0.35,184.18,010412,,,D*7F
$GPGGA,214810.000,3352.0701,N,09831.8481,W,2,06,2.3,301.2,M,-23.7,M,0.8,0000*4E
$GPGSA,A,3,30,32,31,23,16,20,,,,,,,5.8,2.3,5.3*3C
$GPRMC,214810.000,A,3352.0701,N,09831.8481,W,0.36,183.97,010412,,,D*77
$GPGGA,214811.000,3352.0700,N,09831.8481,W,2,06,2.3,300.9,M,-23.7,M,0.8,0000*44
$GPGSA,A,3,30,32,31,23,16,20,,,,,,,5.8,2.3,5.3*3C
$GPRMC,214811.000,A,3352.0700,N,09831.8481,W,0.34,183.10,010412,,,D*7A
$GPGGA,214812.000,3352.0699,N,09831.8481,W,2,06,2.3,300.5,M,-23.7,M,0.8,0000*4A
$GPGSA,A,3,30,32,31,23,16,20,,,,,,,5.8,2.3,5.3*3C
$GPGSV,3,1,12,30,68,085,27,32,65,208,34,16,60,157,31,20,56,269,41*7B
$GPGSV,3,2,12,23,36,313,40,31,31,048,33,06,09,144,35,13,08,301,*76
$GPGSV,3,3,12,14,07,107,27,03,07,158,26,01,05,227,12,29,01,049,*70
$GPRMC,214812.000,A,3352.0699,N,09831.8481,W,0.37,183.35,010412,,,D*7C
$GPGGA,214813.000,3352.0698,N,09831.8482,W,2,06,2.3,300.2,M,-23.7,M,0.8,0000*4E
$GPGSA,A,3,30,32,31,23,16,20,,,,,,,5.8,2.3,5.3*3C
$GPRMC,214813.000,A,3352.0698,N,09831.8482,W,0.35,182.87,010412,,,D*75
$GPGGA,214814.000,3352.0698,N,09831.8482,W,2,06,2.3,299.9,M,-23.7,M,0.8,0000*43
$GPGSA,A,3,30,32,31,23,16,20,,,,,,,5.8,2.3,5.3*3C
$GPRMC,214814.000,A,3352.0698,N,09831.8482,W,0.36,180.03,010412,,,D*7F
$GPGGA,214815.000,3352.0697,N,09831.8482,W,2,06,2.3,299.4,M,-23.7,M,0.8,0000*40
$GPGSA,A,3,30,32,31,23,16,20,,,,,,,5.8,2.3,5.3*3C
$GPRMC,214815.000,A,3352.0697,N,09831.8482,W,0.20,175.33,010412,,,D*7F
$GPGGA,214816.000,3352.0696,N,09831.8482,W,2,06,2.3,299.0,M,-23.7,M,0.8,0000*46
$GPGSA,A,3,30,32,31,23,16,20,,,,,,,5.8,2.3,5.3*3C
$GPRMC,214816.000,A,3352.0696,N,09831.8482,W,0.22,179.07,010412,,,D*74
$GPGGA,214817.000,3352.0695,N,09831.8483,W,2,06,2.3,298.6,M,-23.7,M,0.8,0000*42
$GPGSA,A,3,30,32,31,23,16,20,,,,,,,5.8,2.3,5.3*3C
$GPGSV,3,1,12,30,68,085,26,32,65,208,34,16,60,157,31,20,56,269,41*7A
$GPGSV,3,2,12,23,36,313,40,31,31,048,33,06,09,144,34,13,08,301,22*77
$GPGSV,3,3,12,14,07,107,27,03,07,158,27,01,05,227,,29,01,049,*72
$GPRMC,214817.000,A,3352.0695,N,09831.8483,W,0.23,175.29,010412,,,D*76
$GPGGA,214818.000,3352.0695,N,09831.8483,W,2,06,2.3,298.3,M,-23.7,M,1.8,0000*49
$GPGSA,A,3,30,32,31,23,16,20,,,,,,,5.8,2.3,5.3*3C
$GPRMC,214818.000,A,3352.0695,N,09831.8483,W,0.23,174.70,010412,,,D*74
$GPGGA,214819.000,3352.0693,N,09831.8483,W,2,06,2.3,297.4,M,-23.7,M,2.8,0000*45
$GPGSA,A,3,30,32,31,23,16,20,,,,,,,5.8,2.3,5.3*3C
$GPRMC,214819.000,A,3352.0693,N,09831.8483,W,0.28,173.99,010412,,,D*78
$GPGGA,214820.000,3352.0694,N,09831.8483,W,2,06,2.3,297.9,M,-23.7,M,3.8,0000*44
$GPGSA,A,3,30,32,31,23,16,20,,,,,,,5.8,2.3,5.3*3C
$GPRMC,214820.000,A,3352.0694,N,09831.8483,W,0.21,173.26,010412,,,D*78
$GPGGA,214821.000,3352.0694,N,09831.8483,W,2,06,2.3,297.7,M,-23.7,M,0.8,0000*48
$GPGSA,A,3,30,32,31,23,16,20,,,,,,,5.8,2.3,5.3*3C
$GPRMC,214821.000,A,3352.0694,N,09831.8483,W,0.42,184.90,010412,,,D*79
$GPGGA,214822.000,3352.0693,N,09831.8483,W,2,06,2.3,297.4,M,-23.7,M,0.8,0000*4F
$GPGSA,A,3,30,32,31,23,16,20,,,,,,,5.8,2.3,5.3*3C
$GPGSV,3,1,12,30,68,085,26,32,65,208,34,16,60,157,32,20,56,269,41*79
$GPGSV,3,2,12,23,36,313,40,31,31,048,33,06,09,144,32,13,08,301,22*71
$GPGSV,3,3,12,14,07,107,28,03,07,158,22,01,05,227,,29,01,049,*78
$GPRMC,214822.000,A,3352.0693,N,09831.8483,W,0.41,183.22,010412,,,D*70
$GPGGA,214823.000,3352.0692,N,09831.8484,W,2,06,2.3,297.2,M,-23.7,M,0.8,0000*4E
$GPGSA,A,3,30,32,31,23,16,20,,,,,,,5.8,2.3,5.3*3C
$GPRMC,214823.000,A,3352.0692,N,09831.8484,W,0.32,191.40,010412,,,D*74
$GPGGA,214824.000,3352.0692,N,09831.8484,W,2,06,2.3,297.1,M,-23.7,M,1.8,0000*4B
$GPGSA,A,3,30,32,31,23,16,20,,,,,,,5.8,2.3,5.3*3C
$GPRMC,214824.000,A,3352.0692,N,09831.8484,W,0.30,191.68,010412,,,D*7B
$GPGGA,214825.000,3352.0692,N,09831.8484,W,2,06,2.3,297.0,M,-23.7,M,2.8,0000*48
$GPGSA,A,3,30,32,31,23,16,20,,,,,,,5.8,2.3,5.3*3C
$GPRMC,214825.000,A,3352.0692,N,09831.8484,W,0.29,189.27,010412,,,D*70
$GPGGA,214826.000,3352.0692,N,09831.8484,W,2,06,2.3,296.8,M,-23.7,M,0.8,0000*40
$GPGSA,A,3,30,32,31,23,16,20,,,,,,,5.8,2.3,5.3*3C
$GPRMC,214826.000,A,3352.0692,N,09831.8484,W,0.30,188.08,010412,,,D*77
$GPGGA,214827.000,3352.0691,N,09831.8484,W,2,06,2.3,296.4,M,-23.7,M,0.8,0000*4E
$GPGSA,A,3,30,32,31,23,16,20,,,,,,,5.8,2.3,5.3*3C
$GPGSV,3,1,12,30,68,085,26,32,65,208,34,16,60,157,33,20,56,269,42*7B
$GPGSV,3,2,12,23,36,313,40,31,31,048,32,06,09,144,30,13,08,301,*72
$GPGSV,3,3,12,14,07,107,29,03,07,158,23,01,05,227,,29,01,049,*78
$GPRMC,214827.000,A,3352.0691,N,09831.8484,W,0.18,174.19,010412,,,D*7C
$GPGGA,214828.000,3352.0691,N,09831.8485,W,2,06,2.3,296.0,M,-23.7,M,0.8,0000*44
$GPGSA,A,3,30,32,31,23,16,20,,,,,,,5.8,2.3,5.3*3C
$GPRMC,214828.000,A,3352.0691,N,09831.8485,W,0.21,178.13,010412,,,D*7E
$GPGGA,214829.000,3352.0690,N,09831.8485,W,2,06,2.3,295.6,M,-23.7,M,0.8,0000*41
$GPGSA,A,3,30,32,31,23,16,20,,,,,,,5.8,2.3,5.3*3C
$GPRMC,214829.000,A,3352.0690,N,09831.8485,W,0.25,179.07,010412,,,D*7E
$GPGGA,214830.000,3352.0690,N,09831.8485,W,2,06,2.3,295.2,M,-23.7,M,1.8,0000*4C
$GPGSA,A,3,30,32,31,23,16,20,,,,,,,5.8,2.3,5.3*3C
$GPRMC,214830.000,A,3352.0690,N,09831.8485,W,0.23,180.23,010412,,,D*70
$GPGGA,214831.000,3352.0689,N,09831.8485,W,2,06,2.3,294.8,M,-23.7,M,2.8,0000*4D
$GPGSA,A,3,30,32,31,23,16,20,,,,,,,5.8,2.3,5.3*3C
$GPRMC,214831.000,A,3352.0689,N,09831.8485,W,0.26,178.30,010412,,,D*79
$GPGGA,214832.000,3352.0692,N,09831.8484,W,2,06,2.3,296.1,M,-23.7,M,3.8,0000*4F
$GPGSA,A,3,30,32,31,23,16,20,,,,,,,5.8,2.3,5.3*3C
$GPGSV,3,1,12,30,68,085,26,32,65,208,34,16,60,157,33,20,56,269,42*7B
$GPGSV,3,2,12,23,36,313,40,31,31,048,31,06,09,144,31,13,08,301,*70
$GPGSV,3,3,12,14,07,107,30,03,07,158,23,01,05,227,,29,01,049,*70
$GPRMC,214832.000,A,3352.0692,N,09831.8484,W,0.20,165.19,010412,,,D*70
$GPGGA,214833.000,3352.0696,N,09831.8483,W,2,06,2.3,297.9,M,-23.7,M,0.8,0000*47
$GPGSA,A,3,30,32,31,23,16,20,,,,,,,5.8,2.3,5.3*3C
$GPRMC,214833.000,A,3352.0696,N,09831.8483,W,0.22,191.97,010412,,,D*7D
$GPGGA,214834.000,3352.0694,N,09831.8484,W,2,06,2.3,297.0,M,-23.7,M,0.8,0000*4C
$GPGSA,A,3,30,32,31,23,16,20,,,,,,,5.8,2.3,5.3*3C
$GPRMC,214834.000,A,3352.0694,N,09831.8484,W,0.24,187.46,010412,,,D*72
$GPGGA,214835.000,3352.0694,N,09831.8484,W,2,06,2.3,296.7,M,-23.7,M,0.8,0000*4B
$GPGSA,A,3,30,32,31,23,16,20,,,,,,,5.8,2.3,5.3*3C
$GPRMC,214835.000,A,3352.0694,N,09831.8484,W,0.22,189.97,010412,,,D*77
$GPGGA,214836.000,3352.0694,N,09831.8484,W,2,06,2.3,296.6,M,-23.7,M,1.8,0000*48
$GPGSA,A,3,30,32,31,23,16,20,,,,,,,5.8,2.3,5.3*3C
$GPRMC,214836.000,A,3352.0694,N,09831.8484,W,0.21,188.02,010412,,,D*7A
$GPGGA,214837.000,3352.0694,N,09831.8484,W,2,06,2.3,296.7,M,-23.7,M,2.8,0000*4B
$GPGSA,A,3,30,32,31,23,16,20,,,,,,,5.8,2.3,5.3*3C
$GPGSV,3,1,12,30,68,085,26,32,65,208,35,16,60,157,34,20,56,269,42*7D
$GPGSV,3,2,12,23,36,313,40,31,31,048,30,06,09,144,31,13,08,301,*71
$GPGSV,3,3,12,14,07,107,30,03,07,158,22,01,05,227,,29,01,049,*71
$GPRMC,214837.000,A,3352.0694,N,09831.8484,W,0.23,187.69,010412,,,D*7B
$GPGGA,214838.000,3352.0694,N,09831.8484,W,2,06,2.3,296.7,M,-23.7,M,3.8,0000*45
$GPGSA,A,3,30,32,31,23,16,20,,,,,,,5.8,2.3,5.3*3C
$GPRMC,214838.000,A,3352.0694,N,09831.8484,W,0.19,184.99,010412,,,D*71
$GPGGA,214839.000,3352.0694,N,09831.8484,W,2,06,2.3,296.6,M,-23.7,M,0.8,0000*46
$GPGSA,A,3,30,32,31,23,16,20,,,,,,,5.8,2.3,5.3*3C
$GPRMC,214839.000,A,3352.0694,N,09831.8484,W,0.09,156.84,010412,,,D*72
$GPGGA,214840.000,3352.0695,N,09831.8484,W,2,06,2.3,296.8,M,-23.7,M,0.8,0000*47
$GPGSA,A,3,30,32,31,23,16,20,,,,,,,5.8,2.3,5.3*3C
$GPRMC,214840.000,A,3352.0695,N,09831.8484,W,0.10,156.67,010412,,,D*78
$GPGGA,214841.000,3352.0697,N,09831.8483,W,2,06,2.3,297.5,M,-23.7,M,0.8,0000*4F
$GPGSA,A,3,30,32,31,23,16,20,,,,,,,5.8,2.3,5.3*3C
$GPRMC,214841.000,A,3352.0697,N,09831.8483,W,0.08,198.40,010412,,,D*72
$GPGGA,214842.000,3352.0699,N,09831.8483,W,2,06,2.3,298.7,M,-23.7,M,0.8,0000*4F
$GPGSA,A,3,30,32,31,23,16,20,,,,,,,5.8,2.3,5.3*3C
$GPGSV,3,1,12,30,68,085,26,32,65,208,34,16,60,157,34,20,56,269,42*7C
$GPGSV,3,2,12,23,36,313,40,31,31,048,31,06,09,144,31,13,08,301,*70
$GPGSV,3,3,12,14,07,107,30,03,07,158,21,01,05,227,,29,01,049,*72
$GPRMC,214842.000,A,3352.0699,N,09831.8483,W,0.04,117.75,010412,,,D*72
$GPGGA,214843.000,3352.0700,N,09831.8482,W,2,06,2.3,299.2,M,-23.7,M,1.8,0000*4B
$GPGSA,A,3,30,32,31,23,16,20,,,,,,,5.8,2.3,5.3*3C
$GPRMC,214843.000,A,3352.0700,N,09831.8482,W,0.04,120.73,010412,,,D*71
$GPGGA,214844.000,3352.0698,N,09831.8483,W,2,06,2.3,298.0,M,-23.7,M,2.8,0000*4D
$GPGSA,A,3,30,32,31,23,16,20,,,,,,,5.8,2.3,5.3*3C
$GPRMC,214844.000,A,3352.0698,N,09831.8483,W,0.07,178.28,010412,,,D*77
$GPGGA,214845.000,3352.0693,N,09831.8485,W,2,06,2.3,295.4,M,-23.7,M,0.8,0000*4A
$GPGSA,A,3,30,32,31,23,16,20,,,,,,,5.8,2.3,5.3*3C
$GPRMC,214845.000,A,3352.0693,N,09831.8485,W,0.31,194.43,010412,,,D*71
$GPGGA,214846.000,3352.0684,N,09831.8488,W,2,06,2.3,290.9,M,-23.7,M,0.8,0000*4A
$GPGSA,A,3,30,32,31,23,16,20,,,,,,,5.8,2.3,5.3*3C
$GPRMC,214846.000,A,3352.0684,N,09831.8488,W,0.46,187.95,010412,,,D*70
$GPGGA,214847.000,3352.0677,N,09831.8490,W,2,06,2.3,286.9,M,-23.7,M,0.8,0000*49
$GPGSA,A,3,30,32,31,23,16,20,,,,,,,5.8,2.3,5.3*3C
$GPGSV,3,1,12,30,68,085,25,32,65,208,34,16,60,157,35,20,56,269,41*7D
$GPGSV,3,2,12,23,36,313,40,31,31,048,31,06,09,144,31,13,08,301,*70
$GPGSV,3,3,12,14,07,107,29,03,07,158,22,01,05,227,,29,01,049,*79
$GPRMC,214847.000,A,3352.0677,N,09831.8490,W,0.60,190.38,010412,,,D*71
$GPGGA,214848.000,3352.0668,N,09831.8493,W,2,06,2.3,282.2,M,-23.7,M,1.8,0000*45
$GPGSA,A,3,30,32,31,23,16,20,,,,,,,5.8,2.3,5.3*3C
$GPRMC,214848.000,A,3352.0668,N,09831.8493,W,0.81,192.57,010412,,,D*77
$GPGGA,214849.000,3352.0660,N,09831.8496,W,2,06,2.3,278.2,M,-23.7,M,2.8,0000*4F
$GPGSA,A,3,30,32,31,23,16,20,,,,,,,5.8,2.3,5.3*3C
$GPRMC,214849.000,A,3352.0660,N,09831.8496,W,0.90,190.32,010412,,,D*7A
$GPGGA,214850.000,3352.0653,N,09831.8498,W,2,06,2.3,274.3,M,-23.7,M,3.8,0000*45
$GPGSA,A,3,30,32,31,23,16,20,,,,,,,5.8,2.3,5.3*3C
$GPRMC,214850.000,A,3352.0653,N,09831.8498,W,1.02,189.64,010412,,,D*7D
$GPGGA,214851.000,3352.0646,N,09831.8500,W,2,06,2.3,270.6,M,-23.7,M,0.8,0000*42
$GPGSA,A,3,30,32,31,23,16,20,,,,,,,5.8,2.3,5.3*3C
$GPRMC,214851.000,A,3352.0646,N,09831.8500,W,1.10,191.19,010412,,,D*78
$GPGGA,214852.000,3352.0640,N,09831.8502,W,2,06,2.3,267.3,M,-23.7,M,0.8,0000*46
$GPGSA,A,3,30,32,31,23,16,20,,,,,,,5.8,2.3,5.3*3C
$GPGSV,3,1,12,30,68,085,26,32,65,208,34,16,60,157,35,20,56,269,41*7E
$GPGSV,3,2,12,23,36,313,40,31,31,048,32,06,09,144,31,13,08,301,*73
$GPGSV,3,3,12,14,07,107,29,03,07,158,21,01,05,227,,29,01,049,*7A
$GPRMC,214852.000,A,3352.0640,N,09831.8502,W,1.18,192.11,010412,,,D*7C
$GPGGA,214853.000,3352.0633,N,09831.8505,W,2,06,2.3,264.1,M,-23.7,M,0.8,0000*45
$GPGSA,A,3,30,32,31,23,16,20,,,,,,,5.8,2.3,5.3*3C
$GPRMC,214853.000,A,3352.0633,N,09831.8505,W,1.30,191.60,010412,,,D*71
$GPGGA,214854.000,3352.0627,N,09831.8507,W,2,06,2.3,261.1,M,-23.7,M,1.8,0000*41
$GPGSA,A,3,30,32,31,23,16,20,,,,,,,5.8,2.3,5.3*3C
$GPRMC,214854.000,A,3352.0627,N,09831.8507,W,1.34,191.91,010412,,,D*7B
$GPGGA,214855.000,3352.0622,N,09831.8508,W,2,06,2.3,258.3,M,-23.7,M,2.8,0000*41
$GPGSA,A,3,30,32,31,23,16,20,,,,,,,5.8,2.3,5.3*3C
$GPRMC,214855.000,A,3352.0622,N,09831.8508,W,1.38,191.91,010412,,,D*7C
$GPGGA,214856.000,3352.0617,N,09831.8510,W,2,06,2.3,255.8,M,-23.7,M,3.8,0000*4A
$GPGSA,A,3,30,32,31,23,16,20,,,,,,,5.8,2.3,5.3*3C
$GPRMC,214856.000,A,3352.0617,N,09831.8510,W,1.41,191.96,010412,,,D*79
$GPGGA,214857.000,3352.0614,N,09831.8511,W,2,06,2.3,253.8,M,-23.7,M,0.8,0000*4C
$GPGSA,A,3,30,32,31,23,16,20,,,,,,,5.8,2.3,5.3*3C
$GPGSV,3,1,12,30,68,085,26,32,65,208,34,16,60,157,35,20,56,269,41*7E
$GPGSV,3,2,12,23,36,313,40,31,31,048,32,06,09,144,31,13,08,301,*73
$GPGSV,3,3,12,14,07,107,29,03,07,158,21,01,05,227,,29,01,049,*7A
$GPRMC,214857.000,A,3352.0614,N,09831.8511,W,1.38,188.75,010412,,,D*71
$GPGGA,214858.000,3352.0610,N,09831.8511,W,2,06,2.3,251.9,M,-23.7,M,0.8,0000*44
$GPGSA,A,3,30,32,31,23,16,20,,,,,,,5.8,2.3,5.3*3C
$GPRMC,214858.000,A,3352.0610,N,09831.8511,W,1.32,188.13,010412,,,D*70
$GPGGA,214859.000,3352.0608,N,09831.8512,W,2,06,2.3,250.4,M,-23.7,M,0.8,0000*43
$GPGSA,A,3,30,32,31,23,16,20,,,,,,,5.8,2.3,5.3*3C
$GPRMC,214859.000,A,3352.0608,N,09831.8512,W,1.30,187.61,010412,,,D*73
$GPGGA,214900.000,3352.0605,N,09831.8512,W,2,06,2.3,249.1,M,-23.7,M,1.8,0000*4F
$GPGSA,A,3,30,32,31,23,16,20,,,,,,,5.8,2.3,5.3*3C
$GPRMC,214900.000,A,3352.0605,N,09831.8512,W,1.25,187.61,010412,,,D*77
$GPGGA,214901.000,3352.0604,N,09831.8512,W,2,06,2.3,248.0,M,-23.7,M,0.8,0000*4E
$GPGSA,A,3,30,32,31,23,16,20,,,,,,,5.8,2.3,5.3*3C
$GPRMC,214901.000,A,3352.0604,N,09831.8512,W,1.22,186.70,010412,,,D*71
$GPGGA,214902.000,3352.0602,N,09831.8513,W,2,06,2.3,247.1,M,-23.7,M,0.8,0000*44
$GPGSA,A,3,30,32,31,23,16,20,,,,,,,5.8,2.3,5.3*3C
$GPGSV,3,1,12,30,68,085,26,32,65,208,34,16,60,157,35,20,56,269,41*7E
$GPGSV,3,2,12,23,36,313,40,31,31,048,32,06,09,144,32,13,08,301,*70
$GPGSV,3,3,12,14,07,107,29,03,07,158,21,01,05,227,,29,01,049,*7A
$GPRMC,214902.000,A,3352.0602,N,09831.8513,W,1.16,187.21,010412,,,D*77
$GPGGA,214903.000,3352.0606,N,09831.8511,W,2,06,2.3,248.9,M,-23.7,M,0.8,0000*44
$GPGSA,A,3,30,32,31,23,16,20,,,,,,,5.8,2.3,5.3*3C
$GPRMC,214903.000,A,3352.0606,N,09831.8511,W,1.04,184.91,010412,,,D*7B
$GPGGA,214904.000,3352.0611,N,09831.8509,W,2,06,2.3,251.5,M,-23.7,M,0.8,0000*48
$GPGSA,A,3,30,32,31,23,16,20,,,,,,,5.8,2.3,5.3*3C
$GPRMC,214904.000,A,3352.0611,N,09831.8509,W,0.90,186.22,010412,,,D*75
$GPGGA,214905.000,3352.0617,N,09831.8506,W,2,06,2.3,254.9,M,-23.7,M,0.8,0000*49
$GPGSA,A,3,30,32,31,23,16,20,,,,,,,5.8,2.3,5.3*3C
