$GPGGA,081541.000,3353.7529,N,09832.0229,W,2,07,1.5,317.8,M,-23.7,M,0.8,0000*41
$GPGSA,A,3,28,17,10,09,02,05,04,,,,,,2.7,1.5,2.2*34
$GPRMC,081541.000,A,3353.7529,N,09832.0229,W,0.11,309.94,300312,,,D*72
$GPGGA,081542.000,3353.7528,N,09832.0228,W,2,07,1.5,317.6,M,-23.7,M,0.8,0000*4C
$GPGSA,A,3,28,17,10,09,02,05,04,,,,,,2.7,1.5,2.2*34
$GPGSV,3,1,12,04,72,032,33,02,66,244,27,12,41,317,,10,41,127,33*7E
$GPGSV,3,2,12,09,31,253,26,17,30,072,30,27,28,236,,28,17,138,24*7B
$GPGSV,3,3,12,05,12,180,32,25,02,318,,20,01,035,,51,49,195,38*71
$GPRMC,081542.000,A,3353.7528,N,09832.0228,W,0.09,4.13,300312,,,D*79
$GPGGA,081543.000,3353.7527,N,09832.0226,W,2,07,1.5,317.7,M,-23.7,M,1.8,0000*4C
$GPGSA,A,3,28,17,10,09,02,05,04,,,,,,2.7,1.5,2.2*34
$GPRMC,081543.000,A,3353.7527,N,09832.0226,W,0.22,338.18,300312,,,D*77
$GPGGA,081544.000,3353.7526,N,09832.0225,W,2,07,1.5,317.7,M,-23.7,M,2.8,0000*4A
$GPGSA,A,3,28,17,10,09,02,05,04,,,,,,2.7,1.5,2.2*34
$GPRMC,081544.000,A,3353.7526,N,09832.0225,W,0.07,333.05,300312,,,D*72
$GPGGA,081545.000,3353.7525,N,09832.0224,W,2,07,1.5,317.7,M,-23.7,M,0.8,0000*4B
$GPGSA,A,3,28,17,10,09,02,05,04,,,,,,2.7,1.5,2.2*34
$GPRMC,081545.000,A,3353.7525,N,09832.0224,W,0.08,41.10,300312,,,D*4C
$GPGGA,081546.000,3353.7525,N,09832.0222,W,2,07,1.5,317.7,M,-23.7,M,0.8,0000*4E
$GPGSA,A,3,28,17,10,09,02,05,04,,,,,,2.7,1.5,2.2*34
$GPRMC,081546.000,A,3353.7525,N,09832.0222,W,0.12,351.98,300312,,,D*70
$GPGGA,081547.000,3353.7524,N,09832.0221,W,2,08,1.1,317.7,M,-23.7,M,0.8,0000*46
$GPGSA,A,3,28,17,10,12,09,02,05,04,,,,,2.2,1.1,1.9*3E
$GPGSV,3,1,12,04,72,032,33,02,66,244,27,12,41,317,16,10,41,127,33*79
$GPGSV,3,2,12,09,31,253,26,17,30,072,30,27,28,236,,28,17,138,24*7B
$GPGSV,3,3,12,05,12,180,32,25,02,318,,20,01,035,,51,49,195,38*71
$GPRMC,081547.000,A,3353.7524,N,09832.0221,W,0.05,85.65,300312,,,D*4D
$GPGGA,081548.000,3353.7523,N,09832.0219,W,2,08,1.1,317.8,M,-23.7,M,1.8,0000*4B
$GPGSA,A,3,28,17,10,12,09,02,05,04,,,,,2.2,1.1,1.9*3E
$GPRMC,081548.000,A,3353.7523,N,09832.0219,W,0.05,127.34,300312,,,D*73
$GPGGA,081549.000,3353.7522,N,09832.0217,W,2,08,1.1,317.8,M,-23.7,M,2.8,0000*46
$GPGSA,A,3,28,17,10,12,09,02,05,04,,,,,2.2,1.1,1.9*3E
$GPRMC,081549.000,A,3353.7522,N,09832.0217,W,0.09,116.22,300312,,,D*74
$GPGGA,081550.000,3353.7522,N,09832.0217,W,2,08,1.1,317.7,M,-23.7,M,3.8,0000*40
$GPGSA,A,3,28,17,10,12,09,02,05,04,,,,,2.2,1.1,1.9*3E
$GPRMC,081550.000,A,3353.7522,N,09832.0217,W,0.28,333.67,300312,,,D*7B
$GPGGA,081551.000,3353.7522,N,09832.0216,W,2,08,1.1,317.6,M,-23.7,M,0.8,0000*42
$GPGSA,A,3,28,17,10,12,09,02,05,04,,,,,2.2,1.1,1.9*3E
$GPRMC,081551.000,A,3353.7522,N,09832.0216,W,0.10,347.71,300312,,,D*74
$GPGGA,081552.000,3353.7522,N,09832.0215,W,2,08,1.1,317.6,M,-23.7,M,0.8,0000*42
$GPGSA,A,3,28,17,10,12,09,02,05,04,,,,,2.2,1.1,1.9*3E
$GPGSV,3,1,12,04,72,032,33,02,66,244,27,12,41,317,17,10,41,127,33*78
$GPGSV,3,2,12,09,31,253,25,17,30,072,30,27,28,236,,28,17,138,20*7C
$GPGSV,3,3,12,05,12,180,32,25,02,318,,20,01,035,,51,49,195,38*71
$GPRMC,081552.000,A,3353.7522,N,09832.0215,W,0.07,318.23,300312,,,D*7F
$GPGGA,081553.000,3353.7521,N,09832.0214,W,2,08,1.1,317.7,M,-23.7,M,0.8,0000*40
$GPGSA,A,3,28,17,10,12,09,02,05,04,,,,,2.2,1.1,1.9*3E
$GPRMC,081553.000,A,3353.7521,N,09832.0214,W,0.05,4.62,300312,,,D*75
$GPGGA,081554.000,3353.7520,N,09832.0213,W,2,08,1.1,317.9,M,-23.7,M,0.8,0000*4F
$GPGSA,A,3,28,17,10,12,09,02,05,04,,,,,2.2,1.1,1.9*3E
$GPRMC,081554.000,A,3353.7520,N,09832.0213,W,0.05,93.45,300312,,,D*4F
$GPGGA,081555.000,3353.7519,N,09832.0212,W,2,08,1.1,318.2,M,-23.7,M,1.8,0000*40
$GPGSA,A,3,28,17,10,12,09,02,05,04,,,,,2.2,1.1,1.9*3E
$GPRMC,081555.000,A,3353.7519,N,09832.0212,W,0.10,136.66,300312,,,D*7E
$GPGGA,081556.000,3353.7518,N,09832.0212,W,2,09,1.1,318.4,M,-23.7,M,2.8,0000*46
$GPGSA,A,3,28,17,10,12,09,02,05,27,04,,,,2.2,1.1,1.9*3B
$GPRMC,081556.000,A,3353.7518,N,09832.0212,W,0.16,180.03,300312,,,D*74
$GPGGA,081557.000,3353.7517,N,09832.0214,W,2,09,1.1,319.0,M,-23.7,M,0.8,0000*49
$GPGSA,A,3,28,17,10,12,09,02,05,27,04,,,,2.2,1.1,1.9*3B
$GPGSV,3,1,12,04,72,032,33,02,66,244,26,12,41,317,16,10,41,127,33*78
$GPGSV,3,2,12,09,31,253,25,17,30,072,30,27,28,236,19,28,17,138,19*7E
$GPGSV,3,3,12,05,12,180,32,25,02,318,,20,01,035,,51,49,195,38*71
$GPRMC,081557.000,A,3353.7517,N,09832.0214,W,0.16,233.43,300312,,,D*73
$GPGGA,081558.000,3353.7515,N,09832.0217,W,2,09,1.1,319.6,M,-23.7,M,0.8,0000*41
$GPGSA,A,3,28,17,10,12,09,02,05,27,04,,,,2.2,1.1,1.9*3B
$GPRMC,081558.000,A,3353.7515,N,09832.0217,W,0.25,192.59,300312,,,D*7E
$GPGGA,081559.000,3353.7514,N,09832.0219,W,2,09,1.1,320.0,M,-23.7,M,0.8,0000*43
$GPGSA,A,3,28,17,10,12,09,02,05,27,04,,,,2.2,1.1,1.9*3B
$GPRMC,081559.000,A,3353.7514,N,09832.0219,W,0.21,138.67,300312,,,D*79
$GPGGA,081600.000,3353.7513,N,09832.0221,W,2,09,1.1,320.5,M,-23.7,M,1.8,0000*44
$GPGSA,A,3,28,17,10,12,09,02,05,27,04,,,,2.2,1.1,1.9*3B
$GPRMC,081600.000,A,3353.7513,N,09832.0221,W,0.17,55.61,300312,,,D*43
$GPGGA,081601.000,3353.7513,N,09832.0225,W,2,09,1.1,320.9,M,-23.7,M,2.8,0000*4E
$GPGSA,A,3,28,17,10,12,09,02,05,27,04,,,,2.2,1.1,1.9*3B
$GPRMC,081601.000,A,3353.7513,N,09832.0225,W,0.24,267.98,300312,,,D*73
$GPGGA,081602.000,3353.7513,N,09832.0228,W,2,08,1.2,321.1,M,-23.7,M,0.8,0000*49
$GPGSA,A,3,28,17,10,12,09,02,05,04,,,,,2.2,1.2,1.9*3D
$GPGSV,3,1,12,04,72,032,33,02,66,244,25,12,41,317,18,10,41,127,33*75
$GPGSV,3,2,12,09,31,253,21,17,30,072,30,27,28,236,19,28,17,138,18*7B
$GPGSV,3,3,12,05,12,180,32,25,02,318,,20,01,035,,51,49,195,44*7A
$GPRMC,081602.000,A,3353.7513,N,09832.0228,W,0.37,307.27,300312,,,D*7C
$GPGGA,081603.000,3353.7513,N,09832.0231,W,2,08,1.2,321.0,M,-23.7,M,0.8,0000*41
$GPGSA,A,3,28,17,10,12,09,02,05,04,,,,,2.2,1.2,1.9*3D
$GPRMC,081603.000,A,3353.7513,N,09832.0231,W,0.39,289.06,300312,,,D*7F
$GPGGA,081604.000,3353.7513,N,09832.0232,W,2,08,1.2,321.1,M,-23.7,M,0.8,0000*44
$GPGSA,A,3,28,17,10,12,09,02,05,04,,,,,2.2,1.2,1.9*3D
$GPRMC,081604.000,A,3353.7513,N,09832.0232,W,0.15,144.77,300312,,,D*71
$GPGGA,081605.000,3353.7512,N,09832.0232,W,2,08,1.2,321.3,M,-23.7,M,0.8,0000*46
$GPGSA,A,3,28,17,10,12,09,02,05,04,,,,,2.2,1.2,1.9*3D
$GPRMC,081605.000,A,3353.7512,N,09832.0232,W,0.50,137.48,300312,,,D*78
$GPGGA,081606.000,3353.7512,N,09832.0233,W,2,08,1.2,321.4,M,-23.7,M,1.8,0000*42
$GPGSA,A,3,28,17,10,12,09,02,05,04,,,,,2.2,1.2,1.9*3D
$GPRMC,081606.000,A,3353.7512,N,09832.0233,W,0.12,218.42,300312,,,D*78
$GPGGA,081607.000,3353.7512,N,09832.0234,W,2,08,1.2,321.5,M,-23.7,M,2.8,0000*46
$GPGSA,A,3,28,17,10,12,09,02,05,04,,,,,2.2,1.2,1.9*3D
$GPGSV,3,1,12,04,72,032,32,02,66,244,25,12,41,317,18,10,41,127,33*74
$GPGSV,3,2,12,09,31,253,22,17,30,072,31,27,28,236,,28,17,138,19*70
$GPGSV,3,3,12,05,12,180,32,25,02,318,,20,01,035,,51,49,195,38*71
$GPRMC,081607.000,A,3353.7512,N,09832.0234,W,0.22,301.62,300312,,,D*76
$GPGGA,081608.000,3353.7512,N,09832.0235,W,2,08,1.2,321.6,M,-23.7,M,3.8,0000*4A
$GPGSA,A,3,28,17,10,12,09,02,05,04,,,,,2.2,1.2,1.9*3D
$GPRMC,081608.000,A,3353.7512,N,09832.0235,W,0.16,190.57,300312,,,D*73
$GPGGA,081609.000,3353.7512,N,09832.0235,W,2,08,1.2,321.5,M,-23.7,M,0.8,0000*4B
$GPGSA,A,3,28,17,10,12,09,02,05,04,,,,,2.2,1.2,1.9*3D
$GPRMC,081609.000,A,3353.7512,N,09832.0235,W,0.10,23.23,300312,,,D*4E
$GPGGA,081610.000,3353.7513,N,09832.0236,W,2,08,1.2,321.4,M,-23.7,M,0.8,0000*40
$GPGSA,A,3,28,17,10,12,09,02,05,04,,,,,2.2,1.2,1.9*3D
$GPRMC,081610.000,A,3353.7513,N,09832.0236,W,0.18,344.37,300312,,,D*7B
$GPGGA,081611.000,3353.7513,N,09832.0236,W,2,08,1.2,321.2,M,-23.7,M,0.8,0000*47
$GPGSA,A,3,28,17,10,12,09,02,05,04,,,,,2.2,1.2,1.9*3D
$GPRMC,081611.000,A,3353.7513,N,09832.0236,W,0.12,195.88,300312,,,D*7A
$GPGGA,081612.000,3353.7514,N,09832.0237,W,2,08,1.2,321.0,M,-23.7,M,0.8,0000*40
$GPGSA,A,3,28,17,10,12,09,02,05,04,,,,,2.2,1.2,1.9*3D
$GPGSV,3,1,12,04,72,032,32,02,66,244,25,12,41,317,18,10,41,127,33*74
$GPGSV,3,2,12,09,31,253,23,17,30,072,30,27,28,236,,28,17,138,21*7B
$GPGSV,3,3,12,05,12,180,32,25,02,318,,20,01,035,,51,49,195,38*71
$GPRMC,081612.000,A,3353.7514,N,09832.0237,W,0.30,342.84,300312,,,D*7B
$GPGGA,081613.000,3353.7516,N,09832.0237,W,2,08,1.2,320.6,M,-23.7,M,1.8,0000*45
$GPGSA,A,3,28,17,10,12,09,02,05,04,,,,,2.2,1.2,1.9*3D
$GPRMC,081613.000,A,3353.7516,N,09832.0237,W,0.28,337.09,300312,,,D*76
$GPGGA,081614.000,3353.7517,N,09832.0238,W,2,08,1.2,320.1,M,-23.7,M,2.8,0000*48
$GPGSA,A,3,28,17,10,12,09,02,05,04,,,,,2.2,1.2,1.9*3D
$GPRMC,081614.000,A,3353.7517,N,09832.0238,W,0.45,325.85,300312,,,D*73
$GPGGA,081615.000,3353.7518,N,09832.0238,W,2,08,1.2,319.9,M,-23.7,M,0.8,0000*46
$GPGSA,A,3,28,17,10,12,09,02,05,04,,,,,2.2,1.2,1.9*3D
$GPRMC,081615.000,A,3353.7518,N,09832.0238,W,0.23,298.21,300312,,,D*74
$GPGGA,081616.000,3353.7518,N,09832.0237,W,2,08,1.2,319.6,M,-23.7,M,0.8,0000*45
$GPGSA,A,3,28,17,10,12,09,02,05,04,,,,,2.2,1.2,1.9*3D
$GPRMC,081616.000,A,3353.7518,N,09832.0237,W,0.12,221.41,300312,,,D*7E
$GPGGA,081617.000,3353.7519,N,09832.0237,W,2,09,1.1,319.2,M,-23.7,M,0.8,0000*43
$GPGSA,A,3,28,17,10,12,09,02,05,27,04,,,,2.2,1.1,1.9*3B
$GPGSV,3,1,12,04,72,032,33,02,66,244,25,12,41,317,20,10,41,127,34*79
$GPGSV,3,2,12,09,31,253,24,17,30,072,30,27,28,236,19,28,17,138,23*76
$GPGSV,3,3,12,05,12,180,32,25,02,318,,20,01,035,,51,49,195,38*71
$GPRMC,081617.000,A,3353.7519,N,09832.0237,W,0.24,353.49,300312,,,D*77
$GPGGA,081618.000,3353.7521,N,09832.0236,W,2,09,1.1,318.4,M,-23.7,M,0.8,0000*41
$GPGSA,A,3,28,17,10,12,09,02,05,27,04,,,,2.2,1.1,1.9*3B
$GPRMC,081618.000,A,3353.7521,N,09832.0236,W,0.25,26.78,300312,,,D*40
$GPGGA,081619.000,3353.7522,N,09832.0233,W,2,09,1.1,317.8,M,-23.7,M,1.8,0000*44
$GPGSA,A,3,28,17,10,12,09,02,05,27,04,,,,2.2,1.1,1.9*3B
$GPRMC,081619.000,A,3353.7522,N,09832.0233,W,0.17,76.42,300312,,,D*4A
$GPGGA,081620.000,3353.7522,N,09832.0231,W,2,09,1.1,317.6,M,-23.7,M,0.8,0000*43
$GPGSA,A,3,28,17,10,12,09,02,05,27,04,,,,2.2,1.1,1.9*3B
$GPRMC,081620.000,A,3353.7522,N,09832.0231,W,0.16,61.08,300312,,,D*4B
$GPGGA,081621.000,3353.7523,N,09832.0229,W,2,09,1.1,317.3,M,-23.7,M,0.8,0000*4F
$GPGSA,A,3,28,17,10,12,09,02,05,27,04,,,,2.2,1.1,1.9*3B
$GPRMC,081621.000,A,3353.7523,N,09832.0229,W,0.38,87.10,300312,,,D*4F
$GPGGA,081622.000,3353.7524,N,09832.0227,W,2,09,1.1,316.9,M,-23.7,M,0.8,0000*4E
$GPGSA,A,3,28,17,10,12,09,02,05,27,04,,,,2.2,1.1,1.9*3B
$GPGSV,3,1,12,04,72,032,33,02,66,244,26,12,41,317,20,10,41,127,34*7A
$GPGSV,3,2,12,09,31,253,24,17,30,072,30,27,28,236,19,28,17,138,23*76
$GPGSV,3,3,12,05,12,180,32,25,02,318,,20,01,035,,51,49,195,38*71
$GPRMC,081622.000,A,3353.7524,N,09832.0227,W,0.39,331.16,300312,,,D*7C
$GPGGA,081623.000,3353.7525,N,09832.0227,W,2,09,1.1,316.5,M,-23.7,M,0.8,0000*42
$GPGSA,A,3,28,17,10,12,09,02,05,27,04,,,,2.2,1.1,1.9*3B
$GPRMC,081623.000,A,3353.7525,N,09832.0227,W,0.43,333.42,300312,,,D*72
$GPGGA,081624.000,3353.7526,N,09832.0226,W,2,09,1.1,316.3,M,-23.7,M,1.8,0000*40
$GPGSA,A,3,28,17,10,12,09,02,05,27,04,,,,2.2,1.1,1.9*3B
$GPRMC,081624.000,A,3353.7526,N,09832.0226,W,0.21,31.72,300312,,,D*41
$GPGGA,081625.000,3353.7526,N,09832.0225,W,2,09,1.1,316.1,M,-23.7,M,2.8,0000*43
$GPGSA,A,3,28,17,10,12,09,02,05,27,04,,,,2.2,1.1,1.9*3B
$GPRMC,081625.000,A,3353.7526,N,09832.0225,W,0.23,350.28,300312,,,D*7A
$GPGGA,081626.000,3353.7527,N,09832.0224,W,2,09,1.1,315.9,M,-23.7,M,3.8,0000*4A
$GPGSA,A,3,28,17,10,12,09,02,05,27,04,,,,2.2,1.1,1.9*3B
$GPRMC,081626.000,A,3353.7527,N,09832.0224,W,0.53,341.74,300312,,,D*77
$GPGGA,081627.000,3353.7529,N,09832.0224,W,2,08,1.2,315.7,M,-23.7,M,0.8,0000*4A
$GPGSA,A,3,28,17,10,12,09,02,05,04,,,,,2.2,1.2,1.9*3D
$GPGSV,3,1,12,04,72,032,33,02,66,244,25,12,41,317,20,10,41,127,34*79
$GPGSV,3,2,12,09,31,253,24,17,30,072,30,27,28,236,18,28,17,138,25*71
$GPGSV,3,3,12,05,12,180,32,25,02,318,,20,01,035,,51,49,195,38*71
$GPRMC,081627.000,A,3353.7529,N,09832.0224,W,0.39,335.20,300312,,,D*76
$GPGGA,081628.000,3353.7529,N,09832.0223,W,2,08,1.2,315.5,M,-23.7,M,0.8,0000*40
$GPGSA,A,3,28,17,10,12,09,02,05,04,,,,,2.2,1.2,1.9*3D
$GPRMC,081628.000,A,3353.7529,N,09832.0223,W,0.27,347.57,300312,,,D*74
$GPGGA,081629.000,3353.7530,N,09832.0222,W,2,08,1.2,315.3,M,-23.7,M,0.8,0000*4E
$GPGSA,A,3,28,17,10,12,09,02,05,04,,,,,2.2,1.2,1.9*3D
$GPRMC,081629.000,A,3353.7530,N,09832.0222,W,0.06,48.09,300312,,,D*48
$GPGGA,081630.000,3353.7530,N,09832.0222,W,2,08,1.2,315.1,M,-23.7,M,1.8,0000*45
$GPGSA,A,3,28,17,10,12,09,02,05,04,,,,,2.2,1.2,1.9*3D
$GPRMC,081630.000,A,3353.7530,N,09832.0222,W,0.20,351.52,300312,,,D*71
$GPGGA,081631.000,3353.7531,N,09832.0221,W,2,08,1.2,315.0,M,-23.7,M,2.8,0000*44
$GPGSA,A,3,28,17,10,12,09,02,05,04,,,,,2.2,1.2,1.9*3D
$GPRMC,081631.000,A,3353.7531,N,09832.0221,W,0.23,342.14,300312,,,D*71
$GPGGA,081632.000,3353.7531,N,09832.0220,W,2,08,1.2,314.9,M,-23.7,M,0.8,0000*4C
$GPGSA,A,3,28,17,10,12,09,02,05,04,,,,,2.2,1.2,1.9*3D
$GPGSV,3,1,12,04,72,032,33,02,66,244,26,12,41,317,20,10,41,127,34*7A
$GPGSV,3,2,12,09,31,253,25,17,30,072,30,27,28,236,,28,17,138,26*7A
$GPGSV,3,3,12,05,12,180,32,25,02,318,,20,01,035,,51,49,195,38*71
$GPRMC,081632.000,A,3353.7531,N,09832.0220,W,0.07,79.25,300312,,,D*4C
$GPGGA,081633.000,3353.7531,N,09832.0219,W,2,08,1.2,314.7,M,-23.7,M,0.8,0000*49
$GPGSA,A,3,28,17,10,12,09,02,05,04,,,,,2.2,1.2,1.9*3D
$GPRMC,081633.000,A,3353.7531,N,09832.0219,W,0.09,106.24,300312,,,D*71
$GPGGA,081634.000,3353.7532,N,09832.0218,W,2,08,1.2,314.5,M,-23.7,M,0.8,0000*4E
$GPGSA,A,3,28,17,10,12,09,02,05,04,,,,,2.2,1.2,1.9*3D
$GPRMC,081634.000,A,3353.7532,N,09832.0218,W,0.18,0.48,300312,,,D*79
$GPGGA,081635.000,3353.7532,N,09832.0217,W,2,08,1.2,314.5,M,-23.7,M,0.8,0000*40
$GPGSA,A,3,28,17,10,12,09,02,05,04,,,,,2.2,1.2,1.9*3D
$GPRMC,081635.000,A,3353.7532,N,09832.0217,W,0.37,344.60,300312,,,D*73
$GPGGA,081636.000,3353.7533,N,09832.0217,W,2,08,1.2,314.6,M,-23.7,M,1.8,0000*40
$GPGSA,A,3,28,17,10,12,09,02,05,04,,,,,2.2,1.2,1.9*3D
$GPRMC,081636.000,A,3353.7533,N,09832.0217,W,0.16,4.72,300312,,,D*76
$GPGGA,081637.000,3353.7533,N,09832.0216,W,2,09,1.1,314.8,M,-23.7,M,2.8,0000*4F
$GPGSA,A,3,28,17,10,12,09,02,05,27,04,,,,2.2,1.1,1.9*3B
$GPGSV,3,1,12,04,72,032,33,02,66,244,26,12,41,317,20,10,41,127,34*7A
$GPGSV,3,2,12,09,31,253,25,17,30,072,30,27,28,236,20,28,17,138,27*79
$GPGSV,3,3,12,05,12,180,31,25,02,318,,20,01,035,,51,49,195,38*72
$GPRMC,081637.000,A,3353.7533,N,09832.0216,W,0.24,64.73,300312,,,D*40
$GPGGA,081638.000,3353.7533,N,09832.0215,W,2,09,1.1,314.8,M,-23.7,M,3.8,0000*42
$GPGSA,A,3,28,17,10,12,09,02,05,27,04,,,,2.2,1.1,1.9*3B
$GPRMC,081638.000,A,3353.7533,N,09832.0215,W,0.37,336.91,300312,,,D*76
$GPGGA,081639.000,3353.7533,N,09832.0215,W,2,09,1.1,314.9,M,-23.7,M,0.8,0000*41
$GPGSA,A,3,28,17,10,12,09,02,05,27,04,,,,2.2,1.1,1.9*3B
$GPRMC,081639.000,A,3353.7533,N,09832.0215,W,0.15,303.98,300312,,,D*78
$GPGGA,081640.000,3353.7533,N,09832.0214,W,2,09,1.1,315.1,M,-23.7,M,0.8,0000*47
$GPGSA,A,3,28,17,10,12,09,02,05,27,04,,,,2.2,1.1,1.9*3B
$GPRMC,081640.000,A,3353.7533,N,09832.0214,W,0.11,119.61,300312,,,D*7C
$GPGGA,081641.000,3353.7532,N,09832.0213,W,2,09,1.1,315.3,M,-23.7,M,0.8,0000*42
$GPGSA,A,3,28,17,10,12,09,02,05,27,04,,,,2.2,1.1,1.9*3B
$GPRMC,081641.000,A,3353.7532,N,09832.0213,W,0.32,132.71,300312,,,D*72
$GPGGA,081642.000,3353.7531,N,09832.0212,W,2,09,1.1,315.5,M,-23.7,M,0.8,0000*45
$GPGSA,A,3,28,17,10,12,09,02,05,27,04,,,,2.2,1.1,1.9*3B
$GPGSV,3,1,12,04,72,032,33,02,66,244,26,12,41,317,19,10,41,127,34*70
$GPGSV,3,2,12,09,31,253,23,17,30,072,30,27,28,236,20,28,17,138,28*70
$GPGSV,3,3,12,05,12,180,31,25,02,318,,20,01,035,,51,49,195,38*72
$GPRMC,081642.000,A,3353.7531,N,09832.0212,W,0.28,126.72,300312,,,D*7E
$GPGGA,081643.000,3353.7530,N,09832.0211,W,2,09,1.1,315.8,M,-23.7,M,0.8,0000*4B
$GPGSA,A,3,28,17,10,12,09,02,05,27,04,,,,2.2,1.1,1.9*3B
$GPRMC,081643.000,A,3353.7530,N,09832.0211,W,0.32,151.79,300312,,,D*7D
$GPGGA,081644.000,3353.7529,N,09832.0210,W,2,09,1.1,316.1,M,-23.7,M,0.8,0000*4F
$GPGSA,A,3,28,17,10,12,09,02,05,27,04,,,,2.2,1.1,1.9*3B
$GPRMC,081644.000,A,3353.7529,N,09832.0210,W,0.37,146.03,300312,,,D*7D
$GPGGA,081645.000,3353.7528,N,09832.0209,W,2,09,1.1,316.3,M,-23.7,M,0.8,0000*45
$GPGSA,A,3,28,17,10,12,09,02,05,27,04,,,,2.2,1.1,1.9*3B
$GPRMC,081645.000,A,3353.7528,N,09832.0209,W,0.39,128.15,300312,,,D*74
$GPGGA,081646.000,3353.7528,N,09832.0207,W,2,09,1.1,316.6,M,-23.7,M,0.8,0000*4D
$GPGSA,A,3,28,17,10,12,09,02,05,27,04,,,,2.2,1.1,1.9*3B
$GPRMC,081646.000,A,3353.7528,N,09832.0207,W,0.66,109.96,300312,,,D*7B
$GPGGA,081647.000,3353.7527,N,09832.0205,W,2,09,1.1,317.1,M,-23.7,M,0.8,0000*47
$GPGSA,A,3,28,17,10,12,09,02,05,27,04,,,,2.2,1.1,1.9*3B
$GPGSV,3,1,12,04,72,032,33,02,66,244,26,12,41,317,17,10,41,127,34*7E
$GPGSV,3,2,12,09,31,253,23,17,30,072,29,27,28,236,19,28,17,138,28*72
$GPGSV,3,3,12,05,12,180,31,25,02,318,,20,01,035,,51,49,195,38*72
$GPRMC,081647.000,A,3353.7527,N,09832.0205,W,0.65,116.07,300312,,,D*72
$GPGGA,081648.000,3353.7525,N,09832.0205,W,2,09,1.1,318.2,M,-23.7,M,1.8,0000*47
$GPGSA,A,3,28,17,10,12,09,02,05,27,04,,,,2.2,1.1,1.9*3B
$GPRMC,081648.000,A,3353.7525,N,09832.0205,W,0.54,130.72,300312,,,D*7B
$GPGGA,081649.000,3353.7525,N,09832.0205,W,2,09,1.1,318.5,M,-23.7,M,2.8,0000*42
$GPGSA,A,3,28,17,10,12,09,02,05,27,04,,,,2.2,1.1,1.9*3B
$GPRMC,081649.000,A,3353.7525,N,09832.0205,W,0.11,216.06,300312,,,D*7F
$GPGGA,081650.000,3353.7524,N,09832.0206,W,2,09,1.1,319.1,M,-23.7,M,3.8,0000*4C
$GPGSA,A,3,28,17,10,12,09,02,05,27,04,,,,2.2,1.1,1.9*3B
$GPRMC,081650.000,A,3353.7524,N,09832.0206,W,0.27,184.63,300312,,,D*7B
$GPGGA,081651.000,3353.7523,N,09832.0207,W,2,09,1.1,319.8,M,-23.7,M,0.8,0000*41
$GPGSA,A,3,28,17,10,12,09,02,05,27,04,,,,2.2,1.1,1.9*3B
$GPRMC,081651.000,A,3353.7523,N,09832.0207,W,0.43,144.43,300312,,,D*70
$GPGGA,081652.000,3353.7522,N,09832.0207,W,2,09,1.1,320.5,M,-23.7,M,0.8,0000*44
$GPGSA,A,3,28,17,10,12,09,02,05,27,04,,,,2.2,1.1,1.9*3B
$GPGSV,3,1,12,04,72,032,33,02,66,244,26,12,41,317,16,10,41,127,35*7E
$GPGSV,3,2,12,09,31,253,22,17,30,072,28,27,28,236,20,28,17,138,28*78
$GPGSV,3,3,12,05,12,180,31,25,02,318,,20,01,035,,51,49,195,38*72
$GPRMC,081652.000,A,3353.7522,N,09832.0207,W,0.77,122.49,300312,,,D*7F
$GPGGA,081653.000,3353.7521,N,09832.0206,W,2,09,1.1,320.8,M,-23.7,M,0.8,0000*4A
$GPGSA,A,3,28,17,10,12,09,02,05,27,04,,,,2.2,1.1,1.9*3B
$GPRMC,081653.000,A,3353.7521,N,09832.0206,W,0.81,129.43,300312,,,D*74
$GPGGA,081654.000,3353.7521,N,09832.0205,W,2,08,1.5,320.9,M,-23.7,M,1.8,0000*4B
$GPGSA,A,3,28,17,10,09,02,05,27,04,,,,,2.6,1.5,2.2*30
$GPRMC,081654.000,A,3353.7521,N,09832.0205,W,0.51,144.33,300312,,,D*71
$GPGGA,081655.000,3353.7529,N,09832.0203,W,2,08,1.5,318.7,M,-23.7,M,2.8,0000*42
$GPGSA,A,3,28,17,10,09,02,05,27,04,,,,,2.6,1.5,2.2*30
$GPRMC,081655.000,A,3353.7529,N,09832.0203,W,0.35,113.70,300312,,,D*79
$GPGGA,081656.000,3353.7530,N,09832.0204,W,2,08,1.5,318.4,M,-23.7,M,3.8,0000*4C
$GPGSA,A,3,28,17,10,09,02,05,27,04,,,,,2.6,1.5,2.2*30
$GPRMC,081656.000,A,3353.7530,N,09832.0204,W,0.15,234.63,300312,,,D*73
$GPGGA,081657.000,3353.7539,N,09832.0204,W,2,08,1.5,315.9,M,-23.7,M,0.8,0000*47
$GPGSA,A,3,28,17,10,09,02,05,27,04,,,,,2.6,1.5,2.2*30
$GPGSV,3,1,12,04,72,032,33,02,66,244,26,12,41,317,,10,41,127,34*78
$GPGSV,3,2,12,09,31,253,21,17,30,072,27,27,28,236,19,28,17,138,28*7E
$GPGSV,3,3,12,05,12,180,31,25,02,318,,20,01,035,,51,49,195,38*72
$GPRMC,081657.000,A,3353.7539,N,09832.0204,W,0.40,303.69,300312,,,D*74
$GPGGA,081658.000,3353.7550,N,09832.0205,W,2,08,1.5,312.7,M,-23.7,M,0.8,0000*4F
$GPGSA,A,3,28,17,10,09,02,05,27,04,,,,,2.6,1.5,2.2*30
$GPRMC,081658.000,A,3353.7550,N,09832.0205,W,0.80,305.71,300312,,,D*76
$GPGGA,081659.000,3353.7558,N,09832.0205,W,2,08,1.5,310.5,M,-23.7,M,0.8,0000*46
$GPGSA,A,3,28,17,10,09,02,05,27,04,,,,,2.6,1.5,2.2*30
$GPRMC,081659.000,A,3353.7558,N,09832.0205,W,0.62,354.25,300312,,,D*76
$GPGGA,081700.000,3353.7569,N,09832.0204,W,2,08,1.5,307.6,M,-23.7,M,1.8,0000*4C
$GPGSA,A,3,28,17,10,09,02,05,27,04,,,,,2.6,1.5,2.2*30
$GPRMC,081700.000,A,3353.7569,N,09832.0204,W,0.83,7.93,300312,,,D*7F
$GPGGA,081701.000,3353.7572,N,09832.0204,W,2,07,1.5,306.8,M,-23.7,M,0.8,0000*46
$GPGSA,A,3,28,17,10,09,02,05,04,,,,,,2.7,1.5,2.2*34
$GPRMC,081701.000,A,3353.7572,N,09832.0204,W,0.79,354.50,300312,,,D*7B
$GPGGA,081702.000,3353.7578,N,09832.0203,W,2,07,1.5,305.1,M,-23.7,M,1.8,0000*43
$GPGSA,A,3,28,17,10,09,02,05,04,,,,,,2.7,1.5,2.2*34
$GPGSV,3,1,12,04,72,032,34,02,66,244,26,12,41,317,,10,41,127,34*7F
$GPGSV,3,2,12,09,31,253,21,17,30,072,26,27,28,236,07,28,17,138,28*70
$GPGSV,3,3,12,05,12,180,31,25,02,318,,20,01,035,,51,49,195,38*72
$GPRMC,081702.000,A,3353.7578,N,09832.0203,W,0.86,2.52,300312,,,D*77
$GPGGA,081703.000,3353.7587,N,09832.0202,W,2,07,1.5,302.8,M,-23.7,M,0.8,0000*4C
$GPGSA,A,3,28,17,10,09,02,05,04,,,,,,2.7,1.5,2.2*34
$GPRMC,081703.000,A,3353.7587,N,09832.0202,W,0.97,12.94,300312,,,D*4C
$GPGGA,081704.000,3353.7592,N,09832.0202,W,2,07,1.5,301.5,M,-23.7,M,0.8,0000*41
$GPGSA,A,3,28,17,10,09,02,05,04,,,,,,2.7,1.5,2.2*34
$GPRMC,081704.000,A,3353.7592,N,09832.0202,W,1.18,16.31,300312,,,D*42
$GPGGA,081705.000,3353.7597,N,09832.0203,W,2,07,1.5,300.1,M,-23.7,M,0.8,0000*41
$GPGSA,A,3,28,17,10,09,02,05,04,,,,,,2.7,1.5,2.2*34
$GPRMC,081705.000,A,3353.7597,N,09832.0203,W,0.98,340.32,300312,,,D*7D
$GPGGA,081706.000,3353.7605,N,09832.0205,W,2,07,1.5,297.8,M,-23.7,M,0.8,0000*4A
$GPGSA,A,3,28,17,10,09,02,05,04,,,,,,2.7,1.5,2.2*34
$GPRMC,081706.000,A,3353.7605,N,09832.0205,W,1.18,329.76,300312,,,D*76
$GPGGA,081707.000,3353.7611,N,09832.0208,W,2,07,1.5,296.1,M,-23.7,M,1.8,0000*4A
$GPGSA,A,3,28,17,10,09,02,05,04,,,,,,2.7,1.5,2.2*34
$GPGSV,3,1,12,04,72,032,34,02,66,244,26,12,41,317,,10,41,127,34*7F
$GPGSV,3,2,12,09,31,253,20,17,30,072,25,27,28,236,,28,17,138,28*75
$GPGSV,3,3,12,05,12,180,31,25,02,318,,20,01,035,,51,49,195,38*72
$GPRMC,081707.000,A,3353.7611,N,09832.0208,W,1.34,323.38,300312,,,D*71
$GPGGA,081708.000,3353.7615,N,09832.0210,W,2,07,1.5,294.7,M,-23.7,M,0.8,0000*4D
$GPGSA,A,3,28,17,10,09,02,05,04,,,,,,2.7,1.5,2.2*34
$GPRMC,081708.000,A,3353.7615,N,09832.0210,W,1.07,341.65,300312,,,D*7F
$GPGGA,081709.000,3353.7620,N,09832.0211,W,2,07,1.5,293.3,M,-23.7,M,0.8,0000*48
$GPGSA,A,3,28,17,10,09,02,05,04,,,,,,2.7,1.5,2.2*34
$GPRMC,081709.000,A,3353.7620,N,09832.0211,W,1.05,348.54,300312,,,D*70
$GPGGA,081710.000,3353.7621,N,09832.0213,W,2,07,1.5,292.9,M,-23.7,M,0.8,0000*48
$GPGSA,A,3,28,17,10,09,02,05,04,,,,,,2.7,1.5,2.2*34
$GPRMC,081710.000,A,3353.7621,N,09832.0213,W,1.06,328.47,300312,,,D*7C
$GPGGA,081711.000,3353.7626,N,09832.0214,W,2,07,1.5,291.6,M,-23.7,M,0.8,0000*45
$GPGSA,A,3,28,17,10,09,02,05,04,,,,,,2.7,1.5,2.2*34
$GPRMC,081711.000,A,3353.7626,N,09832.0214,W,1.33,5.95,300312,,,D*78
$GPGGA,081712.000,3353.7628,N,09832.0214,W,2,07,1.5,291.0,M,-23.7,M,1.8,0000*4F
$GPGSA,A,3,28,17,10,09,02,05,04,,,,,,2.7,1.5,2.2*34
$GPGSV,3,1,12,04,72,032,35,02,66,244,27,12,41,317,,10,41,127,34*7F
$GPGSV,3,2,12,09,31,253,20,17,30,072,20,27,28,236,,28,17,138,29*71
$GPGSV,3,3,12,05,12,180,31,25,02,318,,20,01,035,,51,49,195,38*72
$GPRMC,081712.000,A,3353.7628,N,09832.0214,W,1.50,19.48,300312,,,D*4D
$GPGGA,081713.000,3353.7631,N,09832.0215,W,2,07,1.5,290.2,M,-23.7,M,2.8,0000*47
$GPGSA,A,3,28,17,10,09,02,05,04,,,,,,2.7,1.5,2.2*34
$GPRMC,081713.000,A,3353.7631,N,09832.0215,W,1.20,10.01,300312,,,D*46
$GPGGA,081714.000,3353.7630,N,09832.0213,W,2,07,1.5,290.9,M,-23.7,M,3.8,0000*4D
$GPGSA,A,3,28,17,10,09,02,05,04,,,,,,2.7,1.5,2.2*34
$GPRMC,081714.000,A,3353.7630,N,09832.0213,W,0.88,357.07,300312,,,D*73
$GPGGA,081715.000,3353.7628,N,09832.0211,W,2,07,1.5,291.7,M,-23.7,M,0.8,0000*4B
$GPGSA,A,3,28,17,10,09,02,05,04,,,,,,2.7,1.5,2.2*34
$GPRMC,081715.000,A,3353.7628,N,09832.0211,W,0.64,13.34,300312,,,D*48
$GPGGA,081716.000,3353.7625,N,09832.0208,W,2,07,1.5,293.0,M,-23.7,M,0.8,0000*48
$GPGSA,A,3,28,17,10,09,02,05,04,,,,,,2.7,1.5,2.2*34
$GPRMC,081716.000,A,3353.7625,N,09832.0208,W,0.52,21.53,300312,,,D*4B
$GPGGA,081717.000,3353.7621,N,09832.0204,W,2,06,2.7,294.7,M,-23.7,M,0.8,0000*41
$GPGSA,A,3,28,10,09,02,05,04,,,,,,,4.5,2.7,3.6*32
$GPGSV,3,1,12,04,71,032,35,02,67,247,27,12,42,317,,10,42,125,33*7B
$GPGSV,3,2,12,09,30,251,21,17,30,074,09,27,27,235,,28,16,139,29*72
$GPGSV,3,3,12,05,14,180,32,25,03,318,,20,00,034,,51,49,195,38*76
$GPRMC,081717.000,A,3353.7621,N,09832.0204,W,0.40,24.34,300312,,,D*45
$GPGGA,081718.000,3353.7616,N,09832.0200,W,2,06,2.7,296.3,M,-23.7,M,1.8,0000*49
$GPGSA,A,3,28,10,09,02,05,04,,,,,,,4.5,2.7,3.6*32
$GPRMC,081718.000,A,3353.7616,N,09832.0200,W,0.22,19.80,300312,,,D*4F
$GPGGA,081719.000,3353.7613,N,09832.0199,W,2,06,2.7,297.5,M,-23.7,M,2.8,0000*4A
$GPGSA,A,3,28,10,09,02,05,04,,,,,,,4.5,2.7,3.6*32
$GPRMC,081719.000,A,3353.7613,N,09832.0199,W,0.25,68.18,300312,,,D*48
$GPGGA,081720.000,3353.7609,N,09832.0198,W,2,06,2.7,298.6,M,-23.7,M,0.8,0000*44
$GPGSA,A,3,28,10,09,02,05,04,,,,,,,4.5,2.7,3.6*32
$GPRMC,081720.000,A,3353.7609,N,09832.0198,W,0.38,89.86,300312,,,D*4C
$GPGGA,081721.000,3353.7608,N,09832.0199,W,2,07,1.5,299.0,M,-23.7,M,0.8,0000*42
$GPGSA,A,3,28,10,12,09,02,05,04,,,,,,2.7,1.5,2.2*31
$GPRMC,081721.000,A,3353.7608,N,09832.0199,W,0.44,90.30,300312,,,D*43
$GPGGA,081722.000,3353.7606,N,09832.0196,W,2,07,1.5,300.3,M,-23.7,M,0.8,0000*42
$GPGSA,A,3,28,10,12,09,02,05,04,,,,,,2.7,1.5,2.2*31
$GPGSV,3,1,12,04,71,032,35,02,67,247,27,12,42,317,16,10,42,125,33*7C
$GPGSV,3,2,12,09,30,251,21,17,30,074,,27,27,235,,28,16,139,30*73
$GPGSV,3,3,12,05,14,180,32,25,03,318,,20,00,034,,51,49,195,38*76
$GPRMC,081722.000,A,3353.7606,N,09832.0196,W,0.09,181.11,300312,,,D*7A
$GPGGA,081723.000,3353.7600,N,09832.0197,W,2,07,1.5,301.9,M,-23.7,M,0.8,0000*4F
$GPGSA,A,3,28,10,12,09,02,05,04,,,,,,2.7,1.5,2.2*31
$GPRMC,081723.000,A,3353.7600,N,09832.0197,W,0.34,214.00,300312,,,D*7D
$GPGGA,081724.000,3353.7596,N,09832.0195,W,2,07,1.5,303.7,M,-23.7,M,1.8,0000*4B
$GPGSA,A,3,28,10,12,09,02,05,04,,,,,,2.7,1.5,2.2*31
$GPRMC,081724.000,A,3353.7596,N,09832.0195,W,0.56,117.13,300312,,,D*72
$GPGGA,081725.000,3353.7592,N,09832.0194,W,2,07,1.5,304.9,M,-23.7,M,2.8,0000*45
$GPGSA,A,3,28,10,12,09,02,05,04,,,,,,2.7,1.5,2.2*31
$GPRMC,081725.000,A,3353.7592,N,09832.0194,W,0.45,167.48,300312,,,D*7D
$GPGGA,081726.000,3353.7589,N,09832.0193,W,2,07,1.5,306.5,M,-23.7,M,3.8,0000*44
$GPGSA,A,3,28,10,12,09,02,05,04,,,,,,2.7,1.5,2.2*31
$GPRMC,081726.000,A,3353.7589,N,09832.0193,W,0.27,160.36,300312,,,D*79
$GPGGA,081727.000,3353.7580,N,09832.0194,W,2,07,1.5,308.8,M,-23.7,M,0.8,0000*4B
$GPGSA,A,3,28,10,12,09,02,05,04,,,,,,2.7,1.5,2.2*31
$GPGSV,3,1,12,04,71,032,35,02,67,247,27,12,42,317,16,10,42,125,34*7B
$GPGSV,3,2,12,09,30,251,21,17,30,074,,27,27,235,,28,16,139,30*73
$GPGSV,3,3,12,05,14,180,32,25,03,318,,20,00,034,,51,49,195,38*76
$GPRMC,081727.000,A,3353.7580,N,09832.0194,W,0.45,201.28,300312,,,D*79
$GPGGA,081728.000,3353.7578,N,09832.0193,W,2,07,1.5,310.0,M,-23.7,M,0.8,0000*45
$GPGSA,A,3,28,10,12,09,02,05,04,,,,,,2.7,1.5,2.2*31
$GPRMC,081728.000,A,3353.7578,N,09832.0193,W,0.44,211.92,300312,,,D*77
$GPGGA,081729.000,3353.7575,N,09832.0193,W,2,08,1.2,311.2,M,-23.7,M,0.8,0000*42
$GPGSA,A,3,28,17,10,12,09,02,05,04,,,,,2.2,1.2,1.9*3D
$GPRMC,081729.000,A,3353.7575,N,09832.0193,W,0.51,194.41,300312,,,D*7F
$GPGGA,081730.000,3353.7573,N,09832.0192,W,2,08,1.2,312.2,M,-23.7,M,1.8,0000*4F
$GPGSA,A,3,28,17,10,12,09,02,05,04,,,,,2.2,1.2,1.9*3D
$GPRMC,081730.000,A,3353.7573,N,09832.0192,W,0.46,207.55,300312,,,D*7A
$GPGGA,081731.000,3353.7570,N,09832.0192,W,2,08,1.2,313.4,M,-23.7,M,2.8,0000*49
$GPGSA,A,3,28,17,10,12,09,02,05,04,,,,,2.2,1.2,1.9*3D
$GPRMC,081731.000,A,3353.7570,N,09832.0192,W,0.43,172.74,300312,,,D*7F
$GPGGA,081732.000,3353.7566,N,09832.0191,W,2,09,1.1,314.5,M,-23.7,M,0.8,0000*48
$GPGSA,A,3,28,17,10,12,09,02,05,27,04,,,,2.2,1.1,1.9*3B
$GPGSV,3,1,12,04,71,032,35,02,67,247,27,12,42,317,17,10,42,125,34*7A
$GPGSV,3,2,12,09,30,251,20,17,30,074,15,27,27,235,19,28,16,139,30*7E
$GPGSV,3,3,12,05,14,180,32,25,03,318,,20,00,034,,51,49,195,38*76
$GPRMC,081732.000,A,3353.7566,N,09832.0191,W,0.51,162.74,300312,,,D*7A
$GPGGA,081733.000,3353.7563,N,09832.0189,W,2,09,1.1,315.8,M,-23.7,M,0.8,0000*49
$GPGSA,A,3,28,17,10,12,09,02,05,27,04,,,,2.2,1.1,1.9*3B
$GPRMC,081733.000,A,3353.7563,N,09832.0189,W,0.80,145.04,300312,,,D*79
$GPGGA,081734.000,3353.7559,N,09832.0188,W,2,09,1.1,316.9,M,-23.7,M,0.8,0000*44
$GPGSA,A,3,28,17,10,12,09,02,05,27,04,,,,2.2,1.1,1.9*3B
$GPRMC,081734.000,A,3353.7559,N,09832.0188,W,0.79,147.40,300312,,,D*72
$GPGGA,081735.000,3353.7557,N,09832.0186,W,2,09,1.1,318.2,M,-23.7,M,0.8,0000*40
$GPGSA,A,3,28,17,10,12,09,02,05,27,04,,,,2.2,1.1,1.9*3B
$GPRMC,081735.000,A,3353.7557,N,09832.0186,W,0.65,132.08,300312,,,D*70
$GPGGA,081736.000,3353.7553,N,09832.0185,W,2,09,1.1,319.5,M,-23.7,M,1.8,0000*43
$GPGSA,A,3,28,17,10,12,09,02,05,27,04,,,,2.2,1.1,1.9*3B
$GPRMC,081736.000,A,3353.7553,N,09832.0185,W,0.75,159.88,300312,,,D*70
$GPGGA,081737.000,3353.7549,N,09832.0182,W,2,09,1.1,321.2,M,-23.7,M,2.8,0000*41
$GPGSA,A,3,28,17,10,12,09,02,05,27,04,,,,2.2,1.1,1.9*3B
$GPGSV,3,1,12,04,71,032,35,02,67,247,27,12,42,317,18,10,42,125,34*75
$GPGSV,3,2,12,09,30,251,20,17,30,074,15,27,27,235,20,28,16,139,30*74
$GPGSV,3,3,12,05,14,180,32,25,03,318,,20,00,034,,51,49,195,38*76
$GPRMC,081737.000,A,3353.7549,N,09832.0182,W,0.68,167.52,300312,,,D*7B
$GPGGA,081738.000,3353.7546,N,09832.0182,W,2,09,1.1,322.6,M,-23.7,M,3.8,0000*47
$GPGSA,A,3,28,17,10,12,09,02,05,27,04,,,,2.2,1.1,1.9*3B
$GPRMC,081738.000,A,3353.7546,N,09832.0182,W,0.75,194.79,300312,,,D*72
$GPGGA,081739.000,3353.7542,N,09832.0182,W,2,09,1.1,324.1,M,-23.7,M,0.8,0000*40
$GPGSA,A,3,28,17,10,12,09,02,05,27,04,,,,2.2,1.1,1.9*3B
$GPRMC,081739.000,A,3353.7542,N,09832.0182,W,0.76,189.46,300312,,,D*74
$GPGGA,081740.000,3353.7538,N,09832.0181,W,2,09,1.1,325.6,M,-23.7,M,0.8,0000*46
$GPGSA,A,3,28,17,10,12,09,02,05,27,04,,,,2.2,1.1,1.9*3B
$GPRMC,081740.000,A,3353.7538,N,09832.0181,W,0.76,178.11,300312,,,D*78
$GPGGA,081741.000,3353.7534,N,09832.0179,W,2,09,1.1,327.1,M,-23.7,M,0.8,0000*49
$GPGSA,A,3,28,17,10,12,09,02,05,27,04,,,,2.2,1.1,1.9*3B
$GPRMC,081741.000,A,3353.7534,N,09832.0179,W,0.82,166.26,300312,,,D*72
$GPGGA,081742.000,3353.7530,N,09832.0180,W,2,09,1.1,328.3,M,-23.7,M,0.8,0000*45
$GPGSA,A,3,28,17,10,12,09,02,05,27,04,,,,2.2,1.1,1.9*3B
$GPGSV,3,1,12,04,71,032,35,02,67,247,28,12,42,317,18,10,42,125,35*7B
$GPGSV,3,2,12,09,30,251,20,17,30,074,14,27,27,235,20,28,16,139,30*75
$GPGSV,3,3,12,05,14,180,32,25,03,318,,20,00,034,,51,49,195,38*76
$GPRMC,081742.000,A,3353.7530,N,09832.0180,W,0.96,200.88,300312,,,D*71
$GPGGA,081743.000,3353.7525,N,09832.0180,W,2,09,1.1,329.9,M,-23.7,M,1.8,0000*4A
$GPGSA,A,3,28,17,10,12,09,02,05,27,04,,,,2.2,1.1,1.9*3B
$GPRMC,081743.000,A,3353.7525,N,09832.0180,W,1.10,193.57,300312,,,D*70
$GPGGA,081744.000,3353.7522,N,09832.0184,W,2,09,1.1,330.1,M,-23.7,M,2.8,0000*4D
$GPGSA,A,3,28,17,10,12,09,02,05,27,04,,,,2.2,1.1,1.9*3B
$GPRMC,081744.000,A,3353.7522,N,09832.0184,W,0.93,191.82,300312,,,D*74
$GPGGA,081745.000,3353.7522,N,09832.0188,W,2,09,1.1,329.2,M,-23.7,M,0.8,0000*49
$GPGSA,A,3,28,17,10,12,09,02,05,27,04,,,,2.2,1.1,1.9*3B
$GPRMC,081745.000,A,3353.7522,N,09832.0188,W,0.87,175.06,300312,,,D*7A
$GPGGA,081746.000,3353.7522,N,09832.0191,W,2,09,1.1,329.0,M,-23.7,M,0.8,0000*40
$GPGSA,A,3,28,17,10,12,09,02,05,27,04,,,,2.2,1.1,1.9*3B
$GPRMC,081746.000,A,3353.7522,N,09832.0191,W,0.76,180.93,300312,,,D*79
$GPGGA,081747.000,3353.7521,N,09832.0192,W,2,09,1.1,328.9,M,-23.7,M,0.8,0000*49
$GPGSA,A,3,28,17,10,12,09,02,05,27,04,,,,2.2,1.1,1.9*3B
$GPGSV,3,1,12,04,71,032,35,02,68,247,28,12,42,317,17,10,42,125,35*7B
$GPGSV,3,2,12,09,30,251,20,17,29,074,15,27,27,234,20,28,16,139,29*75
$GPGSV,3,3,12,05,14,180,32,25,03,318,,20,00,034,,51,49,195,38*76
$GPRMC,081747.000,A,3353.7521,N,09832.0192,W,0.52,180.80,300312,,,D*7C
$GPGGA,081748.000,3353.7520,N,09832.0193,W,2,09,1.1,328.9,M,-23.7,M,0.8,0000*46
$GPGSA,A,3,28,17,10,12,09,02,05,27,04,,,,2.2,1.1,1.9*3B
$GPRMC,081748.000,A,3353.7520,N,09832.0193,W,0.43,167.02,300312,,,D*70
$GPGGA,081749.000,3353.7521,N,09832.0196,W,2,09,1.1,328.3,M,-23.7,M,1.8,0000*48
$GPGSA,A,3,28,17,10,12,09,02,05,27,04,,,,2.2,1.1,1.9*3B
$GPRMC,081749.000,A,3353.7521,N,09832.0196,W,0.44,139.26,300312,,,D*7F
$GPGGA,081750.000,3353.7521,N,09832.0196,W,2,09,1.1,328.2,M,-23.7,M,2.8,0000*42
$GPGSA,A,3,28,17,10,12,09,02,05,27,04,,,,2.2,1.1,1.9*3B
$GPRMC,081750.000,A,3353.7521,N,09832.0196,W,0.31,137.21,300312,,,D*7C
$GPGGA,081751.000,3353.7520,N,09832.0196,W,2,09,1.1,328.4,M,-23.7,M,0.8,0000*46
$GPGSA,A,3,28,17,10,12,09,02,05,27,04,,,,2.2,1.1,1.9*3B
$GPRMC,081751.000,A,3353.7520,N,09832.0196,W,0.28,145.05,300312,,,D*77
$GPGGA,081752.000,3353.7523,N,09832.0200,W,2,09,1.1,327.1,M,-23.7,M,0.8,0000*40
$GPGSA,A,3,28,17,10,12,09,02,05,27,04,,,,2.2,1.1,1.9*3B
$GPGSV,3,1,12,04,71,032,35,02,68,247,29,12,42,317,15,10,42,125,36*7B
$GPGSV,3,2,12,09,30,251,21,17,29,074,18,27,27,234,19,28,16,139,29*73
$GPGSV,3,3,12,05,14,180,32,25,03,318,,20,00,034,,51,49,195,38*76
$GPRMC,081752.000,A,3353.7523,N,09832.0200,W,0.33,241.62,300312,,,D*77
$GPGGA,081753.000,3353.7523,N,09832.0204,W,2,09,1.1,326.6,M,-23.7,M,0.8,0000*43
$GPGSA,A,3,28,17,10,12,09,02,05,27,04,,,,2.2,1.1,1.9*3B
$GPRMC,081753.000,A,3353.7523,N,09832.0204,W,0.64,220.24,300312,,,D*75
$GPGGA,081754.000,3353.7522,N,09832.0207,W,2,09,1.1,326.1,M,-23.7,M,1.8,0000*40
$GPGSA,A,3,28,17,10,12,09,02,05,27,04,,,,2.2,1.1,1.9*3B
$GPRMC,081754.000,A,3353.7522,N,09832.0207,W,0.68,205.31,300312,,,D*7F
$GPGGA,081755.000,3353.7524,N,09832.0210,W,2,09,1.1,325.1,M,-23.7,M,0.8,0000*43
$GPGSA,A,3,28,17,10,12,09,02,05,27,04,,,,2.2,1.1,1.9*3B
$GPRMC,081755.000,A,3353.7524,N,09832.0210,W,0.04,246.26,300312,,,D*75
$GPGGA,081756.000,3353.7525,N,09832.0210,W,2,09,1.1,324.9,M,-23.7,M,0.8,0000*48
$GPGSA,A,3,28,17,10,12,09,02,05,27,04,,,,2.2,1.1,1.9*3B
$GPRMC,081756.000,A,3353.7525,N,09832.0210,W,0.12,295.73,300312,,,D*7E
$GPGGA,081757.000,3353.7525,N,09832.0209,W,2,09,1.1,324.9,M,-23.7,M,0.8,0000*41
$GPGSA,A,3,28,17,10,12,09,02,05,27,04,,,,2.2,1.1,1.9*3B
$GPGSV,3,1,12,04,71,032,35,02,68,247,30,12,42,317,15,10,42,125,36*73
$GPGSV,3,2,12,09,30,251,22,17,29,074,19,27,27,234,19,28,16,139,28*70
$GPGSV,3,3,12,05,14,180,32,25,03,318,,20,00,034,,51,49,195,38*76
$GPRMC,081757.000,A,3353.7525,N,09832.0209,W,0.36,359.13,300312,,,D*76
$GPGGA,081758.000,3353.7526,N,09832.0208,W,2,09,1.1,324.9,M,-23.7,M,0.8,0000*4C
$GPGSA,A,3,28,17,10,12,09,02,05,27,04,,,,2.2,1.1,1.9*3B
$GPRMC,081758.000,A,3353.7526,N,09832.0208,W,0.50,0.20,300312,,,D*74
$GPGGA,081759.000,3353.7527,N,09832.0208,W,2,09,1.1,324.8,M,-23.7,M,0.8,0000*4D
$GPGSA,A,3,28,17,10,12,09,02,05,27,04,,,,2.2,1.1,1.9*3B
$GPRMC,081759.000,A,3353.7527,N,09832.0208,W,0.44,351.78,300312,,,D*7B
$GPGGA,081800.000,3353.7529,N,09832.0210,W,2,09,1.1,324.3,M,-23.7,M,1.8,0000*43
$GPGSA,A,3,28,17,10,12,09,02,05,27,04,,,,2.2,1.1,1.9*3B
$GPRMC,081800.000,A,3353.7529,N,09832.0210,W,0.34,358.11,300312,,,D*7E
$GPGGA,081801.000,3353.7529,N,09832.0209,W,2,09,1.1,324.4,M,-23.7,M,0.8,0000*4C
$GPGSA,A,3,28,17,10,12,09,02,05,27,04,,,,2.2,1.1,1.9*3B
$GPRMC,081801.000,A,3353.7529,N,09832.0209,W,0.39,327.42,300312,,,D*74
$GPGGA,081802.000,3353.7529,N,09832.0208,W,2,09,1.1,324.8,M,-23.7,M,1.8,0000*43
$GPGSA,A,3,28,17,10,12,09,02,05,27,04,,,,2.2,1.1,1.9*3B
$GPGSV,3,1,12,04,71,032,34,02,68,247,30,12,42,317,16,10,42,125,36*71
$GPGSV,3,2,12,09,30,251,22,17,29,074,19,27,27,234,21,28,16,139,27*74
$GPGSV,3,3,12,05,14,180,32,25,03,318,,20,00,034,,51,49,195,38*76
$GPRMC,081802.000,A,3353.7529,N,09832.0208,W,0.40,353.74,300312,,,D*7E
$GPGGA,081803.000,3353.7529,N,09832.0209,W,2,09,1.1,324.7,M,-23.7,M,0.8,0000*4D
$GPGSA,A,3,28,17,10,12,09,02,05,27,04,,,,2.2,1.1,1.9*3B
$GPRMC,081803.000,A,3353.7529,N,09832.0209,W,0.32,249.93,300312,,,D*78
$GPGGA,081804.000,3353.7530,N,09832.0212,W,2,09,1.1,324.2,M,-23.7,M,0.8,0000*4D
$GPGSA,A,3,28,17,10,12,09,02,05,27,04,,,,2.2,1.1,1.9*3B
$GPRMC,081804.000,A,3353.7530,N,09832.0212,W,0.42,286.94,300312,,,D*7E
$GPGGA,081805.000,3353.7532,N,09832.0215,W,2,09,1.1,323.2,M,-23.7,M,0.8,0000*4E
$GPGSA,A,3,28,17,10,12,09,02,05,27,04,,,,2.2,1.1,1.9*3B
$GPRMC,081805.000,A,3353.7532,N,09832.0215,W,0.49,275.32,300312,,,D*71
$GPGGA,081806.000,3353.7533,N,09832.0218,W,2,09,1.1,322.0,M,-23.7,M,0.8,0000*42
$GPGSA,A,3,28,17,10,12,09,02,05,27,04,,,,2.2,1.1,1.9*3B
$GPRMC,081806.000,A,3353.7533,N,09832.0218,W,0.48,291.33,300312,,,D*74
$GPGGA,081807.000,3353.7535,N,09832.0220,W,2,09,1.1,320.9,M,-23.7,M,1.8,0000*44
$GPGSA,A,3,28,17,10,12,09,02,05,27,04,,,,2.2,1.1,1.9*3B
$GPGSV,3,1,12,04,71,032,34,02,68,247,31,12,42,317,18,10,42,125,36*7E
$GPGSV,3,2,12,09,30,251,22,17,29,074,19,27,27,234,22,28,16,139,26*76
$GPGSV,3,3,12,05,14,180,32,25,03,318,,20,00,034,,51,49,195,38*76
$GPRMC,081807.000,A,3353.7535,N,09832.0220,W,0.27,329.62,300312,,,D*77
$GPGGA,081808.000,3353.7536,N,09832.0219,W,2,09,1.1,320.7,M,-23.7,M,2.8,0000*4F
$GPGSA,A,3,28,17,10,12,09,02,05,27,04,,,,2.2,1.1,1.9*3B
$GPRMC,081808.000,A,3353.7536,N,09832.0219,W,0.43,44.68,300312,,,D*41
$GPGGA,081809.000,3353.7535,N,09832.0216,W,2,09,1.1,321.1,M,-23.7,M,0.8,0000*47
$GPGSA,A,3,28,17,10,12,09,02,05,27,04,,,,2.2,1.1,1.9*3B
$GPRMC,081809.000,A,3353.7535,N,09832.0216,W,0.19,23.45,300312,,,D*4D
$GPGGA,081810.000,3353.7536,N,09832.0213,W,2,09,1.1,321.4,M,-23.7,M,0.8,0000*4C
$GPGSA,A,3,28,17,10,12,09,02,05,27,04,,,,2.2,1.1,1.9*3B
$GPRMC,081810.000,A,3353.7536,N,09832.0213,W,0.30,22.39,300312,,,D*42
$GPGGA,081811.000,3353.7536,N,09832.0211,W,2,09,1.1,321.4,M,-23.7,M,0.8,0000*4F
$GPGSA,A,3,28,17,10,12,09,02,05,27,04,,,,2.2,1.1,1.9*3B
$GPRMC,081811.000,A,3353.7536,N,09832.0211,W,0.32,80.03,300312,,,D*42
$GPGGA,081812.000,3353.7536,N,09832.0209,W,2,09,1.1,321.2,M,-23.7,M,1.8,0000*42
$GPGSA,A,3,28,17,10,12,09,02,05,27,04,,,,2.2,1.1,1.9*3B
$GPGSV,3,1,12,04,71,032,34,02,68,247,31,12,42,317,20,10,42,125,35*76
$GPGSV,3,2,12,09,30,251,22,17,29,074,20,27,27,234,22,28,16,139,22*78
$GPGSV,3,3,12,05,14,180,31,25,03,318,,20,00,034,,51,49,195,38*75
$GPRMC,081812.000,A,3353.7536,N,09832.0209,W,0.13,53.82,300312,,,D*4C
$GPGGA,081813.000,3353.7536,N,09832.0207,W,2,09,1.1,321.5,M,-23.7,M,2.8,0000*49
$GPGSA,A,3,28,17,10,12,09,02,05,27,04,,,,2.2,1.1,1.9*3B
$GPRMC,081813.000,A,3353.7536,N,09832.0207,W,0.25,22.12,300312,,,D*49
$GPGGA,081814.000,3353.7537,N,09832.0207,W,2,09,1.1,321.0,M,-23.7,M,3.8,0000*4B
$GPGSA,A,3,28,17,10,12,09,02,05,27,04,,,,2.2,1.1,1.9*3B
$GPRMC,081814.000,A,3353.7537,N,09832.0207,W,0.23,301.67,300312,,,D*79
$GPGGA,081815.000,3353.7536,N,09832.0205,W,2,09,1.1,321.5,M,-23.7,M,0.8,0000*4F
$GPGSA,A,3,28,17,10,12,09,02,05,27,04,,,,2.2,1.1,1.9*3B
$GPRMC,081815.000,A,3353.7536,N,09832.0205,W,0.36,24.53,300312,,,D*4C
$GPGGA,081816.000,3353.7547,N,09832.0202,W,2,09,1.1,318.3,M,-23.7,M,0.8,0000*41
$GPGSA,A,3,28,17,10,12,09,02,05,27,04,,,,2.2,1.1,1.9*3B
$GPRMC,081816.000,A,3353.7547,N,09832.0202,W,0.26,29.49,300312,,,D*49
$GPGGA,081817.000,3353.7554,N,09832.0200,W,2,09,1.1,316.2,M,-23.7,M,0.8,0000*4F
$GPGSA,A,3,28,17,10,12,09,02,05,27,04,,,,2.2,1.1,1.9*3B
$GPGSV,3,1,12,04,70,032,34,02,68,247,31,12,42,316,22,10,42,125,35*74
$GPGSV,3,2,12,09,30,251,22,17,29,074,26,27,27,234,23,28,16,139,22*7F
$GPGSV,3,3,12,05,14,180,31,25,03,318,,20,00,034,,51,49,195,38*75
$GPRMC,081817.000,A,3353.7554,N,09832.0200,W,0.25,318.34,300312,,,D*70
$GPGGA,081818.000,3353.7561,N,09832.0199,W,2,09,1.1,313.9,M,-23.7,M,1.8,0000*4A
$GPGSA,A,3,28,17,10,12,09,02,05,27,04,,,,2.2,1.1,1.9*3B
$GPRMC,081818.000,A,3353.7561,N,09832.0199,W,0.32,1.06,300312,,,D*76
$GPGGA,081819.000,3353.7560,N,09832.0200,W,2,09,1.1,313.7,M,-23.7,M,2.8,0000*44
$GPGSA,A,3,28,17,10,12,09,02,05,27,04,,,,2.2,1.1,1.9*3B
$GPRMC,081819.000,A,3353.7560,N,09832.0200,W,0.06,290.14,300312,,,D*7B
$GPGGA,081820.000,3353.7563,N,09832.0199,W,2,09,1.1,312.7,M,-23.7,M,3.8,0000*4E
$GPGSA,A,3,28,17,10,12,09,02,05,27,04,,,,2.2,1.1,1.9*3B
$GPRMC,081820.000,A,3353.7563,N,09832.0199,W,0.39,40.15,300312,,,D*43
$GPGGA,081821.000,3353.7568,N,09832.0198,W,2,09,1.1,310.8,M,-23.7,M,0.8,0000*4B
$GPGSA,A,3,28,17,10,12,09,02,05,27,04,,,,2.2,1.1,1.9*3B
$GPRMC,081821.000,A,3353.7568,N,09832.0198,W,0.20,348.44,300312,,,D*7F
$GPGGA,081822.000,3353.7575,N,09832.0197,W,2,09,1.1,308.4,M,-23.7,M,0.8,0000*4E
$GPGSA,A,3,28,17,10,12,09,02,05,27,04,,,,2.2,1.1,1.9*3B
$GPGSV,3,1,12,04,70,032,33,02,68,247,31,12,42,316,23,10,42,125,35*72
$GPGSV,3,2,12,09,30,251,21,17,29,074,26,27,27,234,22,28,16,139,22*7D
$GPGSV,3,3,12,05,14,180,31,25,03,318,,20,00,034,,51,49,195,38*75
$GPRMC,081822.000,A,3353.7575,N,09832.0197,W,0.54,325.93,300312,,,D*7D
$GPGGA,081823.000,3353.7579,N,09832.0198,W,2,09,1.1,307.2,M,-23.7,M,0.8,0000*45
$GPGSA,A,3,28,17,10,12,09,02,05,27,04,,,,2.2,1.1,1.9*3B
$GPRMC,081823.000,A,3353.7579,N,09832.0198,W,0.69,352.84,300312,,,D*77
$GPGGA,081824.000,3353.7581,N,09832.0198,W,2,09,1.1,306.4,M,-23.7,M,1.8,0000*43
$GPGSA,A,3,28,17,10,12,09,02,05,27,04,,,,2.2,1.1,1.9*3B
$GPRMC,081824.000,A,3353.7581,N,09832.0198,W,0.63,32.10,300312,,,D*45
$GPGGA,081825.000,3353.7582,N,09832.0198,W,2,09,1.1,305.9,M,-23.7,M,2.8,0000*4C
$GPGSA,A,3,28,17,10,12,09,02,05,27,04,,,,2.2,1.1,1.9*3B
$GPRMC,081825.000,A,3353.7582,N,09832.0198,W,0.48,342.37,300312,,,D*7F
$GPGGA,081826.000,3353.7583,N,09832.0199,W,2,09,1.1,305.5,M,-23.7,M,3.8,0000*42
$GPGSA,A,3,28,17,10,12,09,02,05,27,04,,,,2.2,1.1,1.9*3B
$GPRMC,081826.000,A,3353.7583,N,09832.0199,W,0.27,24.10,300312,,,D*43
$GPGGA,081827.000,3353.7583,N,09832.0200,W,2,09,1.1,305.2,M,-23.7,M,0.8,0000*44
$GPGSA,A,3,28,17,10,12,09,02,05,27,04,,,,2.2,1.1,1.9*3B
$GPGSV,3,1,12,04,70,032,33,02,68,247,31,12,42,316,24,10,42,125,35*75
$GPGSV,3,2,12,09,30,251,20,17,29,074,27,27,27,234,15,28,16,139,23*78
$GPGSV,3,3,12,05,14,180,31,25,03,318,,20,00,034,,51,49,195,38*75
$GPRMC,081827.000,A,3353.7583,N,09832.0200,W,0.26,23.41,300312,,,D*43
$GPGGA,081828.000,3353.7583,N,09832.0201,W,2,09,1.1,305.0,M,-23.7,M,0.8,0000*48
$GPGSA,A,3,28,17,10,12,09,02,05,27,04,,,,2.2,1.1,1.9*3B
$GPRMC,081828.000,A,3353.7583,N,09832.0201,W,0.44,343.82,300312,,,D*73
$GPGGA,081829.000,3353.7583,N,09832.0202,W,2,09,1.1,304.8,M,-23.7,M,0.8,0000*43
$GPGSA,A,3,28,17,10,12,09,02,05,27,04,,,,2.2,1.1,1.9*3B
$GPRMC,081829.000,A,3353.7583,N,09832.0202,W,0.22,358.21,300312,,,D*72
$GPGGA,081830.000,3353.7584,N,09832.0203,W,2,09,1.1,304.5,M,-23.7,M,1.8,0000*41
$GPGSA,A,3,28,17,10,12,09,02,05,27,04,,,,2.2,1.1,1.9*3B
$GPRMC,081830.000,A,3353.7584,N,09832.0203,W,0.47,20.15,300312,,,D*44
$GPGGA,081831.000,3353.7584,N,09832.0203,W,2,09,1.1,304.4,M,-23.7,M,2.8,0000*42
$GPGSA,A,3,28,17,10,12,09,02,05,27,04,,,,2.2,1.1,1.9*3B
$GPRMC,081831.000,A,3353.7584,N,09832.0203,W,0.39,38.58,300312,,,D*4C
$GPGGA,081832.000,3353.7584,N,09832.0203,W,2,09,1.1,304.4,M,-23.7,M,3.8,0000*40
$GPGSA,A,3,28,17,10,12,09,02,05,27,04,,,,2.2,1.1,1.9*3B
$GPGSV,3,1,12,04,70,032,33,02,68,247,31,12,42,316,24,10,42,125,35*75
$GPGSV,3,2,12,09,30,251,19,17,29,074,28,27,27,234,13,28,16,139,24*7C
$GPGSV,3,3,12,05,14,180,31,25,03,318,,20,00,034,,51,49,195,38*75
$GPRMC,081832.000,A,3353.7584,N,09832.0203,W,0.44,54.31,300312,,,D*40
$GPGGA,081833.000,3353.7584,N,09832.0203,W,2,09,1.1,304.5,M,-23.7,M,0.8,0000*43
$GPGSA,A,3,28,17,10,12,09,02,05,27,04,,,,2.2,1.1,1.9*3B
$GPRMC,081833.000,A,3353.7584,N,09832.0203,W,0.47,64.62,300312,,,D*47
$GPGGA,081834.000,3353.7584,N,09832.0203,W,2,08,1.2,304.4,M,-23.7,M,0.8,0000*47
$GPGSA,A,3,28,17,10,12,09,02,05,04,,,,,2.3,1.2,1.9*3C
$GPRMC,081834.000,A,3353.7584,N,09832.0203,W,0.13,65.56,300312,,,D*47
$GPGGA,081835.000,3353.7583,N,09832.0204,W,2,08,1.2,304.5,M,-23.7,M,0.8,0000*47
$GPGSA,A,3,28,17,10,12,09,02,05,04,,,,,2.3,1.2,1.9*3C
$GPRMC,081835.000,A,3353.7583,N,09832.0204,W,0.24,52.25,300312,,,D*42
$GPGGA,081836.000,3353.7583,N,09832.0205,W,2,08,1.2,304.5,M,-23.7,M,0.8,0000*45
$GPGSA,A,3,28,17,10,12,09,02,05,04,,,,,2.3,1.2,1.9*3C
$GPRMC,081836.000,A,3353.7583,N,09832.0205,W,0.25,47.87,300312,,,D*4D
$GPGGA,081837.000,3353.7583,N,09832.0205,W,2,08,1.2,304.5,M,-23.7,M,0.8,0000*44
$GPGSA,A,3,28,17,10,12,09,02,05,04,,,,,2.3,1.2,1.9*3C
$GPGSV,3,1,12,04,70,032,33,02,68,247,31,12,42,316,25,10,42,125,35*74
$GPGSV,3,2,12,09,30,251,19,17,29,074,28,27,27,234,,28,16,139,25*7F
$GPGSV,3,3,12,05,14,180,31,25,03,318,,20,00,034,,51,49,195,38*75
$GPRMC,081837.000,A,3353.7583,N,09832.0205,W,0.25,55.90,300312,,,D*49
$GPGGA,081838.000,3353.7583,N,09832.0206,W,2,08,1.2,304.5,M,-23.7,M,1.8,0000*49
$GPGSA,A,3,28,17,10,12,09,02,05,04,,,,,2.3,1.2,1.9*3C
$GPRMC,081838.000,A,3353.7583,N,09832.0206,W,0.10,107.86,300312,,,D*72
$GPGGA,081839.000,3353.7582,N,09832.0207,W,2,08,1.2,304.5,M,-23.7,M,0.8,0000*49
$GPGSA,A,3,28,17,10,12,09,02,05,04,,,,,2.3,1.2,1.9*3C
$GPRMC,081839.000,A,3353.7582,N,09832.0207,W,0.08,242.84,300312,,,D*7A
$GPGGA,081840.000,3353.7582,N,09832.0208,W,2,08,1.2,304.4,M,-23.7,M,0.8,0000*49
$GPGSA,A,3,28,17,10,12,09,02,05,04,,,,,2.3,1.2,1.9*3C
$GPRMC,081840.000,A,3353.7582,N,09832.0208,W,0.07,315.87,300312,,,D*74
$GPGGA,081841.000,3353.7582,N,09832.0209,W,2,08,1.2,304.4,M,-23.7,M,0.8,0000*49
$GPGSA,A,3,28,17,10,12,09,02,05,04,,,,,2.3,1.2,1.9*3C
$GPRMC,081841.000,A,3353.7582,N,09832.0209,W,0.27,98.41,300312,,,D*4A
$GPGGA,081842.000,3353.7582,N,09832.0209,W,2,08,1.2,304.4,M,-23.7,M,1.8,0000*4B
$GPGSA,A,3,28,17,10,12,09,02,05,04,,,,,2.3,1.2,1.9*3C
$GPGSV,3,1,12,04,70,032,33,02,68,247,31,12,42,316,25,10,42,125,34*75
$GPGSV,3,2,12,09,30,251,18,17,29,074,28,27,27,234,,28,16,139,26*7D
$GPGSV,3,3,12,05,14,180,31,25,03,318,,20,00,034,,51,49,195,38*75
$GPRMC,081842.000,A,3353.7582,N,09832.0209,W,0.27,82.38,300312,,,D*4C
$GPGGA,081843.000,3353.7582,N,09832.0210,W,2,08,1.2,304.3,M,-23.7,M,0.8,0000*44
$GPGSA,A,3,28,17,10,12,09,02,05,04,,,,,2.3,1.2,1.9*3C
$GPRMC,081843.000,A,3353.7582,N,09832.0210,W,0.03,274.80,300312,,,D*7B
$GPGGA,081844.000,3353.7582,N,09832.0211,W,2,08,1.2,304.2,M,-23.7,M,1.8,0000*42
$GPGSA,A,3,28,17,10,12,09,02,05,04,,,,,2.3,1.2,1.9*3C
$GPRMC,081844.000,A,3353.7582,N,09832.0211,W,0.12,268.39,300312,,,D*72
$GPGGA,081845.000,3353.7583,N,09832.0212,W,2,08,1.2,304.0,M,-23.7,M,0.8,0000*42
$GPGSA,A,3,28,17,10,12,09,02,05,04,,,,,2.3,1.2,1.9*3C
$GPRMC,081845.000,A,3353.7583,N,09832.0212,W,0.06,5.80,300312,,,D*7F
$GPGGA,081846.000,3353.7583,N,09832.0213,W,2,08,1.2,303.8,M,-23.7,M,0.8,0000*4F
$GPGSA,A,3,28,17,10,12,09,02,05,04,,,,,2.3,1.2,1.9*3C
$GPRMC,081846.000,A,3353.7583,N,09832.0213,W,0.05,31.56,300312,,,D*42
$GPGGA,081847.000,3353.7583,N,09832.0214,W,2,08,1.2,303.7,M,-23.7,M,0.8,0000*46
$GPGSA,A,3,28,17,10,12,09,02,05,04,,,,,2.3,1.2,1.9*3C
$GPGSV,3,1,12,04,70,032,33,02,68,247,31,12,42,316,26,10,42,125,34*76
$GPGSV,3,2,12,09,30,251,17,17,29,074,29,27,27,234,,28,16,139,27*72
$GPGSV,3,3,12,05,14,180,31,25,03,318,,20,00,034,,51,49,195,38*75
$GPRMC,081847.000,A,3353.7583,N,09832.0214,W,0.05,324.96,300312,,,D*7F
$GPGGA,081848.000,3353.7583,N,09832.0214,W,2,08,1.2,303.6,M,-23.7,M,1.8,0000*49
$GPGSA,A,3,28,17,10,12,09,02,05,04,,,,,2.3,1.2,1.9*3C
$GPRMC,081848.000,A,3353.7583,N,09832.0214,W,0.06,326.42,300312,,,D*78
$GPGGA,081849.000,3353.7584,N,09832.0215,W,2,08,1.2,303.5,M,-23.7,M,0.8,0000*4C
$GPGSA,A,3,28,17,10,12,09,02,05,04,,,,,2.3,1.2,1.9*3C
$GPRMC,081849.000,A,3353.7584,N,09832.0215,W,0.04,22.89,300312,,,D*4D
$GPGGA,081850.000,3353.7584,N,09832.0216,W,2,08,1.2,303.4,M,-23.7,M,1.8,0000*47
$GPGSA,A,3,28,17,10,12,09,02,05,04,,,,,2.3,1.2,1.9*3C
$GPRMC,081850.000,A,3353.7584,N,09832.0216,W,0.04,13.08,300312,,,D*4D
$GPGGA,081851.000,3353.7584,N,09832.0216,W,2,08,1.2,303.3,M,-23.7,M,0.8,0000*40
$GPGSA,A,3,28,17,10,12,09,02,05,04,,,,,2.3,1.2,1.9*3C
$GPRMC,081851.000,A,3353.7584,N,09832.0216,W,0.03,295.54,300312,,,D*7E
$GPGGA,081852.000,3353.7582,N,09832.0218,W,2,09,1.1,303.8,M,-23.7,M,0.8,0000*42
$GPGSA,A,3,28,17,10,12,09,02,05,27,04,,,,2.2,1.1,1.9*3B
$GPGSV,3,1,12,04,70,032,34,02,68,247,31,12,42,316,27,10,42,125,33*77
$GPGSV,3,2,12,09,30,251,15,17,29,074,29,27,27,234,21,28,16,139,27*73
$GPGSV,3,3,12,05,14,180,31,25,03,318,,20,00,034,,51,49,195,38*75
$GPRMC,081852.000,A,3353.7582,N,09832.0218,W,0.15,265.19,300312,,,D*74
$GPGGA,081853.000,3353.7581,N,09832.0218,W,2,09,1.1,304.1,M,-23.7,M,0.8,0000*4E
$GPGSA,A,3,28,17,10,12,09,02,05,27,04,,,,2.2,1.1,1.9*3B
$GPRMC,081853.000,A,3353.7581,N,09832.0218,W,0.09,68.79,300312,,,D*42
$GPGGA,081854.000,3353.7580,N,09832.0219,W,2,09,1.1,304.2,M,-23.7,M,1.8,0000*4B
$GPGSA,A,3,28,17,10,12,09,02,05,27,04,,,,2.2,1.1,1.9*3B
$GPRMC,081854.000,A,3353.7580,N,09832.0219,W,0.06,52.48,300312,,,D*41
$GPGGA,081855.000,3353.7580,N,09832.0219,W,2,09,1.1,304.3,M,-23.7,M,2.8,0000*48
$GPGSA,A,3,28,17,10,12,09,02,05,27,04,,,,2.2,1.1,1.9*3B
$GPRMC,081855.000,A,3353.7580,N,09832.0219,W,0.10,246.17,300312,,,D*7A
$GPGGA,081856.000,3353.7579,N,09832.0220,W,2,09,1.1,304.5,M,-23.7,M,3.8,0000*40
$GPGSA,A,3,28,17,10,12,09,02,05,27,04,,,,2.2,1.1,1.9*3B
$GPRMC,081856.000,A,3353.7579,N,09832.0220,W,0.11,261.02,300312,,,D*75
$GPGGA,081857.000,3353.7578,N,09832.0220,W,2,09,1.1,304.7,M,-23.7,M,0.8,0000*41
$GPGSA,A,3,28,17,10,12,09,02,05,27,04,,,,2.2,1.1,1.9*3B
$GPGSV,3,1,12,04,70,032,35,02,68,247,32,12,42,316,27,10,42,125,32*74
$GPGSV,3,2,12,09,30,251,16,17,29,074,30,27,27,234,22,28,16,139,27*7B
$GPGSV,3,3,12,05,14,180,30,25,03,318,,20,00,034,,51,49,195,38*74
$GPRMC,081857.000,A,3353.7578,N,09832.0220,W,0.15,85.10,300312,,,D*4A
$GPGGA,081858.000,3353.7577,N,09832.0220,W,2,09,1.1,305.0,M,-23.7,M,0.8,0000*47
$GPGSA,A,3,28,17,10,12,09,02,05,27,04,,,,2.2,1.1,1.9*3B
$GPRMC,081858.000,A,3353.7577,N,09832.0220,W,0.34,81.11,300312,,,D*4C
$GPGGA,081859.000,3353.7577,N,09832.0219,W,2,09,1.1,305.2,M,-23.7,M,0.8,0000*4E
$GPGSA,A,3,28,17,10,12,09,02,05,27,04,,,,2.2,1.1,1.9*3B
$GPRMC,081859.000,A,3353.7577,N,09832.0219,W,0.30,95.92,300312,,,D*4D
$GPGGA,081900.000,3353.7576,N,09832.0218,W,2,09,1.1,305.3,M,-23.7,M,0.8,0000*42
$GPGSA,A,3,28,17,10,12,09,02,05,27,04,,,,2.2,1.1,1.9*3B
$GPRMC,081900.000,A,3353.7576,N,09832.0218,W,0.24,111.16,300312,,,D*74
$GPGGA,081901.000,3353.7575,N,09832.0218,W,2,09,1.1,305.4,M,-23.7,M,1.8,0000*46
$GPGSA,A,3,28,17,10,12,09,02,05,27,04,,,,2.2,1.1,1.9*3B
$GPRMC,081901.000,A,3353.7575,N,09832.0218,W,0.07,172.43,300312,,,D*72
$GPGGA,081902.000,3353.7574,N,09832.0219,W,2,09,1.1,305.4,M,-23.7,M,2.8,0000*46
$GPGSA,A,3,28,17,10,12,09,02,05,27,04,,,,2.2,1.1,1.9*3B
$GPGSV,3,1,12,04,70,032,35,02,68,247,32,12,42,316,27,10,42,125,31*77
$GPGSV,3,2,12,09,30,251,22,17,29,074,30,27,27,234,23,28,16,139,26*7C
$GPGSV,3,3,12,05,14,180,30,25,03,318,,20,00,034,,51,49,195,38*74
$GPRMC,081902.000,A,3353.7574,N,09832.0219,W,0.12,208.05,300312,,,D*79
$GPGGA,081903.000,3353.7573,N,09832.0219,W,2,09,1.1,305.5,M,-23.7,M,0.8,0000*43
$GPGSA,A,3,28,17,10,12,09,02,05,27,04,,,,2.2,1.1,1.9*3B
$GPRMC,081903.000,A,3353.7573,N,09832.0219,W,0.23,226.00,300312,,,D*74
$GPGGA,081904.000,3353.7573,N,09832.0219,W,2,09,1.1,305.6,M,-23.7,M,0.8,0000*47
$GPGSA,A,3,28,17,10,12,09,02,05,27,04,,,,2.2,1.1,1.9*3B
$GPRMC,081904.000,A,3353.7573,N,09832.0219,W,0.08,116.03,300312,,,D*79
$GPGGA,081905.000,3353.7572,N,09832.0219,W,2,09,1.1,305.8,M,-23.7,M,0.8,0000*49
$GPGSA,A,3,28,17,10,12,09,02,05,27,04,,,,2.2,1.1,1.9*3B
$GPRMC,081905.000,A,3353.7572,N,09832.0219,W,0.20,91.92,300312,,,D*45
$GPGGA,081906.000,3353.7571,N,09832.0218,W,2,09,1.1,305.9,M,-23.7,M,0.8,0000*49
$GPGSA,A,3,28,17,10,12,09,02,05,27,04,,,,2.2,1.1,1.9*3B
$GPRMC,081906.000,A,3353.7571,N,09832.0218,W,0.30,89.08,300312,,,D*4F
$GPGGA,081907.000,3353.7571,N,09832.0218,W,2,09,1.1,306.0,M,-23.7,M,1.8,0000*43
$GPGSA,A,3,28,17,10,12,09,02,05,27,04,,,,2.2,1.1,1.9*3B
$GPGSV,3,1,12,04,70,032,36,02,68,247,32,12,42,316,28,10,42,125,31*7B
$GPGSV,3,2,12,09,30,251,21,17,29,074,31,27,27,234,23,28,16,139,25*7D
$GPGSV,3,3,12,05,14,180,30,25,03,318,,20,00,034,,51,49,195,38*74
$GPRMC,081907.000,A,3353.7571,N,09832.0218,W,0.02,317.97,300312,,,D*7D
$GPGGA,081908.000,3353.7571,N,09832.0218,W,2,09,1.1,306.1,M,-23.7,M,2.8,0000*4E
$GPGSA,A,3,28,17,10,12,09,02,05,27,04,,,,2.2,1.1,1.9*3B
$GPRMC,081908.000,A,3353.7571,N,09832.0218,W,0.06,143.96,300312,,,D*74
$GPGGA,081909.000,3353.7570,N,09832.0218,W,2,09,1.1,306.2,M,-23.7,M,0.8,0000*4F
$GPGSA,A,3,28,17,10,12,09,02,05,27,04,,,,2.2,1.1,1.9*3B
$GPRMC,081909.000,A,3353.7570,N,09832.0218,W,0.15,108.43,300312,,,D*71
$GPGGA,081910.000,3353.7570,N,09832.0217,W,2,09,1.1,306.2,M,-23.7,M,0.8,0000*48
$GPGSA,A,3,28,17,10,12,09,02,05,27,04,,,,2.2,1.1,1.9*3B
$GPRMC,081910.000,A,3353.7570,N,09832.0217,W,0.15,3.45,300312,,,D*7A
$GPGGA,081911.000,3353.7570,N,09832.0217,W,2,09,1.1,306.2,M,-23.7,M,0.8,0000*49
$GPGSA,A,3,28,17,10,12,09,02,05,27,04,,,,2.2,1.1,1.9*3B
$GPRMC,081911.000,A,3353.7570,N,09832.0217,W,0.09,36.87,300312,,,D*4E
$GPGGA,081912.000,3353.7570,N,09832.0217,W,2,09,1.1,306.0,M,-23.7,M,1.8,0000*49
$GPGSA,A,3,28,17,10,12,09,02,05,27,04,,,,2.2,1.1,1.9*3B
$GPGSV,3,1,12,04,70,032,36,02,68,247,32,12,42,316,29,10,42,125,30*7B
$GPGSV,3,2,12,09,30,251,21,17,29,074,31,27,27,234,23,28,16,139,21*79
$GPGSV,3,3,12,05,14,180,29,25,03,318,,20,00,034,,51,49,195,38*7C
$GPRMC,081912.000,A,3353.7570,N,09832.0217,W,0.17,240.26,300312,,,D*7A
$GPGGA,081913.000,3353.7570,N,09832.0218,W,2,09,1.1,305.9,M,-23.7,M,2.8,0000*4E
$GPGSA,A,3,28,17,10,12,09,02,05,27,04,,,,2.2,1.1,1.9*3B
$GPRMC,081913.000,A,3353.7570,N,09832.0218,W,0.13,264.40,300312,,,D*76
$GPGGA,081914.000,3353.7569,N,09832.0218,W,2,09,1.1,305.9,M,-23.7,M,0.8,0000*43
$GPGSA,A,3,28,17,10,12,09,02,05,27,04,,,,2.2,1.1,1.9*3B
$GPRMC,081914.000,A,3353.7569,N,09832.0218,W,0.14,35.21,300312,,,D*4F
$GPGGA,081915.000,3353.7569,N,09832.0217,W,2,09,1.1,305.9,M,-23.7,M,0.8,0000*4D
$GPGSA,A,3,28,17,10,12,09,02,05,27,04,,,,2.2,1.1,1.9*3B
$GPRMC,081915.000,A,3353.7569,N,09832.0217,W,0.36,83.06,300312,,,D*49
$GPGGA,081916.000,3353.7569,N,09832.0216,W,2,09,1.1,305.9,M,-23.7,M,0.8,0000*4F
$GPGSA,A,3,28,17,10,12,09,02,05,27,04,,,,2.2,1.1,1.9*3B
$GPRMC,081916.000,A,3353.7569,N,09832.0216,W,0.10,286.60,300312,,,D*78
$GPGGA,081917.000,3353.7568,N,09832.0216,W,2,09,1.1,306.1,M,-23.7,M,0.8,0000*44
$GPGSA,A,3,28,17,10,12,09,02,05,27,04,,,,2.2,1.1,1.9*3B
$GPGSV,3,1,12,04,70,032,37,02,68,247,31,12,42,316,29,10,42,125,29*71
$GPGSV,3,2,12,09,30,251,23,17,29,074,31,27,27,234,18,28,16,139,19*78
$GPGSV,3,3,12,05,14,180,30,25,03,318,,20,00,034,,51,49,195,38*74
$GPRMC,081917.000,A,3353.7568,N,09832.0216,W,0.26,284.66,300312,,,D*79
$GPGGA,081918.000,3353.7568,N,09832.0217,W,2,09,1.1,306.2,M,-23.7,M,1.8,0000*48
$GPGSA,A,3,28,17,10,12,09,02,05,27,04,,,,2.2,1.1,1.9*3B
$GPRMC,081918.000,A,3353.7568,N,09832.0217,W,0.18,290.26,300312,,,D*7B
$GPGGA,081919.000,3353.7567,N,09832.0216,W,2,09,1.1,306.4,M,-23.7,M,2.8,0000*42
$GPGSA,A,3,28,17,10,12,09,02,05,27,04,,,,2.2,1.1,1.9*3B
$GPRMC,081919.000,A,3353.7567,N,09832.0216,W,0.10,25.16,300312,,,D*43
$GPGGA,081920.000,3353.7567,N,09832.0216,W,2,09,1.1,306.5,M,-23.7,M,3.8,0000*48
$GPGSA,A,3,28,17,10,12,09,02,05,27,04,,,,2.2,1.1,1.9*3B
$GPRMC,081920.000,A,3353.7567,N,09832.0216,W,0.29,279.56,300312,,,D*7C
$GPGGA,081921.000,3353.7566,N,09832.0217,W,2,09,1.1,306.6,M,-23.7,M,0.8,0000*49
$GPGSA,A,3,28,17,10,12,09,02,05,27,04,,,,2.2,1.1,1.9*3B
$GPRMC,081921.000,A,3353.7566,N,09832.0217,W,0.25,279.17,300312,,,D*74
$GPGGA,081922.000,3353.7566,N,09832.0217,W,2,09,1.1,306.8,M,-23.7,M,0.8,0000*44
$GPGSA,A,3,28,17,10,12,09,02,05,27,04,,,,2.2,1.1,1.9*3B
$GPGSV,3,1,12,04,70,032,37,02,68,247,31,12,42,316,28,10,42,125,29*70
$GPGSV,3,2,12,09,30,251,23,17,29,074,31,27,27,234,16,28,16,139,18*77
$GPGSV,3,3,12,05,14,180,30,25,03,318,,20,00,034,,51,49,195,38*74
$GPRMC,081922.000,A,3353.7566,N,09832.0217,W,0.13,325.26,300312,,,D*78
$GPGGA,081923.000,3353.7566,N,09832.0216,W,2,09,1.1,306.8,M,-23.7,M,0.8,0000*44
$GPGSA,A,3,28,17,10,12,09,02,05,27,04,,,,2.2,1.1,1.9*3B
$GPRMC,081923.000,A,3353.7566,N,09832.0216,W,0.16,9.02,300312,,,D*76
$GPGGA,081924.000,3353.7566,N,09832.0215,W,2,09,1.1,306.8,M,-23.7,M,0.8,0000*40
$GPGSA,A,3,28,17,10,12,09,02,05,27,04,,,,2.2,1.1,1.9*3B
$GPRMC,081924.000,A,3353.7566,N,09832.0215,W,0.12,63.94,300312,,,D*45
$GPGGA,081925.000,3353.7565,N,09832.0214,W,2,09,1.1,306.8,M,-23.7,M,1.8,0000*42
$GPGSA,A,3,28,17,10,12,09,02,05,27,04,,,,2.2,1.1,1.9*3B
$GPRMC,081925.000,A,3353.7565,N,09832.0214,W,0.09,81.06,300312,,,D*4B
$GPGGA,081926.000,3353.7565,N,09832.0213,W,2,09,1.1,306.8,M,-23.7,M,2.8,0000*45
$GPGSA,A,3,28,17,10,12,09,02,05,27,04,,,,2.2,1.1,1.9*3B
$GPRMC,081926.000,A,3353.7565,N,09832.0213,W,0.09,101.44,300312,,,D*70
$GPGGA,081927.000,3353.7564,N,09832.0213,W,2,09,1.1,306.8,M,-23.7,M,0.8,0000*47
$GPGSA,A,3,28,17,10,12,09,02,05,27,04,,,,2.2,1.1,1.9*3B
$GPGSV,3,1,12,04,70,032,37,02,68,247,30,12,42,316,28,10,42,125,29*71
$GPGSV,3,2,12,09,30,251,24,17,29,074,32,27,27,234,15,28,16,139,17*7F
$GPGSV,3,3,12,05,14,180,30,25,03,318,,20,00,034,,51,49,195,38*74
$GPRMC,081927.000,A,3353.7564,N,09832.0213,W,0.12,131.68,300312,,,D*77
$GPGGA,081928.000,3353.7564,N,09832.0212,W,2,09,1.1,306.8,M,-23.7,M,0.8,0000*49
$GPGSA,A,3,28,17,10,12,09,02,05,27,04,,,,2.2,1.1,1.9*3B
$GPRMC,081928.000,A,3353.7564,N,09832.0212,W,0.20,98.94,300312,,,D*49
$GPGGA,081929.000,3353.7563,N,09832.0211,W,2,09,1.1,306.9,M,-23.7,M,0.8,0000*4D
$GPGSA,A,3,28,17,10,12,09,02,05,27,04,,,,2.2,1.1,1.9*3B
$GPRMC,081929.000,A,3353.7563,N,09832.0211,W,0.30,80.44,300312,,,D*49
$GPGGA,081930.000,3353.7563,N,09832.0210,W,2,09,1.1,307.0,M,-23.7,M,0.8,0000*4C
$GPGSA,A,3,28,17,10,12,09,02,05,27,04,,,,2.2,1.1,1.9*3B
$GPRMC,081930.000,A,3353.7563,N,09832.0210,W,0.03,265.92,300312,,,D*72
$GPGGA,081931.000,3353.7562,N,09832.0210,W,2,09,1.1,307.1,M,-23.7,M,0.8,0000*4D
$GPGSA,A,3,28,17,10,12,09,02,05,27,04,,,,2.2,1.1,1.9*3B
$GPRMC,081931.000,A,3353.7562,N,09832.0210,W,0.19,95.23,300312,,,D*4E
$GPGGA,081932.000,3353.7561,N,09832.0209,W,2,09,1.1,307.3,M,-23.7,M,1.8,0000*46
$GPGSA,A,3,28,17,10,12,09,02,05,27,04,,,,2.2,1.1,1.9*3B
$GPGSV,3,1,12,04,70,032,37,02,68,247,29,12,42,316,28,10,42,125,29*79
$GPGSV,3,2,12,09,30,251,24,17,29,074,32,27,27,234,14,28,16,139,16*7F
$GPGSV,3,3,12,05,14,180,31,25,03,318,,20,00,034,,51,49,195,38*75
$GPRMC,081932.000,A,3353.7561,N,09832.0209,W,0.15,110.54,300312,,,D*76
$GPGGA,081933.000,3353.7561,N,09832.0208,W,2,09,1.1,307.4,M,-23.7,M,0.8,0000*40
$GPGSA,A,3,28,17,10,12,09,02,05,27,04,,,,2.2,1.1,1.9*3B
$GPRMC,081933.000,A,3353.7561,N,09832.0208,W,0.13,97.15,300312,,,D*4B
$GPGGA,081934.000,3353.7560,N,09832.0208,W,2,09,1.1,307.5,M,-23.7,M,0.8,0000*47
$GPGSA,A,3,28,17,10,12,09,02,05,27,04,,,,2.2,1.1,1.9*3B
$GPRMC,081934.000,A,3353.7560,N,09832.0208,W,0.17,99.12,300312,,,D*40
$GPGGA,081935.000,3353.7560,N,09832.0207,W,2,09,1.1,307.7,M,-23.7,M,0.8,0000*4B
$GPGSA,A,3,28,17,10,12,09,02,05,27,04,,,,2.2,1.1,1.9*3B
$GPRMC,081935.000,A,3353.7560,N,09832.0207,W,0.15,48.86,300312,,,D*4D
$GPGGA,081936.000,3353.7559,N,09832.0207,W,2,09,1.1,307.9,M,-23.7,M,1.8,0000*4D
$GPGSA,A,3,28,17,10,12,09,02,05,27,04,,,,2.2,1.1,1.9*3B
$GPRMC,081936.000,A,3353.7559,N,09832.0207,W,0.11,5.10,300312,,,D*76
$GPGGA,081937.000,3353.7559,N,09832.0207,W,2,09,1.1,308.1,M,-23.7,M,0.8,0000*4A
$GPGSA,A,3,28,17,10,12,09,02,05,27,04,,,,2.2,1.1,1.9*3B
$GPGSV,3,1,12,04,70,032,37,02,68,247,29,12,42,316,29,10,42,125,29*78
$GPGSV,3,2,12,09,30,251,25,17,29,074,33,27,27,234,14,28,16,139,17*7E
$GPGSV,3,3,12,05,14,180,31,25,03,318,,20,00,034,,51,49,195,38*75
$GPRMC,081937.000,A,3353.7559,N,09832.0207,W,0.12,297.79,300312,,,D*72
$GPGGA,081938.000,3353.7558,N,09832.0207,W,2,09,1.1,308.3,M,-23.7,M,1.8,0000*47
$GPGSA,A,3,28,17,10,12,09,02,05,27,04,,,,2.2,1.1,1.9*3B
$GPRMC,081938.000,A,3353.7558,N,09832.0207,W,0.07,340.35,300312,,,D*7B
$GPGGA,081939.000,3353.7558,N,09832.0207,W,2,09,1.1,308.4,M,-23.7,M,0.8,0000*40
$GPGSA,A,3,28,17,10,12,09,02,05,27,04,,,,2.2,1.1,1.9*3B
$GPRMC,081939.000,A,3353.7558,N,09832.0207,W,0.09,297.23,300312,,,D*78
$GPGGA,081940.000,3353.7557,N,09832.0207,W,2,09,1.1,308.5,M,-23.7,M,0.8,0000*40
$GPGSA,A,3,28,17,10,12,09,02,05,27,04,,,,2.2,1.1,1.9*3B
$GPRMC,081940.000,A,3353.7557,N,09832.0207,W,0.11,304.51,300312,,,D*7E
$GPGGA,081941.000,3353.7557,N,09832.0207,W,2,09,1.1,308.7,M,-23.7,M,0.8,0000*43
