$GPGGA,103351.000,3353.7549,N,09832.0224,W,2,05,2.6,327.1,M,-23.7,M,0.8,0000*4E
$GPGSA,A,3,25,10,05,02,04,,,,,,,,4.0,2.6,3.0*34
$GPRMC,103351.000,A,3353.7549,N,09832.0224,W,0.19,0.07,300312,,,D*7D
$GPGGA,103352.000,3353.7550,N,09832.0224,W,2,05,2.6,327.2,M,-23.7,M,0.8,0000*46
$GPGSA,A,3,25,10,05,02,04,,,,,,,,4.0,2.6,3.0*34
$GPGSV,3,1,10,05,75,132,30,12,52,213,,02,50,042,37,25,47,283,30*71
$GPGSV,3,2,10,10,30,046,38,29,28,312,22,04,17,063,33,26,07,148,17*7C
$GPGSV,3,3,10,13,02,040,,51,49,195,41*7D
$GPRMC,103352.000,A,3353.7550,N,09832.0224,W,0.14,18.75,300312,,,D*47
$GPGGA,103353.000,3353.7551,N,09832.0223,W,2,05,2.6,327.3,M,-23.7,M,0.8,0000*40
$GPGSA,A,3,25,10,05,02,04,,,,,,,,4.0,2.6,3.0*34
$GPRMC,103353.000,A,3353.7551,N,09832.0223,W,0.13,8.48,300312,,,D*78
$GPGGA,103354.000,3353.7552,N,09832.0223,W,2,05,2.6,327.4,M,-23.7,M,1.8,0000*42
$GPGSA,A,3,25,10,05,02,04,,,,,,,,4.0,2.6,3.0*34
$GPRMC,103354.000,A,3353.7552,N,09832.0223,W,0.12,359.95,300312,,,D*7A
$GPGGA,103355.000,3353.7553,N,09832.0223,W,2,05,2.6,327.5,M,-23.7,M,2.8,0000*40
$GPGSA,A,3,25,10,05,02,04,,,,,,,,4.0,2.6,3.0*34
$GPRMC,103355.000,A,3353.7553,N,09832.0223,W,0.10,3.88,300312,,,D*78
$GPGGA,103356.000,3353.7554,N,09832.0222,W,2,05,2.6,327.5,M,-23.7,M,3.8,0000*44
$GPGSA,A,3,25,10,05,02,04,,,,,,,,4.0,2.6,3.0*34
$GPRMC,103356.000,A,3353.7554,N,09832.0222,W,0.08,17.43,300312,,,D*46
$GPGGA,103357.000,3353.7555,N,09832.0222,W,2,05,2.6,327.5,M,-23.7,M,0.8,0000*47
$GPGSA,A,3,25,10,05,02,04,,,,,,,,4.0,2.6,3.0*34
$GPGSV,3,1,10,05,75,132,30,12,52,213,,02,50,042,37,25,47,283,29*79
$GPGSV,3,2,10,10,30,046,38,29,28,312,22,04,17,063,33,26,07,148,15*7E
$GPGSV,3,3,10,13,02,040,,51,49,195,38*73
$GPRMC,103357.000,A,3353.7555,N,09832.0222,W,0.10,338.85,300312,,,D*7B
$GPGGA,103358.000,3353.7555,N,09832.0222,W,2,05,2.6,327.5,M,-23.7,M,0.8,0000*48
$GPGSA,A,3,25,10,05,02,04,,,,,,,,4.0,2.6,3.0*34
$GPRMC,103358.000,A,3353.7555,N,09832.0222,W,0.13,334.13,300312,,,D*74
$GPGGA,103359.000,3353.7557,N,09832.0223,W,2,05,2.6,327.7,M,-23.7,M,0.8,0000*48
$GPGSA,A,3,25,10,05,02,04,,,,,,,,4.0,2.6,3.0*34
$GPRMC,103359.000,A,3353.7557,N,09832.0223,W,0.11,311.72,300312,,,D*74
$GPGGA,103400.000,3353.7558,N,09832.0223,W,2,05,2.6,327.9,M,-23.7,M,1.8,0000*43
$GPGSA,A,3,25,10,05,02,04,,,,,,,,4.0,2.6,3.0*34
$GPRMC,103400.000,A,3353.7558,N,09832.0223,W,0.12,323.67,300312,,,D*76
$GPGGA,103401.000,3353.7558,N,09832.0223,W,2,05,2.6,327.8,M,-23.7,M,0.8,0000*42
$GPGSA,A,3,25,10,05,02,04,,,,,,,,4.0,2.6,3.0*34
$GPRMC,103401.000,A,3353.7558,N,09832.0223,W,0.08,296.92,300312,,,D*79
$GPGGA,103402.000,3353.7558,N,09832.0224,W,2,05,2.6,327.7,M,-23.7,M,0.8,0000*49
$GPGSA,A,3,25,10,05,02,04,,,,,,,,4.0,2.6,3.0*34
$GPGSV,3,1,10,05,75,132,29,12,52,213,,02,50,042,37,25,47,283,29*71
$GPGSV,3,2,10,10,30,046,37,29,28,312,23,04,17,063,33,26,07,148,14*71
$GPGSV,3,3,10,13,02,040,,51,49,195,38*73
$GPRMC,103402.000,A,3353.7558,N,09832.0224,W,0.08,308.43,300312,,,D*77
$GPGGA,103403.000,3353.7557,N,09832.0223,W,2,05,2.6,327.5,M,-23.7,M,0.8,0000*42
$GPGSA,A,3,25,10,05,02,04,,,,,,,,4.0,2.6,3.0*34
$GPRMC,103403.000,A,3353.7557,N,09832.0223,W,0.32,179.20,300312,,,D*76
$GPGGA,103404.000,3353.7556,N,09832.0223,W,2,05,2.6,327.3,M,-23.7,M,0.8,0000*42
$GPGSA,A,3,25,10,05,02,04,,,,,,,,4.0,2.6,3.0*34
$GPRMC,103404.000,A,3353.7556,N,09832.0223,W,0.49,179.10,300312,,,D*7F
$GPGGA,103405.000,3353.7555,N,09832.0223,W,2,05,2.6,327.1,M,-23.7,M,0.8,0000*42
$GPGSA,A,3,25,10,05,02,04,,,,,,,,4.0,2.6,3.0*34
$GPRMC,103405.000,A,3353.7555,N,09832.0223,W,0.49,171.36,300312,,,D*71
$GPGGA,103406.000,3353.7555,N,09832.0223,W,2,05,2.7,327.1,M,-23.7,M,1.8,0000*41
$GPGSA,A,3,25,10,05,02,04,,,,,,,,4.0,2.7,3.0*35
$GPRMC,103406.000,A,3353.7555,N,09832.0223,W,0.09,143.82,300312,,,D*78
$GPGGA,103407.000,3353.7556,N,09832.0222,W,2,05,2.7,327.1,M,-23.7,M,2.8,0000*41
$GPGSA,A,3,25,10,05,02,04,,,,,,,,4.0,2.7,3.0*35
$GPGSV,3,1,10,05,75,132,29,12,52,213,18,02,50,042,37,25,47,283,28*79
$GPGSV,3,2,10,10,30,046,37,29,28,312,23,04,17,063,33,26,07,148,14*71
$GPGSV,3,3,10,13,02,040,,51,49,195,38*73
$GPRMC,103407.000,A,3353.7556,N,09832.0222,W,0.28,10.97,300312,,,D*4B
$GPGGA,103408.000,3353.7556,N,09832.0222,W,2,05,2.7,327.0,M,-23.7,M,3.8,0000*4E
$GPGSA,A,3,25,10,05,02,04,,,,,,,,4.0,2.7,3.0*35
$GPRMC,103408.000,A,3353.7556,N,09832.0222,W,0.04,209.87,300312,,,D*71
$GPGGA,103409.000,3353.7556,N,09832.0222,W,2,05,2.7,326.7,M,-23.7,M,0.8,0000*4A
$GPGSA,A,3,25,10,05,02,04,,,,,,,,4.0,2.7,3.0*35
$GPRMC,103409.000,A,3353.7556,N,09832.0222,W,0.28,194.51,300312,,,D*72
$GPGGA,103410.000,3353.7555,N,09832.0223,W,2,05,2.7,326.5,M,-23.7,M,0.8,0000*42
$GPGSA,A,3,25,10,05,02,04,,,,,,,,4.0,2.7,3.0*35
$GPRMC,103410.000,A,3353.7555,N,09832.0223,W,0.45,186.93,300312,,,D*7E
$GPGGA,103411.000,3353.7554,N,09832.0223,W,2,05,2.7,326.3,M,-23.7,M,0.8,0000*44
$GPGSA,A,3,25,10,05,02,04,,,,,,,,4.0,2.7,3.0*35
$GPRMC,103411.000,A,3353.7554,N,09832.0223,W,0.25,196.02,300312,,,D*71
$GPGGA,103412.000,3353.7549,N,09832.0224,W,2,06,1.8,325.3,M,-23.7,M,1.8,0000*41
$GPGSA,A,3,12,25,10,05,02,04,,,,,,,3.2,1.8,2.6*38
$GPGSV,3,1,10,05,75,132,29,12,52,213,19,02,50,042,37,25,47,283,27*77
$GPGSV,3,2,10,10,30,046,37,29,28,312,23,04,17,063,33,26,07,148,14*71
$GPGSV,3,3,10,13,02,040,,51,49,195,38*73
$GPRMC,103412.000,A,3353.7549,N,09832.0224,W,0.09,255.45,300312,,,D*78
$GPGGA,103413.000,3353.7540,N,09832.0224,W,2,06,1.8,323.6,M,-23.7,M,2.8,0000*49
$GPGSA,A,3,12,25,10,05,02,04,,,,,,,3.2,1.8,2.6*38
$GPRMC,103413.000,A,3353.7540,N,09832.0224,W,0.35,199.37,300312,,,D*79
$GPGGA,103414.000,3353.7536,N,09832.0224,W,2,06,1.8,322.8,M,-23.7,M,3.8,0000*41
$GPGSA,A,3,12,25,10,05,02,04,,,,,,,3.2,1.8,2.6*38
$GPRMC,103414.000,A,3353.7536,N,09832.0224,W,0.44,200.88,300312,,,D*7E
$GPGGA,103415.000,3353.7540,N,09832.0225,W,2,06,1.8,323.3,M,-23.7,M,0.8,0000*49
$GPGSA,A,3,12,25,10,05,02,04,,,,,,,3.2,1.8,2.6*38
$GPRMC,103415.000,A,3353.7540,N,09832.0225,W,0.09,331.88,300312,,,D*75
$GPGGA,103416.000,3353.7539,N,09832.0225,W,2,06,1.8,323.0,M,-23.7,M,0.8,0000*47
$GPGSA,A,3,12,25,10,05,02,04,,,,,,,3.2,1.8,2.6*38
$GPRMC,103416.000,A,3353.7539,N,09832.0225,W,0.31,196.10,300312,,,D*7D
$GPGGA,103417.000,3353.7537,N,09832.0225,W,2,06,1.8,322.6,M,-23.7,M,0.8,0000*4F
$GPGSA,A,3,12,25,10,05,02,04,,,,,,,3.2,1.8,2.6*38
$GPGSV,3,1,10,05,75,131,29,12,51,212,20,02,49,042,37,25,47,282,27*75
$GPGSV,3,2,10,10,29,046,38,29,28,312,23,04,17,063,33,26,07,148,15*77
$GPGSV,3,3,10,13,02,040,,51,49,195,38*73
$GPRMC,103417.000,A,3353.7537,N,09832.0225,W,0.35,185.12,300312,,,D*76
$GPGGA,103418.000,3353.7534,N,09832.0224,W,2,06,1.8,322.2,M,-23.7,M,0.8,0000*46
$GPGSA,A,3,12,25,10,05,02,04,,,,,,,3.2,1.8,2.6*38
$GPRMC,103418.000,A,3353.7534,N,09832.0224,W,0.16,176.49,300312,,,D*78
$GPGGA,103419.000,3353.7531,N,09832.0224,W,2,06,1.8,321.6,M,-23.7,M,1.8,0000*44
$GPGSA,A,3,12,25,10,05,02,04,,,,,,,3.2,1.8,2.6*38
$GPRMC,103419.000,A,3353.7531,N,09832.0224,W,0.51,181.66,300312,,,D*7A
$GPGGA,103420.000,3353.7527,N,09832.0224,W,2,06,1.8,321.0,M,-23.7,M,2.8,0000*4C
$GPGSA,A,3,12,25,10,05,02,04,,,,,,,3.2,1.8,2.6*38
$GPRMC,103420.000,A,3353.7527,N,09832.0224,W,0.51,180.11,300312,,,D*76
$GPGGA,103421.000,3353.7521,N,09832.0224,W,2,06,1.8,319.9,M,-23.7,M,0.8,0000*4B
$GPGSA,A,3,12,25,10,05,02,04,,,,,,,3.2,1.8,2.6*38
$GPRMC,103421.000,A,3353.7521,N,09832.0224,W,0.45,188.01,300312,,,D*7D
$GPGGA,103422.000,3353.7517,N,09832.0224,W,2,06,1.8,319.2,M,-23.7,M,0.8,0000*46
$GPGSA,A,3,12,25,10,05,02,04,,,,,,,3.2,1.8,2.6*38
$GPGSV,3,1,10,05,75,131,29,12,51,212,19,02,49,042,38,25,47,282,26*71
$GPGSV,3,2,10,10,29,046,38,29,28,312,23,04,17,063,33,26,07,148,15*77
$GPGSV,3,3,10,13,02,040,,51,49,195,38*73
$GPRMC,103422.000,A,3353.7517,N,09832.0224,W,0.63,186.32,300312,,,D*71
$GPGGA,103423.000,3353.7515,N,09832.0224,W,2,06,1.8,318.7,M,-23.7,M,0.8,0000*41
$GPGSA,A,3,12,25,10,05,02,04,,,,,,,3.2,1.8,2.6*38
$GPRMC,103423.000,A,3353.7515,N,09832.0224,W,0.16,235.52,300312,,,D*7D
$GPGGA,103424.000,3353.7512,N,09832.0225,W,2,06,1.8,318.1,M,-23.7,M,1.8,0000*47
$GPGSA,A,3,12,25,10,05,02,04,,,,,,,3.2,1.8,2.6*38
$GPRMC,103424.000,A,3353.7512,N,09832.0225,W,0.25,207.39,300312,,,D*70
$GPGGA,103425.000,3353.7508,N,09832.0225,W,2,06,1.8,317.2,M,-23.7,M,2.8,0000*42
$GPGSA,A,3,12,25,10,05,02,04,,,,,,,3.2,1.8,2.6*38
$GPRMC,103425.000,A,3353.7508,N,09832.0225,W,0.31,207.75,300312,,,D*77
$GPGGA,103426.000,3353.7504,N,09832.0225,W,2,06,1.8,316.3,M,-23.7,M,3.8,0000*4C
$GPGSA,A,3,12,25,10,05,02,04,,,,,,,3.2,1.8,2.6*38
$GPRMC,103426.000,A,3353.7504,N,09832.0225,W,0.27,212.53,300312,,,D*7F
$GPGGA,103427.000,3353.7509,N,09832.0233,W,2,06,1.8,315.9,M,-23.7,M,0.8,0000*4D
$GPGSA,A,3,12,25,10,05,02,04,,,,,,,3.2,1.8,2.6*38
$GPGSV,3,1,10,05,75,131,29,12,51,212,19,02,49,042,38,25,47,282,26*71
$GPGSV,3,2,10,10,29,046,38,29,28,312,23,04,17,063,32,26,07,148,16*75
$GPGSV,3,3,10,13,02,040,,51,49,195,38*73
$GPRMC,103427.000,A,3353.7509,N,09832.0233,W,0.49,283.59,300312,,,D*7E
$GPGGA,103428.000,3353.7508,N,09832.0236,W,2,06,1.8,315.1,M,-23.7,M,0.8,0000*4E
$GPGSA,A,3,12,25,10,05,02,04,,,,,,,3.2,1.8,2.6*38
$GPRMC,103428.000,A,3353.7508,N,09832.0236,W,0.32,286.81,300312,,,D*79
$GPGGA,103429.000,3353.7508,N,09832.0241,W,2,06,1.8,314.0,M,-23.7,M,0.8,0000*4F
$GPGSA,A,3,12,25,10,05,02,04,,,,,,,3.2,1.8,2.6*38
$GPRMC,103429.000,A,3353.7508,N,09832.0241,W,0.26,247.58,300312,,,D*74
$GPGGA,103430.000,3353.7507,N,09832.0246,W,2,06,1.8,313.1,M,-23.7,M,1.8,0000*48
$GPGSA,A,3,12,25,10,05,02,04,,,,,,,3.2,1.8,2.6*38
$GPRMC,103430.000,A,3353.7507,N,09832.0246,W,0.44,218.49,300312,,,D*7A
$GPGGA,103431.000,3353.7513,N,09832.0249,W,2,06,1.8,313.4,M,-23.7,M,2.8,0000*45
$GPGSA,A,3,12,25,10,05,02,04,,,,,,,3.2,1.8,2.6*38
$GPRMC,103431.000,A,3353.7513,N,09832.0249,W,0.46,233.88,300312,,,D*77
$GPGGA,103432.000,3353.7519,N,09832.0251,W,2,06,1.8,314.1,M,-23.7,M,3.8,0000*46
$GPGSA,A,3,12,25,10,05,02,04,,,,,,,3.2,1.8,2.6*38
$GPGSV,3,1,10,05,75,131,29,12,51,212,20,02,49,042,38,25,47,282,25*78
$GPGSV,3,2,10,10,29,046,38,29,28,312,23,04,17,063,31,26,07,148,16*76
$GPGSV,3,3,10,13,02,040,,51,49,195,38*73
$GPRMC,103432.000,A,3353.7519,N,09832.0251,W,0.19,207.76,300312,,,D*7B
$GPGGA,103433.000,3353.7521,N,09832.0250,W,2,06,1.8,314.3,M,-23.7,M,0.8,0000*4C
$GPGSA,A,3,12,25,10,05,02,04,,,,,,,3.2,1.8,2.6*38
$GPRMC,103433.000,A,3353.7521,N,09832.0250,W,0.18,218.98,300312,,,D*7F
$GPGGA,103434.000,3353.7523,N,09832.0248,W,2,06,1.8,314.7,M,-23.7,M,0.8,0000*44
$GPGSA,A,3,12,25,10,05,02,04,,,,,,,3.2,1.8,2.6*38
$GPRMC,103434.000,A,3353.7523,N,09832.0248,W,0.05,95.66,300312,,,D*49
$GPGGA,103435.000,3353.7525,N,09832.0247,W,2,06,1.8,315.1,M,-23.7,M,0.8,0000*4B
$GPGSA,A,3,12,25,10,05,02,04,,,,,,,3.2,1.8,2.6*38
$GPRMC,103435.000,A,3353.7525,N,09832.0247,W,0.09,293.77,300312,,,D*79
$GPGGA,103436.000,3353.7527,N,09832.0250,W,2,06,1.8,315.0,M,-23.7,M,0.8,0000*4D
$GPGSA,A,3,12,25,10,05,02,04,,,,,,,3.2,1.8,2.6*38
$GPRMC,103436.000,A,3353.7527,N,09832.0250,W,0.39,319.75,300312,,,D*7C
$GPGGA,103437.000,3353.7535,N,09832.0253,W,2,06,1.8,315.5,M,-23.7,M,0.8,0000*49
$GPGSA,A,3,12,25,10,05,02,04,,,,,,,3.2,1.8,2.6*38
$GPGSV,3,1,10,05,75,131,30,12,51,212,22,02,49,042,38,25,47,282,24*73
$GPGSV,3,2,10,10,29,046,38,29,28,312,23,04,17,063,31,26,07,148,17*77
$GPGSV,3,3,10,13,02,040,,51,49,195,38*73
$GPRMC,103437.000,A,3353.7535,N,09832.0253,W,0.94,316.66,300312,,,D*77
$GPGGA,103438.000,3353.7543,N,09832.0260,W,2,06,1.8,315.8,M,-23.7,M,1.8,0000*4B
$GPGSA,A,3,12,25,10,05,02,04,,,,,,,3.2,1.8,2.6*38
$GPRMC,103438.000,A,3353.7543,N,09832.0260,W,1.33,311.87,300312,,,D*7D
$GPGGA,103439.000,3353.7551,N,09832.0267,W,2,06,1.8,316.1,M,-23.7,M,0.8,0000*45
$GPGSA,A,3,12,25,10,05,02,04,,,,,,,3.2,1.8,2.6*38
$GPRMC,103439.000,A,3353.7551,N,09832.0267,W,0.96,316.69,300312,,,D*71
$GPGGA,103440.000,3353.7556,N,09832.0267,W,2,06,1.8,316.9,M,-23.7,M,0.8,0000*44
$GPGSA,A,3,12,25,10,05,02,04,,,,,,,3.2,1.8,2.6*38
$GPRMC,103440.000,A,3353.7556,N,09832.0267,W,0.04,322.28,300312,,,D*71
$GPGGA,103441.000,3353.7564,N,09832.0274,W,2,06,1.8,317.1,M,-23.7,M,0.8,0000*4F
$GPGSA,A,3,12,25,10,05,02,04,,,,,,,3.2,1.8,2.6*38
$GPRMC,103441.000,A,3353.7564,N,09832.0274,W,0.72,323.15,300312,,,D*7D
$GPGGA,103442.000,3353.7573,N,09832.0284,W,2,06,1.8,317.2,M,-23.7,M,1.8,0000*47
$GPGSA,A,3,12,25,10,05,02,04,,,,,,,3.2,1.8,2.6*38
$GPGSV,3,1,10,05,75,131,30,12,51,212,24,02,49,042,38,25,47,282,24*75
$GPGSV,3,2,10,10,29,046,38,29,28,312,23,04,17,063,30,26,07,148,16*77
$GPGSV,3,3,10,13,02,040,,51,49,195,39*72
$GPRMC,103442.000,A,3353.7573,N,09832.0284,W,0.74,313.04,300312,,,D*72
$GPGGA,103443.000,3353.7583,N,09832.0295,W,2,06,1.8,317.3,M,-23.7,M,0.8,0000*49
$GPGSA,A,3,12,25,10,05,02,04,,,,,,,3.2,1.8,2.6*38
$GPRMC,103443.000,A,3353.7583,N,09832.0295,W,1.18,306.50,300312,,,D*72
$GPGGA,103444.000,3353.7585,N,09832.0293,W,2,06,1.8,317.9,M,-23.7,M,1.8,0000*45
$GPGSA,A,3,12,25,10,05,02,04,,,,,,,3.2,1.8,2.6*38
$GPRMC,103444.000,A,3353.7585,N,09832.0293,W,0.08,349.33,300312,,,D*7B
$GPGGA,103445.000,3353.7590,N,09832.0298,W,2,06,1.8,318.0,M,-23.7,M,0.8,0000*4C
$GPGSA,A,3,12,25,10,05,02,04,,,,,,,3.2,1.8,2.6*38
$GPRMC,103445.000,A,3353.7590,N,09832.0298,W,0.65,302.53,300312,,,D*77
$GPGGA,103446.000,3353.7593,N,09832.0301,W,2,06,1.8,318.3,M,-23.7,M,0.8,0000*4E
$GPGSA,A,3,12,25,10,05,02,04,,,,,,,3.2,1.8,2.6*38
$GPRMC,103446.000,A,3353.7593,N,09832.0301,W,0.15,319.36,300312,,,D*78
$GPGGA,103447.000,3353.7601,N,09832.0305,W,2,06,1.8,318.9,M,-23.7,M,0.8,0000*49
$GPGSA,A,3,12,25,10,05,02,04,,,,,,,3.2,1.8,2.6*38
$GPGSV,3,1,10,05,76,131,31,12,51,212,26,02,49,042,39,25,47,282,23*73
$GPGSV,3,2,10,10,29,046,38,29,28,312,23,04,17,063,30,26,07,147,15*7B
$GPGSV,3,3,10,13,02,040,,51,49,195,39*72
$GPRMC,103447.000,A,3353.7601,N,09832.0305,W,0.85,309.08,300312,,,D*70
$GPGGA,103448.000,3353.7603,N,09832.0305,W,2,06,1.8,319.3,M,-23.7,M,1.8,0000*4E
$GPGSA,A,3,12,25,10,05,02,04,,,,,,,3.2,1.8,2.6*38
$GPRMC,103448.000,A,3353.7603,N,09832.0305,W,0.17,319.87,300312,,,D*70
$GPGGA,103449.000,3353.7608,N,09832.0306,W,2,06,1.8,319.9,M,-23.7,M,2.8,0000*4E
$GPGSA,A,3,12,25,10,05,02,04,,,,,,,3.2,1.8,2.6*38
$GPRMC,103449.000,A,3353.7608,N,09832.0306,W,0.14,103.21,300312,,,D*7F
$GPGGA,103450.000,3353.7610,N,09832.0305,W,2,06,1.8,320.4,M,-23.7,M,3.8,0000*4A
$GPGSA,A,3,12,25,10,05,02,04,,,,,,,3.2,1.8,2.6*38
$GPRMC,103450.000,A,3353.7610,N,09832.0305,W,0.26,308.55,300312,,,D*76
$GPGGA,103451.000,3353.7612,N,09832.0302,W,2,06,1.8,321.2,M,-23.7,M,0.8,0000*4A
$GPGSA,A,3,12,25,10,05,02,04,,,,,,,3.2,1.8,2.6*38
$GPRMC,103451.000,A,3353.7612,N,09832.0302,W,0.15,103.56,300312,,,D*78
$GPGGA,103452.000,3353.7613,N,09832.0299,W,2,06,1.8,321.9,M,-23.7,M,0.8,0000*40
$GPGSA,A,3,12,25,10,05,02,04,,,,,,,3.2,1.8,2.6*38
$GPGSV,3,1,10,05,76,131,31,12,51,212,26,02,49,042,39,25,47,282,23*73
$GPGSV,3,2,10,10,29,046,38,29,28,312,22,04,17,063,30,26,07,147,17*78
$GPGSV,3,3,10,13,02,040,,51,49,195,39*72
$GPRMC,103452.000,A,3353.7613,N,09832.0299,W,0.08,18.58,300312,,,D*40
$GPGGA,103453.000,3353.7613,N,09832.0295,W,2,06,1.8,322.7,M,-23.7,M,0.8,0000*40
$GPGSA,A,3,12,25,10,05,02,04,,,,,,,3.2,1.8,2.6*38
$GPRMC,103453.000,A,3353.7613,N,09832.0295,W,0.56,114.93,300312,,,D*7C
$GPGGA,103454.000,3353.7617,N,09832.0297,W,2,06,1.8,323.1,M,-23.7,M,1.8,0000*47
$GPGSA,A,3,12,25,10,05,02,04,,,,,,,3.1,1.8,2.6*3B
$GPRMC,103454.000,A,3353.7617,N,09832.0297,W,0.45,110.66,300312,,,D*71
$GPGGA,103455.000,3353.7620,N,09832.0299,W,2,06,1.8,323.4,M,-23.7,M,2.8,0000*4A
$GPGSA,A,3,12,25,10,05,02,04,,,,,,,3.1,1.8,2.6*3B
$GPRMC,103455.000,A,3353.7620,N,09832.0299,W,0.33,317.25,300312,,,D*79
$GPGGA,103456.000,3353.7627,N,09832.0303,W,2,06,1.8,323.9,M,-23.7,M,0.8,0000*43
$GPGSA,A,3,12,25,10,05,02,04,,,,,,,3.1,1.8,2.6*3B
$GPRMC,103456.000,A,3353.7627,N,09832.0303,W,0.50,317.39,300312,,,D*77
$GPGGA,103457.000,3353.7630,N,09832.0304,W,2,06,1.8,324.5,M,-23.7,M,0.8,0000*48
$GPGSA,A,3,12,25,10,05,02,04,,,,,,,3.1,1.8,2.6*3B
$GPGSV,3,1,10,05,76,131,31,12,51,212,25,02,49,042,39,25,47,282,22*71
$GPGSV,3,2,10,10,29,046,38,29,28,312,22,04,17,063,30,26,07,147,22*7E
$GPGSV,3,3,10,13,02,040,16,51,49,195,39*75
$GPRMC,103457.000,A,3353.7630,N,09832.0304,W,0.18,79.31,300312,,,D*48
$GPGGA,103458.000,3353.7632,N,09832.0303,W,2,06,1.8,325.0,M,-23.7,M,0.8,0000*46
$GPGSA,A,3,12,25,10,05,02,04,,,,,,,3.1,1.8,2.6*3B
$GPRMC,103458.000,A,3353.7632,N,09832.0303,W,0.14,75.96,300312,,,D*4F
$GPGGA,103459.000,3353.7634,N,09832.0306,W,2,06,1.8,325.1,M,-23.7,M,0.8,0000*45
$GPGSA,A,3,12,25,10,05,02,04,,,,,,,3.1,1.8,2.6*3B
$GPRMC,103459.000,A,3353.7634,N,09832.0306,W,0.32,286.97,300312,,,D*76
$GPGGA,103500.000,3353.7637,N,09832.0311,W,2,06,1.8,325.0,M,-23.7,M,1.8,0000*4D
$GPGSA,A,3,12,25,10,05,02,04,,,,,,,3.1,1.8,2.6*3B
$GPRMC,103500.000,A,3353.7637,N,09832.0311,W,0.31,46.47,300312,,,D*4E
$GPGGA,103501.000,3353.7636,N,09832.0310,W,2,06,1.8,325.0,M,-23.7,M,2.8,0000*4F
$GPGSA,A,3,12,25,10,05,02,04,,,,,,,3.1,1.8,2.6*3B
$GPRMC,103501.000,A,3353.7636,N,09832.0310,W,0.22,288.86,300312,,,D*70
$GPGGA,103502.000,3353.7637,N,09832.0308,W,2,06,1.8,325.5,M,-23.7,M,3.8,0000*40
$GPGSA,A,3,12,25,10,05,02,04,,,,,,,3.1,1.8,2.6*3B
$GPGSV,3,1,10,05,76,131,31,12,51,212,24,02,49,042,38,25,47,282,22*71
$GPGSV,3,2,10,10,29,046,38,29,28,312,23,04,17,063,30,26,07,147,24*79
$GPGSV,3,3,10,13,02,040,16,51,49,195,39*75
$GPRMC,103502.000,A,3353.7637,N,09832.0308,W,0.15,32.68,300312,,,D*4C
$GPGGA,103503.000,3353.7636,N,09832.0307,W,2,06,1.8,325.6,M,-23.7,M,0.8,0000*4F
$GPGSA,A,3,12,25,10,05,02,04,,,,,,,3.1,1.8,2.6*3B
$GPRMC,103503.000,A,3353.7636,N,09832.0307,W,0.42,139.40,300312,,,D*71
$GPGGA,103504.000,3353.7635,N,09832.0301,W,2,06,1.8,326.4,M,-23.7,M,0.8,0000*4C
$GPGSA,A,3,12,25,10,05,02,04,,,,,,,3.1,1.8,2.6*3B
$GPRMC,103504.000,A,3353.7635,N,09832.0301,W,0.27,81.58,300312,,,D*4B
$GPGGA,103505.000,3353.7631,N,09832.0295,W,2,05,2.7,326.6,M,-23.7,M,0.8,0000*48
$GPGSA,A,3,25,10,05,02,04,,,,,,,,4.0,2.7,3.0*35
$GPRMC,103505.000,A,3353.7631,N,09832.0295,W,0.30,24.05,300312,,,D*43
$GPGGA,103506.000,3353.7631,N,09832.0292,W,2,06,1.8,327.0,M,-23.7,M,0.8,0000*44
$GPGSA,A,3,12,25,10,05,02,04,,,,,,,3.1,1.8,2.6*3B
$GPRMC,103506.000,A,3353.7631,N,09832.0292,W,0.83,77.75,300312,,,D*4E
$GPGGA,103507.000,3353.7626,N,09832.0292,W,2,06,1.8,326.3,M,-23.7,M,0.8,0000*41
$GPGSA,A,3,12,25,10,05,02,04,,,,,,,3.1,1.8,2.6*3B
$GPGSV,3,1,10,05,76,131,30,12,51,212,17,02,49,042,38,25,47,282,22*70
$GPGSV,3,2,10,10,29,046,38,29,28,312,22,04,17,063,30,26,07,147,23*7F
$GPGSV,3,3,10,13,02,040,15,51,49,195,38*77
$GPRMC,103507.000,A,3353.7626,N,09832.0292,W,0.72,92.20,300312,,,D*4C
$GPGGA,103508.000,3353.7625,N,09832.0295,W,2,05,2.7,325.8,M,-23.7,M,0.8,0000*4D
$GPGSA,A,3,25,10,05,02,04,,,,,,,,4.0,2.7,3.0*35
$GPRMC,103508.000,A,3353.7625,N,09832.0295,W,0.24,9.48,300312,,,D*78
$GPGGA,103509.000,3353.7624,N,09832.0297,W,2,05,2.7,325.3,M,-23.7,M,0.8,0000*44
$GPGSA,A,3,25,10,05,02,04,,,,,,,,4.0,2.7,3.0*35
$GPRMC,103509.000,A,3353.7624,N,09832.0297,W,0.15,204.47,300312,,,D*78
$GPGGA,103510.000,3353.7622,N,09832.0300,W,2,05,2.7,324.7,M,-23.7,M,0.8,0000*40
$GPGSA,A,3,25,10,05,02,04,,,,,,,,4.0,2.7,3.0*35
$GPRMC,103510.000,A,3353.7622,N,09832.0300,W,0.27,231.85,300312,,,D*70
$GPGGA,103511.000,3353.7619,N,09832.0300,W,2,05,2.7,324.4,M,-23.7,M,0.8,0000*4A
$GPGSA,A,3,25,10,05,02,04,,,,,,,,4.0,2.7,3.0*35
$GPRMC,103511.000,A,3353.7619,N,09832.0300,W,0.22,109.28,300312,,,D*73
$GPGGA,103512.000,3353.7619,N,09832.0303,W,2,05,2.7,323.8,M,-23.7,M,1.8,0000*40
$GPGSA,A,3,25,10,05,02,04,,,,,,,,4.0,2.7,3.0*35
$GPGSV,3,1,10,05,76,131,31,12,51,212,16,02,49,042,38,25,47,282,22*70
$GPGSV,3,2,10,10,29,046,38,29,28,312,21,04,17,063,31,26,07,147,23*7D
$GPGSV,3,3,10,13,02,040,13,51,49,195,38*71
$GPRMC,103512.000,A,3353.7619,N,09832.0303,W,0.24,56.62,300312,,,D*40
$GPGGA,103513.000,3353.7618,N,09832.0304,W,2,05,2.7,323.4,M,-23.7,M,2.8,0000*48
$GPGSA,A,3,25,10,05,02,04,,,,,,,,4.0,2.7,3.0*35
$GPRMC,103513.000,A,3353.7618,N,09832.0304,W,0.59,91.22,300312,,,D*42
$GPGGA,103514.000,3353.7615,N,09832.0305,W,2,05,2.7,322.8,M,-23.7,M,3.8,0000*4F
$GPGSA,A,3,25,10,05,02,04,,,,,,,,4.0,2.7,3.0*35
$GPRMC,103514.000,A,3353.7615,N,09832.0305,W,0.83,125.26,300312,,,D*74
$GPGGA,103515.000,3353.7615,N,09832.0310,W,2,05,2.7,321.9,M,-23.7,M,0.8,0000*4B
$GPGSA,A,3,25,10,05,02,04,,,,,,,,4.0,2.7,3.0*35
$GPRMC,103515.000,A,3353.7615,N,09832.0310,W,0.05,152.41,300312,,,D*7E
$GPGGA,103516.000,3353.7615,N,09832.0316,W,2,05,2.7,321.0,M,-23.7,M,0.8,0000*47
$GPGSA,A,3,25,10,05,02,04,,,,,,,,4.0,2.7,3.0*35
$GPRMC,103516.000,A,3353.7615,N,09832.0316,W,0.38,302.23,300312,,,D*76
$GPGGA,103517.000,3353.7611,N,09832.0312,W,2,05,2.7,321.0,M,-23.7,M,0.8,0000*46
$GPGSA,A,3,25,10,05,02,04,,,,,,,,4.0,2.7,3.0*35
$GPGSV,3,1,10,05,76,130,30,12,51,212,18,02,49,043,38,25,47,282,22*7F
$GPGSV,3,2,10,10,29,046,38,29,28,312,20,04,17,063,31,26,08,147,23*73
$GPGSV,3,3,10,13,02,040,13,51,49,195,38*71
$GPRMC,103517.000,A,3353.7611,N,09832.0312,W,0.41,93.78,300312,,,D*4C
$GPGGA,103518.000,3353.7609,N,09832.0318,W,2,06,1.8,319.6,M,-23.7,M,1.8,0000*49
$GPGSA,A,3,12,25,10,05,02,04,,,,,,,3.1,1.8,2.6*3B
$GPRMC,103518.000,A,3353.7609,N,09832.0318,W,0.19,359.39,300312,,,D*7D
$GPGGA,103519.000,3353.7598,N,09832.0325,W,2,06,1.8,316.7,M,-23.7,M,2.8,0000*40
$GPGSA,A,3,12,25,10,05,02,04,,,,,,,3.1,1.8,2.6*3B
$GPRMC,103519.000,A,3353.7598,N,09832.0325,W,0.80,282.83,300312,,,D*7F
$GPGGA,103520.000,3353.7592,N,09832.0331,W,2,06,1.8,315.0,M,-23.7,M,3.8,0000*40
$GPGSA,A,3,12,25,10,05,02,04,,,,,,,3.1,1.8,2.5*38
$GPRMC,103520.000,A,3353.7592,N,09832.0331,W,0.67,288.12,300312,,,D*71
$GPGGA,103521.000,3353.7592,N,09832.0333,W,2,06,1.8,314.4,M,-23.7,M,0.8,0000*45
$GPGSA,A,3,12,25,10,05,02,04,,,,,,,3.1,1.8,2.5*38
$GPRMC,103521.000,A,3353.7592,N,09832.0333,W,0.30,308.32,300312,,,D*7B
$GPGGA,103522.000,3353.7597,N,09832.0341,W,2,06,1.8,313.8,M,-23.7,M,0.8,0000*4D
$GPGSA,A,3,12,25,10,05,02,04,,,,,,,3.1,1.8,2.5*38
$GPGSV,3,1,10,05,76,130,30,12,51,212,24,02,49,043,38,25,47,282,22*70
$GPGSV,3,2,10,10,29,046,38,29,28,312,20,04,17,063,31,26,08,147,22*72
$GPGSV,3,3,10,13,02,040,13,51,49,195,39*70
$GPRMC,103522.000,A,3353.7597,N,09832.0341,W,0.76,310.64,300312,,,D*70
$GPGGA,103523.000,3353.7597,N,09832.0343,W,2,06,1.8,313.5,M,-23.7,M,0.8,0000*43
$GPGSA,A,3,12,25,10,05,02,04,,,,,,,3.1,1.8,2.5*38
$GPRMC,103523.000,A,3353.7597,N,09832.0343,W,0.90,299.75,300312,,,D*7B
$GPGGA,103524.000,3353.7601,N,09832.0346,W,2,06,1.8,313.6,M,-23.7,M,0.8,0000*4E
$GPGSA,A,3,12,25,10,05,02,04,,,,,,,3.1,1.8,2.5*38
$GPRMC,103524.000,A,3353.7601,N,09832.0346,W,0.36,304.49,300312,,,D*73
$GPGGA,103525.000,3353.7603,N,09832.0351,W,2,06,1.8,313.1,M,-23.7,M,1.8,0000*4D
$GPGSA,A,3,12,25,10,05,02,04,,,,,,,3.1,1.8,2.5*38
$GPRMC,103525.000,A,3353.7603,N,09832.0351,W,1.06,300.23,300312,,,D*7C
$GPGGA,103526.000,3353.7601,N,09832.0349,W,2,06,1.8,312.9,M,-23.7,M,2.8,0000*4F
$GPGSA,A,3,12,25,10,05,02,04,,,,,,,3.1,1.8,2.5*38
$GPRMC,103526.000,A,3353.7601,N,09832.0349,W,0.56,287.90,300312,,,D*76
$GPGGA,103527.000,3353.7600,N,09832.0344,W,2,06,1.8,313.5,M,-23.7,M,0.8,0000*4D
$GPGSA,A,3,12,25,10,05,02,04,,,,,,,3.1,1.8,2.5*38
$GPGSV,3,1,10,05,76,130,30,12,51,212,25,02,49,043,38,25,47,282,22*71
$GPGSV,3,2,10,10,29,046,38,29,28,312,20,04,17,063,30,26,08,147,22*73
$GPGSV,3,3,10,13,02,040,,51,49,195,39*72
$GPRMC,103527.000,A,3353.7600,N,09832.0344,W,0.17,121.43,300312,,,D*7F
$GPGGA,103528.000,3353.7599,N,09832.0342,W,2,06,1.8,313.5,M,-23.7,M,0.8,0000*47
$GPGSA,A,3,12,25,10,05,02,04,,,,,,,3.1,1.8,2.5*38
$GPRMC,103528.000,A,3353.7599,N,09832.0342,W,0.62,134.11,300312,,,D*74
$GPGGA,103529.000,3353.7601,N,09832.0343,W,2,06,1.8,313.6,M,-23.7,M,0.8,0000*46
$GPGSA,A,3,12,25,10,05,02,04,,,,,,,3.1,1.8,2.5*38
$GPRMC,103529.000,A,3353.7601,N,09832.0343,W,0.24,134.73,300312,,,D*70
$GPGGA,103530.000,3353.7601,N,09832.0339,W,2,06,1.8,314.1,M,-23.7,M,1.8,0000*42
$GPGSA,A,3,12,25,10,05,02,04,,,,,,,3.1,1.8,2.5*38
$GPRMC,103530.000,A,3353.7601,N,09832.0339,W,0.41,133.16,300312,,,D*72
$GPGGA,103531.000,3353.7599,N,09832.0333,W,2,06,1.8,314.6,M,-23.7,M,0.8,0000*4D
$GPGSA,A,3,12,25,10,05,02,04,,,,,,,3.1,1.8,2.5*38
$GPRMC,103531.000,A,3353.7599,N,09832.0333,W,0.14,152.35,300312,,,D*7D
$GPGGA,103532.000,3353.7597,N,09832.0328,W,2,06,1.8,315.1,M,-23.7,M,1.8,0000*4D
$GPGSA,A,3,12,25,10,05,02,04,,,,,,,3.1,1.8,2.5*38
$GPGSV,3,1,10,05,76,130,30,12,51,212,26,02,49,043,38,25,47,282,23*73
$GPGSV,3,2,10,10,29,046,38,29,28,312,20,04,17,063,30,26,08,147,22*73
$GPGSV,3,3,10,13,02,040,,51,49,195,38*73
$GPRMC,103532.000,A,3353.7597,N,09832.0328,W,0.20,142.14,300312,,,D*7F
$GPGGA,103533.000,3353.7596,N,09832.0326,W,2,06,1.8,315.5,M,-23.7,M,0.8,0000*46
$GPGSA,A,3,12,25,10,05,02,04,,,,,,,3.1,1.8,2.5*38
$GPRMC,103533.000,A,3353.7596,N,09832.0326,W,0.47,123.16,300312,,,D*75
$GPGGA,103534.000,3353.7596,N,09832.0325,W,2,06,1.8,315.7,M,-23.7,M,0.8,0000*40
$GPGSA,A,3,12,25,10,05,02,04,,,,,,,3.1,1.8,2.5*38
$GPRMC,103534.000,A,3353.7596,N,09832.0325,W,0.21,137.23,300312,,,D*72
$GPGGA,103535.000,3353.7597,N,09832.0324,W,2,06,1.8,315.9,M,-23.7,M,0.8,0000*4F
$GPGSA,A,3,12,25,10,05,02,04,,,,,,,3.1,1.8,2.5*38
$GPRMC,103535.000,A,3353.7597,N,09832.0324,W,0.16,98.94,300312,,,D*4F
$GPGGA,103536.000,3353.7596,N,09832.0322,W,2,06,1.8,316.1,M,-23.7,M,1.8,0000*41
$GPGSA,A,3,12,25,10,05,02,04,,,,,,,3.1,1.8,2.5*38
$GPRMC,103536.000,A,3353.7596,N,09832.0322,W,0.68,121.79,300312,,,D*72
$GPGGA,103537.000,3353.7591,N,09832.0314,W,2,06,1.8,316.5,M,-23.7,M,0.8,0000*47
$GPGSA,A,3,12,25,10,05,02,04,,,,,,,3.1,1.8,2.5*38
$GPGSV,3,1,10,05,76,130,30,12,51,212,26,02,49,043,38,25,47,282,23*73
$GPGSV,3,2,10,10,29,046,38,29,28,312,21,04,17,063,30,26,08,147,21*71
$GPGSV,3,3,10,13,02,040,,51,49,195,38*73
$GPRMC,103537.000,A,3353.7591,N,09832.0314,W,0.39,126.93,300312,,,D*76
$GPGGA,103538.000,3353.7576,N,09832.0301,W,2,06,1.8,315.9,M,-23.7,M,0.8,0000*4A
$GPGSA,A,3,12,25,10,05,02,04,,,,,,,3.1,1.8,2.5*38
$GPRMC,103538.000,A,3353.7576,N,09832.0301,W,1.28,137.84,300312,,,D*73
$GPGGA,103539.000,3353.7572,N,09832.0300,W,2,06,1.8,315.5,M,-23.7,M,0.8,0000*42
$GPGSA,A,3,12,25,10,05,02,04,,,,,,,3.1,1.8,2.5*38
$GPRMC,103539.000,A,3353.7572,N,09832.0300,W,0.59,156.60,300312,,,D*7D
$GPGGA,103540.000,3353.7569,N,09832.0301,W,2,06,1.8,314.9,M,-23.7,M,0.8,0000*4A
$GPGSA,A,3,12,25,10,05,02,04,,,,,,,3.1,1.8,2.5*38
$GPRMC,103540.000,A,3353.7569,N,09832.0301,W,0.22,256.57,300312,,,D*73
$GPGGA,103541.000,3353.7557,N,09832.0288,W,2,06,1.8,314.7,M,-23.7,M,0.8,0000*48
$GPGSA,A,3,12,25,10,05,02,04,,,,,,,3.1,1.8,2.5*38
$GPRMC,103541.000,A,3353.7557,N,09832.0288,W,0.70,140.85,300312,,,D*73
$GPGGA,103542.000,3353.7548,N,09832.0280,W,2,06,1.8,314.4,M,-23.7,M,1.8,0000*4F
$GPGSA,A,3,12,25,10,05,02,04,,,,,,,3.1,1.8,2.5*38
$GPGSV,3,1,10,05,76,130,31,12,51,212,25,02,49,043,38,25,47,282,24*76
$GPGSV,3,2,10,10,29,046,38,29,28,312,23,04,17,063,30,26,08,147,22*70
$GPGSV,3,3,10,13,02,040,,51,49,195,39*72
$GPRMC,103542.000,A,3353.7548,N,09832.0280,W,0.42,154.51,300312,,,D*7B
$GPGGA,103543.000,3353.7539,N,09832.0271,W,2,06,1.8,314.2,M,-23.7,M,2.8,0000*43
$GPGSA,A,3,12,25,10,05,02,04,,,,,,,3.1,1.8,2.5*38
$GPRMC,103543.000,A,3353.7539,N,09832.0271,W,0.35,160.62,300312,,,D*75
$GPGGA,103544.000,3353.7530,N,09832.0262,W,2,06,1.8,314.0,M,-23.7,M,3.8,0000*4C
$GPGSA,A,3,12,25,10,05,02,04,,,,,,,3.1,1.8,2.5*38
$GPRMC,103544.000,A,3353.7530,N,09832.0262,W,0.43,150.89,300312,,,D*7E
$GPGGA,103545.000,3353.7523,N,09832.0255,W,2,06,1.8,313.7,M,-23.7,M,0.8,0000*48
$GPGSA,A,3,12,25,10,05,02,04,,,,,,,3.1,1.8,2.5*38
$GPRMC,103545.000,A,3353.7523,N,09832.0255,W,0.43,153.11,300312,,,D*7B
$GPGGA,103546.000,3353.7516,N,09832.0249,W,2,06,1.8,313.5,M,-23.7,M,0.8,0000*42
$GPGSA,A,3,12,25,10,05,02,04,,,,,,,3.1,1.8,2.5*38
$GPRMC,103546.000,A,3353.7516,N,09832.0249,W,0.39,149.91,300312,,,D*7D
$GPGGA,103547.000,3353.7513,N,09832.0246,W,2,06,1.8,313.2,M,-23.7,M,0.8,0000*4E
$GPGSA,A,3,12,25,10,05,02,04,,,,,,,3.1,1.8,2.5*38
$GPGSV,3,1,10,05,76,129,31,12,51,212,25,02,49,043,38,25,47,281,25*7C
$GPGSV,3,2,10,10,29,045,38,29,29,312,23,04,17,063,30,26,08,147,23*73
$GPGSV,3,3,10,13,02,039,,51,49,195,38*7D
$GPRMC,103547.000,A,3353.7513,N,09832.0246,W,0.18,151.19,300312,,,D*7C
$GPGGA,103548.000,3353.7511,N,09832.0244,W,2,06,1.8,312.9,M,-23.7,M,1.8,0000*4A
$GPGSA,A,3,12,25,10,05,02,04,,,,,,,3.1,1.8,2.5*38
$GPRMC,103548.000,A,3353.7511,N,09832.0244,W,0.08,160.24,300312,,,D*7E
$GPGGA,103549.000,3353.7509,N,09832.0242,W,2,06,1.8,312.6,M,-23.7,M,2.8,0000*48
$GPGSA,A,3,12,25,10,05,02,04,,,,,,,3.1,1.8,2.5*38
$GPRMC,103549.000,A,3353.7509,N,09832.0242,W,0.06,205.60,300312,,,D*7E
$GPGGA,103550.000,3353.7508,N,09832.0241,W,2,06,1.8,312.4,M,-23.7,M,3.8,0000*41
$GPGSA,A,3,12,25,10,05,02,04,,,,,,,3.1,1.8,2.5*38
$GPRMC,103550.000,A,3353.7508,N,09832.0241,W,0.03,260.10,300312,,,D*75
$GPGGA,103551.000,3353.7507,N,09832.0240,W,2,06,1.8,312.2,M,-23.7,M,0.8,0000*4B
$GPGSA,A,3,12,25,10,05,02,04,,,,,,,3.1,1.8,2.5*38
$GPRMC,103551.000,A,3353.7507,N,09832.0240,W,0.05,284.55,300312,,,D*77
$GPGGA,103552.000,3353.7507,N,09832.0239,W,2,06,1.8,312.1,M,-23.7,M,0.8,0000*45
$GPGSA,A,3,12,25,10,05,02,04,,,,,,,3.1,1.8,2.5*38
$GPGSV,3,1,10,05,76,129,31,12,51,212,26,02,49,043,38,25,47,281,26*7C
$GPGSV,3,2,10,10,29,045,38,29,29,312,24,04,17,063,30,26,08,147,22*75
$GPGSV,3,3,10,13,02,039,,51,49,195,38*7D
$GPRMC,103552.000,A,3353.7507,N,09832.0239,W,0.07,286.33,300312,,,D*7A
$GPGGA,103553.000,3353.7507,N,09832.0238,W,2,06,1.8,312.2,M,-23.7,M,0.8,0000*46
$GPGSA,A,3,12,25,10,05,02,04,,,,,,,3.1,1.8,2.5*38
$GPRMC,103553.000,A,3353.7507,N,09832.0238,W,0.08,188.59,300312,,,D*74
$GPGGA,103554.000,3353.7507,N,09832.0237,W,2,06,1.8,312.2,M,-23.7,M,0.8,0000*4E
$GPGSA,A,3,12,25,10,05,02,04,,,,,,,3.1,1.8,2.5*38
$GPRMC,103554.000,A,3353.7507,N,09832.0237,W,0.07,183.32,300312,,,D*75
$GPGGA,103555.000,3353.7509,N,09832.0240,W,2,06,1.8,312.1,M,-23.7,M,1.8,0000*43
$GPGSA,A,3,12,25,10,05,02,04,,,,,,,3.1,1.8,2.5*38
$GPRMC,103555.000,A,3353.7509,N,09832.0240,W,0.13,286.42,300312,,,D*7E
$GPGGA,103556.000,3353.7511,N,09832.0242,W,2,06,1.8,312.0,M,-23.7,M,2.8,0000*49
$GPGSA,A,3,12,25,10,05,02,04,,,,,,,3.1,1.8,2.5*38
$GPRMC,103556.000,A,3353.7511,N,09832.0242,W,0.10,278.51,300312,,,D*76
$GPGGA,103557.000,3353.7512,N,09832.0244,W,2,06,1.8,312.0,M,-23.7,M,0.8,0000*4F
$GPGSA,A,3,12,25,10,05,02,04,,,,,,,3.1,1.8,2.5*38
$GPGSV,3,1,10,05,76,129,31,12,51,212,27,02,49,043,38,25,47,281,27*7C
$GPGSV,3,2,10,10,29,045,38,29,29,312,25,04,17,063,30,26,08,147,22*74
$GPGSV,3,3,10,13,02,039,,51,49,195,39*7C
$GPRMC,103557.000,A,3353.7512,N,09832.0244,W,0.07,263.33,300312,,,D*7A
$GPGGA,103558.000,3353.7513,N,09832.0245,W,2,06,1.8,312.0,M,-23.7,M,0.8,0000*40
$GPGSA,A,3,12,25,10,05,02,04,,,,,,,3.1,1.8,2.5*38
$GPRMC,103558.000,A,3353.7513,N,09832.0245,W,0.07,279.26,300312,,,D*7A
$GPGGA,103559.000,3353.7515,N,09832.0246,W,2,06,1.8,311.9,M,-23.7,M,0.8,0000*4E
$GPGSA,A,3,12,25,10,05,02,04,,,,,,,3.1,1.8,2.5*38
$GPRMC,103559.000,A,3353.7515,N,09832.0246,W,0.04,248.77,300312,,,D*7B
$GPGGA,103600.000,3353.7517,N,09832.0248,W,2,06,1.8,311.8,M,-23.7,M,1.8,0000*4D
$GPGSA,A,3,12,25,10,05,02,04,,,,,,,3.1,1.8,2.5*38
$GPRMC,103600.000,A,3353.7517,N,09832.0248,W,0.12,306.72,300312,,,D*71
$GPGGA,103601.000,3353.7518,N,09832.0250,W,2,06,1.8,311.7,M,-23.7,M,2.8,0000*46
$GPGSA,A,3,12,25,10,05,02,04,,,,,,,3.1,1.8,2.5*38
$GPRMC,103601.000,A,3353.7518,N,09832.0250,W,0.09,280.65,300312,,,D*75
$GPGGA,103602.000,3353.7520,N,09832.0252,W,2,06,1.8,311.7,M,-23.7,M,0.8,0000*4E
$GPGSA,A,3,12,25,10,05,02,04,,,,,,,3.1,1.8,2.5*38
$GPGSV,3,1,10,05,76,129,30,12,51,212,28,02,49,043,38,25,47,281,27*72
$GPGSV,3,2,10,10,29,045,38,29,29,312,25,04,17,063,30,26,08,147,21*77
$GPGSV,3,3,10,13,02,039,15,51,49,195,38*79
$GPRMC,103602.000,A,3353.7520,N,09832.0252,W,0.06,271.84,300312,,,D*71
$GPGGA,103603.000,3353.7522,N,09832.0254,W,2,06,1.8,311.6,M,-23.7,M,0.8,0000*4A
$GPGSA,A,3,12,25,10,05,02,04,,,,,,,3.1,1.8,2.5*38
$GPRMC,103603.000,A,3353.7522,N,09832.0254,W,0.12,293.99,300312,,,D*71
$GPGGA,103604.000,3353.7524,N,09832.0255,W,2,06,1.8,311.6,M,-23.7,M,0.8,0000*4A
$GPGSA,A,3,12,25,10,05,02,04,,,,,,,3.1,1.8,2.5*38
$GPRMC,103604.000,A,3353.7524,N,09832.0255,W,0.14,286.22,300312,,,D*73
$GPGGA,103605.000,3353.7525,N,09832.0257,W,2,06,1.8,311.7,M,-23.7,M,0.8,0000*49
$GPGSA,A,3,12,25,10,05,02,04,,,,,,,3.1,1.8,2.5*38
$GPRMC,103605.000,A,3353.7525,N,09832.0257,W,0.16,302.02,300312,,,D*7C
$GPGGA,103606.000,3353.7527,N,09832.0258,W,2,06,1.8,311.8,M,-23.7,M,1.8,0000*49
$GPGSA,A,3,12,25,10,05,02,04,,,,,,,3.1,1.8,2.5*38
$GPRMC,103606.000,A,3353.7527,N,09832.0258,W,0.14,290.59,300312,,,D*74
$GPGGA,103607.000,3353.7528,N,09832.0259,W,2,06,1.8,311.9,M,-23.7,M,2.8,0000*44
$GPGSA,A,3,12,25,10,05,02,04,,,,,,,3.1,1.8,2.5*38
$GPGSV,3,1,10,05,76,129,30,12,51,212,28,02,49,043,38,25,47,281,28*7D
$GPGSV,3,2,10,10,29,045,38,29,29,312,25,04,17,063,30,26,08,147,21*77
$GPGSV,3,3,10,13,02,039,15,51,49,195,39*78
$GPRMC,103607.000,A,3353.7528,N,09832.0259,W,0.09,287.75,300312,,,D*7F
$GPGGA,103608.000,3353.7529,N,09832.0259,W,2,06,1.8,312.0,M,-23.7,M,3.8,0000*41
$GPGSA,A,3,12,25,10,05,02,04,,,,,,,3.1,1.8,2.5*38
$GPRMC,103608.000,A,3353.7529,N,09832.0259,W,0.09,273.37,300312,,,D*7C
$GPGGA,103609.000,3353.7530,N,09832.0260,W,2,06,1.8,312.2,M,-23.7,M,0.8,0000*43
$GPGSA,A,3,12,25,10,05,02,04,,,,,,,3.1,1.8,2.5*38
$GPRMC,103609.000,A,3353.7530,N,09832.0260,W,0.03,278.97,300312,,,D*74
$GPGGA,103610.000,3353.7531,N,09832.0260,W,2,06,1.8,312.3,M,-23.7,M,0.8,0000*4B
$GPGSA,A,3,12,25,10,05,02,04,,,,,,,3.1,1.8,2.5*38
$GPRMC,103610.000,A,3353.7531,N,09832.0260,W,0.03,226.56,300312,,,D*7B
$GPGGA,103611.000,3353.7531,N,09832.0260,W,2,06,1.8,312.4,M,-23.7,M,0.8,0000*4D
$GPGSA,A,3,12,25,10,05,02,04,,,,,,,3.1,1.8,2.5*38
$GPRMC,103611.000,A,3353.7531,N,09832.0260,W,0.05,305.39,300312,,,D*75
$GPGGA,103612.000,3353.7531,N,09832.0260,W,2,06,1.8,312.4,M,-23.7,M,1.8,0000*4F
$GPGSA,A,3,12,25,10,05,02,04,,,,,,,3.1,1.8,2.5*38
$GPGSV,3,1,10,05,76,129,30,12,51,212,27,02,49,043,38,25,47,281,29*73
$GPGSV,3,2,10,10,29,045,38,29,29,312,25,04,17,063,30,26,08,147,20*76
$GPGSV,3,3,10,13,02,039,15,51,49,195,38*79
$GPRMC,103612.000,A,3353.7531,N,09832.0260,W,0.02,220.13,300312,,,D*7F
$GPGGA,103613.000,3353.7531,N,09832.0259,W,2,06,1.8,312.4,M,-23.7,M,0.8,0000*45
$GPGSA,A,3,12,25,10,05,02,04,,,,,,,3.1,1.8,2.5*38
$GPRMC,103613.000,A,3353.7531,N,09832.0259,W,0.03,189.83,300312,,,D*7C
$GPGGA,103614.000,3353.7531,N,09832.0259,W,2,06,1.8,312.4,M,-23.7,M,1.8,0000*43
$GPGSA,A,3,12,25,10,05,02,04,,,,,,,3.1,1.8,2.5*38
$GPRMC,103614.000,A,3353.7531,N,09832.0259,W,0.04,185.67,300312,,,D*7A
$GPGGA,103615.000,3353.7531,N,09832.0259,W,2,06,1.8,312.3,M,-23.7,M,0.8,0000*44
$GPGSA,A,3,12,25,10,05,02,04,,,,,,,3.1,1.8,2.5*38
$GPRMC,103615.000,A,3353.7531,N,09832.0259,W,0.13,356.10,300312,,,D*71
$GPGGA,103616.000,3353.7531,N,09832.0258,W,2,06,1.8,312.3,M,-23.7,M,0.8,0000*46
$GPGSA,A,3,12,25,10,05,02,04,,,,,,,3.1,1.8,2.5*38
$GPRMC,103616.000,A,3353.7531,N,09832.0258,W,0.05,267.27,300312,,,D*73
$GPGGA,103617.000,3353.7530,N,09832.0258,W,2,06,1.8,312.3,M,-23.7,M,0.8,0000*46
$GPGSA,A,3,12,25,10,05,02,04,,,,,,,3.1,1.8,2.5*38
$GPGSV,3,1,10,05,76,128,31,12,50,211,23,02,49,043,38,25,47,281,30*7D
$GPGSV,3,2,10,29,29,313,25,10,29,045,38,04,16,064,30,26,08,147,19*7B
$GPGSV,3,3,10,13,02,039,16,51,49,195,38*7A
$GPRMC,103617.000,A,3353.7530,N,09832.0258,W,0.20,189.73,300312,,,D*76
$GPGGA,103618.000,3353.7530,N,09832.0257,W,2,06,1.8,312.3,M,-23.7,M,0.8,0000*46
$GPGSA,A,3,12,25,10,05,02,04,,,,,,,3.1,1.8,2.5*38
$GPRMC,103618.000,A,3353.7530,N,09832.0257,W,0.13,337.51,300312,,,D*71
$GPGGA,103619.000,3353.7530,N,09832.0257,W,2,06,1.8,312.4,M,-23.7,M,1.8,0000*41
$GPGSA,A,3,12,25,10,05,02,04,,,,,,,3.1,1.8,2.5*38
$GPRMC,103619.000,A,3353.7530,N,09832.0257,W,0.05,250.77,300312,,,D*73
$GPGGA,103620.000,3353.7530,N,09832.0257,W,2,06,1.8,312.4,M,-23.7,M,0.8,0000*4A
$GPGSA,A,3,12,25,10,05,02,04,,,,,,,3.1,1.8,2.5*38
$GPRMC,103620.000,A,3353.7530,N,09832.0257,W,0.06,316.52,300312,,,D*7E
$GPGGA,103621.000,3353.7530,N,09832.0257,W,2,06,1.8,312.5,M,-23.7,M,0.8,0000*4A
$GPGSA,A,3,12,25,10,05,02,04,,,,,,,3.1,1.8,2.5*38
$GPRMC,103621.000,A,3353.7530,N,09832.0257,W,0.25,351.66,300312,,,D*7A
$GPGGA,103622.000,3353.7530,N,09832.0256,W,2,06,1.8,312.5,M,-23.7,M,0.8,0000*48
$GPGSA,A,3,12,25,10,05,02,04,,,,,,,3.1,1.8,2.5*38
$GPGSV,3,1,10,05,76,128,31,12,50,211,24,02,49,043,38,25,47,281,30*7A
$GPGSV,3,2,10,29,29,313,24,10,29,045,37,04,16,064,30,26,08,147,18*74
$GPGSV,3,3,10,13,02,039,18,51,49,195,39*75
$GPRMC,103622.000,A,3353.7530,N,09832.0256,W,0.06,292.21,300312,,,D*74
$GPGGA,103623.000,3353.7521,N,09832.0255,W,2,06,1.8,311.4,M,-23.7,M,0.8,0000*48
$GPGSA,A,3,12,25,10,05,02,04,,,,,,,3.1,1.8,2.5*38
$GPRMC,103623.000,A,3353.7521,N,09832.0255,W,0.24,179.30,300312,,,D*70
$GPGGA,103624.000,3353.7514,N,09832.0254,W,2,06,1.8,310.5,M,-23.7,M,1.8,0000*49
$GPGSA,A,3,12,25,10,05,02,04,,,,,,,3.1,1.8,2.5*38
$GPRMC,103624.000,A,3353.7514,N,09832.0254,W,0.24,172.73,300312,,,D*7C
$GPGGA,103625.000,3353.7510,N,09832.0253,W,2,06,1.8,309.8,M,-23.7,M,0.8,0000*4F
$GPGSA,A,3,12,25,10,05,02,04,,,,,,,3.1,1.8,2.5*38
$GPRMC,103625.000,A,3353.7510,N,09832.0253,W,0.24,172.41,300312,,,D*7F
$GPGGA,103626.000,3353.7506,N,09832.0253,W,2,06,1.8,309.3,M,-23.7,M,1.8,0000*41
$GPGSA,A,3,12,25,10,05,02,04,,,,,,,3.1,1.8,2.5*38
$GPRMC,103626.000,A,3353.7506,N,09832.0253,W,0.23,175.43,300312,,,D*79
$GPGGA,103627.000,3353.7503,N,09832.0252,W,2,06,1.8,308.8,M,-23.7,M,0.8,0000*4F
$GPGSA,A,3,12,25,10,05,02,04,,,,,,,3.1,1.8,2.5*38
$GPGSV,3,1,10,05,76,128,32,12,50,211,26,02,49,043,38,25,47,281,31*7A
$GPGSV,3,2,10,29,29,313,23,10,29,045,37,04,16,064,30,26,08,147,17*7C
$GPGSV,3,3,10,13,02,039,17,51,49,195,38*7B
$GPRMC,103627.000,A,3353.7503,N,09832.0252,W,0.23,182.98,300312,,,D*72
$GPGGA,103628.000,3353.7501,N,09832.0252,W,2,06,1.8,308.4,M,-23.7,M,0.8,0000*4E
$GPGSA,A,3,12,25,10,05,02,04,,,,,,,3.1,1.8,2.5*38
$GPRMC,103628.000,A,3353.7501,N,09832.0252,W,0.15,183.49,300312,,,D*77
$GPGGA,103629.000,3353.7500,N,09832.0252,W,2,06,1.8,308.2,M,-23.7,M,0.8,0000*48
$GPGSA,A,3,12,25,10,05,02,04,,,,,,,3.1,1.8,2.5*38
$GPRMC,103629.000,A,3353.7500,N,09832.0252,W,0.11,213.30,300312,,,D*77
$GPGGA,103630.000,3353.7499,N,09832.0251,W,2,06,1.8,308.1,M,-23.7,M,1.8,0000*40
$GPGSA,A,3,12,25,10,05,02,04,,,,,,,3.1,1.8,2.5*38
$GPRMC,103630.000,A,3353.7499,N,09832.0251,W,0.08,248.06,300312,,,D*7E
$GPGGA,103631.000,3353.7499,N,09832.0251,W,2,06,1.8,308.0,M,-23.7,M,2.8,0000*43
$GPGSA,A,3,12,25,10,05,02,04,,,,,,,3.1,1.8,2.5*38
$GPRMC,103631.000,A,3353.7499,N,09832.0251,W,0.07,254.43,300312,,,D*7C
$GPGGA,103632.000,3353.7499,N,09832.0251,W,2,06,1.8,307.9,M,-23.7,M,3.8,0000*47
$GPGSA,A,3,12,25,10,05,02,04,,,,,,,3.1,1.8,2.5*38
$GPGSV,3,1,10,05,76,128,32,12,50,211,28,02,49,043,38,25,47,281,31*74
$GPGSV,3,2,10,29,29,313,18,10,29,045,37,04,16,064,30,26,08,147,17*74
$GPGSV,3,3,10,13,02,039,17,51,49,195,39*7A
$GPRMC,103632.000,A,3353.7499,N,09832.0251,W,0.06,247.84,300312,,,D*77
$GPGGA,103633.000,3353.7499,N,09832.0251,W,2,06,1.8,307.9,M,-23.7,M,0.8,0000*45
$GPGSA,A,3,12,25,10,05,02,04,,,,,,,3.1,1.8,2.5*38
$GPRMC,103633.000,A,3353.7499,N,09832.0251,W,0.07,256.54,300312,,,D*7A
$GPGGA,103634.000,3353.7499,N,09832.0250,W,2,06,1.8,307.9,M,-23.7,M,0.8,0000*43
$GPGSA,A,3,12,25,10,05,02,04,,,,,,,3.1,1.8,2.5*38
$GPRMC,103634.000,A,3353.7499,N,09832.0250,W,0.06,246.67,300312,,,D*7C
$GPGGA,103635.000,3353.7499,N,09832.0250,W,2,05,2.7,308.0,M,-23.7,M,0.8,0000*4B
$GPGSA,A,3,25,10,05,02,04,,,,,,,,4.0,2.7,2.9*3D
$GPRMC,103635.000,A,3353.7499,N,09832.0250,W,0.10,187.01,300312,,,D*74
$GPGGA,103636.000,3353.7500,N,09832.0249,W,2,06,1.8,308.2,M,-23.7,M,1.8,0000*4D
$GPGSA,A,3,12,25,10,05,02,04,,,,,,,3.1,1.8,2.5*38
$GPRMC,103636.000,A,3353.7500,N,09832.0249,W,0.15,347.60,300312,,,D*72
$GPGGA,103637.000,3353.7507,N,09832.0249,W,2,06,1.8,309.2,M,-23.7,M,2.8,0000*49
$GPGSA,A,3,12,25,10,05,02,04,,,,,,,3.1,1.8,2.5*38
$GPGSV,3,1,10,05,76,128,33,12,50,211,32,02,49,043,38,25,47,281,31*7E
$GPGSV,3,2,10,29,29,313,17,10,29,045,37,04,16,064,30,26,08,147,16*7A
$GPGSV,3,3,10,13,02,039,17,51,49,195,38*7B
$GPRMC,103637.000,A,3353.7507,N,09832.0249,W,0.13,346.80,300312,,,D*7D
$GPGGA,103638.000,3353.7511,N,09832.0249,W,2,06,1.8,310.0,M,-23.7,M,3.8,0000*4A
$GPGSA,A,3,12,25,10,05,02,04,,,,,,,3.1,1.8,2.5*38
$GPRMC,103638.000,A,3353.7511,N,09832.0249,W,0.07,347.07,300312,,,D*7E
$GPGGA,103639.000,3353.7513,N,09832.0249,W,2,06,1.8,310.5,M,-23.7,M,0.8,0000*4F
$GPGSA,A,3,12,25,10,05,02,04,,,,,,,3.1,1.8,2.5*38
$GPRMC,103639.000,A,3353.7513,N,09832.0249,W,0.10,332.68,300312,,,D*70
$GPGGA,103640.000,3353.7515,N,09832.0249,W,2,06,1.8,311.0,M,-23.7,M,0.8,0000*43
$GPGSA,A,3,12,25,10,05,02,04,,,,,,,3.1,1.8,2.5*38
$GPRMC,103640.000,A,3353.7515,N,09832.0249,W,0.07,342.14,300312,,,D*72
$GPGGA,103641.000,3353.7520,N,09832.0250,W,2,06,1.8,311.7,M,-23.7,M,0.8,0000*4B
$GPGSA,A,3,12,25,10,05,02,04,,,,,,,3.1,1.8,2.5*38
$GPRMC,103641.000,A,3353.7520,N,09832.0250,W,0.20,347.53,300312,,,D*7E
$GPGGA,103642.000,3353.7525,N,09832.0250,W,2,06,1.8,312.7,M,-23.7,M,0.8,0000*4E
$GPGSA,A,3,12,25,10,05,02,04,,,,,,,3.1,1.8,2.5*38
$GPGSV,3,1,10,05,76,128,33,12,50,211,32,02,49,043,38,25,47,281,31*7E
$GPGSV,3,2,10,29,29,313,15,10,29,045,37,04,16,064,31,26,08,147,16*79
$GPGSV,3,3,10,13,02,039,16,51,49,195,39*7B
$GPRMC,103642.000,A,3353.7525,N,09832.0250,W,0.23,348.89,300312,,,D*73
$GPGGA,103643.000,3353.7527,N,09832.0250,W,2,06,1.8,313.1,M,-23.7,M,1.8,0000*4B
$GPGSA,A,3,12,25,10,05,02,04,,,,,,,3.1,1.8,2.5*38
$GPRMC,103643.000,A,3353.7527,N,09832.0250,W,0.16,349.84,300312,,,D*7A
$GPGGA,103644.000,3353.7530,N,09832.0250,W,2,06,1.8,313.6,M,-23.7,M,0.8,0000*4C
$GPGSA,A,3,12,25,10,05,02,04,,,,,,,3.1,1.8,2.5*38
$GPRMC,103644.000,A,3353.7530,N,09832.0250,W,0.15,354.20,300312,,,D*7A
$GPGGA,103645.000,3353.7530,N,09832.0250,W,2,06,1.8,313.8,M,-23.7,M,0.8,0000*43
$GPGSA,A,3,12,25,10,05,02,04,,,,,,,3.1,1.8,2.5*38
$GPRMC,103645.000,A,3353.7530,N,09832.0250,W,0.07,44.94,300312,,,D*45
$GPGGA,103646.000,3353.7529,N,09832.0249,W,2,06,1.8,313.7,M,-23.7,M,0.8,0000*4F
$GPGSA,A,3,12,25,10,05,02,04,,,,,,,3.1,1.8,2.5*38
$GPRMC,103646.000,A,3353.7529,N,09832.0249,W,0.06,57.39,300312,,,D*42
$GPGGA,103647.000,3353.7528,N,09832.0249,W,2,06,1.8,313.6,M,-23.7,M,0.8,0000*4E
$GPGSA,A,3,12,25,10,05,02,04,,,,,,,3.1,1.8,2.5*38
$GPGSV,3,1,10,05,76,128,34,12,50,211,32,02,49,043,38,25,47,281,31*79
$GPGSV,3,2,10,29,29,313,14,10,29,045,36,04,16,064,31,26,08,147,18*77
$GPGSV,3,3,10,13,02,039,14,51,49,195,39*79
$GPRMC,103647.000,A,3353.7528,N,09832.0249,W,0.09,123.76,300312,,,D*74
$GPGGA,103648.000,3353.7527,N,09832.0248,W,2,06,1.8,313.6,M,-23.7,M,1.8,0000*4E
$GPGSA,A,3,12,25,10,05,02,04,,,,,,,3.1,1.8,2.5*38
$GPRMC,103648.000,A,3353.7527,N,09832.0248,W,0.11,153.41,300312,,,D*7F
$GPGGA,103649.000,3353.7526,N,09832.0247,W,2,06,1.8,313.5,M,-23.7,M,2.8,0000*41
$GPGSA,A,3,12,25,10,05,02,04,,,,,,,3.1,1.8,2.5*38
$GPRMC,103649.000,A,3353.7526,N,09832.0247,W,0.10,138.40,300312,,,D*7D
$GPGGA,103650.000,3353.7525,N,09832.0247,W,2,06,1.8,313.4,M,-23.7,M,3.8,0000*4A
$GPGSA,A,3,12,25,10,05,02,04,,,,,,,3.1,1.8,2.5*38
$GPRMC,103650.000,A,3353.7525,N,09832.0247,W,0.10,149.29,300312,,,D*7F
$GPGGA,103651.000,3353.7524,N,09832.0246,W,2,06,1.8,313.3,M,-23.7,M,0.8,0000*4F
$GPGSA,A,3,12,25,10,05,02,04,,,,,,,3.1,1.8,2.5*38
$GPRMC,103651.000,A,3353.7524,N,09832.0246,W,0.07,181.10,300312,,,D*76
$GPGGA,103652.000,3353.7523,N,09832.0246,W,2,06,1.8,313.2,M,-23.7,M,0.8,0000*4A
$GPGSA,A,3,12,25,10,05,02,04,,,,,,,3.1,1.8,2.5*38
$GPGSV,3,1,10,05,76,128,34,12,50,211,31,02,49,043,38,25,47,281,31*7A
$GPGSV,3,2,10,29,29,313,14,10,29,045,36,04,16,064,31,26,08,147,19*76
$GPGSV,3,3,10,13,02,039,,51,49,195,38*7D
$GPRMC,103652.000,A,3353.7523,N,09832.0246,W,0.06,202.27,300312,,,D*7F
$GPGGA,103653.000,3353.7523,N,09832.0246,W,2,06,1.8,313.1,M,-23.7,M,0.8,0000*48
$GPGSA,A,3,12,25,10,05,02,04,,,,,,,3.1,1.8,2.5*38
$GPRMC,103653.000,A,3353.7523,N,09832.0246,W,0.05,295.44,300312,,,D*76
$GPGGA,103654.000,3353.7523,N,09832.0246,W,2,06,1.8,313.0,M,-23.7,M,1.8,0000*4F
$GPGSA,A,3,12,25,10,05,02,04,,,,,,,3.1,1.8,2.5*38
$GPRMC,103654.000,A,3353.7523,N,09832.0246,W,0.11,301.22,300312,,,D*78
$GPGGA,103655.000,3353.7522,N,09832.0246,W,2,06,1.8,312.9,M,-23.7,M,2.8,0000*44
$GPGSA,A,3,12,25,10,05,02,04,,,,,,,3.1,1.8,2.5*38
$GPRMC,103655.000,A,3353.7522,N,09832.0246,W,0.08,304.95,300312,,,D*79
$GPGGA,103656.000,3353.7522,N,09832.0246,W,2,06,1.8,312.7,M,-23.7,M,3.8,0000*48
$GPGSA,A,3,12,25,10,05,02,04,,,,,,,3.1,1.8,2.5*38
$GPRMC,103656.000,A,3353.7522,N,09832.0246,W,0.09,281.10,300312,,,D*7A
$GPGGA,103657.000,3353.7520,N,09832.0246,W,2,06,1.8,312.5,M,-23.7,M,0.8,0000*4A
$GPGSA,A,3,12,25,10,05,02,04,,,,,,,3.1,1.8,2.5*38
$GPGSV,3,1,10,05,76,128,34,12,50,211,30,02,49,043,38,25,47,281,30*7A
$GPGSV,3,2,10,29,29,313,15,10,29,045,36,04,16,064,31,26,08,147,20*7D
$GPGSV,3,3,10,13,02,039,,51,49,195,38*7D
$GPRMC,103657.000,A,3353.7520,N,09832.0246,W,0.05,182.59,300312,,,D*78
$GPGGA,103658.000,3353.7519,N,09832.0245,W,2,06,1.8,312.3,M,-23.7,M,0.8,0000*4A
$GPGSA,A,3,12,25,10,05,02,04,,,,,,,3.1,1.8,2.5*38
$GPRMC,103658.000,A,3353.7519,N,09832.0245,W,0.04,166.46,300312,,,D*7B
$GPGGA,103659.000,3353.7518,N,09832.0245,W,2,06,1.8,312.1,M,-23.7,M,0.8,0000*48
$GPGSA,A,3,12,25,10,05,02,04,,,,,,,3.1,1.8,2.5*38
$GPRMC,103659.000,A,3353.7518,N,09832.0245,W,0.11,161.30,300312,,,D*79
$GPGGA,103700.000,3353.7516,N,09832.0244,W,2,06,1.8,311.9,M,-23.7,M,1.8,0000*40
$GPGSA,A,3,12,25,10,05,02,04,,,,,,,3.1,1.8,2.5*38
$GPRMC,103700.000,A,3353.7516,N,09832.0244,W,0.14,165.79,300312,,,D*77
$GPGGA,103701.000,3353.7515,N,09832.0244,W,2,06,1.8,311.7,M,-23.7,M,2.8,0000*4F
$GPGSA,A,3,12,25,10,05,02,04,,,,,,,3.1,1.8,2.5*38
$GPRMC,103701.000,A,3353.7515,N,09832.0244,W,0.14,170.66,300312,,,D*7F
$GPGGA,103702.000,3353.7514,N,09832.0243,W,2,06,1.8,311.5,M,-23.7,M,0.8,0000*4A
$GPGSA,A,3,12,25,10,05,02,04,,,,,,,3.1,1.8,2.5*38
$GPGSV,3,1,10,05,76,128,34,12,50,211,29,02,49,043,38,25,47,281,30*72
$GPGSV,3,2,10,29,29,313,17,10,29,045,36,04,16,064,32,26,08,147,21*7D
$GPGSV,3,3,10,13,02,039,,51,49,195,39*7C
$GPRMC,103702.000,A,3353.7514,N,09832.0243,W,0.14,156.67,300312,,,D*7F
$GPGGA,103703.000,3353.7512,N,09832.0243,W,2,06,1.8,311.3,M,-23.7,M,0.8,0000*4B
$GPGSA,A,3,12,25,10,05,02,04,,,,,,,3.1,1.8,2.5*38
$GPRMC,103703.000,A,3353.7512,N,09832.0243,W,0.12,188.25,300312,,,D*7B
$GPGGA,103704.000,3353.7511,N,09832.0243,W,2,06,1.8,311.1,M,-23.7,M,0.8,0000*4D
$GPGSA,A,3,12,25,10,05,02,04,,,,,,,3.1,1.8,2.5*38
$GPRMC,103704.000,A,3353.7511,N,09832.0243,W,0.08,212.56,300312,,,D*70
$GPGGA,103705.000,3353.7511,N,09832.0244,W,2,06,1.8,310.8,M,-23.7,M,0.8,0000*43
$GPGSA,A,3,12,25,10,05,02,04,,,,,,,3.1,1.8,2.5*38
$GPRMC,103705.000,A,3353.7511,N,09832.0244,W,0.11,267.44,300312,,,D*7F
$GPGGA,103706.000,3353.7510,N,09832.0244,W,2,06,1.8,310.6,M,-23.7,M,1.8,0000*4E
$GPGSA,A,3,12,25,10,05,02,04,,,,,,,3.1,1.8,2.5*38
$GPRMC,103706.000,A,3353.7510,N,09832.0244,W,0.09,253.64,300312,,,D*71
$GPGGA,103707.000,3353.7509,N,09832.0244,W,2,06,1.8,310.3,M,-23.7,M,0.8,0000*43
$GPGSA,A,3,12,25,10,05,02,04,,,,,,,3.1,1.8,2.5*38
$GPGSV,3,1,10,05,76,128,35,12,50,211,28,02,49,043,38,25,47,281,29*7A
$GPGSV,3,2,10,29,29,313,19,10,29,045,36,04,16,064,32,26,08,147,21*73
$GPGSV,3,3,10,13,02,039,,51,49,195,39*7C
$GPRMC,103707.000,A,3353.7509,N,09832.0244,W,0.11,264.05,300312,,,D*72
$GPGGA,103708.000,3353.7508,N,09832.0244,W,2,06,1.8,310.0,M,-23.7,M,0.8,0000*4E
$GPGSA,A,3,12,25,10,05,02,04,,,,,,,3.1,1.8,2.5*38
$GPRMC,103708.000,A,3353.7508,N,09832.0244,W,0.09,254.00,300312,,,D*73
$GPGGA,103709.000,3353.7507,N,09832.0244,W,2,06,1.8,309.8,M,-23.7,M,0.8,0000*40
$GPGSA,A,3,12,25,10,05,02,04,,,,,,,3.1,1.8,2.5*38
$GPRMC,103709.000,A,3353.7507,N,09832.0244,W,0.09,222.60,300312,,,D*7A
$GPGGA,103710.000,3353.7506,N,09832.0244,W,2,06,1.8,309.6,M,-23.7,M,0.8,0000*47
$GPGSA,A,3,12,25,10,05,02,04,,,,,,,3.1,1.8,2.5*38
$GPRMC,103710.000,A,3353.7506,N,09832.0244,W,0.08,198.20,300312,,,D*74
$GPGGA,103711.000,3353.7505,N,09832.0244,W,2,06,1.8,309.4,M,-23.7,M,0.8,0000*47
$GPGSA,A,3,12,25,10,05,02,04,,,,,,,3.1,1.8,2.5*38
$GPRMC,103711.000,A,3353.7505,N,09832.0244,W,0.12,178.71,300312,,,D*77
$GPGGA,103712.000,3353.7504,N,09832.0244,W,2,06,1.8,309.3,M,-23.7,M,1.8,0000*43
$GPGSA,A,3,12,25,10,05,02,04,,,,,,,3.1,1.8,2.5*38
$GPGSV,3,1,10,05,76,128,35,12,50,211,28,02,49,043,37,25,47,281,29*75
$GPGSV,3,2,10,29,29,313,21,10,29,045,35,04,16,064,32,26,08,147,21*7B
$GPGSV,3,3,10,13,02,039,,51,49,195,39*7C
$GPRMC,103712.000,A,3353.7504,N,09832.0244,W,0.10,174.98,300312,,,D*7C
$GPGGA,103713.000,3353.7504,N,09832.0243,W,2,06,1.8,309.2,M,-23.7,M,2.8,0000*47
$GPGSA,A,3,12,25,10,05,02,04,,,,,,,3.1,1.8,2.5*38
$GPRMC,103713.000,A,3353.7504,N,09832.0243,W,0.13,168.28,300312,,,D*7F
$GPGGA,103714.000,3353.7503,N,09832.0243,W,2,06,1.8,309.1,M,-23.7,M,0.8,0000*46
$GPGSA,A,3,12,25,10,05,02,04,,,,,,,3.1,1.8,2.5*38
$GPRMC,103714.000,A,3353.7503,N,09832.0243,W,0.14,166.74,300312,,,D*7F
$GPGGA,103715.000,3353.7502,N,09832.0243,W,2,06,1.8,309.0,M,-23.7,M,0.8,0000*47
$GPGSA,A,3,12,25,10,05,02,04,,,,,,,3.1,1.8,2.5*38
$GPRMC,103715.000,A,3353.7502,N,09832.0243,W,0.09,204.17,300312,,,D*71
$GPGGA,103716.000,3353.7502,N,09832.0243,W,2,06,1.8,309.0,M,-23.7,M,0.8,0000*44
$GPGSA,A,3,12,25,10,05,02,04,,,,,,,3.1,1.8,2.5*38
$GPRMC,103716.000,A,3353.7502,N,09832.0243,W,0.08,185.61,300312,,,D*78
$GPGGA,103717.000,3353.7502,N,09832.0243,W,2,06,1.8,308.9,M,-23.7,M,0.8,0000*4D
$GPGSA,A,3,12,25,10,05,02,04,,,,,,,3.1,1.8,2.5*38
$GPGSV,3,1,10,05,76,128,36,12,50,211,29,02,49,043,37,25,47,281,30*7F
$GPGSV,3,2,10,29,29,313,22,10,29,045,35,04,16,064,32,26,08,147,20*79
$GPGSV,3,3,10,13,02,039,,51,49,195,38*7D
$GPRMC,103717.000,A,3353.7502,N,09832.0243,W,0.10,304.23,300312,,,D*7D
$GPGGA,103718.000,3353.7502,N,09832.0243,W,2,06,1.8,308.8,M,-23.7,M,1.8,0000*42
$GPGSA,A,3,12,25,10,05,02,04,,,,,,,3.1,1.8,2.5*38
$GPRMC,103718.000,A,3353.7502,N,09832.0243,W,0.11,291.13,300312,,,D*7D
$GPGGA,103719.000,3353.7502,N,09832.0244,W,2,06,1.8,308.7,M,-23.7,M,2.8,0000*48
$GPGSA,A,3,12,25,10,05,02,04,,,,,,,3.1,1.8,2.5*38
$GPRMC,103719.000,A,3353.7502,N,09832.0244,W,0.15,307.67,300312,,,D*72
$GPGGA,103720.000,3353.7502,N,09832.0244,W,2,06,1.8,308.6,M,-23.7,M,3.8,0000*42
$GPGSA,A,3,12,25,10,05,02,04,,,,,,,3.1,1.8,2.5*38
$GPRMC,103720.000,A,3353.7502,N,09832.0244,W,0.14,300.71,300312,,,D*79
$GPGGA,103721.000,3353.7502,N,09832.0244,W,2,06,1.8,308.6,M,-23.7,M,0.8,0000*40
$GPGSA,A,3,12,25,10,05,02,04,,,,,,,3.1,1.8,2.5*38
$GPRMC,103721.000,A,3353.7502,N,09832.0244,W,0.05,306.55,300312,,,D*78
$GPGGA,103722.000,3353.7502,N,09832.0244,W,2,06,1.8,308.5,M,-23.7,M,0.8,0000*40
$GPGSA,A,3,12,25,10,05,02,04,,,,,,,3.1,1.8,2.5*38
$GPGSV,3,1,10,05,76,128,36,12,50,211,29,02,49,043,37,25,47,281,30*7F
$GPGSV,3,2,10,29,29,313,23,10,29,045,35,04,16,064,32,26,08,147,20*78
$GPGSV,3,3,10,13,02,039,,51,49,195,39*7C
$GPRMC,103722.000,A,3353.7502,N,09832.0244,W,0.03,321.30,300312,,,D*7B
$GPGGA,103723.000,3353.7502,N,09832.0243,W,2,06,1.8,308.5,M,-23.7,M,0.8,0000*46
$GPGSA,A,3,12,25,10,05,02,04,,,,,,,3.1,1.8,2.5*38
$GPRMC,103723.000,A,3353.7502,N,09832.0243,W,0.10,170.76,300312,,,D*7B
$GPGGA,103724.000,3353.7501,N,09832.0243,W,2,06,1.8,308.5,M,-23.7,M,1.8,0000*43
$GPGSA,A,3,12,25,10,05,02,04,,,,,,,3.1,1.8,2.5*38
$GPRMC,103724.000,A,3353.7501,N,09832.0243,W,0.14,166.41,300312,,,D*78
$GPGGA,103725.000,3353.7500,N,09832.0242,W,2,06,1.8,308.5,M,-23.7,M,2.8,0000*41
$GPGSA,A,3,12,25,10,05,02,04,,,,,,,3.1,1.8,2.5*38
$GPRMC,103725.000,A,3353.7500,N,09832.0242,W,0.16,154.98,300312,,,D*7E
$GPGGA,103726.000,3353.7500,N,09832.0242,W,2,06,1.8,308.5,M,-23.7,M,3.8,0000*43
$GPGSA,A,3,12,25,10,05,02,04,,,,,,,3.1,1.8,2.5*38
$GPRMC,103726.000,A,3353.7500,N,09832.0242,W,0.14,160.93,300312,,,D*73
$GPGGA,103727.000,3353.7500,N,09832.0241,W,2,06,1.8,308.5,M,-23.7,M,0.8,0000*42
$GPGSA,A,3,12,25,10,05,02,04,,,,,,,3.1,1.8,2.5*38
$GPGSV,3,1,10,05,76,128,37,12,50,211,30,02,49,043,37,25,47,281,31*77
$GPGSV,3,2,10,29,29,313,24,10,29,045,35,04,16,064,32,26,08,147,20*7F
$GPGSV,3,3,10,13,02,039,20,51,49,195,38*7F
$GPRMC,103727.000,A,3353.7500,N,09832.0241,W,0.09,195.31,300312,,,D*7F
$GPGGA,103728.000,3353.7500,N,09832.0241,W,2,06,1.8,308.5,M,-23.7,M,0.8,0000*4D
$GPGSA,A,3,12,25,10,05,02,04,,,,,,,3.1,1.8,2.5*38
$GPRMC,103728.000,A,3353.7500,N,09832.0241,W,0.09,177.62,300312,,,D*7A
$GPGGA,103729.000,3353.7500,N,09832.0241,W,2,06,1.8,308.5,M,-23.7,M,0.8,0000*4C
$GPGSA,A,3,12,25,10,05,02,04,,,,,,,3.1,1.8,2.5*38
$GPRMC,103729.000,A,3353.7500,N,09832.0241,W,0.07,309.24,300312,,,D*7C
$GPGGA,103730.000,3353.7500,N,09832.0241,W,2,06,1.8,308.5,M,-23.7,M,0.8,0000*44
$GPGSA,A,3,12,25,10,05,02,04,,,,,,,3.1,1.8,2.5*38
$GPRMC,103730.000,A,3353.7500,N,09832.0241,W,0.09,306.67,300312,,,D*72
$GPGGA,103731.000,3353.7501,N,09832.0241,W,2,06,1.8,308.5,M,-23.7,M,1.8,0000*45
$GPGSA,A,3,12,25,10,05,02,04,,,,,,,3.1,1.8,2.5*38
$GPRMC,103731.000,A,3353.7501,N,09832.0241,W,0.06,322.28,300312,,,D*70
$GPGGA,103732.000,3353.7501,N,09832.0241,W,2,06,1.8,308.5,M,-23.7,M,0.8,0000*47
$GPGSA,A,3,12,25,10,05,02,04,,,,,,,3.1,1.8,2.5*38
$GPGSV,3,1,10,05,76,128,37,12,50,211,31,02,49,043,36,25,47,281,31*77
$GPGSV,3,2,10,29,29,313,24,10,29,045,35,04,16,064,32,26,08,147,20*7F
$GPGSV,3,3,10,13,02,039,20,51,49,195,38*7F
$GPRMC,103732.000,A,3353.7501,N,09832.0241,W,0.07,315.66,300312,,,D*7C
$GPGGA,103733.000,3353.7502,N,09832.0241,W,2,06,1.8,308.5,M,-23.7,M,0.8,0000*45
$GPGSA,A,3,12,25,10,05,02,04,,,,,,,3.1,1.8,2.5*38
$GPRMC,103733.000,A,3353.7502,N,09832.0241,W,0.02,355.12,300312,,,D*7C
$GPGGA,103734.000,3353.7502,N,09832.0240,W,2,06,1.8,308.5,M,-23.7,M,0.8,0000*43
$GPGSA,A,3,12,25,10,05,02,04,,,,,,,3.1,1.8,2.5*38
$GPRMC,103734.000,A,3353.7502,N,09832.0240,W,0.05,126.35,300312,,,D*7E
$GPGGA,103735.000,3353.7502,N,09832.0239,W,2,06,1.8,308.6,M,-23.7,M,0.8,0000*4F
$GPGSA,A,3,12,25,10,05,02,04,,,,,,,3.1,1.8,2.5*38
$GPRMC,103735.000,A,3353.7502,N,09832.0239,W,0.07,175.29,300312,,,D*78
$GPGGA,103736.000,3353.7502,N,09832.0239,W,2,06,1.8,308.7,M,-23.7,M,1.8,0000*4C
$GPGSA,A,3,12,25,10,05,02,04,,,,,,,3.1,1.8,2.5*38
$GPRMC,103736.000,A,3353.7502,N,09832.0239,W,0.06,173.05,300312,,,D*72
$GPGGA,103737.000,3353.7502,N,09832.0238,W,2,06,1.8,308.9,M,-23.7,M,2.8,0000*41
$GPGSA,A,3,12,25,10,05,02,04,,,,,,,3.1,1.8,2.5*38
$GPGSV,3,1,10,05,76,128,37,12,50,211,31,02,49,043,36,25,47,281,31*77
$GPGSV,3,2,10,29,29,313,24,10,29,045,35,04,16,064,32,26,08,147,21*7E
$GPGSV,3,3,10,13,02,039,19,51,49,195,38*75
$GPRMC,103737.000,A,3353.7502,N,09832.0238,W,0.07,163.07,300312,,,D*70
$GPGGA,103738.000,3353.7502,N,09832.0238,W,2,06,1.8,309.0,M,-23.7,M,3.8,0000*47
$GPGSA,A,3,12,25,10,05,02,04,,,,,,,3.1,1.8,2.5*38
$GPRMC,103738.000,A,3353.7502,N,09832.0238,W,0.06,152.48,300312,,,D*77
$GPGGA,103739.000,3353.7502,N,09832.0238,W,2,06,1.8,309.2,M,-23.7,M,0.8,0000*47
$GPGSA,A,3,12,25,10,05,02,04,,,,,,,3.1,1.8,2.5*38
$GPRMC,103739.000,A,3353.7502,N,09832.0238,W,0.03,233.81,300312,,,D*72
$GPGGA,103740.000,3353.7503,N,09832.0238,W,2,06,1.8,309.3,M,-23.7,M,0.8,0000*49
$GPGSA,A,3,12,25,10,05,02,04,,,,,,,3.1,1.8,2.5*38
$GPRMC,103740.000,A,3353.7503,N,09832.0238,W,0.06,297.92,300312,,,D*74
$GPGGA,103741.000,3353.7503,N,09832.0237,W,2,06,1.8,309.4,M,-23.7,M,0.8,0000*40
$GPGSA,A,3,12,25,10,05,02,04,,,,,,,3.1,1.8,2.5*38
$GPRMC,103741.000,A,3353.7503,N,09832.0237,W,0.08,329.12,300312,,,D*78
$GPGGA,103742.000,3353.7504,N,09832.0237,W,2,06,1.8,309.4,M,-23.7,M,1.8,0000*45
$GPGSA,A,3,12,25,10,05,02,04,,,,,,,3.1,1.8,2.5*38
$GPGSV,3,1,10,05,76,128,37,12,50,211,31,02,49,043,36,25,47,281,31*77
$GPGSV,3,2,10,29,29,313,23,10,29,045,35,04,16,064,32,26,08,147,21*79
$GPGSV,3,3,10,13,02,039,18,51,49,195,38*74
$GPRMC,103742.000,A,3353.7504,N,09832.0237,W,0.08,328.00,300312,,,D*7E
$GPGGA,103743.000,3353.7504,N,09832.0237,W,2,06,1.8,309.5,M,-23.7,M,2.8,0000*46
$GPGSA,A,3,12,25,10,05,02,04,,,,,,,3.1,1.8,2.5*38
$GPRMC,103743.000,A,3353.7504,N,09832.0237,W,0.10,327.36,300312,,,D*7C
$GPGGA,103744.000,3353.7505,N,09832.0237,W,2,06,1.8,309.5,M,-23.7,M,3.8,0000*41
$GPGSA,A,3,12,25,10,05,02,04,,,,,,,3.1,1.8,2.5*38
$GPRMC,103744.000,A,3353.7505,N,09832.0237,W,0.12,320.68,300312,,,D*74
$GPGGA,103745.000,3353.7505,N,09832.0237,W,2,06,1.8,309.8,M,-23.7,M,0.8,0000*4E
$GPGSA,A,3,12,25,10,05,02,04,,,,,,,3.1,1.8,2.5*38
$GPRMC,103745.000,A,3353.7505,N,09832.0237,W,0.04,353.45,300312,,,D*79
$GPGGA,103746.000,3353.7506,N,09832.0237,W,2,06,1.8,310.1,M,-23.7,M,0.8,0000*4F
$GPGSA,A,3,12,25,10,05,02,04,,,,,,,3.1,1.8,2.5*38
$GPRMC,103746.000,A,3353.7506,N,09832.0237,W,0.05,9.15,300312,,,D*71
$GPGGA,103747.000,3353.7506,N,09832.0237,W,2,06,1.8,310.5,M,-23.7,M,0.8,0000*4A
$GPGSA,A,3,12,25,10,05,02,04,,,,,,,3.1,1.8,2.5*38
$GPGSV,3,1,11,05,76,125,37,12,50,211,31,02,48,044,35,25,47,280,31*7F
$GPGSV,3,2,11,29,29,313,23,10,28,045,36,04,16,064,33,26,08,147,21*7B
$GPGSV,3,3,11,13,02,039,17,21,00,259,,51,49,195,38*47
$GPRMC,103747.000,A,3353.7506,N,09832.0237,W,0.02,170.36,300312,,,D*79
$GPGGA,103748.000,3353.7507,N,09832.0237,W,2,06,1.8,310.9,M,-23.7,M,0.8,0000*48
$GPGSA,A,3,12,25,10,05,02,04,,,,,,,3.1,1.8,2.5*38
$GPRMC,103748.000,A,3353.7507,N,09832.0237,W,0.03,121.65,300312,,,D*74
$GPGGA,103749.000,3353.7507,N,09832.0237,W,2,06,1.8,311.2,M,-23.7,M,0.8,0000*43
$GPGSA,A,3,12,25,10,05,02,04,,,,,,,3.1,1.8,2.5*38
$GPRMC,103749.000,A,3353.7507,N,09832.0237,W,0.04,108.60,300312,,,D*7C
$GPGGA,103750.000,3353.7508,N,09832.0237,W,2,06,1.8,311.6,M,-23.7,M,0.8,0000*40
$GPGSA,A,3,12,25,10,05,02,04,,,,,,,3.1,1.8,2.5*38
$GPRMC,103750.000,A,3353.7508,N,09832.0237,W,0.02,62.48,300312,,,D*4A
$GPGGA,103751.000,3353.7508,N,09832.0237,W,2,06,1.8,311.9,M,-23.7,M,0.8,0000*4E
$GPGSA,A,3,12,25,10,05,02,04,,,,,,,3.1,1.8,2.5*38
$GPRMC,103751.000,A,3353.7508,N,09832.0237,W,0.05,322.01,300312,,,D*76
$GPGGA,103752.000,3353.7509,N,09832.0237,W,2,06,1.8,312.2,M,-23.7,M,0.8,0000*44
$GPGSA,A,3,12,25,10,05,02,04,,,,,,,3.1,1.8,2.5*38
$GPGSV,3,1,11,05,76,125,37,12,50,211,32,02,48,044,35,25,47,280,30*7D
$GPGSV,3,2,11,29,29,313,22,10,28,045,35,04,16,064,33,26,08,147,20*78
$GPGSV,3,3,11,13,02,039,11,21,00,259,,51,49,195,38*41
$GPRMC,103752.000,A,3353.7509,N,09832.0237,W,0.09,329.36,300312,,,D*77
$GPGGA,103753.000,3353.7509,N,09832.0237,W,2,06,1.8,312.4,M,-23.7,M,0.8,0000*43
$GPGSA,A,3,12,25,10,05,02,04,,,,,,,3.1,1.8,2.5*38
$GPRMC,103753.000,A,3353.7509,N,09832.0237,W,0.10,341.18,300312,,,D*7C
$GPGGA,103754.000,3353.7510,N,09832.0237,W,2,06,1.8,312.5,M,-23.7,M,0.8,0000*4D
$GPGSA,A,3,12,25,10,05,02,04,,,,,,,3.1,1.8,2.5*38
$GPRMC,103754.000,A,3353.7510,N,09832.0237,W,0.13,346.31,300312,,,D*7C
$GPGGA,103755.000,3353.7510,N,09832.0237,W,2,06,1.8,312.6,M,-23.7,M,1.8,0000*4E
$GPGSA,A,3,12,25,10,05,02,04,,,,,,,3.1,1.8,2.5*38
$GPRMC,103755.000,A,3353.7510,N,09832.0237,W,0.14,345.18,300312,,,D*72
$GPGGA,103756.000,3353.7511,N,09832.0237,W,2,06,1.8,312.8,M,-23.7,M,2.8,0000*41
$GPGSA,A,3,12,25,10,05,02,04,,,,,,,3.1,1.8,2.5*38
$GPRMC,103756.000,A,3353.7511,N,09832.0237,W,0.12,338.15,300312,,,D*71
$GPGGA,103757.000,3353.7511,N,09832.0237,W,2,06,1.8,312.9,M,-23.7,M,0.8,0000*43
$GPGSA,A,3,12,25,10,05,02,04,,,,,,,3.1,1.8,2.5*38
$GPGSV,3,1,11,05,76,125,37,12,50,211,32,02,48,044,34,25,47,280,29*74
$GPGSV,3,2,11,29,29,313,21,10,28,045,35,04,16,064,33,26,08,147,18*70
$GPGSV,3,3,11,13,02,039,,21,00,259,,51,49,195,38*41
$GPRMC,103757.000,A,3353.7511,N,09832.0237,W,0.08,14.07,300312,,,D*45
$GPGGA,103758.000,3353.7512,N,09832.0237,W,2,06,1.8,313.0,M,-23.7,M,0.8,0000*47
$GPGSA,A,3,12,25,10,05,02,04,,,,,,,3.1,1.8,2.5*38
$GPRMC,103758.000,A,3353.7512,N,09832.0237,W,0.05,21.27,300312,,,D*40
$GPGGA,103759.000,3353.7512,N,09832.0237,W,2,06,1.8,313.2,M,-23.7,M,0.8,0000*44
$GPGSA,A,3,12,25,10,05,02,04,,,,,,,3.1,1.8,2.5*38
$GPRMC,103759.000,A,3353.7512,N,09832.0237,W,0.01,122.66,300312,,,D*72
$GPGGA,103800.000,3353.7512,N,09832.0237,W,2,06,1.8,313.4,M,-23.7,M,1.8,0000*40
